~Version Information
 VERS.                  2.0:   CWLS log ASCII Standard -VERSION 2.0
 WRAP.                   NO:   One line per depth step
~Well Information Block
#MNEM.UNIT       Data Type    Information
#---------     -----------    ---------------------------
 STRT.M              2290.2730:
 STOP.M              2690.1707:
 STEP.M                 0.1524:
 NULL.               -999.2500:
 UWI .                 1007A-V:  UWI
 API .                 1007A-V:  UWI
 WELL.                 1007A-V:  COMMON WELL NAME
 COMP.       PEMEX EXPL & PROD:  WELL OPERATOR
 FLD .               CANTARELL:  FIELD
 LIC .                 UNKNOWN:  AUTHORIZATION NO
 LOC .                 UNKNOWN:  BASIN
 CTRY.                  MEXICO:  COUNTRY
 STAT.                CAMPECHE:  STATE
 CNTY.          CD. DEL CARMEN:  COUNTY
 PROV.                CAMPECHE:  STATE
 SRVC.                 UNKNOWN:  COMPANY
 DATE.                 UNKNOWN:  LOG RUN DATE
 LONG.                -92.0613:  LONGITUDE
 LATI.                 19.4613:  LATITUDE
 XCOORD.           598531.4375:  X COORDINATE
 YCOORD.          2152011.5000:  Y COORDINATE
 ELEV.M                27.9700:  ELEVATION
 TD  .M              2685.0000:  TOTAL DEPTH
~Parameter Information Block
#MNEM.UNIT       Value        Description
#---------     -----------    ---------------------------
~Curve Information Block
#MNEM.UNIT                 API CODE     Curve Description
#---------               -----------    ---------------------------
 DEPTH.M                00 000 000 000:  Index Curve
 CALI.INCH              00 000 000 000:  Caliper
 DRHO.G/CM3              00 000 000 000:  Density correction
 DT  .US/F              00 000 000 000:  Acoustic wave travel time
 GR  .GAPI              00 000 000 000:  Gamma ray; total
 ILD .OHMM              00 000 000 000:  Resistivity; induction deep
 LLD .OHMM              00 000 000 000:  Resistivity; deep laterolog
 LLS .OHMM              00 000 000 000:  Resistivity; shallow laterolog
 MSFL.OHMM              00 000 000 000:  Resistivity; microspherically focused log
 NPHI.V/V               00 000 000 000:  Neutron porosity
 PEF .B/E               00 000 000 000:  Photoelectric absorption index from density log; Pe
 RHOB.G/CM3              00 000 000 000:  Bulk density
 SP  .MV                00 000 000 000:  Spontaneous potential
~A DEPTH        CALI    DRHO    DT    GR    ILD    LLD    LLS    MSFL    NPHI    PEF    RHOB    SP
# ...
 2418.2890     0.0000    -0.2500    40.0000    32.7534     2.1855     0.2000     0.2000     0.2000    -0.0015     0.0000     1.9500     0.0000 
 2418.4414     0.0000    -0.2500    40.0000    31.8593     2.1865     0.2000     0.2000     0.2000    -0.0015     0.0000     1.9500     0.0000 
 2418.5938     0.0000    -0.2500    40.0000    29.7283     2.1873     0.2000     0.2000     0.2000    -0.0015     0.0000     1.9500     0.0000 
 2418.7462     0.0000    -0.2500    40.0000    26.6543     2.1878     0.2000     0.2000     0.2000    -0.0015     0.0000     1.9500     0.0000 
 2418.8986     0.0000    -0.2500    40.0000    23.4584     2.1869     0.2000     0.2000     0.2000    -0.0015     0.0000     1.9500     0.0000 
 2419.0510     0.0000    -0.2500    40.0000    20.2726     2.1849     0.2000     0.2000     0.2000    -0.0015     0.0000     1.9500     0.0000 
 2419.2034     0.0000    -0.2500    40.0000    20.8721     2.1848     0.2000     0.2000     0.2000    -0.0015     0.0000     1.9500     0.0000 
 2419.3558     0.0000    -0.2500    40.0000    24.9059     2.1863     0.2000     0.2000     0.2000    -0.0015     0.0000     1.9500     0.0000 
 2419.5082     0.0000    -0.2500    40.0000    28.2639     2.1870     0.2000     0.2000     0.2000    -0.0015     0.0000     1.9500     0.0000 
 2419.6606     0.0000    -0.2500    40.0000    31.0199     2.1870     0.2000     0.2000     0.2000    -0.0015     0.0000     1.9500     0.0000 
 2419.8130     0.0000    -0.2500    40.0000    33.4625     2.1867     0.2000     0.2000     0.2000    -0.0015     0.0000     1.9500     0.0000 
 2419.9654     0.0000    -0.2500    40.0000    35.5710     2.1862     0.2000     0.2000     0.2000    -0.0015     0.0000     1.9500     0.0000 
 2420.1178     0.0000    -0.2500    40.0000    36.5827     2.1863     0.2000     0.2000     0.2000    -0.0015     0.0000     1.9500     0.0000 
 2420.2702     0.0000    -0.2500    40.0000    36.6016     2.1868     0.2000     0.2000     0.2000    -0.0015     0.0000     1.9500     0.0000 
 2420.4226     0.0000    -0.2500    40.0000    35.0038     2.1873     0.2000     0.2000     0.2000    -0.0015     0.0000     1.9500     0.0000 
 2420.5750     0.0000    -0.2500    40.0000    31.7192     2.1877     0.2000     0.2000     0.2000    -0.0015     0.0000     1.9500     0.0000 
 2420.7274     0.0000    -0.2500    40.0000    29.8716     2.1868     0.2000     0.2000     0.2000    -0.0015     0.0000     1.9500     0.0000 
 2420.8798     0.0000    -0.2500    40.0000    29.1098     2.1850     0.2000     0.2000     0.2000    -0.0015     0.0000     1.9500     0.0000 
 2421.0322     0.0000    -0.2500    40.0000    29.0460     2.1848     0.2000     0.2000     0.2000    -0.0015     0.0000     1.9500     0.0000 
 2421.1846     0.0000    -0.2500    40.0000    29.5653     2.1863     0.2000     0.2000     0.2000    -0.0015     0.0000     1.9500     0.0000 
 2421.3370     0.0000    -0.2500    40.0000    29.0213     2.1870     0.2000     0.2000     0.2000    -0.0015     0.0000     1.9500     0.0000 
 2421.4894     0.0000    -0.2500    40.0000    27.6200     2.1870     0.2000     0.2000     0.2000    -0.0015     0.0000     1.9500     0.0000 
 2421.6418     0.0000    -0.2500    40.0000    27.2228     2.1865     0.2000     0.2000     0.2000    -0.0015     0.0000     1.9500     0.0000 
 2421.7942     0.0000    -0.2500    40.0000    27.7217     2.1856     0.2000     0.2000     0.2000    -0.0015     0.0000     1.9500     0.0000 
 2421.9466     0.0000    -0.2500    40.0000    28.4451     2.1858     0.2000     0.2000     0.2000    -0.0015     0.0000     1.9500     0.0000 
 2422.0990     0.0000    -0.2500    40.0000    29.3927     2.1873     0.2000     0.2000     0.2000    -0.0015     0.0000     1.9500     0.0000 
 2422.2514     0.0000    -0.2500    40.0000    30.1496     2.1875     0.2000     0.2000     0.2000    -0.0015     0.0000     1.9500     0.0000 
 2422.4038     0.0000    -0.2500    40.0000    30.6770     2.1864     0.2000     0.2000     0.2000    -0.0015     0.0000     1.9500     0.0000 
 2422.5562     0.0000    -0.2500    40.0000    30.2237     2.1857     0.2000     0.2000     0.2000    -0.0015     0.0000     1.9500     0.0000 
 2422.7086     0.0000    -0.2500    40.0000    28.7088     2.1852     0.2000     0.2000     0.2000    -0.0015     0.0000     1.9500     0.0000 
 2422.8610     0.0000    -0.2500    40.0000    28.4913     2.1858     0.2000     0.2000     0.2000    -0.0015     0.0000     1.9500     0.0000 
 2423.0134     0.0000    -0.2500    40.0000    29.2604     2.1872     0.2000     0.2000     0.2000    -0.0015     0.0000     1.9500     0.0000 
 2423.1658     0.0000    -0.2500    40.0000    30.2786     2.1872     0.2000     0.2000     0.2000    -0.0015     0.0000     1.9500     0.0000 
 2423.3182     0.0000    -0.2500    40.0000    31.4971     2.1857     0.2000     0.2000     0.2000    -0.0015     0.0000     1.9500     0.0000 
 2423.4706     0.0000    -0.2500    40.0000    31.5022     2.1850     0.2000     0.2000     0.2000    -0.0015     0.0000     1.9500     0.0000 
 2423.6230     0.0000    -0.2500    40.0000    30.5897     2.1850     0.2000     0.2000     0.2000    -0.0015     0.0000     1.9500     0.0000 
 2423.7754     0.0000    -0.2500    40.0000    30.1186     2.1858     0.2000     0.2000     0.2000    -0.0015     0.0000     1.9500     0.0000 
 2423.9278     0.0000    -0.2500    40.0000    30.0589     2.1873     0.2000     0.2000     0.2000    -0.0015     0.0000     1.9500     0.0000 
 2424.0802     0.0000    -0.2500    40.0000    29.4838     2.1872     0.2000     0.2000     0.2000    -0.0015     0.0000     1.9500     0.0000 
 2424.2326     0.0000    -0.2500    40.0000    28.4532     2.1857     0.2000     0.2000     0.2000    -0.0015     0.0000     1.9500     0.0000 
 2424.3850     0.0000    -0.2500    40.0000    28.2689     2.1856     0.2000     0.2000     0.2000    -0.0015     0.0000     1.9500     0.0000 
 2424.5374     0.0000    -0.2500    40.0000    28.7693     2.1865     0.2000     0.2000     0.2000    -0.0015     0.0000     1.9500     0.0000 
 2424.6898     0.0000    -0.2500    40.0000    28.6752     2.1870     0.2000     0.2000     0.2000    -0.0015     0.0000     1.9500     0.0000 
 2424.8422     0.0000    -0.2500    40.0000    27.9531     2.1870     0.2000     0.2000     0.2000    -0.0015     0.0000     1.9500     0.0000 
 2424.9946     0.0000    -0.2500    40.0000    27.7553     2.1864     0.2000     0.2000     0.2000    -0.0015     0.0000     1.9500     0.0000 
 2425.1470     0.0000    -0.2500    40.0000    27.9458     2.1855     0.2000     0.2000     0.2000    -0.0015     0.0000     1.9500     0.0000 
 2425.2994     0.0000    -0.2500    40.0000    27.6786     2.1858     0.2000     0.2000     0.2000    -0.0015     0.0000     1.9500     0.0000 
 2425.4518     0.0000    -0.2500    40.0000    26.9094     2.1873     0.2000     0.2000     0.2000    -0.0015     0.0000     1.9500     0.0000 
 2425.6042     0.0000    -0.2500    40.0000    27.1914     2.1874     0.2000     0.2000     0.2000    -0.0015     0.0000     1.9500     0.0000 
 2425.7566     0.0000    -0.2500    40.0000    28.2261     2.1865     0.2000     0.2000     0.2000    -0.0015     0.0000     1.9500     0.0000 
 2425.9090     0.0000    -0.2500    40.0000    28.7732     2.1857     0.2000     0.2000     0.2000    -0.0015     0.0000     1.9500     0.0000 
 2426.0614     0.0000    -0.2500    40.0000    28.8161     2.1852     0.2000     0.2000     0.2000    -0.0015     0.0000     1.9500     0.0000 
 2426.2138     0.0000    -0.2500    40.0000    28.0268     2.1859     0.2000     0.2000     0.2000    -0.0015     0.0000     1.9500     0.0000 
 2426.3662     0.0000    -0.2500    40.0000    26.5754     2.1873     0.2000     0.2000     0.2000    -0.0015     0.0000     1.9500     0.0000 
 2426.5186     0.0000    -0.2500    40.0000    25.8741     2.1872     0.2000     0.2000     0.2000    -0.0015     0.0000     1.9500     0.0000 
 2426.6710     0.0000    -0.2500    40.0000    25.9093     2.1857     0.2000     0.2000     0.2000    -0.0015     0.0000     1.9500     0.0000 
