~Version Information
 VERS.                  2.0:   CWLS log ASCII Standard -VERSION 2.0
 WRAP.                   NO:   One line per depth step
~Well Information Block
#MNEM.UNIT       Data Type    Information
#---------     -----------    ---------------------------
 STRT.M              2290.2730:
 STOP.M              2690.1707:
 STEP.M                 0.1524:
 NULL.               -999.2500:
 UWI .                 1007A-V:  UWI
 API .                 1007A-V:  UWI
 WELL.                 1007A-V:  COMMON WELL NAME
 COMP.       PEMEX EXPL & PROD:  WELL OPERATOR
 FLD .               CANTARELL:  FIELD
 LIC .                 UNKNOWN:  AUTHORIZATION NO
 LOC .                 UNKNOWN:  BASIN
 CTRY.                  MEXICO:  COUNTRY
 STAT.                CAMPECHE:  STATE
 CNTY.          CD. DEL CARMEN:  COUNTY
 PROV.                CAMPECHE:  STATE
 SRVC.                 UNKNOWN:  COMPANY
 DATE.                 UNKNOWN:  LOG RUN DATE
 LONG.                -92.0613:  LONGITUDE
 LATI.                 19.4613:  LATITUDE
 XCOORD.           598531.4375:  X COORDINATE
 YCOORD.          2152011.5000:  Y COORDINATE
 ELEV.M                27.9700:  ELEVATION
 TD  .M              2685.0000:  TOTAL DEPTH
~Parameter Information Block
#MNEM.UNIT       Value        Description
#---------     -----------    ---------------------------
~Curve Information Block
#MNEM.UNIT                 API CODE     Curve Description
#---------               -----------    ---------------------------
 DEPTH.M                00 000 000 000:  Index Curve
 CALI.INCH              00 000 000 000:  Caliper
 DRHO.G/CM3              00 000 000 000:  Density correction
 DT  .US/F              00 000 000 000:  Acoustic wave travel time
 GR  .GAPI              00 000 000 000:  Gamma ray; total
 ILD .OHMM              00 000 000 000:  Resistivity; induction deep
 LLD .OHMM              00 000 000 000:  Resistivity; deep laterolog
 LLS .OHMM              00 000 000 000:  Resistivity; shallow laterolog
 MSFL.OHMM              00 000 000 000:  Resistivity; microspherically focused log
 NPHI.V/V               00 000 000 000:  Neutron porosity
 PEF .B/E               00 000 000 000:  Photoelectric absorption index from density log; Pe
 RHOB.G/CM3              00 000 000 000:  Bulk density
 SP  .MV                00 000 000 000:  Spontaneous potential
~A DEPTH        CALI    DRHO    DT    GR    ILD    LLD    LLS    MSFL    NPHI    PEF    RHOB    SP
# ...
 2580.4426     6.1524     0.0037    96.9394    48.4437     0.2000   169.1325   140.0959    79.6463     0.1398     3.1023     2.5720    19.0991 
 2580.5950     6.0905     0.0066    98.9071    46.2027     0.2000   162.6838   137.6259    61.6621     0.1486     3.0549     2.5275    19.1381 
 2580.7474     6.0907     0.0115    95.2843    44.8179     0.2000   165.3410   141.5114    49.4815     0.1495     2.9321     2.5092    19.5245 
 2580.8998     6.1372     0.0178    87.1493    44.2009     0.2000   175.8497   150.9223    43.8771     0.1440     2.7578     2.5133    20.1767 
 2581.0522     6.1275     0.0205    79.9653    44.3417     0.2000   190.7376   163.9303    59.6499     0.1398     2.7051     2.5294    20.5964 
 2581.2046     6.0560     0.0195    73.8739    45.2942     0.2000   210.2701   180.7660    98.5236     0.1371     2.7850     2.5578    20.7603 
 2581.3570     6.0396     0.0151    72.0740    45.9397     0.2000   221.6033   188.9004   109.8425     0.1384     2.8580     2.5602    21.0075 
 2581.5094     6.0630     0.0084    73.3866    46.3519     0.2000   226.9507   190.6377   100.6427     0.1426     2.9246     2.5434    21.3074 
 2581.6618     6.0728     0.0052    73.7124    46.6014     0.2000   233.3189   192.4582    85.8846     0.1452     2.9661     2.5270    21.4150 
 2581.8142     6.0668     0.0058    72.8848    46.7028     0.2000   241.0366   194.7223    66.7759     0.1461     2.9831     2.5120    21.3290 
 2581.9666     6.0652     0.0176    72.8609    47.7135     0.2000   272.6437   214.9542    98.9006     0.1476     2.9708     2.5144    21.3836 
 2582.1190     6.0671     0.0384    73.4620    49.4314     0.2000   322.8316   249.1611   170.8736     0.1498     2.9356     2.5304    21.5476 
 2582.2714     6.0791     0.0367    73.7500    48.8621     0.2000   384.9277   300.0276   176.8094     0.1472     2.8615     2.5326    21.7201 
 2582.4238     6.0988     0.0160    73.7422    46.3659     0.2000   455.8808   364.0869   126.2954     0.1408     2.7573     2.5231    21.8986 
 2582.5762     6.0961     0.0079    73.4805    45.2277     0.2000   506.7325   412.5286   110.2176     0.1352     2.7257     2.5312    22.1621 
 2582.7286     6.0721     0.0114    72.9811    45.3605     0.2000   538.7704   446.3528   126.3696     0.1302     2.7622     2.5557    22.5052 
 2582.8810     6.0954     0.0132    71.9611    45.8835     0.2000   522.1968   439.0434   120.5023     0.1265     2.8577     2.5742    22.8864 
 2583.0334     6.1548     0.0137    70.5152    46.7346     0.2000   463.3054   395.8546    95.8668     0.1242     2.9982     2.5868    23.3058 
 2583.1858     6.1576     0.0132    69.3514    47.4844     0.2000   398.7835   347.0026    73.7219     0.1254     3.0645     2.5878    23.7957 
 2583.3382     6.0992     0.0117    68.4928    48.1246     0.2000   328.1750   292.0284    54.2693     0.1303     3.0505     2.5764    24.3620 
 2583.4906     6.1076     0.0099    69.4932    47.6150     0.2000   266.4924   244.2271    50.3865     0.1339     3.0237     2.5634    24.9811 
 2583.6430     6.1638     0.0079    72.0583    46.2049     0.2000   212.1313   202.2151    58.4246     0.1363     2.9872     2.5502    25.6298 
 2583.7954     6.1611     0.0056    76.2267    44.7110     0.2000   162.8919   163.0415    63.9395     0.1385     2.9524     2.5476    26.1266 
 2583.9478     6.0947     0.0031    82.0165    43.1659     0.2000   118.7364   126.6144    66.3115     0.1406     2.9200     2.5561    26.4622 
 2584.1002     6.0971     0.0026    83.2518    41.9890     0.2000    93.4576   104.7417    62.5299     0.1413     2.9058     2.5584    26.7541 
 2584.2526     6.1495     0.0038    81.1625    41.0853     0.2000    82.1090    93.6080    54.2444     0.1411     2.9050     2.5562    27.0167 
 2584.4050     6.1569     0.0247    81.2714    40.3318     0.2000    73.0381    84.1351    48.0245     0.1459     2.9082     2.5580    27.4920 
 2584.5574     6.1214     0.0632    83.5204    39.6990     0.2000    65.2984    75.6033    43.8858     0.1552     2.9142     2.5635    28.1598 
 2584.7098     6.1361     0.0675    87.3534    39.9144     0.2000    62.5267    72.3871    44.1726     0.1562     2.9452     2.5562    28.4923 
 2584.8622     6.1925     0.0434    92.5009    40.8336     0.2000    63.8783    73.5830    48.1327     0.1502     2.9968     2.5384    28.5465 
 2585.0146     6.1871     0.0215   103.4385    41.9064     0.2000    81.9074    91.6035    54.1658     0.1466     3.0234     2.5244    28.6412 
 2585.1670     6.1296     0.0027   118.5199    43.0361     0.2000   114.3298   124.1760    62.3487     0.1451     3.0265     2.5145    28.7806 
 2585.3194     6.1089    -0.0045   118.6035    43.0024     0.2000   145.2733   155.8402    77.1046     0.1431     3.0046     2.5160    29.0214 
 2585.4718     6.1254    -0.0000   103.5160    41.7919     0.2000   174.7212   186.5860    98.5093     0.1404     2.9576     2.5290    29.3648 
 2585.6242     6.1276     0.0017   100.1180    42.9566     0.2000   185.0579   197.3698    99.2641     0.1390     2.9197     2.5418    29.4890 
 2585.7766     6.1174     0.0014   106.3505    46.1201     0.2000   178.3212   190.3772    82.7810     0.1391     2.8962     2.5537    29.4256 
 2585.9290     6.1047     0.0026   109.5662    49.5193     0.2000   161.8120   173.8455    67.9766     0.1417     2.9475     2.5584    29.3477 
 2586.0814     6.0892     0.0056   109.4568    53.1558     0.2000   134.6969   146.9637    55.1020     0.1471     3.0803     2.5554    29.2543 
 2586.2338     6.0960     0.0058   106.4148    59.1765     0.2000   111.1567   122.9085    46.6340     0.1515     3.1440     2.5398    29.5078 
 2586.3862     6.1184     0.0042   101.3953    67.0461     0.2000    90.6525   101.3485    41.5264     0.1549     3.1520     2.5155    30.0087 
 2586.5386     6.1189     0.0076   100.4144    76.2797     0.2000    77.2769    87.2466    37.8459     0.1573     3.0822     2.5043    30.2909 
 2586.6910     6.0963     0.0161   103.6418    86.7934     0.2000    70.9634    80.5716    35.4247     0.1587     2.9368     2.5069    30.3376 
 2586.8434     6.1029     0.0160    99.7346    89.3475     0.2000    70.1994    79.5578    37.1529     0.1578     2.8788     2.5242    30.0725 
 2586.9958     6.1314     0.0092    90.4248    85.8747     0.2000    73.6376    82.8308    42.0232     0.1551     2.8869     2.5527    29.5714 
 2587.1482     6.1197     0.0025    83.3197    75.9756     0.2000    77.8883    87.3988    55.1019     0.1526     2.9222     2.5525    29.3802 
 2587.3006     6.0737    -0.0039    78.2737    60.8872     0.2000    82.6107    92.8368    74.9461     0.1500     2.9776     2.5278    29.4626 
 2587.4530     6.0731    -0.0043    72.1687    49.4056     0.2000    83.9812    94.4249    88.6492     0.1420     3.0080     2.5130    29.5733 
 2587.6054     6.1140     0.0007    65.0932    41.2296     0.2000    82.2800    92.4848    96.7242     0.1290     3.0155     2.5075    29.7097 
 2587.7578     6.1131     0.0003    60.8879    39.1434     0.2000    78.1143    87.6714   100.4184     0.1224     3.0107     2.5042    29.6703 
 2587.9102     6.0792    -0.0044    59.2704    42.3603     0.2000    71.8485    80.4381    99.7314     0.1211     2.9912     2.5034    29.4897 
 2588.0626     6.0853    -0.0056    58.9927    46.0403     0.2000    65.9775    74.0274    91.5357     0.1189     2.9217     2.5126    29.4481 
 2588.2150     6.1337    -0.0032    60.1326    50.2106     0.2000    60.5244    68.4873    75.3941     0.1158     2.7993     2.5320    29.5535 
 2588.3674     6.1484    -0.0043    59.9993    53.1188     0.2000    52.3764    59.6931    60.5027     0.1089     2.7383     2.5529    29.5182 
 2588.5198     6.1396    -0.0077    59.2963    55.1336     0.2000    42.4393    48.6930    46.8998     0.0993     2.7298     2.5752    29.3503 
 2588.6722     6.1658    -0.0060    63.9618    58.2348     0.2000    36.3506    41.7517    37.4179     0.0916     2.7808     2.6025    28.8803 
 2588.8246     6.2302     0.0015    74.3948    62.5299     0.2000    34.4444    39.2327    32.3031     0.0861     2.8938     2.6350    28.0917 
