~Version Information
 VERS.                  2.0:   CWLS log ASCII Standard -VERSION 2.0
 WRAP.                   NO:   One line per depth step
~Well Information Block
#MNEM.UNIT       Data Type    Information
#---------     -----------    ---------------------------
 STRT.M              2290.2730:
 STOP.M              2690.1707:
 STEP.M                 0.1524:
 NULL.               -999.2500:
 UWI .                 1007A-V:  UWI
 API .                 1007A-V:  UWI
 WELL.                 1007A-V:  COMMON WELL NAME
 COMP.       PEMEX EXPL & PROD:  WELL OPERATOR
 FLD .               CANTARELL:  FIELD
 LIC .                 UNKNOWN:  AUTHORIZATION NO
 LOC .                 UNKNOWN:  BASIN
 CTRY.                  MEXICO:  COUNTRY
 STAT.                CAMPECHE:  STATE
 CNTY.          CD. DEL CARMEN:  COUNTY
 PROV.                CAMPECHE:  STATE
 SRVC.                 UNKNOWN:  COMPANY
 DATE.                 UNKNOWN:  LOG RUN DATE
 LONG.                -92.0613:  LONGITUDE
 LATI.                 19.4613:  LATITUDE
 XCOORD.           598531.4375:  X COORDINATE
 YCOORD.          2152011.5000:  Y COORDINATE
 ELEV.M                27.9700:  ELEVATION
 TD  .M              2685.0000:  TOTAL DEPTH
~Parameter Information Block
#MNEM.UNIT       Value        Description
#---------     -----------    ---------------------------
~Curve Information Block
#MNEM.UNIT                 API CODE     Curve Description
#---------               -----------    ---------------------------
 DEPTH.M                00 000 000 000:  Index Curve
 CALI.INCH              00 000 000 000:  Caliper
 DRHO.G/CM3              00 000 000 000:  Density correction
 DT  .US/F              00 000 000 000:  Acoustic wave travel time
 GR  .GAPI              00 000 000 000:  Gamma ray; total
 ILD .OHMM              00 000 000 000:  Resistivity; induction deep
 LLD .OHMM              00 000 000 000:  Resistivity; deep laterolog
 LLS .OHMM              00 000 000 000:  Resistivity; shallow laterolog
 MSFL.OHMM              00 000 000 000:  Resistivity; microspherically focused log
 NPHI.V/V               00 000 000 000:  Neutron porosity
 PEF .B/E               00 000 000 000:  Photoelectric absorption index from density log; Pe
 RHOB.G/CM3              00 000 000 000:  Bulk density
 SP  .MV                00 000 000 000:  Spontaneous potential
~A DEPTH        CALI    DRHO    DT    GR    ILD    LLD    LLS    MSFL    NPHI    PEF    RHOB    SP
# ...
 2443.8922     8.4656     0.0423    73.2405    73.1535     0.2000     6.1896     5.3080     3.0299     0.1564     3.5356     2.4388  -188.3201 
 2444.0446     8.1140     0.0245    69.8155    77.6006     0.2000     7.3419     6.2541     4.0289     0.1328     3.5406     2.5089  -188.1012 
 2444.1970     7.9542     0.0114    67.9318    82.9368     0.2000     7.8004     6.5610     4.4488     0.1259     3.5876     2.5413  -187.8823 
 2444.3494     7.9842     0.0029    67.5724    89.1526     0.2000     7.5726     6.2357     4.2958     0.1356     3.6760     2.5363  -187.6633 
 2444.5018     7.9985    -0.0005    68.5952    93.1218     0.2000     6.9419     5.6932     4.3536     0.1523     3.7078     2.5261  -187.3489 
 2444.6542     8.0031     0.0020    70.8907    95.1568     0.2000     5.9512     4.9521     4.5693     0.1748     3.6873     2.5112  -186.9184 
 2444.8066     8.0504     0.0222    73.2358    96.3890     0.2000     5.2122     4.3758     4.4001     0.1845     3.6319     2.4997  -186.2476 
 2444.9590     8.1446     0.0618    75.6640    96.7650     0.2000     4.7374     3.9711     3.8110     0.1804     3.5382     2.4917  -185.3074 
 2445.1114     8.1868     0.0800    76.3887    96.0279     0.2000     4.8240     3.9963     3.5711     0.1721     3.5637     2.4963  -184.6142 
 2445.2638     8.1906     0.0816    75.8201    94.4771     0.2000     5.3037     4.3240     3.5986     0.1616     3.6690     2.5093  -184.1081 
 2445.4162     8.1975     0.0700    74.8210    93.1547     0.2000     5.3863     4.3710     3.7533     0.1642     3.6306     2.5068  -183.6559 
 2445.5686     8.2095     0.0461    73.4466    92.1082     0.2000     5.0420     4.1151     4.0247     0.1806     3.4407     2.4877  -183.2496 
 2445.7210     8.3117     0.0509    74.7970    89.7962     0.2000     4.4840     3.6738     4.0034     0.1966     3.3168     2.4596  -183.0360 
 2445.8734     8.4834     0.0775    78.2272    86.4999     0.2000     3.7582     3.0872     3.7601     0.2124     3.2416     2.4241  -182.9661 
 2446.0258     8.6908     0.0906    81.0674    85.1256     0.2000     3.3203     2.7313     3.3506     0.2219     3.2128     2.4112  -182.9546 
 2446.1782     8.9306     0.0915    83.4040    85.3593     0.2000     3.1179     2.5643     2.8009     0.2266     3.2197     2.4172  -182.9855 
 2446.3306     9.0681     0.0848    83.5150    82.8148     0.2000     3.1528     2.5931     2.5000     0.2215     3.2513     2.4272  -183.0334 
 2446.4830     9.1153     0.0712    81.6617    77.8207     0.2000     3.3970     2.7946     2.4191     0.2079     3.3046     2.4408  -183.0962 
 2446.6354     9.0579     0.0701    79.7147    73.9777     0.2000     3.5951     2.9845     2.6529     0.1973     3.3530     2.4548  -183.0070 
 2446.7878     8.9167     0.0805    77.7518    71.2325     0.2000     3.7501     3.1593     3.1293     0.1896     3.3948     2.4698  -182.7917 
 2446.9402     8.8491     0.1026    76.7246    70.2780     0.2000     3.8423     3.2566     3.2581     0.1862     3.3994     2.4916  -182.6206 
 2447.0926     8.8586     0.1371    76.6777    71.1988     0.2000     3.8688     3.2726     3.0229     0.1874     3.3649     2.5206  -182.4958 
 2447.2450     8.8481     0.1423    76.3061    70.6411     0.2000     3.9032     3.3047     2.7864     0.1869     3.3847     2.5340  -182.5415 
 2447.3974     8.8208     0.1238    75.6989    68.8852     0.2000     3.9460     3.3502     2.5671     0.1851     3.4461     2.5345  -182.7124 
 2447.5498     8.7837     0.1053    75.4170    67.0706     0.2000     4.0136     3.3998     2.5694     0.1831     3.4852     2.5312  -182.7281 
 2447.7022     8.7366     0.0873    75.4952    65.2219     0.2000     4.1078     3.4535     2.8126     0.1807     3.4988     2.5242  -182.5717 
 2447.8546     8.7085     0.0760    75.3525    65.1251     0.2000     4.2384     3.5630     2.9872     0.1771     3.4905     2.5217  -182.3449 
 2448.0070     8.6946     0.0697    75.0365    66.2158     0.2000     4.4035     3.7190     3.1078     0.1723     3.4669     2.5227  -182.0724 
 2448.1594     8.6942     0.0643    74.3403    64.9080     0.2000     4.8062     4.0494     3.1032     0.1620     3.4566     2.5287  -181.9548 
 2448.3118     8.7057     0.0593    73.2946    61.2720     0.2000     5.4315     4.5418     2.9833     0.1466     3.4596     2.5391  -181.9857 
 2448.4642     8.7561     0.0510    71.6367    59.3838     0.2000     5.9315     4.9911     3.0451     0.1314     3.4998     2.5486  -181.8788 
 2448.6166     8.8371     0.0401    69.4964    58.8728     0.2000     6.3328     5.4064     3.2502     0.1163     3.5694     2.5570  -181.6632 
 2448.7690     8.8782     0.0358    68.0886    58.4169     0.2000     6.5804     5.6703     3.4716     0.1070     3.6447     2.5628  -181.4615 
 2448.9214     8.8809     0.0374    67.3759    58.0168     0.2000     6.6806     5.7878     3.7038     0.1029     3.7195     2.5656  -181.2672 
 2449.0738     8.7987     0.0421    67.9949    58.7542     0.2000     6.3307     5.4768     3.9418     0.1059     3.6762     2.5486  -180.8850 
 2449.2262     8.6342     0.0495    69.9063    60.5954     0.2000     5.5440     4.7498     4.1855     0.1158     3.5183     2.5125  -180.3204 
 2449.3786     8.5335     0.0828    71.7628    63.1897     0.2000     4.6740     4.0021     4.2196     0.1336     3.4176     2.4849  -179.7405 
 2449.5310     8.4957     0.1361    73.5336    66.4393     0.2000     3.7550     3.2529     4.0511     0.1573     3.3622     2.4653  -179.1526 
 2449.6834     8.5661     0.1698    74.8361    69.9212     0.2000     3.0898     2.6929     3.5788     0.1725     3.2722     2.4556  -178.6222 
 2449.8358     8.7536     0.1823    75.6327    73.6541     0.2000     2.6984     2.3371     2.7781     0.1786     3.1447     2.4565  -178.1539 
 2449.9882     9.0630     0.1710    80.1527    77.1166     0.2000     2.2616     1.9698     2.4981     0.2010     3.0871     2.4176  -177.5983 
 2450.1406     9.4501     0.1413    87.4618    80.2098     0.2000     1.8036     1.6038     2.5998     0.2356     3.0849     2.3492  -176.9766 
 2450.2930     9.6260     0.1030    94.4818    80.8420     0.2000     1.5414     1.3856     2.5367     0.2700     3.1256     2.2897  -176.3521 
 2450.4454     9.5775     0.0566   101.0672    78.9224     0.2000     1.4844     1.3217     2.2836     0.3036     3.2085     2.2407  -175.7278 
 2450.5978     9.4104     0.0290   103.6667    76.1756     0.2000     1.4677     1.3058     2.0940     0.3235     3.2031     2.2018  -175.2770 
 2450.7502     9.1549     0.0158   103.2832    72.8132     0.2000     1.4811     1.3259     1.9521     0.3331     3.1316     2.1703  -174.9563 
 2450.9026     9.1448     0.0165   103.9609    69.6609     0.2000     1.4985     1.3457     1.8166     0.3360     3.1027     2.1566  -174.4572 
 2451.0550     9.3477     0.0285   105.6792    66.7246     0.2000     1.5180     1.3637     1.6846     0.3336     3.1132     2.1576  -173.8014 
 2451.2074     9.5655     0.0332   104.0214    66.1177     0.2000     1.5799     1.4144     1.5689     0.3318     3.1458     2.1537  -173.0612 
 2451.3598     9.7959     0.0317    99.4919    67.4921     0.2000     1.6779     1.4929     1.4669     0.3304     3.1973     2.1457  -172.2490 
 2451.5122     9.9914     0.0472    93.8110    68.5628     0.2000     1.9792     1.7512     1.4954     0.3094     3.2455     2.1838  -171.4205 
 2451.6646    10.1419     0.0760    87.1364    69.4487     0.2000     2.4581     2.1718     1.6443     0.2716     3.2977     2.2613  -170.5693 
 2451.8170    10.0569     0.0875    80.2961    71.4779     0.2000     2.9974     2.7241     1.9324     0.2317     3.4532     2.3410  -169.5841 
 2451.9694     9.7270     0.0810    73.2837    74.6955     0.2000     3.5997     3.4133     2.3653     0.1899     3.7160     2.4230  -168.4596 
 2452.1218     9.2806     0.0829    69.8323    75.1704     0.2000     4.3655     4.1076     2.8773     0.1646     3.8419     2.4858  -167.3160 
 2452.2742     8.7550     0.0909    69.3554    73.3869     0.2000     5.2387     4.7854     3.4450     0.1530     3.8576     2.5312  -166.1260 
