~Version Information
 VERS.                  2.0:   CWLS log ASCII Standard -VERSION 2.0
 WRAP.                   NO:   One line per depth step
~Well Information Block
#MNEM.UNIT       Data Type    Information
#---------     -----------    ---------------------------
 STRT.M              2290.2730:
 STOP.M              2690.1707:
 STEP.M                 0.1524:
 NULL.               -999.2500:
 UWI .                 1007A-V:  UWI
 API .                 1007A-V:  UWI
 WELL.                 1007A-V:  COMMON WELL NAME
 COMP.       PEMEX EXPL & PROD:  WELL OPERATOR
 FLD .               CANTARELL:  FIELD
 LIC .                 UNKNOWN:  AUTHORIZATION NO
 LOC .                 UNKNOWN:  BASIN
 CTRY.                  MEXICO:  COUNTRY
 STAT.                CAMPECHE:  STATE
 CNTY.          CD. DEL CARMEN:  COUNTY
 PROV.                CAMPECHE:  STATE
 SRVC.                 UNKNOWN:  COMPANY
 DATE.                 UNKNOWN:  LOG RUN DATE
 LONG.                -92.0613:  LONGITUDE
 LATI.                 19.4613:  LATITUDE
 XCOORD.           598531.4375:  X COORDINATE
 YCOORD.          2152011.5000:  Y COORDINATE
 ELEV.M                27.9700:  ELEVATION
 TD  .M              2685.0000:  TOTAL DEPTH
~Parameter Information Block
#MNEM.UNIT       Value        Description
#---------     -----------    ---------------------------
~Curve Information Block
#MNEM.UNIT                 API CODE     Curve Description
#---------               -----------    ---------------------------
 DEPTH.M                00 000 000 000:  Index Curve
 CALI.INCH              00 000 000 000:  Caliper
 DRHO.G/CM3              00 000 000 000:  Density correction
 DT  .US/F              00 000 000 000:  Acoustic wave travel time
 GR  .GAPI              00 000 000 000:  Gamma ray; total
 ILD .OHMM              00 000 000 000:  Resistivity; induction deep
 LLD .OHMM              00 000 000 000:  Resistivity; deep laterolog
 LLS .OHMM              00 000 000 000:  Resistivity; shallow laterolog
 MSFL.OHMM              00 000 000 000:  Resistivity; microspherically focused log
 NPHI.V/V               00 000 000 000:  Neutron porosity
 PEF .B/E               00 000 000 000:  Photoelectric absorption index from density log; Pe
 RHOB.G/CM3              00 000 000 000:  Bulk density
 SP  .MV                00 000 000 000:  Spontaneous potential
~A DEPTH        CALI    DRHO    DT    GR    ILD    LLD    LLS    MSFL    NPHI    PEF    RHOB    SP
# ...
 2341.4794     0.0000    -0.2500    40.0000    45.1648     1.6696     0.2000     0.2000     0.2000    -0.0015     0.0000     1.9500     0.0000 
 2341.6318     0.0000    -0.2500    40.0000    43.3354     1.6931     0.2000     0.2000     0.2000    -0.0015     0.0000     1.9500     0.0000 
 2341.7842     0.0000    -0.2500    40.0000    41.8525     1.7029     0.2000     0.2000     0.2000    -0.0015     0.0000     1.9500     0.0000 
 2341.9366     0.0000    -0.2500    40.0000    41.6087     1.7159     0.2000     0.2000     0.2000    -0.0015     0.0000     1.9500     0.0000 
 2342.0890     0.0000    -0.2500    40.0000    42.6827     1.7324     0.2000     0.2000     0.2000    -0.0015     0.0000     1.9500     0.0000 
 2342.2414     0.0000    -0.2500    40.0000    42.2153     1.7508     0.2000     0.2000     0.2000    -0.0015     0.0000     1.9500     0.0000 
 2342.3938     0.0000    -0.2500    40.0000    40.6000     1.7703     0.2000     0.2000     0.2000    -0.0015     0.0000     1.9500     0.0000 
 2342.5462     0.0000    -0.2500    40.0000    39.4627     1.7841     0.2000     0.2000     0.2000    -0.0015     0.0000     1.9500     0.0000 
 2342.6986     0.0000    -0.2500    40.0000    38.8790     1.7915     0.2000     0.2000     0.2000    -0.0015     0.0000     1.9500     0.0000 
 2342.8510     0.0000    -0.2500    40.0000    38.2372     1.7884     0.2000     0.2000     0.2000    -0.0015     0.0000     1.9500     0.0000 
 2343.0034     0.0000    -0.2500    40.0000    37.5664     1.7774     0.2000     0.2000     0.2000    -0.0015     0.0000     1.9500     0.0000 
 2343.1558     0.0000    -0.2500    40.0000    37.6965     1.7661     0.2000     0.2000     0.2000    -0.0015     0.0000     1.9500     0.0000 
 2343.3082     0.0000    -0.2500    40.0000    38.5583     1.7551     0.2000     0.2000     0.2000    -0.0015     0.0000     1.9500     0.0000 
 2343.4606     0.0000    -0.2500    40.0000    39.2013     1.7481     0.2000     0.2000     0.2000    -0.0015     0.0000     1.9500     0.0000 
 2343.6130     0.0000    -0.2500    40.0000    39.6661     1.7446     0.2000     0.2000     0.2000    -0.0015     0.0000     1.9500     0.0000 
 2343.7654     0.0000    -0.2500    40.0000    38.9960     1.7546     0.2000     0.2000     0.2000    -0.0015     0.0000     1.9500     0.0000 
 2343.9178     0.0000    -0.2500    40.0000    37.3912     1.7767     0.2000     0.2000     0.2000    -0.0015     0.0000     1.9500     0.0000 
 2344.0702     0.0000    -0.2500    40.0000    36.3559     1.8089     0.2000     0.2000     0.2000    -0.0015     0.0000     1.9500     0.0000 
 2344.2226     0.0000    -0.2500    40.0000    35.8936     1.8514     0.2000     0.2000     0.2000    -0.0015     0.0000     1.9500     0.0000 
 2344.3750     0.0000    -0.2500    40.0000    37.5631     1.8807     0.2000     0.2000     0.2000    -0.0015     0.0000     1.9500     0.0000 
 2344.5274     0.0000    -0.2500    40.0000    40.9271     1.8977     0.2000     0.2000     0.2000    -0.0015     0.0000     1.9500     0.0000 
 2344.6798     0.0000    -0.2500    40.0000    42.7187     1.9043     0.2000     0.2000     0.2000    -0.0015     0.0000     1.9500     0.0000 
 2344.8322     0.0000    -0.2500    40.0000    42.7909     1.8993     0.2000     0.2000     0.2000    -0.0015     0.0000     1.9500     0.0000 
 2344.9846     0.0000    -0.2500    40.0000    42.3557     1.9002     0.2000     0.2000     0.2000    -0.0015     0.0000     1.9500     0.0000 
 2345.1370     0.0000    -0.2500    40.0000    41.5591     1.9054     0.2000     0.2000     0.2000    -0.0015     0.0000     1.9500     0.0000 
 2345.2894     0.0000    -0.2500    40.0000    40.9729     1.9112     0.2000     0.2000     0.2000    -0.0015     0.0000     1.9500     0.0000 
 2345.4418     0.0000    -0.2500    40.0000    40.6225     1.9172     0.2000     0.2000     0.2000    -0.0015     0.0000     1.9500     0.0000 
 2345.5942     0.0000    -0.2500    40.0000    39.5439     1.9258     0.2000     0.2000     0.2000    -0.0015     0.0000     1.9500     0.0000 
 2345.7466     0.0000    -0.2500    40.0000    37.9153     1.9362     0.2000     0.2000     0.2000    -0.0015     0.0000     1.9500     0.0000 
 2345.8990     0.0000    -0.2500    40.0000    36.9095     1.9504     0.2000     0.2000     0.2000    -0.0015     0.0000     1.9500     0.0000 
 2346.0514     0.0000    -0.2500    40.0000    36.4665     1.9678     0.2000     0.2000     0.2000    -0.0015     0.0000     1.9500     0.0000 
 2346.2038     0.0000    -0.2500    40.0000    36.5146     1.9798     0.2000     0.2000     0.2000    -0.0015     0.0000     1.9500     0.0000 
 2346.3562     0.0000    -0.2500    40.0000    37.0084     1.9867     0.2000     0.2000     0.2000    -0.0015     0.0000     1.9500     0.0000 
 2346.5086     0.0000    -0.2500    40.0000    36.8146     2.0053     0.2000     0.2000     0.2000    -0.0015     0.0000     1.9500     0.0000 
 2346.6610     0.0000    -0.2500    40.0000    36.0918     2.0339     0.2000     0.2000     0.2000    -0.0015     0.0000     1.9500     0.0000 
 2346.8134     0.0000    -0.2500    40.0000    36.2606     2.0640     0.2000     0.2000     0.2000    -0.0015     0.0000     1.9500     0.0000 
 2346.9658     0.0000    -0.2500    40.0000    37.3717     2.0955     0.2000     0.2000     0.2000    -0.0015     0.0000     1.9500     0.0000 
 2347.1182     0.0000    -0.2500    40.0000    38.2415     2.1099     0.2000     0.2000     0.2000    -0.0015     0.0000     1.9500     0.0000 
 2347.2706     0.0000    -0.2500    40.0000    38.8842     2.1099     0.2000     0.2000     0.2000    -0.0015     0.0000     1.9500     0.0000 
 2347.4230     0.0000    -0.2500    40.0000    39.0441     2.0989     0.2000     0.2000     0.2000    -0.0015     0.0000     1.9500     0.0000 
 2347.5754     0.0000    -0.2500    40.0000    38.6908     2.0764     0.2000     0.2000     0.2000    -0.0015     0.0000     1.9500     0.0000 
 2347.7278     0.0000    -0.2500    40.0000    38.0977     2.0447     0.2000     0.2000     0.2000    -0.0015     0.0000     1.9500     0.0000 
 2347.8802     0.0000    -0.2500    40.0000    37.3379     2.0059     0.2000     0.2000     0.2000    -0.0015     0.0000     1.9500     0.0000 
 2348.0326     0.0000    -0.2500    40.0000    36.9660     1.9606     0.2000     0.2000     0.2000    -0.0015     0.0000     1.9500     0.0000 
 2348.1850     0.0000    -0.2500    40.0000    36.9681     1.9095     0.2000     0.2000     0.2000    -0.0015     0.0000     1.9500     0.0000 
 2348.3374     0.0000    -0.2500    40.0000    38.0980     1.8521     0.2000     0.2000     0.2000    -0.0015     0.0000     1.9500     0.0000 
 2348.4898     0.0000    -0.2500    40.0000    40.1282     1.7898     0.2000     0.2000     0.2000    -0.0015     0.0000     1.9500     0.0000 
 2348.6422     0.0000    -0.2500    40.0000    40.5819     1.7367     0.2000     0.2000     0.2000    -0.0015     0.0000     1.9500     0.0000 
 2348.7946     0.0000    -0.2500    40.0000    39.6203     1.6934     0.2000     0.2000     0.2000    -0.0015     0.0000     1.9500     0.0000 
 2348.9470     0.0000    -0.2500    40.0000    37.6537     1.6834     0.2000     0.2000     0.2000    -0.0015     0.0000     1.9500     0.0000 
 2349.0994     0.0000    -0.2500    40.0000    34.6930     1.7063     0.2000     0.2000     0.2000    -0.0015     0.0000     1.9500     0.0000 
 2349.2518     0.0000    -0.2500    40.0000    32.6568     1.7648     0.2000     0.2000     0.2000    -0.0015     0.0000     1.9500     0.0000 
 2349.4042     0.0000    -0.2500    40.0000    31.3749     1.8597     0.2000     0.2000     0.2000    -0.0015     0.0000     1.9500     0.0000 
 2349.5566     0.0000    -0.2500    40.0000    30.0900     1.9901     0.2000     0.2000     0.2000    -0.0015     0.0000     1.9500     0.0000 
 2349.7090     0.0000    -0.2500    40.0000    28.7859     2.1606     0.2000     0.2000     0.2000    -0.0015     0.0000     1.9500     0.0000 
 2349.8614     0.0000    -0.2500    40.0000    26.3585     2.4701     0.2000     0.2000     0.2000    -0.0015     0.0000     1.9500     0.0000 
