~Version Information
 VERS.                  2.0:   CWLS log ASCII Standard -VERSION 2.0
 WRAP.                   NO:   One line per depth step
~Well Information Block
#MNEM.UNIT       Data Type    Information
#---------     -----------    ---------------------------
 STRT.M              2290.2730:
 STOP.M              2690.1707:
 STEP.M                 0.1524:
 NULL.               -999.2500:
 UWI .                 1007A-V:  UWI
 API .                 1007A-V:  UWI
 WELL.                 1007A-V:  COMMON WELL NAME
 COMP.       PEMEX EXPL & PROD:  WELL OPERATOR
 FLD .               CANTARELL:  FIELD
 LIC .                 UNKNOWN:  AUTHORIZATION NO
 LOC .                 UNKNOWN:  BASIN
 CTRY.                  MEXICO:  COUNTRY
 STAT.                CAMPECHE:  STATE
 CNTY.          CD. DEL CARMEN:  COUNTY
 PROV.                CAMPECHE:  STATE
 SRVC.                 UNKNOWN:  COMPANY
 DATE.                 UNKNOWN:  LOG RUN DATE
 LONG.                -92.0613:  LONGITUDE
 LATI.                 19.4613:  LATITUDE
 XCOORD.           598531.4375:  X COORDINATE
 YCOORD.          2152011.5000:  Y COORDINATE
 ELEV.M                27.9700:  ELEVATION
 TD  .M              2685.0000:  TOTAL DEPTH
~Parameter Information Block
#MNEM.UNIT       Value        Description
#---------     -----------    ---------------------------
~Curve Information Block
#MNEM.UNIT                 API CODE     Curve Description
#---------               -----------    ---------------------------
 DEPTH.M                00 000 000 000:  Index Curve
 CALI.INCH              00 000 000 000:  Caliper
 DRHO.G/CM3              00 000 000 000:  Density correction
 DT  .US/F              00 000 000 000:  Acoustic wave travel time
 GR  .GAPI              00 000 000 000:  Gamma ray; total
 ILD .OHMM              00 000 000 000:  Resistivity; induction deep
 LLD .OHMM              00 000 000 000:  Resistivity; deep laterolog
 LLS .OHMM              00 000 000 000:  Resistivity; shallow laterolog
 MSFL.OHMM              00 000 000 000:  Resistivity; microspherically focused log
 NPHI.V/V               00 000 000 000:  Neutron porosity
 PEF .B/E               00 000 000 000:  Photoelectric absorption index from density log; Pe
 RHOB.G/CM3              00 000 000 000:  Bulk density
 SP  .MV                00 000 000 000:  Spontaneous potential
~A DEPTH        CALI    DRHO    DT    GR    ILD    LLD    LLS    MSFL    NPHI    PEF    RHOB    SP
# ...
 2469.4954     8.0243     0.0435    78.8081    54.0199     0.2000     7.6971     7.8022     5.4649     0.2022     3.2550     2.4297    60.0974 
 2469.6478     8.1096     0.0582    78.2927    54.3352     0.2000     7.7873     7.8874     5.5806     0.1975     3.2820     2.4549    59.9897 
 2469.8002     8.1382     0.0649    77.6833    54.6946     0.2000     7.8464     7.9809     5.5759     0.1941     3.2834     2.4696    59.9000 
 2469.9526     8.1052     0.0629    76.9806    55.0854     0.2000     7.8714     8.0829     5.4385     0.1923     3.2565     2.4726    59.8295 
 2470.1050     8.1346     0.0575    76.2164    55.0852     0.2000     8.0499     8.2801     5.5315     0.1922     3.1725     2.4776    59.8119 
 2470.2574     8.2077     0.0496    75.4099    54.7867     0.2000     8.3393     8.5451     5.7987     0.1934     3.0498     2.4840    59.8276 
 2470.4098     8.2218     0.0382    74.6863    54.1850     0.2000     8.5826     8.7526     6.2074     0.1932     3.0185     2.4908    59.6925 
 2470.5622     8.1767     0.0237    74.0445    53.3083     0.2000     8.7755     8.9010     6.7425     0.1915     3.0771     2.4978    59.4104 
 2470.7146     8.1922     0.0153    73.7065    53.3793     0.2000     8.7963     8.9377     6.2594     0.1933     3.0867     2.4954    59.1596 
 2470.8670     8.2550     0.0116    73.6056    54.1897     0.2000     8.6828     8.8876     4.9818     0.1978     3.0580     2.4856    58.9332 
 2471.0194     8.2109     0.0071    73.1104    56.1966     0.2000     8.9230     9.1264     4.8397     0.2013     3.1323     2.4743    58.8363 
 2471.1718     8.0640     0.0017    72.2585    59.1572     0.2000     9.4691     9.6152     5.7460     0.2039     3.2929     2.4621    58.8491 
 2471.3242     7.7144     0.0009    71.2519    60.3136     0.2000     9.8526     9.9879     7.5605     0.2047     3.3312     2.4592    58.7917 
 2471.4766     7.1701     0.0044    70.0968    59.7363     0.2000    10.0797    10.2490    10.2477     0.2039     3.2517     2.4652    58.6668 
 2471.6290     6.8614     0.0117    69.4617    59.4730     0.2000    10.1426    10.3335    11.6157     0.2021     3.1665     2.4739    58.5924 
 2471.7814     6.7580     0.0215    69.3084    59.4323     0.2000    10.0795    10.2780    11.8255     0.1998     3.0844     2.4838    58.5438 
 2471.9338     6.6807     0.0238    69.5659    58.8037     0.2000    10.2095    10.3749    11.7839     0.2020     3.1044     2.4806    58.2823 
 2472.0862     6.6315     0.0178    70.2709    57.5347     0.2000    10.5499    10.6376    11.4686     0.2091     3.2358     2.4631    57.7884 
 2472.2386     6.5892     0.0162    70.7296    57.6986     0.2000    10.6397    10.7368    10.9919     0.2106     3.2708     2.4598    57.4225 
 2472.3910     6.5517     0.0183    70.9776    58.9569     0.2000    10.5441    10.7111    10.4424     0.2078     3.2326     2.4674    57.1480 
 2472.5434     6.5096     0.0231    70.8465    60.5186     0.2000    10.4842    10.6492    10.5907     0.2067     3.1777     2.4764    56.8074 
 2472.6958     6.4627     0.0306    70.3317    62.3448     0.2000    10.4697    10.5553    11.4666     0.2074     3.1088     2.4864    56.3939 
 2472.8482     6.4444     0.0285    70.1407    62.8748     0.2000    10.5144    10.5873    11.6344     0.2090     3.0993     2.4852    56.0985 
 2473.0006     6.4471     0.0194    70.1899    62.4448     0.2000    10.6026    10.7122    11.2781     0.2112     3.1338     2.4757    55.8916 
 2473.1530     6.4347     0.0156    70.5378    61.1908     0.2000    10.7296    10.8563    11.2699     0.2122     3.1010     2.4661    55.5075 
 2473.3054     6.4082     0.0166    71.1327    59.2722     0.2000    10.8875    11.0116    11.5907     0.2119     3.0078     2.4571    54.9672 
 2473.4578     6.3877     0.0186    71.5826    57.6756     0.2000    11.0680    11.2233    11.7307     0.2108     2.9914     2.4549    54.7440 
 2473.6102     6.3722     0.0216    71.9098    56.3506     0.2000    11.2680    11.4831    11.7173     0.2090     3.0402     2.4584    54.7904 
 2473.7626     6.3656     0.0251    71.9617    55.1387     0.2000    11.5161    11.7833    12.0014     0.2066     3.0687     2.4608    54.5144 
 2473.9150     6.3653     0.0290    71.7694    54.0778     0.2000    11.7941    12.1039    12.5406     0.2038     3.0818     2.4622    53.9400 
 2474.0674     6.3454     0.0305    71.5025    53.7857     0.2000    11.8953    12.2105    13.0352     0.2001     3.1347     2.4619    53.0794 
 2474.2198     6.3054     0.0295    71.1586    54.2855     0.2000    11.8144    12.0965    13.4840     0.1954     3.2286     2.4599    51.9240 
 2474.3722     6.2862     0.0282    71.0446    55.5340     0.2000    11.5526    11.8258    13.1492     0.1947     3.2143     2.4532    50.8534 
 2474.5246     6.2853     0.0267    71.1333    57.2894     0.2000    11.1473    11.4304    12.1905     0.1977     3.1119     2.4428    49.8641 
 2474.6770     6.3016     0.0260    71.3829    57.7366     0.2000    10.8053    11.0897    11.4873     0.2032     3.0255     2.4326    49.0087 
 2474.8294     6.3361     0.0260    71.8047    56.7526     0.2000    10.5344    10.8104    11.0715     0.2114     2.9575     2.4226    48.2980 
 2474.9818     6.3243     0.0221    71.9286    56.6488     0.2000    10.2978    10.5588    11.0071     0.2188     2.9500     2.4174    47.7890 
 2475.1342     6.2796     0.0154    71.8478    57.2148     0.2000    10.0921    10.3339    11.1999     0.2254     2.9841     2.4158    47.4339 
 2475.2866     6.2622     0.0118    72.1160    58.2310     0.2000    10.0131    10.2478    11.3385     0.2302     2.9460     2.4155    47.1904 
 2475.4390     6.2737     0.0112    72.7428    59.6565     0.2000    10.0582    10.2979    11.4087     0.2331     2.8337     2.4165    47.0491 
 2475.5914     6.2849     0.0138    73.3165    60.5716     0.2000    10.4741    10.7223    11.1033     0.2351     2.8302     2.4203    46.4696 
 2475.7438     6.2959     0.0187    73.8492    61.0941     0.2000    11.1751    11.4348    10.5088     0.2363     2.9106     2.4263    45.5531 
 2475.8962     6.2856     0.0196    74.0687    60.3593     0.2000    11.6701    11.9149    10.6175     0.2330     2.9582     2.4250    44.5229 
 2476.0486     6.2581     0.0171    74.0203    58.5877     0.2000    11.9745    12.1851    11.3246     0.2259     2.9749     2.4174    43.4054 
 2476.2010     6.2628     0.0147    73.9245    57.6165     0.2000    12.0988    12.3824    11.6502     0.2216     2.9841     2.4102    42.2564 
 2476.3534     6.2977     0.0122    73.7841    57.3983     0.2000    12.0539    12.5112    11.6173     0.2199     2.9861     2.4033    41.0779 
 2476.5058     6.3248     0.0115    73.3758    57.9206     0.2000    12.0354    12.6154    11.5214     0.2190     3.0213     2.4008    40.6315 
 2476.6582     6.3458     0.0130    72.7504    59.0224     0.2000    12.0553    12.7082    11.4144     0.2185     3.0786     2.4028    40.8232 
 2476.8106     6.3806     0.0205    72.3122    59.3441     0.2000    12.2698    12.9248    11.8564     0.2139     3.0522     2.4116    41.0696 
 2476.9630     6.4302     0.0346    72.0770    58.8191     0.2000    12.6954    13.2758    12.8942     0.2050     2.9349     2.4276    41.3755 
 2477.1154     6.5176     0.0522    71.6596    58.0472     0.2000    12.9145    13.5033    13.5952     0.2004     2.9002     2.4445    41.7198 
 2477.2678     6.6348     0.0718    71.1060    57.1119     0.2000    12.9751    13.6307    14.0046     0.1994     2.9310     2.4616    42.0854 
 2477.4202     6.7638     0.0815    70.5911    56.5146     0.2000    13.0212    13.6769    13.9412     0.2008     2.9956     2.4749    42.3418 
 2477.5726     6.9041     0.0804    70.1227    56.2804     0.2000    13.0587    13.6414    13.3914     0.2047     3.0930     2.4838    42.4821 
 2477.7250     7.0049     0.0623    69.6104    55.8271     0.2000    13.3325    13.9029    13.1543     0.2064     3.1186     2.4799    42.5173 
 2477.8774     7.0743     0.0319    69.0680    55.2242     0.2000    13.7853    14.3888    13.1555     0.2064     3.0915     2.4666    42.4758 
