~Version Information
 VERS.                  2.0:   CWLS log ASCII Standard -VERSION 2.0
 WRAP.                   NO:   One line per depth step
~Well Information Block
#MNEM.UNIT       Data Type    Information
#---------     -----------    ---------------------------
 STRT.M              2290.2730:
 STOP.M              2690.1707:
 STEP.M                 0.1524:
 NULL.               -999.2500:
 UWI .                 1007A-V:  UWI
 API .                 1007A-V:  UWI
 WELL.                 1007A-V:  COMMON WELL NAME
 COMP.       PEMEX EXPL & PROD:  WELL OPERATOR
 FLD .               CANTARELL:  FIELD
 LIC .                 UNKNOWN:  AUTHORIZATION NO
 LOC .                 UNKNOWN:  BASIN
 CTRY.                  MEXICO:  COUNTRY
 STAT.                CAMPECHE:  STATE
 CNTY.          CD. DEL CARMEN:  COUNTY
 PROV.                CAMPECHE:  STATE
 SRVC.                 UNKNOWN:  COMPANY
 DATE.                 UNKNOWN:  LOG RUN DATE
 LONG.                -92.0613:  LONGITUDE
 LATI.                 19.4613:  LATITUDE
 XCOORD.           598531.4375:  X COORDINATE
 YCOORD.          2152011.5000:  Y COORDINATE
 ELEV.M                27.9700:  ELEVATION
 TD  .M              2685.0000:  TOTAL DEPTH
~Parameter Information Block
#MNEM.UNIT       Value        Description
#---------     -----------    ---------------------------
~Curve Information Block
#MNEM.UNIT                 API CODE     Curve Description
#---------               -----------    ---------------------------
 DEPTH.M                00 000 000 000:  Index Curve
 CALI.INCH              00 000 000 000:  Caliper
 DRHO.G/CM3              00 000 000 000:  Density correction
 DT  .US/F              00 000 000 000:  Acoustic wave travel time
 GR  .GAPI              00 000 000 000:  Gamma ray; total
 ILD .OHMM              00 000 000 000:  Resistivity; induction deep
 LLD .OHMM              00 000 000 000:  Resistivity; deep laterolog
 LLS .OHMM              00 000 000 000:  Resistivity; shallow laterolog
 MSFL.OHMM              00 000 000 000:  Resistivity; microspherically focused log
 NPHI.V/V               00 000 000 000:  Neutron porosity
 PEF .B/E               00 000 000 000:  Photoelectric absorption index from density log; Pe
 RHOB.G/CM3              00 000 000 000:  Bulk density
 SP  .MV                00 000 000 000:  Spontaneous potential
~A DEPTH        CALI    DRHO    DT    GR    ILD    LLD    LLS    MSFL    NPHI    PEF    RHOB    SP
# ...
 2554.8394     6.1242     0.0024    58.2277    42.8748     0.2000   172.0722   129.4428   110.5849     0.0941     3.1026     2.5190    41.6082 
 2554.9918     6.1344     0.0062    56.6507    46.5927     0.2000   205.2125   156.2206    99.1718     0.0841     3.2177     2.6268    40.7514 
 2555.1442     6.1374     0.0088    54.8182    49.0057     0.2000   229.8907   177.4209   183.8508     0.0772     3.2384     2.6835    39.7403 
 2555.2966     6.1341     0.0105    52.7579    50.2690     0.2000   246.3767   193.0665   344.4396     0.0731     3.1804     2.6953    38.6000 
 2555.4490     6.1241     0.0169    51.1345    51.6794     0.2000   242.1129   192.1851   333.7520     0.0703     3.1855     2.7018    37.6549 
 2555.6014     6.1077     0.0279    49.9330    53.2320     0.2000   217.8125   175.3443   157.6721     0.0687     3.2514     2.7033    36.8983 
 2555.7538     6.1011     0.0432    49.7264    56.7472     0.2000   192.5843   157.4649   127.6641     0.0681     3.3171     2.6925    36.4006 
 2555.9062     6.1037     0.0610    50.3919    61.5021     0.2000   167.5319   139.4508   216.7317     0.0683     3.3772     2.6718    36.1019 
 2556.0586     6.1144     0.0643    51.1696    60.5994     0.2000   154.4833   130.8178   213.1488     0.0684     3.3715     2.6604    35.4930 
 2556.2110     6.1340     0.0518    52.0701    53.5093     0.2000   154.5626   132.4443   108.2410     0.0684     3.2937     2.6594    34.5449 
 2556.3634     6.1295     0.0421    52.4540    50.4893     0.2000   152.8801   133.2696   116.2619     0.0685     3.2203     2.6802    33.6641 
 2556.5158     6.1087     0.0344    52.4657    50.6281     0.2000   148.9407   132.6205   204.7387     0.0688     3.1517     2.7161    32.8378 
 2556.6682     6.1154     0.0267    52.7114    52.2203     0.2000   131.2891   119.1484   227.8340     0.0709     3.1039     2.7326    32.0678 
 2556.8206     6.1513     0.0187    53.2183    55.1777     0.2000    99.4679    92.3959   179.0971     0.0750     3.0780     2.7281    31.3536 
 2556.9730     6.1518     0.0182    53.1311    57.3669     0.2000    78.4565    74.1830   145.5883     0.0831     3.0714     2.7101    30.6767 
 2557.1254     6.1258     0.0234    52.6024    58.9800     0.2000    65.5303    62.3608   123.4781     0.0943     3.0790     2.6823    30.0289 
 2557.2778     6.1178     0.0311    52.7725    59.0846     0.2000    62.6808    59.8025   127.8693     0.0966     3.1655     2.6913    29.5547 
 2557.4302     6.1269     0.0406    53.5717    57.9013     0.2000    68.2462    65.0301   154.7874     0.0910     3.3194     2.7329    29.2333 
 2557.5826     6.1278     0.0398    53.6925    55.8406     0.2000    78.9653    75.6040   143.3233     0.0838     3.3156     2.7482    28.8004 
 2557.7350     6.1218     0.0303    53.2392    53.0373     0.2000    94.0452    90.7020    99.3812     0.0752     3.1781     2.7412    28.2732 
 2557.8874     6.1238     0.0273    52.4742    50.8890     0.2000   102.8307   100.4680    78.6080     0.0738     3.0588     2.7334    27.7293 
 2558.0398     6.1318     0.0298    51.4861    49.3333     0.2000   106.6364   106.0692    79.4805     0.0784     2.9589     2.7246    27.1726 
 2558.1922     6.1238     0.0321    51.1371    48.3352     0.2000   116.0340   117.2280   110.5806     0.0821     2.9197     2.7116    26.6323 
 2558.3446     6.0993     0.0341    51.4495    47.9139     0.2000   131.2179   134.1377   172.9597     0.0849     2.9431     2.6941    26.1091 
 2558.4970     6.0920     0.0263    51.5153    48.3249     0.2000   140.3231   144.0028   186.5045     0.0817     2.9365     2.6867    25.6708 
 2558.6494     6.0987     0.0111    51.6792    49.3256     0.2000   143.0586   146.6547   159.6425     0.0741     2.9053     2.6885    25.3037 
 2558.8018     6.1055     0.0044    55.4572    49.1559     0.2000   129.6273   132.5893   131.8687     0.0726     2.8805     2.7020    24.9460 
 2558.9542     6.1120     0.0069    63.1821    47.6983     0.2000    98.6329   100.3725   103.7282     0.0780     2.8630     2.7281    24.5975 
 2559.1066     6.1368     0.0085    67.6780    44.4048     0.2000    78.9909    80.2670    84.2289     0.0850     2.9370     2.7301    23.7336 
 2559.2590     6.1737     0.0100    69.8339    39.7858     0.2000    68.1980    69.5569    71.6693     0.0931     3.0749     2.7146    22.4990 
 2559.4114     6.1801     0.0216    72.0986    35.3417     0.2000    71.3553    72.6909    74.4307     0.1009     3.1542     2.6986    21.3535 
 2559.5638     6.1561     0.0431    74.5975    31.1405     0.2000    87.5988    88.7780    91.7162     0.1085     3.1733     2.6831    20.3150 
 2559.7162     6.2052     0.0440    75.6666    26.9892     0.2000   130.7089   131.5569   106.9369     0.1060     3.1210     2.6493    19.6056 
 2559.8686     6.3111     0.0292    75.6300    22.8765     0.2000   194.5947   194.9765   120.5608     0.0957     3.0135     2.6014    19.1507 
 2560.0210     6.2954     0.0317    71.9224    21.5943     0.2000   266.0547   268.9049   147.5599     0.0871     2.9082     2.5828    19.0332 
 2560.1734     6.1760     0.0495    65.1410    22.7512     0.2000   341.0972   348.9545   187.0093     0.0803     2.8097     2.5901    19.1965 
 2560.3258     6.1402     0.0625    59.7854    24.2147     0.2000   342.4627   355.7775   256.2227     0.0767     2.8274     2.6072    19.3402 
 2560.4782     6.1832     0.0711    55.7775    25.9682     0.2000   274.1851   293.3830   353.5706     0.0764     2.9546     2.6338    19.4655 
 2560.6306     6.2014     0.0656    54.2326    29.6390     0.2000   222.3695   241.7152   547.5060     0.0753     3.0178     2.6282    19.5273 
 2560.7830     6.1973     0.0493    54.7568    34.8841     0.2000   185.5150   200.2191   799.6922     0.0740     3.0257     2.5962    19.5461 
 2560.9354     6.1804     0.0475    55.0227    39.4675     0.2000   161.3141   172.3378   751.1157     0.0772     3.0184     2.5749    19.7020 
 2561.0878     6.1493     0.0615    55.0072    43.3297     0.2000   150.9032   159.2941   374.7599     0.0855     2.9949     2.5654    20.0073 
 2561.2402     6.1408     0.0583    54.4180    44.2135     0.2000   139.7605   146.2817   203.1319     0.0834     3.0122     2.6123    20.2907 
 2561.3926     6.1480     0.0420    53.4718    42.8913     0.2000   127.9969   133.2909   189.4569     0.0742     3.0562     2.6990    20.5407 
 2561.5450     6.1336     0.0267    53.6454    42.5493     0.2000   115.3915   120.2662   195.3636     0.0745     3.0367     2.7386    20.5622 
 2561.6974     6.0956     0.0133    55.0188    43.3373     0.2000   101.9221   107.2048   215.3075     0.0851     2.9488     2.7266    20.3435 
 2561.8498     6.1086     0.0053    56.2964    42.5429     0.2000    95.2656   101.2802   177.5130     0.0934     2.9400     2.6830    19.9237 
 2562.0022     6.1589     0.0018    57.5055    40.5865     0.2000    93.7699   100.7613    99.9601     0.0999     2.9894     2.6161    19.3554 
 2562.1546     6.1730     0.0129    58.9340    39.8179     0.2000   101.2794   109.6161   301.1495     0.1074     2.9734     2.5696    18.8555 
 2562.3070     6.1524     0.0370    60.5635    40.1784     0.2000   116.6264   126.6278   755.2754     0.1156     2.8957     2.5424    18.4248 
 2562.4594     6.1521     0.0506    60.5395    40.9848     0.2000   132.4126   144.1721   856.1619     0.1110     2.9366     2.5551    17.7522 
 2562.6118     6.1684     0.0557    59.1468    42.1604     0.2000   148.5623   162.1572   664.6354     0.0956     3.0756     2.6008    16.8795 
 2562.7642     6.1749     0.0445    56.8573    43.5077     0.2000   146.1361   159.6683   452.8172     0.0872     3.1645     2.6336    16.3632 
 2562.9166     6.1720     0.0205    53.9475    44.8564     0.2000   128.2878   140.1532   232.0685     0.0849     3.2032     2.6547    16.1458 
 2563.0690     6.1521     0.0133    53.3123    43.7869     0.2000   117.5547   128.0147   114.6757     0.0874     3.1263     2.6701    15.8136 
 2563.2214     6.1151     0.0233    54.9991    40.2490     0.2000   114.0853   123.4062   102.7903     0.0947     2.9314     2.6796    15.3643 
