~Version Information
 VERS.                  2.0:   CWLS log ASCII Standard -VERSION 2.0
 WRAP.                   NO:   One line per depth step
~Well Information Block
#MNEM.UNIT       Data Type    Information
#---------     -----------    ---------------------------
 STRT.M              2290.2730:
 STOP.M              2690.1707:
 STEP.M                 0.1524:
 NULL.               -999.2500:
 UWI .                 1007A-V:  UWI
 API .                 1007A-V:  UWI
 WELL.                 1007A-V:  COMMON WELL NAME
 COMP.       PEMEX EXPL & PROD:  WELL OPERATOR
 FLD .               CANTARELL:  FIELD
 LIC .                 UNKNOWN:  AUTHORIZATION NO
 LOC .                 UNKNOWN:  BASIN
 CTRY.                  MEXICO:  COUNTRY
 STAT.                CAMPECHE:  STATE
 CNTY.          CD. DEL CARMEN:  COUNTY
 PROV.                CAMPECHE:  STATE
 SRVC.                 UNKNOWN:  COMPANY
 DATE.                 UNKNOWN:  LOG RUN DATE
 LONG.                -92.0613:  LONGITUDE
 LATI.                 19.4613:  LATITUDE
 XCOORD.           598531.4375:  X COORDINATE
 YCOORD.          2152011.5000:  Y COORDINATE
 ELEV.M                27.9700:  ELEVATION
 TD  .M              2685.0000:  TOTAL DEPTH
~Parameter Information Block
#MNEM.UNIT       Value        Description
#---------     -----------    ---------------------------
~Curve Information Block
#MNEM.UNIT                 API CODE     Curve Description
#---------               -----------    ---------------------------
 DEPTH.M                00 000 000 000:  Index Curve
 CALI.INCH              00 000 000 000:  Caliper
 DRHO.G/CM3              00 000 000 000:  Density correction
 DT  .US/F              00 000 000 000:  Acoustic wave travel time
 GR  .GAPI              00 000 000 000:  Gamma ray; total
 ILD .OHMM              00 000 000 000:  Resistivity; induction deep
 LLD .OHMM              00 000 000 000:  Resistivity; deep laterolog
 LLS .OHMM              00 000 000 000:  Resistivity; shallow laterolog
 MSFL.OHMM              00 000 000 000:  Resistivity; microspherically focused log
 NPHI.V/V               00 000 000 000:  Neutron porosity
 PEF .B/E               00 000 000 000:  Photoelectric absorption index from density log; Pe
 RHOB.G/CM3              00 000 000 000:  Bulk density
 SP  .MV                00 000 000 000:  Spontaneous potential
~A DEPTH        CALI    DRHO    DT    GR    ILD    LLD    LLS    MSFL    NPHI    PEF    RHOB    SP
# ...
 2657.2522     6.0347     0.0146    55.8789    36.7451     0.2000   376.0626   386.9081   181.4047     0.0922     2.9657     2.6666     5.5111 
 2657.4046     6.0270     0.0226    54.0729    38.8931     0.2000   414.6666   423.8804   176.5372     0.0871     3.0152     2.6817     5.5557 
 2657.5570     6.0230     0.0251    53.4295    40.5068     0.2000   429.0953   436.0376   183.3880     0.0835     3.0416     2.6865     5.4894 
 2657.7094     6.0230     0.0216    54.0543    41.5378     0.2000   417.1555   421.1285   203.0201     0.0815     3.0425     2.6800     5.3019 
 2657.8618     6.0217     0.0208    54.2062    41.3818     0.1500   417.4499   418.2384   194.4733     0.0784     3.0899     2.6799     5.0911 
 2658.0142     6.0196     0.0220    53.9988    40.3344     0.0626   427.0288   424.4670   165.2998     0.0745     3.1726     2.6846     4.8632 
 2658.1666     6.0194     0.0239    53.6891    39.8840     0.0000   438.4825   432.3200   193.9867     0.0711     3.2730     2.6911     4.6941 
 2658.3190     6.0240     0.0270    53.1808    40.9408     0.0000   453.2637   442.9315   361.1325     0.0689     3.4107     2.7013     4.6646 
 2658.4714     6.0275     0.0244    52.8534    41.2959     0.0000   460.1089   447.8976   446.7595     0.0669     3.4165     2.7009     4.7045 
 2658.6238     6.0296     0.0144    52.7613    40.7315     0.0000   456.5797   445.4849   425.9482     0.0651     3.2487     2.6868     4.8361 
 2658.7762     6.0293     0.0104    53.0220    40.7876     0.0000   451.4721   440.9931   369.9519     0.0646     3.0879     2.6797     4.9981 
 2658.9286     6.0237     0.0215    54.0221    42.5095     0.0000   445.5574   433.7314   262.7173     0.0664     2.9853     2.6919     5.2093 
 2659.0810     6.0192     0.0288    55.1454    44.0478     0.0000   424.1617   412.5883   213.9326     0.0707     2.9785     2.6973     5.3372 
 2659.2334     6.0160     0.0309    56.4297    45.3465     0.0000   382.5494   373.3176   241.4766     0.0781     3.0967     2.6941     5.3559 
 2659.3858     6.0134     0.0279    57.5487    44.7205     0.0000   345.8283   338.2972   260.9964     0.0849     3.1724     2.6854     5.4916 
 2659.5382     6.0114     0.0142    58.2319    39.6693     0.0000   326.7685   318.7961   238.2486     0.0889     3.1104     2.6666     5.9344 
 2659.6906     6.0112     0.0058    58.8075    35.2544     0.0000   327.9855   319.5051   240.2391     0.0921     3.0622     2.6521     6.4005 
 2659.8430     6.0139     0.0057    59.2198    31.8050     0.0000   359.9576   350.8680   279.7519     0.0941     3.0350     2.6442     6.9020 
 2659.9954     6.0147     0.0079    60.4211    30.9550     0.0000   386.7082   377.2160   302.2469     0.0958     3.0086     2.6374     7.7440 
 2660.1478     6.0107     0.0139    63.3109    35.4119     0.0000   397.2328   387.7903   282.5350     0.0970     2.9807     2.6318     9.2969 
 2660.3002     6.0077     0.0188    66.5190    39.4507     0.0000   387.1521   377.9788   239.9454     0.0975     2.9159     2.6265    10.8964 
 2660.4526     6.0066     0.0214    70.2811    42.3397     0.0000   335.9678   327.4862   153.0758     0.0965     2.7757     2.6219    12.5507 
 2660.6050     6.0020     0.0206    71.1387    43.4269     0.0000   304.9492   295.9272   108.1775     0.0964     2.7074     2.6245    14.6954 
 2660.7574     5.9927     0.0157    68.2757    42.2208     0.0000   300.2984   289.1270   117.5457     0.0974     2.7325     2.6363    17.4671 
 2660.9098     5.9890     0.0148    67.1487    42.8903     0.0000   312.9255   298.6844   129.3576     0.1000     2.7861     2.6432    19.8813 
 2661.0622     5.9981     0.0234    70.5799    48.1165     0.0000   357.3745   338.4115   134.8699     0.1058     2.8817     2.6376    21.3864 
 2661.2146     6.0067     0.0253    71.5890    52.1051     0.0000   397.9861   378.8471   171.0591     0.1069     2.9678     2.6300    22.2103 
 2661.3670     6.0147     0.0190    69.6720    54.5987     0.0000   433.9623   420.1387   244.3049     0.1025     3.0425     2.6199    22.2111 
 2661.5194     6.0170     0.0171    67.5952    54.5541     0.0000   458.1353   448.2475   274.7833     0.0982     3.0563     2.6227    21.1972 
 2661.6718     6.0079     0.0268    65.9603    49.6100     0.0000   458.9109   448.6253   206.2144     0.0957     2.9461     2.6527    18.2843 
 2661.8242     6.0045     0.0277    65.8219    48.0700     0.0000   423.3564   413.4006   160.1723     0.0974     2.8341     2.6590    15.6305 
 2661.9766     6.0086     0.0170    67.6536    51.0114     0.0000   339.9742   331.3058   143.7862     0.1046     2.7198     2.6340    13.3179 
 2662.1290     6.0120     0.0082    69.7137    53.4980     0.0000   274.7949   266.3105   117.6649     0.1125     2.6650     2.6065    11.1351 
 2662.2814     6.0120     0.0057    71.8426    54.0780     0.0000   258.2421   247.4022    64.6795     0.1207     2.7366     2.5801     9.1551 
 2662.4338     6.0163     0.0044    73.2416    53.2174     0.0000   246.7842   233.9720    41.7317     0.1242     2.8098     2.5651     7.6448 
 2662.5862     6.0278     0.0054    73.4335    49.9743     0.0000   243.7515   229.6012    68.4568     0.1200     2.8854     2.5692     6.9112 
 2662.7386     6.0325     0.0092    74.1993    49.3880     0.0000   236.8748   223.1255    71.2687     0.1159     2.9240     2.5766     6.4667 
 2662.8910     6.0283     0.0168    75.7716    52.3403     0.0000   224.9528   213.8299    41.1967     0.1123     2.9141     2.5875     6.3782 
 2663.0434     6.0296     0.0215    77.6957    53.8132     0.0000   225.3542   215.4366    24.2465     0.1119     2.9196     2.5934     6.4662 
 2663.1958     6.0428     0.0200    80.2195    51.9400     0.0000   250.7257   238.9384    37.1547     0.1176     2.9613     2.5888     6.8608 
 2663.3482     6.0393     0.0180    80.7511    50.7355     0.0000   281.8180   267.7265    57.5738     0.1228     2.9872     2.5787     7.2850 
 2663.5006     6.0165     0.0156    78.9877    50.3050     0.0000   319.3828   302.4949    86.5639     0.1275     2.9951     2.5623     7.7415 
 2663.6530     6.0047     0.0155    79.8376    49.7309     0.0000   345.4218   326.3320   104.9348     0.1293     3.0346     2.5552     8.4228 
 2663.8054     6.0185     0.0202    86.1281    48.7300     0.0000   347.7022   327.6841   100.9638     0.1255     3.1373     2.5674     9.5121 
 2663.9578     6.0184     0.0196    86.7183    49.0693     0.0000   349.6856   328.1519   104.4896     0.1225     3.1688     2.5717    10.1778 
 2664.1102     6.0019     0.0128    80.6226    50.9807     0.0000   351.3207   327.5826   116.8084     0.1203     3.1169     2.5669    10.3467 
 2664.2626     5.9846     0.0124    76.6161    52.8260     0.0000   349.1949   323.9873   120.4008     0.1186     3.0486     2.5635    10.2569 
 2664.4150     5.9688     0.0251    77.9494    54.2228     0.0000   340.0021   314.8626   105.6235     0.1174     2.9663     2.5651     9.7785 
 2664.5674     5.9665     0.0346    76.9860    52.8473     0.0000   336.4150   312.1927    93.8813     0.1143     2.9193     2.5736     9.4493 
 2664.7198     5.9827     0.0397    72.8411    47.6314     0.0000   340.5935   318.4648    86.3438     0.1087     2.9211     2.5917     9.3271 
 2664.8722     5.9949     0.0388    69.1619    43.0483     0.0000   339.0523   319.7838    85.0404     0.1043     2.9227     2.6074     9.1518 
 2665.0246     5.9981     0.0273    66.6473    40.0110     0.0000   326.3763   311.2258    94.6016     0.1027     2.9196     2.6175     8.8677 
 2665.1770     6.0019     0.0133    64.8665    38.5489     0.0000   311.7885   299.9261   104.0008     0.1028     2.9365     2.6181     9.0180 
 2665.3294     6.0070    -0.0045    64.3425    39.8116     0.0000   294.1611   284.0916   112.8009     0.1060     2.9889     2.6023     9.9350 
 2665.4818     5.9994    -0.0107    63.9433    39.9701     0.0000   299.2553   288.0265   122.2357     0.1085     3.0030     2.5944    10.7328 
 2665.6342     5.9778    -0.0040    63.6821    38.8722     0.0000   330.7094   314.9434   132.3782     0.1102     2.9740     2.5950    11.3816 
