~Version Information
 VERS.                  2.0:   CWLS log ASCII Standard -VERSION 2.0
 WRAP.                   NO:   One line per depth step
~Well Information Block
#MNEM.UNIT       Data Type    Information
#---------     -----------    ---------------------------
 STRT.M              2290.2730:
 STOP.M              2690.1707:
 STEP.M                 0.1524:
 NULL.               -999.2500:
 UWI .                 1007A-V:  UWI
 API .                 1007A-V:  UWI
 WELL.                 1007A-V:  COMMON WELL NAME
 COMP.       PEMEX EXPL & PROD:  WELL OPERATOR
 FLD .               CANTARELL:  FIELD
 LIC .                 UNKNOWN:  AUTHORIZATION NO
 LOC .                 UNKNOWN:  BASIN
 CTRY.                  MEXICO:  COUNTRY
 STAT.                CAMPECHE:  STATE
 CNTY.          CD. DEL CARMEN:  COUNTY
 PROV.                CAMPECHE:  STATE
 SRVC.                 UNKNOWN:  COMPANY
 DATE.                 UNKNOWN:  LOG RUN DATE
 LONG.                -92.0613:  LONGITUDE
 LATI.                 19.4613:  LATITUDE
 XCOORD.           598531.4375:  X COORDINATE
 YCOORD.          2152011.5000:  Y COORDINATE
 ELEV.M                27.9700:  ELEVATION
 TD  .M              2685.0000:  TOTAL DEPTH
~Parameter Information Block
#MNEM.UNIT       Value        Description
#---------     -----------    ---------------------------
~Curve Information Block
#MNEM.UNIT                 API CODE     Curve Description
#---------               -----------    ---------------------------
 DEPTH.M                00 000 000 000:  Index Curve
 CALI.INCH              00 000 000 000:  Caliper
 DRHO.G/CM3              00 000 000 000:  Density correction
 DT  .US/F              00 000 000 000:  Acoustic wave travel time
 GR  .GAPI              00 000 000 000:  Gamma ray; total
 ILD .OHMM              00 000 000 000:  Resistivity; induction deep
 LLD .OHMM              00 000 000 000:  Resistivity; deep laterolog
 LLS .OHMM              00 000 000 000:  Resistivity; shallow laterolog
 MSFL.OHMM              00 000 000 000:  Resistivity; microspherically focused log
 NPHI.V/V               00 000 000 000:  Neutron porosity
 PEF .B/E               00 000 000 000:  Photoelectric absorption index from density log; Pe
 RHOB.G/CM3              00 000 000 000:  Bulk density
 SP  .MV                00 000 000 000:  Spontaneous potential
~A DEPTH        CALI    DRHO    DT    GR    ILD    LLD    LLS    MSFL    NPHI    PEF    RHOB    SP
# ...
 2315.8762     0.0000    -0.2500    40.0000    45.4999     1.5785     0.2000     0.2000     0.2000    -0.1500     0.0000     1.9500     0.0000 
 2316.0286     0.0000    -0.2500    40.0000    45.8722     1.6062     0.2000     0.2000     0.2000    -0.1500     0.0000     1.9500     0.0000 
 2316.1810     0.0000    -0.2500    40.0000    45.6755     1.6328     0.2000     0.2000     0.2000    -0.1500     0.0000     1.9500     0.0000 
 2316.3334     0.0000    -0.2500    40.0000    44.7662     1.6537     0.2000     0.2000     0.2000    -0.1500     0.0000     1.9500     0.0000 
 2316.4858     0.0000    -0.2500    40.0000    43.2586     1.6696     0.2000     0.2000     0.2000    -0.1500     0.0000     1.9500     0.0000 
 2316.6382     0.0000    -0.2500    40.0000    40.7375     1.6697     0.2000     0.2000     0.2000    -0.1500     0.0000     1.9500     0.0000 
 2316.7906     0.0000    -0.2500    40.0000    37.4915     1.6558     0.2000     0.2000     0.2000    -0.1500     0.0000     1.9500     0.0000 
 2316.9430     0.0000    -0.2500    40.0000    36.4529     1.6360     0.2000     0.2000     0.2000    -0.1500     0.0000     1.9500     0.0000 
 2317.0954     0.0000    -0.2500    40.0000    37.6889     1.6101     0.2000     0.2000     0.2000    -0.1500     0.0000     1.9500     0.0000 
 2317.2478     0.0000    -0.2500    40.0000    39.0557     1.5921     0.2000     0.2000     0.2000    -0.1500     0.0000     1.9500     0.0000 
 2317.4002     0.0000    -0.2500    40.0000    40.4407     1.5810     0.2000     0.2000     0.2000    -0.1500     0.0000     1.9500     0.0000 
 2317.5526     0.0000    -0.2500    40.0000    40.7293     1.5693     0.2000     0.2000     0.2000    -0.1500     0.0000     1.9500     0.0000 
 2317.7050     0.0000    -0.2500    40.0000    39.8147     1.5567     0.2000     0.2000     0.2000    -0.1500     0.0000     1.9500     0.0000 
 2317.8574     0.0000    -0.2500    40.0000    40.8067     1.5442     0.2000     0.2000     0.2000    -0.1500     0.0000     1.9500     0.0000 
 2318.0098     0.0000    -0.2500    40.0000    43.2033     1.5317     0.2000     0.2000     0.2000    -0.1500     0.0000     1.9500     0.0000 
 2318.1622     0.0000    -0.2500    40.0000    45.8712     1.5182     0.2000     0.2000     0.2000    -0.1500     0.0000     1.9500     0.0000 
 2318.3146     0.0000    -0.2500    40.0000    48.7295     1.5037     0.2000     0.2000     0.2000    -0.1500     0.0000     1.9500     0.0000 
 2318.4670     0.0000    -0.2500    40.0000    50.1400     1.5089     0.2000     0.2000     0.2000    -0.1500     0.0000     1.9500     0.0000 
 2318.6194     0.0000    -0.2500    40.0000    50.4352     1.5293     0.2000     0.2000     0.2000    -0.1500     0.0000     1.9500     0.0000 
 2318.7718     0.0000    -0.2500    40.0000    49.1048     1.5797     0.2000     0.2000     0.2000    -0.1500     0.0000     1.9500     0.0000 
 2318.9242     0.0000    -0.2500    40.0000    46.4396     1.6554     0.2000     0.2000     0.2000    -0.1500     0.0000     1.9500     0.0000 
 2319.0766     0.0000    -0.2500    40.0000    44.9457     1.7207     0.2000     0.2000     0.2000    -0.1500     0.0000     1.9500     0.0000 
 2319.2290     0.0000    -0.2500    40.0000    44.5521     1.7764     0.2000     0.2000     0.2000    -0.1500     0.0000     1.9500     0.0000 
 2319.3814     0.0000    -0.2500    40.0000    44.4469     1.8268     0.2000     0.2000     0.2000    -0.1500     0.0000     1.9500     0.0000 
 2319.5338     0.0000    -0.2500    40.0000    44.5256     1.8721     0.2000     0.2000     0.2000    -0.1472     0.0000     1.9500     0.0000 
 2319.6862     0.0000    -0.2500    40.0000    43.8344     1.9091     0.2000     0.2000     0.2000    -0.1100     0.0000     1.9500     0.0000 
 2319.8386     0.0000    -0.2500    40.0000    42.3176     1.9371     0.2000     0.2000     0.2000    -0.0358     0.0000     1.9500     0.0000 
 2319.9910     0.0000    -0.2500    40.0000    41.8449     1.9692     0.2000     0.2000     0.2000    -0.0027     0.0000     1.9500     0.0000 
 2320.1434     0.0000    -0.2500    40.0000    42.1927     2.0022     0.2000     0.2000     0.2000    -0.0015     0.0000     1.9500     0.0000 
 2320.2958     0.0000    -0.2500    40.0000    42.7201     2.0030     0.2000     0.2000     0.2000    -0.0015     0.0000     1.9500     0.0000 
 2320.4482     0.0000    -0.2500    40.0000    43.4073     1.9696     0.2000     0.2000     0.2000    -0.0015     0.0000     1.9500     0.0000 
 2320.6006     0.0000    -0.2500    40.0000    45.8483     1.9010     0.2000     0.2000     0.2000    -0.0015     0.0000     1.9500     0.0000 
 2320.7530     0.0000    -0.2500    40.0000    49.5581     1.8063     0.2000     0.2000     0.2000    -0.0015     0.0000     1.9500     0.0000 
 2320.9054     0.0000    -0.2500    40.0000    50.9585     1.7150     0.2000     0.2000     0.2000    -0.0015     0.0000     1.9500     0.0000 
 2321.0578     0.0000    -0.2500    40.0000    50.2304     1.6281     0.2000     0.2000     0.2000    -0.0015     0.0000     1.9500     0.0000 
 2321.2102     0.0000    -0.2500    40.0000    48.7305     1.5166     0.2000     0.2000     0.2000    -0.0015     0.0000     1.9500     0.0000 
 2321.3626     0.0000    -0.2500    40.0000    46.5968     1.3851     0.2000     0.2000     0.2000    -0.0015     0.0000     1.9500     0.0000 
 2321.5150     0.0000    -0.2500    40.0000    42.8520     1.2408     0.2000     0.2000     0.2000    -0.0015     0.0000     1.9500     0.0000 
 2321.6674     0.0000    -0.2500    40.0000    37.7251     1.0863     0.2000     0.2000     0.2000    -0.0015     0.0000     1.9500     0.0000 
 2321.8198     0.0000    -0.2500    40.0000    32.5877     0.9411     0.2000     0.2000     0.2000    -0.0015     0.0000     1.9500     0.0000 
 2321.9722     0.0000    -0.2500    40.0000    27.4394     0.8052     0.2000     0.2000     0.2000    -0.0015     0.0000     1.9500     0.0000 
 2322.1246     0.0000    -0.2500    40.0000    24.9148     0.6888     0.2000     0.2000     0.2000    -0.0015     0.0000     1.9500     0.0000 
 2322.2770     0.0000    -0.2500    40.0000    24.6737     0.5921     0.2000     0.2000     0.2000    -0.0015     0.0000     1.9500     0.0000 
 2322.4294     0.0000    -0.2500    40.0000    25.1450     0.5229     0.2000     0.2000     0.2000    -0.0015     0.0000     1.9500     0.0000 
 2322.5818     0.0000    -0.2500    40.0000    26.3875     0.4840     0.2000     0.2000     0.2000    -0.0015     0.0000     1.9500     0.0000 
 2322.7342     0.0000    -0.2500    40.0000    29.2759     0.4694     0.2000     0.2000     0.2000    -0.0015     0.0000     1.9500     0.0000 
 2322.8866     0.0000    -0.2500    40.0000    33.4725     0.4739     0.2000     0.2000     0.2000    -0.0015     0.0000     1.9500     0.0000 
 2323.0390     0.0000    -0.2500    40.0000    39.3420     0.4975     0.2000     0.2000     0.2000    -0.0015     0.0000     1.9500     0.0000 
 2323.1914     0.0000    -0.2500    40.0000    46.8283     0.5396     0.2000     0.2000     0.2000    -0.0015     0.0000     1.9500     0.0000 
 2323.3438     0.0000    -0.2500    40.0000    50.7079     0.5947     0.2000     0.2000     0.2000    -0.0015     0.0000     1.9500     0.0000 
 2323.4962     0.0000    -0.2500    40.0000    51.8380     0.6599     0.2000     0.2000     0.2000    -0.0015     0.0000     1.9500     0.0000 
 2323.6486     0.0000    -0.2500    40.0000    51.6358     0.7317     0.2000     0.2000     0.2000    -0.0015     0.0000     1.9500     0.0000 
 2323.8010     0.0000    -0.2500    40.0000    50.4183     0.8083     0.2000     0.2000     0.2000    -0.0015     0.0000     1.9500     0.0000 
 2323.9534     0.0000    -0.2500    40.0000    49.3020     0.8688     0.2000     0.2000     0.2000    -0.0015     0.0000     1.9500     0.0000 
 2324.1058     0.0000    -0.2500    40.0000    48.2774     0.9148     0.2000     0.2000     0.2000    -0.0015     0.0000     1.9500     0.0000 
 2324.2582     0.0000    -0.2500    40.0000    48.2383     0.9468     0.2000     0.2000     0.2000    -0.0015     0.0000     1.9500     0.0000 
