~Version Information
 VERS.                  2.0:   CWLS log ASCII Standard -VERSION 2.0
 WRAP.                   NO:   One line per depth step
~Well Information Block
#MNEM.UNIT       Data Type    Information
#---------     -----------    ---------------------------
 STRT.M              2290.2730:
 STOP.M              2690.1707:
 STEP.M                 0.1524:
 NULL.               -999.2500:
 UWI .                 1007A-V:  UWI
 API .                 1007A-V:  UWI
 WELL.                 1007A-V:  COMMON WELL NAME
 COMP.       PEMEX EXPL & PROD:  WELL OPERATOR
 FLD .               CANTARELL:  FIELD
 LIC .                 UNKNOWN:  AUTHORIZATION NO
 LOC .                 UNKNOWN:  BASIN
 CTRY.                  MEXICO:  COUNTRY
 STAT.                CAMPECHE:  STATE
 CNTY.          CD. DEL CARMEN:  COUNTY
 PROV.                CAMPECHE:  STATE
 SRVC.                 UNKNOWN:  COMPANY
 DATE.                 UNKNOWN:  LOG RUN DATE
 LONG.                -92.0613:  LONGITUDE
 LATI.                 19.4613:  LATITUDE
 XCOORD.           598531.4375:  X COORDINATE
 YCOORD.          2152011.5000:  Y COORDINATE
 ELEV.M                27.9700:  ELEVATION
 TD  .M              2685.0000:  TOTAL DEPTH
~Parameter Information Block
#MNEM.UNIT       Value        Description
#---------     -----------    ---------------------------
~Curve Information Block
#MNEM.UNIT                 API CODE     Curve Description
#---------               -----------    ---------------------------
 DEPTH.M                00 000 000 000:  Index Curve
 CALI.INCH              00 000 000 000:  Caliper
 DRHO.G/CM3              00 000 000 000:  Density correction
 DT  .US/F              00 000 000 000:  Acoustic wave travel time
 GR  .GAPI              00 000 000 000:  Gamma ray; total
 ILD .OHMM              00 000 000 000:  Resistivity; induction deep
 LLD .OHMM              00 000 000 000:  Resistivity; deep laterolog
 LLS .OHMM              00 000 000 000:  Resistivity; shallow laterolog
 MSFL.OHMM              00 000 000 000:  Resistivity; microspherically focused log
 NPHI.V/V               00 000 000 000:  Neutron porosity
 PEF .B/E               00 000 000 000:  Photoelectric absorption index from density log; Pe
 RHOB.G/CM3              00 000 000 000:  Bulk density
 SP  .MV                00 000 000 000:  Spontaneous potential
~A DEPTH        CALI    DRHO    DT    GR    ILD    LLD    LLS    MSFL    NPHI    PEF    RHOB    SP
# ...
 2682.8554     5.7275     0.0564    74.3562    57.9380     0.0000   434.2573   287.8127    28.0310     0.1093     2.9741     2.5137     5.8148 
 2683.0078     5.7165     0.0478    76.6977    57.9380     0.0000   434.0731   287.7068    28.0310     0.1092     2.9556     2.5341     5.7991 
 2683.1602     5.7110     0.0558    78.2065    57.9380     0.0000   434.0305   287.6606    28.0310     0.1082     2.9021     2.5735     5.7937 
 2683.3126     5.7110     0.0802    78.7783    57.9380     0.0000   434.1287   287.6768    28.0310     0.1063     2.8167     2.6314     5.7988 
 2683.4650     5.7024     0.0894    78.5294    57.9380     0.0000   434.2238   287.6125    28.0310     0.1061     2.7814     2.6526     5.8063 
 2683.6174     5.6873     0.0871    77.6669    57.9380     0.0000   434.3167   287.4879    28.0310     0.1071     2.7836     2.6462     5.8155 
 2683.7698     5.6702     0.0743    80.5248    57.9380     0.0000   434.4632   287.4421    28.0310     0.1074     2.7278     2.5957     5.8150 
 2683.9222     5.6522     0.0530    86.6249    57.9380     0.0000   434.6650   287.4666    28.0310     0.1070     2.6212     2.5059     5.8057 
 2684.0746     5.6509     0.0523    89.5964    57.9380     0.0000   435.0071   287.4431    28.0310     0.1067     2.5667     2.4298     5.8051 
 2684.2270     5.6651     0.0711    89.6583    57.9380     0.0000   435.4795   287.3748    28.0310     0.1067     2.5608     2.3664     5.8125 
 2684.3794     5.5853     0.0990    89.7374    57.9380     0.0000   435.8078   287.3645    28.0310     0.1074     2.6064     2.3669     5.8218 
 2684.5318     5.4223     0.1360    89.8291    57.9380     0.0000   436.0115   287.4127    28.0310     0.1088     2.6954     2.4248     5.8324 
 2684.6842     5.2997     0.1778    89.8837    57.9380     0.0000   436.3074   287.5167    28.0310     0.1099     2.7402     2.4648     5.8352 
 2684.8366     5.2194     0.2246    89.8994    57.9380     0.0000   436.6999   287.6794    28.0310     0.1106     2.7386     2.4861     5.8301 
 2684.9890     5.1771     0.2586    89.8967    57.9380     0.0000   436.8003   287.7008    28.0310     0.1110     2.7313     2.5006     5.8298 
 2685.1414     5.1599     0.2837    89.8835    57.9380     0.0000   436.7052   287.6359    28.0310     0.1111     2.7229     2.5102     5.8321 
 2685.2938     5.1489     0.2969    89.8926    57.9380     0.0000   436.5076   287.6371    28.0310     0.1112     2.7541     2.5148     5.8253 
 2685.4462     5.1433     0.2984    89.9246    57.9380     0.0000   436.2140   287.7082    28.0310     0.1113     2.8252     2.5142     5.8096 
 2685.5986     5.1411     0.2920    89.8826    57.9380     0.0000   435.9825   287.6870    28.0310     0.1113     2.8218     2.5029     5.8076 
 2685.7510     5.1410     0.2804    89.7925    57.9380     0.0000   435.7930   287.6056    28.0310     0.1113     2.7699     2.4846     5.8146 
 2685.9034     5.1399     0.2761    89.7500    41.8569     0.0000   314.8279   207.8061    20.3063     0.1113     2.7456     2.4771     4.2032 
 2686.0558     5.1379     0.2780    89.7500    12.8497     0.0000    96.7877    63.9330     6.3725     0.1113     2.7466     2.4790     1.2903 
 2686.2082     5.1370     0.2730    89.7500     0.0000     0.0000     0.2000     0.2000     0.2000     0.1114     2.7504     2.4743     0.0000 
 2686.3606     5.1370     0.2627    89.7500     0.0000     0.0000     0.2000     0.2000     0.2000     0.1114     2.7563     2.4644     0.0000 
 2686.5130     5.1370     0.2566    75.9851     0.0000     0.0000     0.2000     0.2000     0.2000     0.1114     2.7358     2.4594     0.0000 
 2686.6654     5.1370     0.2545    51.7877     0.0000     0.0000     0.2000     0.2000     0.2000     0.1114     2.6963     2.4589     0.0000 
 2686.8178     5.1375     0.2584    40.0000     0.0000     0.0000     0.2000     0.2000     0.2000     0.1113     2.6934     2.4640     0.0000 
 2686.9702     5.1385     0.2677    40.0000     0.0000     0.0000     0.2000     0.2000     0.2000     0.1113     2.7253     2.4743     0.0000 
 2687.1226     5.1384     0.2783    40.0000     0.0000     0.0000     0.2000     0.2000     0.2000     0.1113     2.7542     2.4842     0.0000 
 2687.2750     5.1375     0.2892    40.0000     0.0000     0.0000     0.2000     0.2000     0.2000     0.1114     2.7793     2.4932     0.0000 
 2687.4274     5.1376     0.2921    40.0000     0.0000     0.0000     0.2000     0.2000     0.2000     0.1114     2.7897     2.4954     0.0000 
 2687.5798     5.1386     0.2870    40.0000     0.0000     0.0000     0.2000     0.2000     0.2000     0.1113     2.7856     2.4908     0.0000 
 2687.7322     5.1390     0.2860    40.0000     0.0000     0.0000     0.2000     0.2000     0.2000     0.1113     2.7731     2.4897     0.0000 
 2687.8846     5.1390     0.2874    40.0000     0.0000     0.0000     0.2000     0.2000     0.2000     0.1113     2.7564     2.4905     0.0000 
 2688.0370     5.1396     0.2883    40.0000     0.0000     0.0000     0.2000     0.2000     0.2000     0.1113     2.7570     2.4904     0.0000 
 2688.1894     5.1406     0.2888    40.0000     0.0000     0.0000     0.2000     0.2000     0.2000     0.1113     2.7727     2.4894     0.0000 
 2688.3418     5.1404     0.2875    40.0000     0.0000     0.0000     0.2000     0.2000     0.2000     0.1113     2.7778     2.4872     0.0000 
 2688.4942     5.1394     0.2851    40.0000     0.0000     0.0000     0.2000     0.2000     0.2000     0.1113     2.7759     2.4843     0.0000 
 2688.6466     5.1384     0.2837    40.0000     0.0000     0.0000     0.2000     0.2000     0.2000     0.1113     2.7335     2.4815     0.0000 
 2688.7990     5.1374     0.2835    40.0000     0.0000     0.0000     0.2000     0.2000     0.2000     0.1113     2.6647     2.4794     0.0000 
 2688.9514     5.1370     0.2874    40.0000     0.0000     0.0000     0.2000     0.2000     0.2000     0.1114     2.6563     2.4833     0.0000 
 2689.1038     5.1370     0.2948    40.0000     0.0000     0.0000     0.2000     0.2000     0.2000     0.1114     2.6986     2.4922     0.0000 
 2689.2562     5.1358     0.2934    40.0000     0.0000     0.0000     0.2000     0.2000     0.2000     0.1114     2.7325     2.4912     0.0000 
