~Version Information
 VERS.                  2.0:   CWLS log ASCII Standard -VERSION 2.0
 WRAP.                   NO:   One line per depth step
~Well Information Block
#MNEM.UNIT       Data Type    Information
#---------     -----------    ---------------------------
 STRT.M              2290.2730:
 STOP.M              2690.1707:
 STEP.M                 0.1524:
 NULL.               -999.2500:
 UWI .                 1007A-V:  UWI
 API .                 1007A-V:  UWI
 WELL.                 1007A-V:  COMMON WELL NAME
 COMP.       PEMEX EXPL & PROD:  WELL OPERATOR
 FLD .               CANTARELL:  FIELD
 LIC .                 UNKNOWN:  AUTHORIZATION NO
 LOC .                 UNKNOWN:  BASIN
 CTRY.                  MEXICO:  COUNTRY
 STAT.                CAMPECHE:  STATE
 CNTY.          CD. DEL CARMEN:  COUNTY
 PROV.                CAMPECHE:  STATE
 SRVC.                 UNKNOWN:  COMPANY
 DATE.                 UNKNOWN:  LOG RUN DATE
 LONG.                -92.0613:  LONGITUDE
 LATI.                 19.4613:  LATITUDE
 XCOORD.           598531.4375:  X COORDINATE
 YCOORD.          2152011.5000:  Y COORDINATE
 ELEV.M                27.9700:  ELEVATION
 TD  .M              2685.0000:  TOTAL DEPTH
~Parameter Information Block
#MNEM.UNIT       Value        Description
#---------     -----------    ---------------------------
~Curve Information Block
#MNEM.UNIT                 API CODE     Curve Description
#---------               -----------    ---------------------------
 DEPTH.M                00 000 000 000:  Index Curve
 CALI.INCH              00 000 000 000:  Caliper
 DRHO.G/CM3              00 000 000 000:  Density correction
 DT  .US/F              00 000 000 000:  Acoustic wave travel time
 GR  .GAPI              00 000 000 000:  Gamma ray; total
 ILD .OHMM              00 000 000 000:  Resistivity; induction deep
 LLD .OHMM              00 000 000 000:  Resistivity; deep laterolog
 LLS .OHMM              00 000 000 000:  Resistivity; shallow laterolog
 MSFL.OHMM              00 000 000 000:  Resistivity; microspherically focused log
 NPHI.V/V               00 000 000 000:  Neutron porosity
 PEF .B/E               00 000 000 000:  Photoelectric absorption index from density log; Pe
 RHOB.G/CM3              00 000 000 000:  Bulk density
 SP  .MV                00 000 000 000:  Spontaneous potential
~A DEPTH        CALI    DRHO    DT    GR    ILD    LLD    LLS    MSFL    NPHI    PEF    RHOB    SP
# ...
 2392.6858     0.0000    -0.2500    40.0000    22.2717     9.4905     0.2000     0.2000     0.2000    -0.0015     0.0000     1.9500     0.0000 
 2392.8382     0.0000    -0.2500    40.0000    21.4915     9.4840     0.2000     0.2000     0.2000    -0.0015     0.0000     1.9500     0.0000 
 2392.9906     0.0000    -0.2500    40.0000    20.6019     9.5904     0.2000     0.2000     0.2000    -0.0015     0.0000     1.9500     0.0000 
 2393.1430     0.0000    -0.2500    40.0000    20.6398     9.8454     0.2000     0.2000     0.2000    -0.0015     0.0000     1.9500     0.0000 
 2393.2954     0.0000    -0.2500    40.0000    21.4609    10.2156     0.2000     0.2000     0.2000    -0.0015     0.0000     1.9500     0.0000 
 2393.4478     0.0000    -0.2500    40.0000    21.8813    10.3516     0.2000     0.2000     0.2000    -0.0015     0.0000     1.9500     0.0000 
 2393.6002     0.0000    -0.2500    40.0000    21.9079    10.2579     0.2000     0.2000     0.2000    -0.0015     0.0000     1.9500     0.0000 
 2393.7526     0.0000    -0.2500    40.0000    21.9527     9.8057     0.2000     0.2000     0.2000    -0.0015     0.0000     1.9500     0.0000 
 2393.9050     0.0000    -0.2500    40.0000    22.0617     9.0482     0.2000     0.2000     0.2000    -0.0015     0.0000     1.9500     0.0000 
 2394.0574     0.0000    -0.2500    40.0000    22.7423     8.2631     0.2000     0.2000     0.2000    -0.0015     0.0000     1.9500     0.0000 
 2394.2098     0.0000    -0.2500    40.0000    24.0418     7.4479     0.2000     0.2000     0.2000    -0.0015     0.0000     1.9500     0.0000 
 2394.3622     0.0000    -0.2500    40.0000    25.3088     6.8135     0.2000     0.2000     0.2000    -0.0015     0.0000     1.9500     0.0000 
 2394.5146     0.0000    -0.2500    40.0000    26.5092     6.3199     0.2000     0.2000     0.2000    -0.0015     0.0000     1.9500     0.0000 
 2394.6670     0.0000    -0.2500    40.0000    27.0505     5.9046     0.2000     0.2000     0.2000    -0.0015     0.0000     1.9500     0.0000 
 2394.8194     0.0000    -0.2500    40.0000    26.9121     5.5638     0.2000     0.2000     0.2000    -0.0015     0.0000     1.9500     0.0000 
 2394.9718     0.0000    -0.2500    40.0000    26.6813     5.3836     0.2000     0.2000     0.2000    -0.0015     0.0000     1.9500     0.0000 
 2395.1242     0.0000    -0.2500    40.0000    26.3796     5.3233     0.2000     0.2000     0.2000    -0.0015     0.0000     1.9500     0.0000 
 2395.2766     0.0000    -0.2500    40.0000    25.8040     5.3548     0.2000     0.2000     0.2000    -0.0015     0.0000     1.9500     0.0000 
 2395.4290     0.0000    -0.2500    40.0000    24.9944     5.4579     0.2000     0.2000     0.2000    -0.0015     0.0000     1.9500     0.0000 
 2395.5814     0.0000    -0.2500    40.0000    24.4441     5.6075     0.2000     0.2000     0.2000    -0.0015     0.0000     1.9500     0.0000 
 2395.7338     0.0000    -0.2500    40.0000    24.1202     5.7974     0.2000     0.2000     0.2000    -0.0015     0.0000     1.9500     0.0000 
 2395.8862     0.0000    -0.2500    40.0000    23.3222     6.0855     0.2000     0.2000     0.2000    -0.0015     0.0000     1.9500     0.0000 
 2396.0386     0.0000    -0.2500    40.0000    22.2056     6.4537     0.2000     0.2000     0.2000    -0.0015     0.0000     1.9500     0.0000 
 2396.1910     0.0000    -0.2500    40.0000    22.3425     6.7686     0.2000     0.2000     0.2000    -0.0015     0.0000     1.9500     0.0000 
 2396.3434     0.0000    -0.2500    40.0000    23.7881     7.0278     0.2000     0.2000     0.2000    -0.0015     0.0000     1.9500     0.0000 
 2396.4958     0.0000    -0.2500    40.0000    25.4036     7.2220     0.2000     0.2000     0.2000    -0.0015     0.0000     1.9500     0.0000 
 2396.6482     0.0000    -0.2500    40.0000    27.0522     7.3590     0.2000     0.2000     0.2000    -0.0015     0.0000     1.9500     0.0000 
 2396.8006     0.0000    -0.2500    40.0000    27.4110     7.4473     0.2000     0.2000     0.2000    -0.0015     0.0000     1.9500     0.0000 
 2396.9530     0.0000    -0.2500    40.0000    26.3571     7.4835     0.2000     0.2000     0.2000    -0.0015     0.0000     1.9500     0.0000 
 2397.1054     0.0000    -0.2500    40.0000    25.8782     7.4303     0.2000     0.2000     0.2000    -0.0015     0.0000     1.9500     0.0000 
 2397.2578     0.0000    -0.2500    40.0000    25.8381     7.3148     0.2000     0.2000     0.2000    -0.0015     0.0000     1.9500     0.0000 
 2397.4102     0.0000    -0.2500    40.0000    26.3200     7.2649     0.2000     0.2000     0.2000    -0.0015     0.0000     1.9500     0.0000 
 2397.5626     0.0000    -0.2500    40.0000    27.2779     7.2814     0.2000     0.2000     0.2000    -0.0015     0.0000     1.9500     0.0000 
 2397.7150     0.0000    -0.2500    40.0000    26.1482     7.6489     0.2000     0.2000     0.2000    -0.0015     0.0000     1.9500     0.0000 
 2397.8674     0.0000    -0.2500    40.0000    23.3814     8.2917     0.2000     0.2000     0.2000    -0.0015     0.0000     1.9500     0.0000 
 2398.0198     0.0000    -0.2500    40.0000    20.6943     8.6599     0.2000     0.2000     0.2000    -0.0015     0.0000     1.9500     0.0000 
 2398.1722     0.0000    -0.2500    40.0000    18.1873     8.7858     0.2000     0.2000     0.2000    -0.0015     0.0000     1.9500     0.0000 
 2398.3246     0.0000    -0.2500    40.0000    17.4752     8.9930     0.2000     0.2000     0.2000    -0.0015     0.0000     1.9500     0.0000 
 2398.4770     0.0000    -0.2500    40.0000    18.4912     9.2785     0.2000     0.2000     0.2000    -0.0015     0.0000     1.9500     0.0000 
 2398.6294     0.0000    -0.2500    40.0000    20.4475     8.9370     0.2000     0.2000     0.2000    -0.0015     0.0000     1.9500     0.0000 
 2398.7818     0.0000    -0.2500    40.0000    23.1883     8.0562     0.2000     0.2000     0.2000    -0.0015     0.0000     1.9500     0.0000 
 2398.9342     0.0000    -0.2500    40.0000    25.7115     7.1256     0.2000     0.2000     0.2000    -0.0015     0.0000     1.9500     0.0000 
 2399.0866     0.0000    -0.2500    40.0000    27.9995     6.1410     0.2000     0.2000     0.2000    -0.0015     0.0000     1.9500     0.0000 
 2399.2390     0.0000    -0.2500    40.0000    28.4134     5.4509     0.2000     0.2000     0.2000    -0.0015     0.0000     1.9500     0.0000 
 2399.3914     0.0000    -0.2500    40.0000    27.3901     4.9973     0.2000     0.2000     0.2000    -0.0015     0.0000     1.9500     0.0000 
 2399.5438     0.0000    -0.2500    40.0000    26.2292     4.7181     0.2000     0.2000     0.2000    -0.0015     0.0000     1.9500     0.0000 
 2399.6962     0.0000    -0.2500    40.0000    24.9892     4.6123     0.2000     0.2000     0.2000    -0.0015     0.0000     1.9500     0.0000 
 2399.8486     0.0000    -0.2500    40.0000    23.9068     4.6254     0.2000     0.2000     0.2000    -0.0015     0.0000     1.9500     0.0000 
 2400.0010     0.0000    -0.2500    40.0000    22.9484     4.7270     0.2000     0.2000     0.2000    -0.0015     0.0000     1.9500     0.0000 
 2400.1534     0.0000    -0.2500    40.0000    22.8167     4.7786     0.2000     0.2000     0.2000    -0.0015     0.0000     1.9500     0.0000 
 2400.3058     0.0000    -0.2500    40.0000    23.4011     4.7816     0.2000     0.2000     0.2000    -0.0015     0.0000     1.9500     0.0000 
 2400.4582     0.0000    -0.2500    40.0000    23.3980     4.4978     0.2000     0.2000     0.2000    -0.0015     0.0000     1.9500     0.0000 
 2400.6106     0.0000    -0.2500    40.0000    22.9003     3.9722     0.2000     0.2000     0.2000    -0.0015     0.0000     1.9500     0.0000 
 2400.7630     0.0000    -0.2500    40.0000    18.4629     3.2783     0.2000     0.2000     0.2000    -0.0015     0.0000     1.9500     0.0000 
 2400.9154     0.0000    -0.2500    40.0000    14.9405     2.7830     0.2000     0.2000     0.2000    -0.0015     0.0000     1.9500     0.0000 
 2401.0678     0.0000    -0.2500    40.0000    15.9870     2.6516     0.2000     0.2000     0.2000    -0.0015     0.0000     1.9500     0.0000 
