~Version Information
 VERS.                  2.0:   CWLS log ASCII Standard -VERSION 2.0
 WRAP.                   NO:   One line per depth step
~Well Information Block
#MNEM.UNIT       Data Type    Information
#---------     -----------    ---------------------------
 STRT.M              2290.2730:
 STOP.M              2690.1707:
 STEP.M                 0.1524:
 NULL.               -999.2500:
 UWI .                 1007A-V:  UWI
 API .                 1007A-V:  UWI
 WELL.                 1007A-V:  COMMON WELL NAME
 COMP.       PEMEX EXPL & PROD:  WELL OPERATOR
 FLD .               CANTARELL:  FIELD
 LIC .                 UNKNOWN:  AUTHORIZATION NO
 LOC .                 UNKNOWN:  BASIN
 CTRY.                  MEXICO:  COUNTRY
 STAT.                CAMPECHE:  STATE
 CNTY.          CD. DEL CARMEN:  COUNTY
 PROV.                CAMPECHE:  STATE
 SRVC.                 UNKNOWN:  COMPANY
 DATE.                 UNKNOWN:  LOG RUN DATE
 LONG.                -92.0613:  LONGITUDE
 LATI.                 19.4613:  LATITUDE
 XCOORD.           598531.4375:  X COORDINATE
 YCOORD.          2152011.5000:  Y COORDINATE
 ELEV.M                27.9700:  ELEVATION
 TD  .M              2685.0000:  TOTAL DEPTH
~Parameter Information Block
#MNEM.UNIT       Value        Description
#---------     -----------    ---------------------------
~Curve Information Block
#MNEM.UNIT                 API CODE     Curve Description
#---------               -----------    ---------------------------
 DEPTH.M                00 000 000 000:  Index Curve
 CALI.INCH              00 000 000 000:  Caliper
 DRHO.G/CM3              00 000 000 000:  Density correction
 DT  .US/F              00 000 000 000:  Acoustic wave travel time
 GR  .GAPI              00 000 000 000:  Gamma ray; total
 ILD .OHMM              00 000 000 000:  Resistivity; induction deep
 LLD .OHMM              00 000 000 000:  Resistivity; deep laterolog
 LLS .OHMM              00 000 000 000:  Resistivity; shallow laterolog
 MSFL.OHMM              00 000 000 000:  Resistivity; microspherically focused log
 NPHI.V/V               00 000 000 000:  Neutron porosity
 PEF .B/E               00 000 000 000:  Photoelectric absorption index from density log; Pe
 RHOB.G/CM3              00 000 000 000:  Bulk density
 SP  .MV                00 000 000 000:  Spontaneous potential
~A DEPTH        CALI    DRHO    DT    GR    ILD    LLD    LLS    MSFL    NPHI    PEF    RHOB    SP
# ...
 2503.6330     6.1879     0.0274    58.7258    42.3593     0.2000   102.5944   108.2708    39.2634     0.1394     3.2074     2.4907    21.2418 
 2503.7854     6.1924     0.0262    58.9408    42.8969     0.2000    96.7388   102.2126    32.8436     0.1408     3.0921     2.4933    20.9245 
 2503.9378     6.2099     0.0212    59.5198    43.6237     0.2000    97.3080   102.5697    47.2185     0.1463     3.0636     2.4923    20.6475 
 2504.0902     6.2414     0.0122    60.4884    44.5527     0.2000   104.7519   109.7910    83.8437     0.1563     3.1281     2.4873    20.4136 
 2504.2426     6.2319     0.0164    60.8897    44.4330     0.2000   127.9947   133.5076    98.5049     0.1604     3.2172     2.4815    20.1962 
 2504.3950     6.1929     0.0304    60.7823    43.5662     0.2000   162.3100   168.8649    94.8655     0.1594     3.3192     2.4761    19.9978 
 2504.5474     6.1916     0.0366    59.9102    43.7562     0.2000   178.4231   186.2442    79.4194     0.1527     3.3388     2.4857    19.8770 
 2504.6998     6.2316     0.0341    58.2394    45.0995     0.2000   174.7292   184.0361    52.0013     0.1400     3.2698     2.5113    19.8380 
 2504.8522     6.2198     0.0350    57.7905    46.1220     0.2000   166.3128   176.0592    45.8333     0.1367     3.2248     2.5298    19.6893 
 2505.0046     6.1709     0.0387    58.2366    46.9032     0.2000   154.6193   164.0398    55.4294     0.1405     3.1970     2.5428    19.4651 
 2505.1570     6.1546     0.0567    58.6707    47.4254     0.2000   150.8293   159.9765    73.2916     0.1439     3.1600     2.5487    19.4528 
 2505.3094     6.1706     0.0877    59.0455    47.7218     0.2000   154.5097   163.4735    97.9375     0.1467     3.1135     2.5482    19.6403 
 2505.4618     6.1672     0.0927    59.2323    47.3740     0.2000   156.4157   166.5319   100.4638     0.1468     3.0283     2.5535    19.5116 
 2505.6142     6.1481     0.0767    59.2666    46.5042     0.2000   156.8839   169.2350    85.0673     0.1448     2.9116     2.5634    19.1267 
 2505.7666     6.1435     0.0521    59.5155    46.1192     0.2000   154.3360   168.1525    83.9440     0.1431     2.8468     2.5645    18.9450 
 2505.9190     6.1526     0.0214    59.9487    46.1188     0.2000   149.4132   164.0108    94.7431     0.1417     2.8285     2.5585    18.9527 
 2506.0714     6.1725     0.0073    60.2743    45.2005     0.2000   148.7779   164.2711    89.2661     0.1413     2.8244     2.5628    19.1097 
 2506.2238     6.2030     0.0099    60.4932    43.3728     0.2000   152.3909   168.8931    67.6620     0.1420     2.8344     2.5773    19.4146 
 2506.3762     6.2013     0.0110    60.2370    42.7427     0.2000   164.1157   182.4030    64.1871     0.1434     2.8316     2.5811    19.3266 
 2506.5286     6.1733     0.0119    59.5432    43.1101     0.2000   182.7953   203.5195    78.6357     0.1453     2.8210     2.5758    18.9035 
 2506.6810     6.1644     0.0236    58.6462    43.0766     0.2000   196.8407   219.2220   118.8160     0.1442     2.8528     2.5733    18.5987 
 2506.8334     6.1764     0.0471    57.5217    42.6083     0.2000   205.9793   229.1863   187.2084     0.1398     2.9308     2.5738    18.4192 
 2506.9858     6.1703     0.0519    57.0943    42.1475     0.2000   202.2933   226.0345   193.7402     0.1356     2.9776     2.5541    18.3223 
 2507.1382     6.1509     0.0430    57.2020    41.7084     0.2000   189.2839   213.3374   154.1956     0.1315     3.0015     2.5205    18.2811 
 2507.2906     6.1383     0.0402    57.4953    41.5349     0.2000   181.5119   205.8254   121.4846     0.1290     3.0332     2.5049    18.1376 
 2507.4430     6.1333     0.0442    57.9481    41.6289     0.2000   179.5212   204.0536    98.0887     0.1280     3.0742     2.5084    17.8878 
 2507.5954     6.1364     0.0481    57.7881    42.4141     0.2000   182.3612   207.6214   154.1020     0.1262     3.1199     2.5175    17.6688 
 2507.7478     6.1457     0.0521    57.1703    43.7156     0.2000   188.8096   215.1777   269.4330     0.1238     3.1692     2.5308    17.4729 
 2507.9002     6.1490     0.0438    56.7908    44.8031     0.2000   192.3857   219.7733   279.9516     0.1212     3.1215     2.5324    17.2652 
 2508.0526     6.1468     0.0249    56.6333    45.6773     0.2000   193.3457   221.6528   198.5445     0.1184     2.9913     2.5240    17.0473 
 2508.2050     6.1336     0.0155    56.3692    45.7287     0.2000   193.9634   222.3472   158.6418     0.1205     2.9362     2.5165    16.9367 
 2508.3574     6.1107     0.0144    56.0103    45.0490     0.2000   194.2768   221.9883   155.6196     0.1270     2.9477     2.5100    16.9212 
 2508.5098     6.1232     0.0191    55.7768    45.0789     0.2000   196.0321   223.9182   151.5118     0.1267     2.9401     2.5243    16.8887 
 2508.6622     6.1627     0.0287    55.6503    45.6124     0.2000   198.5291   227.2200   146.9740     0.1207     2.9194     2.5559    16.8466 
 2508.8146     6.1552     0.0398    55.5093    44.6836     0.2000   194.2816   222.4216   149.2319     0.1186     2.9440     2.5821    16.8709 
 2508.9670     6.0982     0.0523    55.3530    42.2256     0.2000   182.9819   209.1540   158.5954     0.1205     3.0159     2.6026    16.9647 
 2509.1194     6.1013     0.0450    55.6182    41.5338     0.2000   176.3250   201.6490   188.8353     0.1199     2.9943     2.5999    17.0628 
 2509.2718     6.1477     0.0229    56.4006    42.2529     0.2000   173.9013   199.3497   236.0665     0.1177     2.9020     2.5793    17.1496 
 2509.4242     6.1429     0.0140    59.4283    43.0652     0.2000   178.1898   204.7814   288.2975     0.1173     2.8546     2.5628    17.0575 
 2509.5766     6.0814     0.0195    64.8634    43.9398     0.2000   189.6023   218.4095   345.4603     0.1189     2.8576     2.5513    16.7726 
 2509.7290     6.0804     0.0253    65.8733    43.5675     0.2000   186.4783   214.9931   302.6062     0.1176     2.8750     2.5598    16.7816 
 2509.8814     6.1223     0.0309    63.7679    42.2775     0.2000   172.4951   198.8364   187.5381     0.1142     2.9024     2.5821    16.9959 
 2510.0338     6.1224     0.0241    65.8798    40.9204     0.2000   152.6469   175.5618   110.9032     0.1138     2.9173     2.5787    16.8743 
 2510.1862     6.0803     0.0055    72.1732    39.5507     0.2000   127.8310   146.2340    74.8206     0.1163     2.9198     2.5501    16.4224 
 2510.3386     6.0706     0.0093    75.9781    39.4498     0.2000   115.5530   130.1388    52.1855     0.1216     2.9465     2.5233    16.2191 
 2510.4910     6.0863     0.0308    77.8211    40.3492     0.2000   113.1589   124.4747    40.1510     0.1292     2.9923     2.4978    16.2119 
 2510.6434     6.1095     0.0477    83.4979    41.1993     0.2000   114.3367   122.9121    35.8762     0.1310     3.0108     2.5032    16.2736 
 2510.7958     6.1406     0.0597    92.2055    41.9736     0.2000   118.4819   124.8001    39.0745     0.1277     3.0040     2.5347    16.3857 
 2510.9482     6.2159     0.0596    92.5809    42.5335     0.2000   124.4074   129.2368    63.8069     0.1247     2.9796     2.5538    16.3797 
 2511.1006     6.3343     0.0475    84.8498    42.8848     0.2000   132.0651   136.1532   109.4902     0.1220     2.9382     2.5608    16.2588 
 2511.2530     6.3358     0.0509    76.3153    42.8957     0.2000   151.4912   153.4568   113.0473     0.1206     2.9373     2.5653    16.1336 
 2511.4054     6.2392     0.0661    67.9861    42.5362     0.2000   180.1383   178.8692    81.9672     0.1202     2.9751     2.5670    16.0222 
 2511.5578     6.1701     0.0664    70.4374    41.2326     0.2000   198.3054   194.6730    68.7523     0.1185     3.0598     2.5588    16.1210 
 2511.7102     6.1311     0.0505    84.6657    38.8976     0.2000   205.0235   199.9797    75.0541     0.1152     3.1958     2.5398    16.4493 
 2511.8626     6.1349     0.0405    86.7031    39.5082     0.2000   194.5374   188.2178    76.5209     0.1130     3.2387     2.5481    16.8737 
 2512.0150     6.1687     0.0357    79.4985    42.2730     0.2000   170.8505   163.4852    75.2879     0.1116     3.2089     2.5770    17.3405 
