~Version Information
 VERS.                  2.0:   CWLS log ASCII Standard -VERSION 2.0
 WRAP.                   NO:   One line per depth step
~Well Information Block
#MNEM.UNIT       Data Type    Information
#---------     -----------    ---------------------------
 STRT.M              2290.2730:
 STOP.M              2690.1707:
 STEP.M                 0.1524:
 NULL.               -999.2500:
 UWI .                 1007A-V:  UWI
 API .                 1007A-V:  UWI
 WELL.                 1007A-V:  COMMON WELL NAME
 COMP.       PEMEX EXPL & PROD:  WELL OPERATOR
 FLD .               CANTARELL:  FIELD
 LIC .                 UNKNOWN:  AUTHORIZATION NO
 LOC .                 UNKNOWN:  BASIN
 CTRY.                  MEXICO:  COUNTRY
 STAT.                CAMPECHE:  STATE
 CNTY.          CD. DEL CARMEN:  COUNTY
 PROV.                CAMPECHE:  STATE
 SRVC.                 UNKNOWN:  COMPANY
 DATE.                 UNKNOWN:  LOG RUN DATE
 LONG.                -92.0613:  LONGITUDE
 LATI.                 19.4613:  LATITUDE
 XCOORD.           598531.4375:  X COORDINATE
 YCOORD.          2152011.5000:  Y COORDINATE
 ELEV.M                27.9700:  ELEVATION
 TD  .M              2685.0000:  TOTAL DEPTH
~Parameter Information Block
#MNEM.UNIT       Value        Description
#---------     -----------    ---------------------------
~Curve Information Block
#MNEM.UNIT                 API CODE     Curve Description
#---------               -----------    ---------------------------
 DEPTH.M                00 000 000 000:  Index Curve
 CALI.INCH              00 000 000 000:  Caliper
 DRHO.G/CM3              00 000 000 000:  Density correction
 DT  .US/F              00 000 000 000:  Acoustic wave travel time
 GR  .GAPI              00 000 000 000:  Gamma ray; total
 ILD .OHMM              00 000 000 000:  Resistivity; induction deep
 LLD .OHMM              00 000 000 000:  Resistivity; deep laterolog
 LLS .OHMM              00 000 000 000:  Resistivity; shallow laterolog
 MSFL.OHMM              00 000 000 000:  Resistivity; microspherically focused log
 NPHI.V/V               00 000 000 000:  Neutron porosity
 PEF .B/E               00 000 000 000:  Photoelectric absorption index from density log; Pe
 RHOB.G/CM3              00 000 000 000:  Bulk density
 SP  .MV                00 000 000 000:  Spontaneous potential
~A DEPTH        CALI    DRHO    DT    GR    ILD    LLD    LLS    MSFL    NPHI    PEF    RHOB    SP
# ...
 2606.0458     6.1310     0.0204    84.2728    67.0998     0.2000    52.3182    45.9751    33.9405     0.1567     2.8986     2.5228    53.2956 
 2606.1982     6.1030     0.0454    91.0823    65.9437     0.2000    50.5469    44.6892    35.6662     0.1575     3.0081     2.5598    52.5929 
 2606.3506     6.1033     0.0479    95.0212    66.4771     0.2000    50.1280    44.4132    33.3643     0.1615     3.0959     2.5590    51.4638 
 2606.5030     6.1243     0.0339    96.8365    68.2367     0.2000    50.7441    44.9106    28.1610     0.1679     3.1670     2.5302    50.0208 
 2606.6554     6.1250     0.0216    99.3832    68.0404     0.2000    53.2681    46.8532    29.1000     0.1709     3.2035     2.5095    48.7869 
 2606.8078     6.1065     0.0116   102.6942    66.0333     0.2000    57.4413    50.0458    35.6751     0.1708     3.2100     2.4975    47.7558 
 2606.9602     6.1341     0.0016   104.5393    64.4020     0.2000    57.5846    50.0722    38.2030     0.1755     3.2372     2.4877    46.9595 
 2607.1126     6.1995    -0.0084   105.1800    63.0794     0.2000    54.4173    47.4975    37.4060     0.1842     3.2815     2.4797    46.3561 
 2607.2650     6.1924    -0.0060   106.5343    63.5928     0.2000    50.7095    44.5712    34.6253     0.1922     3.2928     2.4607    45.9229 
 2607.4174     6.1266     0.0071   108.3610    65.6051     0.2000    46.7316    41.4996    30.1416     0.1989     3.2744     2.4338    45.6332 
 2607.5698     6.1352     0.0216   107.3376    66.1603     0.2000    45.6011    40.7334    25.0742     0.1942     3.2290     2.4354    45.3277 
 2607.7222     6.2194     0.0377   103.4203    65.2357     0.2000    47.3620    42.3083    19.4140     0.1780     3.1563     2.4660    45.0063 
 2607.8746     6.2128     0.0396    98.0266    64.9908     0.2000    50.8073    45.4100    22.5387     0.1701     3.0781     2.4931    44.8125 
 2608.0270     6.1342     0.0301    91.6386    65.2965     0.2000    55.6414    49.7661    32.4941     0.1692     2.9976     2.5160    44.7325 
 2608.1794     6.1031     0.0255    87.5452    65.3507     0.2000    60.5411    54.1287    36.5197     0.1680     2.9369     2.5277    44.7131 
 2608.3318     6.1236     0.0265    85.9537    65.1320     0.2000    65.4965    58.4844    34.1006     0.1668     2.8980     2.5272    44.7595 
 2608.4842     6.1291     0.0219    86.9807    64.8565     0.2000    69.8371    62.4974    32.0946     0.1643     2.8952     2.5329    44.6838 
 2608.6366     6.1232     0.0134    89.9187    64.4806     0.2000    73.6802    66.2024    30.5190     0.1610     2.9192     2.5429    44.5144 
 2608.7890     6.1062     0.0104    92.3405    63.0142     0.2000    76.7358    68.8926    31.2646     0.1602     2.9442     2.5472    44.2868 
 2608.9414     6.0788     0.0129    94.1367    60.4528     0.2000    79.0238    70.5753    34.3298     0.1620     2.9687     2.5457    44.0054 
 2609.0938     6.0738     0.0134    97.4699    59.1071     0.2000    80.9079    72.1356    36.5352     0.1644     3.0166     2.5392    43.6192 
 2609.2462     6.0861     0.0124   101.9748    58.6881     0.2000    82.4840    73.6024    38.0853     0.1674     3.0825     2.5289    43.1531 
 2609.3986     6.0825     0.0114   109.7822    59.4171     0.2000    84.9440    75.4355    36.8940     0.1685     3.0783     2.5223    42.7051 
 2609.5510     6.0657     0.0104   120.1810    61.0781     0.2000    88.1024    77.5350    33.5049     0.1677     3.0148     2.5195    42.2767 
 2609.7034     6.0821     0.0078   123.0720    62.6910     0.2000    88.2742    77.3332    34.6403     0.1641     2.9680     2.5231    41.9011 
 2609.8558     6.1285     0.0038   119.1518    64.2604     0.2000    85.7363    75.0438    39.8806     0.1580     2.9365     2.5326    41.5732 
 2610.0082     6.1360     0.0003   110.1397    65.8972     0.2000    82.6444    72.2740    43.7993     0.1557     2.9468     2.5289    41.2830 
 2610.1606     6.1125    -0.0026    97.3727    67.5601     0.2000    79.2946    69.2864    46.3259     0.1566     2.9899     2.5141    41.0177 
 2610.3130     6.1211    -0.0051    92.5181    68.8036     0.2000    78.7843    68.8337    45.4214     0.1554     2.9965     2.5022    40.6541 
 2610.4654     6.1641    -0.0071    96.0946    69.6003     0.2000    81.2997    71.0822    40.8609     0.1520     2.9641     2.4932    40.1858 
 2610.6178     6.1478    -0.0060    99.2017    68.6645     0.2000    82.6001    72.1690    41.3907     0.1553     2.9216     2.4908    39.7381 
 2610.7702     6.0887    -0.0031   101.4652    66.4366     0.2000    82.8127    72.2280    45.4766     0.1636     2.8720     2.4931    39.3074 
 2610.9226     6.0787    -0.0053    97.7377    65.1506     0.2000    81.3851    70.8780    43.7535     0.1664     2.8329     2.4896    38.8858 
 2611.0750     6.1226    -0.0133    87.6648    64.9094     0.2000    78.2490    68.0632    35.7317     0.1633     2.8050     2.4796    38.4733 
 2611.2274     6.1198    -0.0148    82.6775    64.8030     0.2000    72.4843    62.9522    31.8597     0.1636     2.7893     2.4775    38.2781 
 2611.3798     6.0834    -0.0116    81.4943    64.8072     0.2000    64.8745    56.2298    31.0532     0.1666     2.7833     2.4811    38.2420 
 2611.5322     6.0899    -0.0075    81.1828    65.2393     0.2000    61.8042    53.4938    29.3602     0.1709     2.7970     2.4843    38.0952 
 2611.6846     6.1379    -0.0030    81.4641    66.0595     0.2000    63.0172    54.5190    26.6813     0.1762     2.8285     2.4869    37.8378 
 2611.8370     6.1371    -0.0005    82.0874    67.3283     0.2000    69.7804    59.9455    30.6153     0.1748     2.8660     2.4921    37.6016 
 2611.9894     6.0970     0.0005    82.9862    68.9588     0.2000    81.0181    68.9205    39.8806     0.1682     2.9083     2.4995    37.3825 
 2612.1418     6.0896     0.0010    82.9958    70.3218     0.2000    88.3186    75.0968    46.2015     0.1598     2.9500     2.5097    37.2141 
 2612.2942     6.1102     0.0010    82.2240    71.3510     0.2000    91.7933    78.4826    49.9701     0.1505     2.9937     2.5205    37.0869 
 2612.4466     6.1132     0.0008    81.3131    70.3717     0.2000    88.2704    75.5473    55.8084     0.1468     3.0956     2.4953    36.9137 
 2612.5990     6.0987     0.0002    80.2632    67.3869     0.2000    77.7602    66.3002    63.7134     0.1488     3.2556     2.4341    36.6946 
 2612.7514     6.1045     0.0053    80.8020    64.5842     0.2000    71.1633    60.4273    62.3930     0.1567     3.2833     2.3664    36.6272 
 2612.9038     6.1268     0.0148    82.7265    61.9574     0.2000    68.1479    57.5959    53.1348     0.1692     3.1953     2.2956    36.6774 
 2613.0562     6.1331     0.0171    84.4910    60.4063     0.2000    69.1852    57.7658    45.5295     0.1744     3.0911     2.2753    36.5762 
 2613.2086     6.1221     0.0115    86.0997    60.0000     0.2000    74.6014    61.1728    39.6336     0.1716     2.9686     2.3092    36.3108 
 2613.3610     6.1080     0.0069    86.9233    60.0704     0.2000    79.2189    64.5694    35.3885     0.1737     2.9244     2.3640    36.1278 
 2613.5134     6.0938     0.0030    87.1459    60.5278     0.2000    83.2915    67.9918    32.4464     0.1792     2.9379     2.4326    36.0023 
 2613.6658     6.1167     0.0008    87.1570    61.4806     0.2000    88.2366    71.9659    30.6016     0.1813     2.9370     2.4719    35.8050 
 2613.8182     6.1770     0.0002    86.9855    62.9129     0.2000    94.0893    76.4949    29.7961     0.1798     2.9186     2.4808    35.5326 
 2613.9706     6.1755     0.0031    86.3079    64.2319     0.2000    97.1659    78.8185    31.4893     0.1768     2.9026     2.4907    35.4730 
 2614.1230     6.1273     0.0084    85.2473    65.4652     0.2000    98.1434    79.4743    35.0721     0.1727     2.8885     2.5012    35.5745 
 2614.2754     6.1455     0.0107    87.8681    64.2190     0.2000    96.9491    78.3657    36.4162     0.1693     2.8486     2.5106    35.4858 
 2614.4278     6.2219     0.0102    93.5881    60.8692     0.2000    94.0070    75.8314    35.7953     0.1664     2.7868     2.5190    35.2302 
