~Version Information
 VERS.                  2.0:   CWLS log ASCII Standard -VERSION 2.0
 WRAP.                   NO:   One line per depth step
~Well Information Block
#MNEM.UNIT       Data Type    Information
#---------     -----------    ---------------------------
 STRT.M              2290.2730:
 STOP.M              2690.1707:
 STEP.M                 0.1524:
 NULL.               -999.2500:
 UWI .                 1007A-V:  UWI
 API .                 1007A-V:  UWI
 WELL.                 1007A-V:  COMMON WELL NAME
 COMP.       PEMEX EXPL & PROD:  WELL OPERATOR
 FLD .               CANTARELL:  FIELD
 LIC .                 UNKNOWN:  AUTHORIZATION NO
 LOC .                 UNKNOWN:  BASIN
 CTRY.                  MEXICO:  COUNTRY
 STAT.                CAMPECHE:  STATE
 CNTY.          CD. DEL CARMEN:  COUNTY
 PROV.                CAMPECHE:  STATE
 SRVC.                 UNKNOWN:  COMPANY
 DATE.                 UNKNOWN:  LOG RUN DATE
 LONG.                -92.0613:  LONGITUDE
 LATI.                 19.4613:  LATITUDE
 XCOORD.           598531.4375:  X COORDINATE
 YCOORD.          2152011.5000:  Y COORDINATE
 ELEV.M                27.9700:  ELEVATION
 TD  .M              2685.0000:  TOTAL DEPTH
~Parameter Information Block
#MNEM.UNIT       Value        Description
#---------     -----------    ---------------------------
~Curve Information Block
#MNEM.UNIT                 API CODE     Curve Description
#---------               -----------    ---------------------------
 DEPTH.M                00 000 000 000:  Index Curve
 CALI.INCH              00 000 000 000:  Caliper
 DRHO.G/CM3              00 000 000 000:  Density correction
 DT  .US/F              00 000 000 000:  Acoustic wave travel time
 GR  .GAPI              00 000 000 000:  Gamma ray; total
 ILD .OHMM              00 000 000 000:  Resistivity; induction deep
 LLD .OHMM              00 000 000 000:  Resistivity; deep laterolog
 LLS .OHMM              00 000 000 000:  Resistivity; shallow laterolog
 MSFL.OHMM              00 000 000 000:  Resistivity; microspherically focused log
 NPHI.V/V               00 000 000 000:  Neutron porosity
 PEF .B/E               00 000 000 000:  Photoelectric absorption index from density log; Pe
 RHOB.G/CM3              00 000 000 000:  Bulk density
 SP  .MV                00 000 000 000:  Spontaneous potential
~A DEPTH        CALI    DRHO    DT    GR    ILD    LLD    LLS    MSFL    NPHI    PEF    RHOB    SP
# ...
 2631.6490     6.1548     0.0099   104.1567    40.7787     0.2000   270.8298   254.4979    83.0278     0.1292     2.8488     2.5490    20.5516 
 2631.8014     6.0849     0.0025    99.0426    41.1126     0.2000   273.6969   257.0805    92.8278     0.1277     2.8251     2.5490    20.4160 
 2631.9538     6.0828    -0.0018    97.3220    40.8374     0.2000   274.9607   258.2695    87.1760     0.1240     2.8518     2.5512    20.3309 
 2632.1062     6.1423    -0.0033    98.6805    40.0098     0.2000   274.7698   258.1941    67.5045     0.1186     2.9243     2.5551    20.2914 
 2632.2586     6.1459     0.0016    99.4212    39.0339     0.2000   289.1685   270.2944    70.7799     0.1163     2.9358     2.5621    20.2647 
 2632.4110     6.1047     0.0119    99.6050    38.0839     0.2000   315.1648   292.0259    92.3381     0.1168     2.8992     2.5721    20.2421 
 2632.5634     6.1149     0.0184    99.5247    39.1486     0.2000   327.0887   301.3928    92.3135     0.1163     2.9285     2.5884    20.1280 
 2632.7158     6.1793     0.0209    99.1654    42.3422     0.2000   324.1435   297.6949    69.4839     0.1147     3.0275     2.6114    19.9171 
 2632.8682     6.1787     0.0195    96.0981    43.6932     0.2000   295.3485   272.0374    60.9729     0.1168     3.0759     2.6167    19.6590 
 2633.0206     6.1292     0.0157    90.9611    43.5313     0.2000   247.6283   230.3532    63.1384     0.1218     3.0816     2.6085    19.3728 
 2633.1730     6.1098     0.0192    86.5052    42.5074     0.2000   216.9669   203.8072    58.3060     0.1295     3.0491     2.6035    19.1975 
 2633.3254     6.1243     0.0307    82.8502    40.6022     0.2000   205.3084   194.0999    45.5850     0.1400     2.9766     2.6025    19.1425 
 2633.4778     6.1158     0.0307    81.9465    38.8764     0.2000   217.6381   206.8477    51.6697     0.1431     2.9336     2.5885    19.0309 
 2633.6302     6.0906     0.0223    83.0159    37.3105     0.2000   247.3545   235.8715    71.4887     0.1407     2.9131     2.5655    18.8794 
 2633.7826     6.0753     0.0155    81.9105    36.7986     0.2000   265.1127   253.7117    85.9192     0.1373     2.9256     2.5535    18.8007 
 2633.9350     6.0703     0.0110    78.6515    37.2684     0.2000   270.6651   260.1360    94.5216     0.1332     2.9677     2.5525    18.7927 
 2634.0874     6.0821     0.0043    76.1734    38.8935     0.2000   253.0960   244.1957    90.9853     0.1326     2.9740     2.5487    18.6043 
 2634.2398     6.1073    -0.0041    74.3185    41.4406     0.2000   217.0730   210.4057    77.7611     0.1348     2.9516     2.5428    18.2719 
 2634.3922     6.1300    -0.0069    73.8812    41.7331     0.2000   191.3779   184.4873    68.1002     0.1339     2.9698     2.5443    18.3526 
 2634.5446     6.1494    -0.0045    74.6833    40.1298     0.2000   175.6974   166.4515    62.0018     0.1307     3.0209     2.5515    18.7834 
 2634.6970     6.1463     0.0062    76.2600    39.6270     0.2000   177.2551   165.3002    62.7893     0.1337     3.0209     2.5415    19.0780 
 2634.8494     6.1208     0.0252    78.6030    40.2127     0.2000   195.8631   180.8495    70.3874     0.1428     2.9704     2.5145    19.2380 
 2635.0018     6.1051     0.0511    80.3193    42.1487     0.2000   225.9105   205.9063    75.9561     0.1519     2.9024     2.4915    19.2280 
 2635.1542     6.0978     0.0808    81.4703    45.2071     0.2000   265.9750   239.3846    79.9509     0.1604     2.8184     2.4724    19.0731 
 2635.3066     6.0940     0.0735    81.8343    46.4721     0.2000   291.2741   261.7100    84.4823     0.1596     2.7580     2.4668    19.0003 
 2635.4590     6.0940     0.0259    81.3485    45.8063     0.2000   300.8597   272.2066    89.6527     0.1484     2.7224     2.4759    19.0158 
 2635.6114     6.0842     0.0053    86.7496    44.1387     0.2000   297.9167   269.2142    81.2241     0.1412     2.7502     2.5096    19.1191 
 2635.7638     6.0680     0.0048    95.9819    41.7614     0.2000   285.2222   255.7977    63.2672     0.1370     2.8257     2.5599    19.2776 
 2635.9162     6.0668     0.0058    96.3478    39.9540     0.2000   265.4872   236.0192    54.7937     0.1358     2.9103     2.5846    19.2743 
 2636.0686     6.0813     0.0073    87.4297    38.7671     0.2000   239.0327   210.2509    56.5275     0.1374     3.0017     2.5821    19.1024 
 2636.2210     6.0790     0.0077    84.8722    39.0824     0.2000   223.9413   195.6305    62.7265     0.1347     3.0378     2.5718    18.8609 
 2636.3734     6.0640     0.0072    87.1081    40.5398     0.2000   217.2988   189.3011    72.3768     0.1286     3.0324     2.5555    18.5643 
 2636.5258     6.0731     0.0121    92.8215    41.5203     0.2000   219.8093   190.8750    76.5593     0.1225     2.9942     2.5486    18.0867 
 2636.6782     6.1030     0.0216   101.3879    42.0810     0.2000   229.6671   198.7351    76.1466     0.1165     2.9294     2.5495    17.4477 
 2636.8306     6.1028     0.0340   103.6618    42.4481     0.2000   238.4566   205.0666    81.3903     0.1168     2.9674     2.5621    16.9667 
 2636.9830     6.0762     0.0491   100.3797    42.6441     0.2000   246.2946   210.0426    91.6214     0.1226     3.0960     2.5847    16.6254 
 2637.1354     6.0732     0.0403   105.5524    44.4774     0.2000   246.0559   208.3394    83.6500     0.1287     3.2006     2.5791    16.3361 
 2637.2878     6.0889     0.0124   117.5785    47.6170     0.2000   239.7172   201.5739    61.7500     0.1346     3.2766     2.5505    16.1035 
 2637.4402     6.0864    -0.0009   125.0341    49.5582     0.2000   243.8457   203.2647    61.1264     0.1364     3.2329     2.5344    16.0568 
 2637.5926     6.0650     0.0011   127.7029    50.2444     0.2000   258.9371   213.8122    82.7867     0.1338     3.0641     2.5313    16.2046 
 2637.7450     6.0653     0.0052   119.0474    49.4441     0.2000   267.1013   218.2942   103.4568     0.1253     3.0003     2.5454    16.1222 
 2637.8974     6.0820     0.0116   101.8178    47.5029     0.2000   269.1337   217.5438   121.2288     0.1123     3.0213     2.5728    15.8654 
 2638.0498     6.0821     0.0224    91.5725    46.2900     0.2000   264.5368   212.6655   113.2002     0.1049     3.0433     2.5978    15.7498 
 2638.2022     6.0635     0.0379    89.1438    45.8984     0.2000   252.8750   203.4234    77.1553     0.1038     3.0644     2.6199    15.7925 
 2638.3546     6.0620     0.0399    94.8352    45.9755     0.2000   253.1012   202.6060    63.2442     0.1085     3.0820     2.6128    15.6202 
 2638.5070     6.0724     0.0320   106.0365    46.4306     0.2000   261.3083   207.4280    65.2551     0.1174     3.0980     2.5848    15.2972 
 2638.6594     6.0753     0.0253   106.2665    47.9826     0.2000   250.9841   198.6438    63.4079     0.1232     3.1413     2.5618    15.1210 
 2638.8118     6.0703     0.0203    95.8419    50.5495     0.2000   222.7355   176.7108    57.0562     0.1259     3.2102     2.5448    15.0916 
 2638.9642     6.0703     0.0191    95.8328    51.6524     0.2000   194.0576   155.0120    70.2319     0.1276     3.1892     2.5334    14.9902 
 2639.1166     6.0742     0.0211   104.0312    51.6018     0.2000   165.0415   133.4976    98.7948     0.1286     3.0974     2.5262    14.8320 
 2639.2690     6.1002     0.0250   101.7661    49.7316     0.2000   147.3359   121.4063    92.8551     0.1280     3.0381     2.5399    14.7265 
 2639.4214     6.1439     0.0301    90.5165    46.3730     0.2000   139.4232   117.4550    57.7346     0.1262     3.0093     2.5708    14.6650 
 2639.5738     6.1555     0.0271    85.1036    44.1824     0.2000   132.9646   114.5580    45.3455     0.1255     2.9971     2.5871    14.5242 
 2639.7262     6.1360     0.0160    85.3543    43.1250     0.2000   127.9171   112.6837    55.0133     0.1259     3.0012     2.5891    14.3066 
 2639.8786     6.1170     0.0173    88.8460    42.9753     0.2000   124.4254   111.2469    58.0373     0.1348     2.9697     2.5399    13.9976 
 2640.0310     6.1021     0.0280    94.3014    43.8525     0.2000   122.6904   110.4912    55.0109     0.1498     2.9149     2.4518    13.6255 
