~Version Information
 VERS.                  2.0:   CWLS log ASCII Standard -VERSION 2.0
 WRAP.                   NO:   One line per depth step
~Well Information Block
#MNEM.UNIT       Data Type    Information
#---------     -----------    ---------------------------
 STRT.M              2290.2730:
 STOP.M              2690.1707:
 STEP.M                 0.1524:
 NULL.               -999.2500:
 UWI .                 1007A-V:  UWI
 API .                 1007A-V:  UWI
 WELL.                 1007A-V:  COMMON WELL NAME
 COMP.       PEMEX EXPL & PROD:  WELL OPERATOR
 FLD .               CANTARELL:  FIELD
 LIC .                 UNKNOWN:  AUTHORIZATION NO
 LOC .                 UNKNOWN:  BASIN
 CTRY.                  MEXICO:  COUNTRY
 STAT.                CAMPECHE:  STATE
 CNTY.          CD. DEL CARMEN:  COUNTY
 PROV.                CAMPECHE:  STATE
 SRVC.                 UNKNOWN:  COMPANY
 DATE.                 UNKNOWN:  LOG RUN DATE
 LONG.                -92.0613:  LONGITUDE
 LATI.                 19.4613:  LATITUDE
 XCOORD.           598531.4375:  X COORDINATE
 YCOORD.          2152011.5000:  Y COORDINATE
 ELEV.M                27.9700:  ELEVATION
 TD  .M              2685.0000:  TOTAL DEPTH
~Parameter Information Block
#MNEM.UNIT       Value        Description
#---------     -----------    ---------------------------
~Curve Information Block
#MNEM.UNIT                 API CODE     Curve Description
#---------               -----------    ---------------------------
 DEPTH.M                00 000 000 000:  Index Curve
 CALI.INCH              00 000 000 000:  Caliper
 DRHO.G/CM3              00 000 000 000:  Density correction
 DT  .US/F              00 000 000 000:  Acoustic wave travel time
 GR  .GAPI              00 000 000 000:  Gamma ray; total
 ILD .OHMM              00 000 000 000:  Resistivity; induction deep
 LLD .OHMM              00 000 000 000:  Resistivity; deep laterolog
 LLS .OHMM              00 000 000 000:  Resistivity; shallow laterolog
 MSFL.OHMM              00 000 000 000:  Resistivity; microspherically focused log
 NPHI.V/V               00 000 000 000:  Neutron porosity
 PEF .B/E               00 000 000 000:  Photoelectric absorption index from density log; Pe
 RHOB.G/CM3              00 000 000 000:  Bulk density
 SP  .MV                00 000 000 000:  Spontaneous potential
~A DEPTH        CALI    DRHO    DT    GR    ILD    LLD    LLS    MSFL    NPHI    PEF    RHOB    SP
# ...
 2529.2362     6.2243     0.0786   101.8295    47.0888     0.2000    54.2340    47.9262    41.7113     0.1230     3.1818     2.6357     7.8374 
 2529.3886     6.1427     0.0812    90.4754    48.5762     0.2000    55.1627    48.9322    48.8761     0.1271     3.0729     2.6135     7.8989 
 2529.5410     6.1177     0.0695    82.8900    48.1426     0.2000    55.3798    49.0707    49.4510     0.1269     3.0068     2.5936     7.8888 
 2529.6934     6.1507     0.0425    79.1416    45.7062     0.2000    54.9295    48.3655    43.3172     0.1221     2.9878     2.5761     7.8049 
 2529.8458     6.1922     0.0267    88.4387    44.1623     0.2000    53.2003    46.6991    35.1307     0.1183     3.0345     2.5743     7.6305 
 2529.9982     6.2399     0.0192   107.5561    43.2906     0.2000    50.5083    44.3092    25.3988     0.1152     3.1307     2.5842     7.3879 
 2530.1506     6.3701     0.0252   104.0676    43.5142     0.2000    48.9524    42.9176    33.5816     0.1108     3.1838     2.6163     7.1393 
 2530.3030     6.5679     0.0420    81.1027    44.6321     0.2000    48.4012    42.4054    57.0672     0.1054     3.1982     2.6664     6.8878 
 2530.4554     6.5530     0.0424    71.2126    45.1012     0.2000    47.7592    41.9490    83.5934     0.1056     3.2007     2.6781     6.5733 
 2530.6078     6.3511     0.0285    72.8209    44.9998     0.2000    47.0376    41.5417   112.7938     0.1109     3.1927     2.6561     6.2035 
 2530.7602     6.2437     0.0247    76.4675    43.9761     0.2000    45.5457    40.3351   107.9552     0.1164     3.2165     2.6341     5.8373 
 2530.9126     6.2192     0.0290    81.5495    42.1963     0.2000    43.4890    38.5166    74.5920     0.1218     3.2659     2.6128     5.4919 
 2531.0650     6.2214     0.0239    82.3445    40.8618     0.2000    42.7366    37.6934    49.1644     0.1224     3.2929     2.5996     5.3898 
 2531.2174     6.2519     0.0089    78.6301    39.9959     0.2000    43.3563    37.9172    32.0839     0.1179     3.2964     2.5951     5.5436 
 2531.3698     6.2351     0.0182    74.8714    39.4878     0.2000    43.4865    37.9111    46.8304     0.1129     3.2116     2.6007     5.4679 
 2531.5222     6.1839     0.0457    70.9652    39.3248     0.2000    43.2809    37.7845    85.1503     0.1077     3.0609     2.6136     5.2140 
 2531.6746     6.1798     0.0546    65.6742    39.8468     0.2000    43.8257    38.4701    96.3063     0.1049     2.9753     2.6148     5.0557 
 2531.8270     6.2279     0.0425    58.8743    41.1084     0.2000    45.1990    40.0460    77.1793     0.1047     2.9628     2.6033     5.0066 
 2531.9794     6.2080     0.0514    55.8150    41.5124     0.2000    47.5761    42.6510    65.6955     0.1094     2.9257     2.5895     4.9082 
 2532.1318     6.1414     0.0753    55.7474    41.3186     0.2000    50.7033    46.0261    59.7345     0.1176     2.8725     2.5748     4.7752 
 2532.2842     6.1619     0.0948    63.6174    41.9174     0.2000    54.3857    50.0093    52.4691     0.1233     2.8722     2.5802     4.6795 
 2532.4366     6.2672     0.1093    78.8331    43.2987     0.2000    58.5526    54.5258    43.6674     0.1264     2.9227     2.6047     4.6210 
 2532.5890     6.2513     0.0831    83.8480    44.3323     0.2000    57.9706    54.4085    48.0058     0.1243     2.9387     2.5956     4.6091 
 2532.7414     6.1393     0.0246    80.7852    45.0904     0.2000    53.6281    50.6219    62.7495     0.1182     2.9276     2.5599     4.6339 
 2532.8938     6.1122     0.0032    78.9316    45.3163     0.2000    48.2551    45.7496    80.4604     0.1137     2.9043     2.5591     4.5257 
 2533.0462     6.1603     0.0143    78.5751    45.0050     0.2000    42.2014    40.1387    99.1843     0.1108     2.8747     2.5881     4.3096 
 2533.1986     6.1840     0.0173    84.2540    42.5467     0.2000    38.9472    37.1377    85.4673     0.1144     2.9307     2.5920     4.3052 
 2533.3510     6.1840     0.0123    95.8175    37.9951     0.2000    38.4228    36.6814    40.1192     0.1244     3.0700     2.5715     4.5072 
 2533.5034     6.2234     0.0197    98.4232    33.5336     0.2000    47.1391    44.2555    39.8445     0.1326     3.0948     2.5530     4.8142 
 2533.6558     6.2917     0.0364    93.9244    29.3188     0.2000    63.2414    58.2713    81.4068     0.1384     3.0242     2.5379     5.1764 
 2533.8082     6.3047     0.0371    95.3389    27.1377     0.2000    73.9230    67.8566   165.9424     0.1349     2.9750     2.5379     5.1333 
 2533.9606     6.2578     0.0207   103.1636    27.1611     0.2000    78.7284    72.6390   297.0617     0.1215     2.9490     2.5543     4.6510 
 2534.1130     6.2236     0.0314   102.4148    30.3181     0.2000    90.1241    83.9290   283.8414     0.1150     2.9568     2.5720     4.5283 
 2534.2654     6.2008     0.0615    95.3952    35.8225     0.2000   107.2604   100.7385   166.0994     0.1132     2.9946     2.5907     4.6734 
 2534.4178     6.2052     0.0697    91.6560    40.9653     0.2000   135.7306   126.4977   119.4134     0.1039     3.1011     2.6137     4.7551 
 2534.5702     6.2371     0.0542    91.6560    45.6156     0.2000   175.7897   161.3597   152.2014     0.0864     3.2785     2.6412     4.7571 
 2534.7226     6.2289     0.0373    93.4033    58.8905     0.2000   196.8632   179.2141   224.4810     0.0723     3.3569     2.6804     4.3514 
 2534.8750     6.1904     0.0193    96.4652    78.6563     0.2000   203.6644   184.2828   326.4862     0.0608     3.3610     2.7286     3.6392 
 2535.0274     6.1898     0.0148    91.2192    92.0463     0.2000   189.0967   170.1175   294.3891     0.0614     3.3415     2.7426     3.5253 
 2535.1798     6.2228     0.0218    78.8341    99.7150     0.2000   156.9975   140.1684   146.7029     0.0721     3.3056     2.7271     3.9351 
 2535.3322     6.2086     0.0350    69.5808    91.4427     0.2000   137.2416   122.0211    80.4182     0.0833     3.2944     2.6995     3.8813 
 2535.4846     6.1541     0.0534    63.0056    69.5381     0.2000   128.0411   113.9660    83.7447     0.0951     3.3044     2.6615     3.4310 
 2535.6370     6.1505     0.0730    60.0362    51.3824     0.2000   119.0409   106.7479    93.5452     0.1029     3.3388     2.6373     3.4144 
 2535.7894     6.1889     0.0915    60.3931    36.9013     0.2000   110.5876   100.5566   108.6970     0.1070     3.3877     2.6239     3.7471 
 2535.9418     6.2047     0.0800    64.3269    29.4702     0.2000   107.9108    99.1235   120.6998     0.1090     3.3346     2.5979     3.7278 
 2536.0942     6.1967     0.0370    71.9951    29.3998     0.2000   111.2648   102.6579   129.4151     0.1088     3.1752     2.5584     3.3409 
 2536.2466     6.1819     0.0173    72.9499    28.8835     0.2000   113.9610   107.6326   213.2049     0.1031     3.0714     2.5569     3.4052 
 2536.3990     6.1629     0.0188    68.3236    28.0199     0.2000   115.7357   113.5901   347.1205     0.0931     3.0133     2.5876     3.8294 
 2536.5514     6.1607     0.0416    63.6072    27.4277     0.2000   113.0574   117.0251   336.3077     0.0877     2.9472     2.6269     4.0817 
 2536.7038     6.1767     0.0871    58.8908    27.1349     0.2000   105.5877   117.7193   168.3647     0.0873     2.8717     2.6749     4.1421 
 2536.8562     6.1825     0.1050    56.4791    28.2484     0.2000   121.2659   138.7956   103.8711     0.0903     2.8812     2.6899     4.2515 
 2537.0086     6.1805     0.1020    55.8056    30.4024     0.2000   154.7558   175.7971   119.5406     0.0955     2.9545     2.6809     4.3902 
 2537.1610     6.1701     0.0846    56.3749    32.8296     0.2000   209.2474   237.1090   242.5822     0.0927     3.0647     2.6723     4.3726 
 2537.3134     6.1516     0.0541    58.0616    35.4655     0.2000   283.2699   321.2917   466.0871     0.0818     3.2077     2.6653     4.2007 
 2537.4658     6.1344     0.0388    58.8859    38.7830     0.2000   347.4202   382.4320   458.4679     0.0751     3.2326     2.6721     4.1321 
 2537.6182     6.1183     0.0353    59.0366    42.6326     0.2000   403.8626   425.5816   270.3946     0.0715     3.1654     2.6897     4.1441 
