~Version Information
 VERS.                  2.0:   CWLS log ASCII Standard -VERSION 2.0
 WRAP.                   NO:   One line per depth step
~Well Information Block
#MNEM.UNIT       Data Type    Information
#---------     -----------    ---------------------------
 STRT.M              2290.2730:
 STOP.M              2690.1707:
 STEP.M                 0.1524:
 NULL.               -999.2500:
 UWI .                 1007A-V:  UWI
 API .                 1007A-V:  UWI
 WELL.                 1007A-V:  COMMON WELL NAME
 COMP.       PEMEX EXPL & PROD:  WELL OPERATOR
 FLD .               CANTARELL:  FIELD
 LIC .                 UNKNOWN:  AUTHORIZATION NO
 LOC .                 UNKNOWN:  BASIN
 CTRY.                  MEXICO:  COUNTRY
 STAT.                CAMPECHE:  STATE
 CNTY.          CD. DEL CARMEN:  COUNTY
 PROV.                CAMPECHE:  STATE
 SRVC.                 UNKNOWN:  COMPANY
 DATE.                 UNKNOWN:  LOG RUN DATE
 LONG.                -92.0613:  LONGITUDE
 LATI.                 19.4613:  LATITUDE
 XCOORD.           598531.4375:  X COORDINATE
 YCOORD.          2152011.5000:  Y COORDINATE
 ELEV.M                27.9700:  ELEVATION
 TD  .M              2685.0000:  TOTAL DEPTH
~Parameter Information Block
#MNEM.UNIT       Value        Description
#---------     -----------    ---------------------------
~Curve Information Block
#MNEM.UNIT                 API CODE     Curve Description
#---------               -----------    ---------------------------
 DEPTH.M                00 000 000 000:  Index Curve
 CALI.INCH              00 000 000 000:  Caliper
 DRHO.G/CM3              00 000 000 000:  Density correction
 DT  .US/F              00 000 000 000:  Acoustic wave travel time
 GR  .GAPI              00 000 000 000:  Gamma ray; total
 ILD .OHMM              00 000 000 000:  Resistivity; induction deep
 LLD .OHMM              00 000 000 000:  Resistivity; deep laterolog
 LLS .OHMM              00 000 000 000:  Resistivity; shallow laterolog
 MSFL.OHMM              00 000 000 000:  Resistivity; microspherically focused log
 NPHI.V/V               00 000 000 000:  Neutron porosity
 PEF .B/E               00 000 000 000:  Photoelectric absorption index from density log; Pe
 RHOB.G/CM3              00 000 000 000:  Bulk density
 SP  .MV                00 000 000 000:  Spontaneous potential
~A DEPTH        CALI    DRHO    DT    GR    ILD    LLD    LLS    MSFL    NPHI    PEF    RHOB    SP
# ...
 2367.0826     0.0000    -0.2500    40.0000    28.0104     4.0564     0.2000     0.2000     0.2000    -0.0015     0.0000     1.9500     0.0000 
 2367.2350     0.0000    -0.2500    40.0000    31.4618     3.2243     0.2000     0.2000     0.2000    -0.0015     0.0000     1.9500     0.0000 
 2367.3874     0.0000    -0.2500    40.0000    34.2868     2.6107     0.2000     0.2000     0.2000    -0.0015     0.0000     1.9500     0.0000 
 2367.5398     0.0000    -0.2500    40.0000    35.2188     2.1446     0.2000     0.2000     0.2000    -0.0015     0.0000     1.9500     0.0000 
 2367.6922     0.0000    -0.2500    40.0000    34.2507     1.8178     0.2000     0.2000     0.2000    -0.0015     0.0000     1.9500     0.0000 
 2367.8446     0.0000    -0.2500    40.0000    34.1280     1.5919     0.2000     0.2000     0.2000    -0.0015     0.0000     1.9500     0.0000 
 2367.9970     0.0000    -0.2500    40.0000    34.6486     1.4427     0.2000     0.2000     0.2000    -0.0015     0.0000     1.9500     0.0000 
 2368.1494     0.0000    -0.2500    40.0000    34.5807     1.4014     0.2000     0.2000     0.2000    -0.0015     0.0000     1.9500     0.0000 
 2368.3018     0.0000    -0.2500    40.0000    33.9789     1.4494     0.2000     0.2000     0.2000    -0.0015     0.0000     1.9500     0.0000 
 2368.4542     0.0000    -0.2500    40.0000    32.8481     1.5639     0.2000     0.2000     0.2000    -0.0015     0.0000     1.9500     0.0000 
 2368.6066     0.0000    -0.2500    40.0000    31.2423     1.7384     0.2000     0.2000     0.2000    -0.0015     0.0000     1.9500     0.0000 
 2368.7590     0.0000    -0.2500    40.0000    30.8343     1.9015     0.2000     0.2000     0.2000    -0.0015     0.0000     1.9500     0.0000 
 2368.9114     0.0000    -0.2500    40.0000    31.4208     2.0536     0.2000     0.2000     0.2000    -0.0015     0.0000     1.9500     0.0000 
 2369.0638     0.0000    -0.2500    40.0000    31.5282     2.1879     0.2000     0.2000     0.2000    -0.0015     0.0000     1.9500     0.0000 
 2369.2162     0.0000    -0.2500    40.0000    31.1262     2.3033     0.2000     0.2000     0.2000    -0.0015     0.0000     1.9500     0.0000 
 2369.3686     0.0000    -0.2500    40.0000    31.0164     2.3605     0.2000     0.2000     0.2000    -0.0015     0.0000     1.9500     0.0000 
 2369.5210     0.0000    -0.2500    40.0000    31.1570     2.3629     0.2000     0.2000     0.2000    -0.0015     0.0000     1.9500     0.0000 
 2369.6734     0.0000    -0.2500    40.0000    31.4899     2.2654     0.2000     0.2000     0.2000    -0.0015     0.0000     1.9500     0.0000 
 2369.8258     0.0000    -0.2500    40.0000    32.0211     2.0626     0.2000     0.2000     0.2000    -0.0015     0.0000     1.9500     0.0000 
 2369.9782     0.0000    -0.2500    40.0000    32.6658     1.9407     0.2000     0.2000     0.2000    -0.0015     0.0000     1.9500     0.0000 
 2370.1306     0.0000    -0.2500    40.0000    33.3981     1.8793     0.2000     0.2000     0.2000    -0.0015     0.0000     1.9500     0.0000 
 2370.2830     0.0000    -0.2500    40.0000    34.2932     1.8569     0.2000     0.2000     0.2000    -0.0015     0.0000     1.9500     0.0000 
 2370.4354     0.0000    -0.2500    40.0000    35.3359     1.8679     0.2000     0.2000     0.2000    -0.0015     0.0000     1.9500     0.0000 
 2370.5878     0.0000    -0.2500    40.0000    35.6353     1.9191     0.2000     0.2000     0.2000    -0.0015     0.0000     1.9500     0.0000 
 2370.7402     0.0000    -0.2500    40.0000    35.3372     2.0027     0.2000     0.2000     0.2000    -0.0015     0.0000     1.9500     0.0000 
 2370.8926     0.0000    -0.2500    40.0000    35.6700     2.1020     0.2000     0.2000     0.2000    -0.0015     0.0000     1.9500     0.0000 
 2371.0450     0.0000    -0.2500    40.0000    36.5284     2.2123     0.2000     0.2000     0.2000    -0.0015     0.0000     1.9500     0.0000 
 2371.1974     0.0000    -0.2500    40.0000    36.6140     2.2792     0.2000     0.2000     0.2000    -0.0015     0.0000     1.9500     0.0000 
 2371.3498     0.0000    -0.2500    40.0000    35.9423     2.3037     0.2000     0.2000     0.2000    -0.0015     0.0000     1.9500     0.0000 
 2371.5022     0.0000    -0.2500    40.0000    35.4867     2.2913     0.2000     0.2000     0.2000    -0.0015     0.0000     1.9500     0.0000 
 2371.6546     0.0000    -0.2500    40.0000    35.2875     2.2437     0.2000     0.2000     0.2000    -0.0015     0.0000     1.9500     0.0000 
 2371.8070     0.0000    -0.2500    40.0000    35.9455     2.1518     0.2000     0.2000     0.2000    -0.0015     0.0000     1.9500     0.0000 
 2371.9594     0.0000    -0.2500    40.0000    37.5383     2.0119     0.2000     0.2000     0.2000    -0.0015     0.0000     1.9500     0.0000 
 2372.1118     0.0000    -0.2500    40.0000    38.5602     1.9658     0.2000     0.2000     0.2000    -0.0015     0.0000     1.9500     0.0000 
 2372.2642     0.0000    -0.2500    40.0000    39.0653     1.9903     0.2000     0.2000     0.2000    -0.0015     0.0000     1.9500     0.0000 
 2372.4166     0.0000    -0.2500    40.0000    38.2170     2.0086     0.2000     0.2000     0.2000    -0.0015     0.0000     1.9500     0.0000 
 2372.5690     0.0000    -0.2500    40.0000    36.0150     2.0171     0.2000     0.2000     0.2000    -0.0015     0.0000     1.9500     0.0000 
 2372.7214     0.0000    -0.2500    40.0000    34.1980     2.0576     0.2000     0.2000     0.2000    -0.0015     0.0000     1.9500     0.0000 
 2372.8738     0.0000    -0.2500    40.0000    32.6546     2.1223     0.2000     0.2000     0.2000    -0.0015     0.0000     1.9500     0.0000 
 2373.0262     0.0000    -0.2500    40.0000    31.3203     2.1819     0.2000     0.2000     0.2000    -0.0015     0.0000     1.9500     0.0000 
 2373.1786     0.0000    -0.2500    40.0000    30.1227     2.2372     0.2000     0.2000     0.2000    -0.0015     0.0000     1.9500     0.0000 
 2373.3310     0.0000    -0.2500    40.0000    29.3446     2.2847     0.2000     0.2000     0.2000    -0.0015     0.0000     1.9500     0.0000 
 2373.4834     0.0000    -0.2500    40.0000    28.9339     2.3253     0.2000     0.2000     0.2000    -0.0015     0.0000     1.9500     0.0000 
 2373.6358     0.0000    -0.2500    40.0000    29.9372     2.3203     0.2000     0.2000     0.2000    -0.0015     0.0000     1.9500     0.0000 
 2373.7882     0.0000    -0.2500    40.0000    32.1680     2.2742     0.2000     0.2000     0.2000    -0.0015     0.0000     1.9500     0.0000 
 2373.9406     0.0000    -0.2500    40.0000    34.5059     2.2005     0.2000     0.2000     0.2000    -0.0015     0.0000     1.9500     0.0000 
 2374.0930     0.0000    -0.2500    40.0000    36.9550     2.0981     0.2000     0.2000     0.2000    -0.0015     0.0000     1.9500     0.0000 
 2374.2454     0.0000    -0.2500    40.0000    38.2480     2.0146     0.2000     0.2000     0.2000    -0.0015     0.0000     1.9500     0.0000 
 2374.3978     0.0000    -0.2500    40.0000    38.6168     1.9473     0.2000     0.2000     0.2000    -0.0015     0.0000     1.9500     0.0000 
 2374.5502     0.0000    -0.2500    40.0000    39.0318     1.8921     0.2000     0.2000     0.2000    -0.0015     0.0000     1.9500     0.0000 
 2374.7026     0.0000    -0.2500    40.0000    39.5176     1.8496     0.2000     0.2000     0.2000    -0.0015     0.0000     1.9500     0.0000 
 2374.8550     0.0000    -0.2500    40.0000    39.4647     1.8215     0.2000     0.2000     0.2000    -0.0015     0.0000     1.9500     0.0000 
 2375.0074     0.0000    -0.2500    40.0000    39.0296     1.8044     0.2000     0.2000     0.2000    -0.0015     0.0000     1.9500     0.0000 
 2375.1598     0.0000    -0.2500    40.0000    38.9558     1.8019     0.2000     0.2000     0.2000    -0.0015     0.0000     1.9500     0.0000 
 2375.3122     0.0000    -0.2500    40.0000    39.2514     1.8129     0.2000     0.2000     0.2000    -0.0015     0.0000     1.9500     0.0000 
 2375.4646     0.0000    -0.2500    40.0000    38.9796     1.8226     0.2000     0.2000     0.2000    -0.0015     0.0000     1.9500     0.0000 
