~Version Information
 VERS.                  2.0:   CWLS log ASCII Standard -VERSION 2.0
 WRAP.                   NO:   One line per depth step
~Well Information Block
#MNEM.UNIT       Data Type    Information
#---------     -----------    ---------------------------
 STRT.M              2290.2730:
 STOP.M              2690.1707:
 STEP.M                 0.1524:
 NULL.               -999.2500:
 UWI .                 1007A-V:  UWI
 API .                 1007A-V:  UWI
 WELL.                 1007A-V:  COMMON WELL NAME
 COMP.       PEMEX EXPL & PROD:  WELL OPERATOR
 FLD .               CANTARELL:  FIELD
 LIC .                 UNKNOWN:  AUTHORIZATION NO
 LOC .                 UNKNOWN:  BASIN
 CTRY.                  MEXICO:  COUNTRY
 STAT.                CAMPECHE:  STATE
 CNTY.          CD. DEL CARMEN:  COUNTY
 PROV.                CAMPECHE:  STATE
 SRVC.                 UNKNOWN:  COMPANY
 DATE.                 UNKNOWN:  LOG RUN DATE
 LONG.                -92.0613:  LONGITUDE
 LATI.                 19.4613:  LATITUDE
 XCOORD.           598531.4375:  X COORDINATE
 YCOORD.          2152011.5000:  Y COORDINATE
 ELEV.M                27.9700:  ELEVATION
 TD  .M              2685.0000:  TOTAL DEPTH
~Parameter Information Block
#MNEM.UNIT       Value        Description
#---------     -----------    ---------------------------
~Curve Information Block
#MNEM.UNIT                 API CODE     Curve Description
#---------               -----------    ---------------------------
 DEPTH.M                00 000 000 000:  Index Curve
 CALI.INCH              00 000 000 000:  Caliper
 DRHO.G/CM3              00 000 000 000:  Density correction
 DT  .US/F              00 000 000 000:  Acoustic wave travel time
 GR  .GAPI              00 000 000 000:  Gamma ray; total
 ILD .OHMM              00 000 000 000:  Resistivity; induction deep
 LLD .OHMM              00 000 000 000:  Resistivity; deep laterolog
 LLS .OHMM              00 000 000 000:  Resistivity; shallow laterolog
 MSFL.OHMM              00 000 000 000:  Resistivity; microspherically focused log
 NPHI.V/V               00 000 000 000:  Neutron porosity
 PEF .B/E               00 000 000 000:  Photoelectric absorption index from density log; Pe
 RHOB.G/CM3              00 000 000 000:  Bulk density
 SP  .MV                00 000 000 000:  Spontaneous potential
~A DEPTH        CALI    DRHO    DT    GR    ILD    LLD    LLS    MSFL    NPHI    PEF    RHOB    SP
 2290.2730     0.0000    -0.2500    40.0000    44.2174     1.4405     0.2000     0.2000     0.2000    -0.1500     0.0000     1.9500     0.0000 
 2290.4254     0.0000    -0.2500    40.0000    45.8139     1.4537     0.2000     0.2000     0.2000    -0.1500     0.0000     1.9500     0.0000 
 2290.5778     0.0000    -0.2500    40.0000    46.2357     1.4847     0.2000     0.2000     0.2000    -0.1500     0.0000     1.9500     0.0000 
 2290.7302     0.0000    -0.2500    40.0000    44.7263     1.4960     0.2000     0.2000     0.2000    -0.1500     0.0000     1.9500     0.0000 
 2290.8826     0.0000    -0.2500    40.0000    41.8233     1.4924     0.2000     0.2000     0.2000    -0.1500     0.0000     1.9500     0.0000 
 2291.0350     0.0000    -0.2500    40.0000    39.4214     1.4767     0.2000     0.2000     0.2000    -0.1500     0.0000     1.9500     0.0000 
 2291.1874     0.0000    -0.2500    40.0000    37.5782     1.4503     0.2000     0.2000     0.2000    -0.1500     0.0000     1.9500     0.0000 
 2291.3398     0.0000    -0.2500    40.0000    36.8009     1.4375     0.2000     0.2000     0.2000    -0.1500     0.0000     1.9500     0.0000 
 2291.4922     0.0000    -0.2500    40.0000    36.8635     1.4357     0.2000     0.2000     0.2000    -0.1500     0.0000     1.9500     0.0000 
 2291.6446     0.0000    -0.2500    40.0000    37.0026     1.4500     0.2000     0.2000     0.2000    -0.1500     0.0000     1.9500     0.0000 
 2291.7970     0.0000    -0.2500    40.0000    37.2220     1.4780     0.2000     0.2000     0.2000    -0.1500     0.0000     1.9500     0.0000 
 2291.9494     0.0000    -0.2500    40.0000    38.4231     1.5018     0.2000     0.2000     0.2000    -0.1500     0.0000     1.9500     0.0000 
 2292.1018     0.0000    -0.2500    40.0000    40.5629     1.5217     0.2000     0.2000     0.2000    -0.1500     0.0000     1.9500     0.0000 
 2292.2542     0.0000    -0.2500    40.0000    40.5842     1.5404     0.2000     0.2000     0.2000    -0.1500     0.0000     1.9500     0.0000 
 2292.4066     0.0000    -0.2500    40.0000    38.8324     1.5566     0.2000     0.2000     0.2000    -0.1500     0.0000     1.9500     0.0000 
 2292.5590     0.0000    -0.2500    40.0000    37.6202     1.5563     0.2000     0.2000     0.2000    -0.1500     0.0000     1.9500     0.0000 
 2292.7114     0.0000    -0.2500    40.0000    36.9935     1.5383     0.2000     0.2000     0.2000    -0.1500     0.0000     1.9500     0.0000 
 2292.8638     0.0000    -0.2500    40.0000    37.1348     1.5485     0.2000     0.2000     0.2000    -0.1500     0.0000     1.9500     0.0000 
 2293.0162     0.0000    -0.2500    40.0000    37.8356     1.5809     0.2000     0.2000     0.2000    -0.1500     0.0000     1.9500     0.0000 
 2293.1686     0.0000    -0.2500    40.0000    38.1444     1.6272     0.2000     0.2000     0.2000    -0.1500     0.0000     1.9500     0.0000 
 2293.3210     0.0000    -0.2500    40.0000    38.0216     1.6866     0.2000     0.2000     0.2000    -0.1500     0.0000     1.9500     0.0000 
 2293.4734     0.0000    -0.2500    40.0000    40.1735     1.7318     0.2000     0.2000     0.2000    -0.1500     0.0000     1.9500     0.0000 
 2293.6258     0.0000    -0.2500    40.0000    43.9868     1.7662     0.2000     0.2000     0.2000    -0.1500     0.0000     1.9500     0.0000 
 2293.7782     0.0000    -0.2500    40.0000    45.0314     1.7806     0.2000     0.2000     0.2000    -0.1500     0.0000     1.9500     0.0000 
 2293.9306     0.0000    -0.2500    40.0000    43.5709     1.7782     0.2000     0.2000     0.2000    -0.1500     0.0000     1.9500     0.0000 
 2294.0830     0.0000    -0.2500    40.0000    41.4502     1.7473     0.2000     0.2000     0.2000    -0.1500     0.0000     1.9500     0.0000 
 2294.2354     0.0000    -0.2500    40.0000    38.7676     1.6925     0.2000     0.2000     0.2000    -0.1500     0.0000     1.9500     0.0000 
 2294.3878     0.0000    -0.2500    40.0000    38.9618     1.6329     0.2000     0.2000     0.2000    -0.1500     0.0000     1.9500     0.0000 
 2294.5402     0.0000    -0.2500    40.0000    41.5997     1.5704     0.2000     0.2000     0.2000    -0.1500     0.0000     1.9500     0.0000 
 2294.6926     0.0000    -0.2500    40.0000    43.6072     1.5251     0.2000     0.2000     0.2000    -0.1500     0.0000     1.9500     0.0000 
 2294.8450     0.0000    -0.2500    40.0000    44.9681     1.4976     0.2000     0.2000     0.2000    -0.1500     0.0000     1.9500     0.0000 
 2294.9974     0.0000    -0.2500    40.0000    44.8684     1.4702     0.2000     0.2000     0.2000    -0.1500     0.0000     1.9500     0.0000 
 2295.1498     0.0000    -0.2500    40.0000    43.5187     1.4431     0.2000     0.2000     0.2000    -0.1500     0.0000     1.9500     0.0000 
 2295.3022     0.0000    -0.2500    40.0000    41.5798     1.4222     0.2000     0.2000     0.2000    -0.1500     0.0000     1.9500     0.0000 
 2295.4546     0.0000    -0.2500    40.0000    39.0184     1.4077     0.2000     0.2000     0.2000    -0.1500     0.0000     1.9500     0.0000 
 2295.6070     0.0000    -0.2500    40.0000    37.8327     1.4055     0.2000     0.2000     0.2000    -0.1500     0.0000     1.9500     0.0000 
 2295.7594     0.0000    -0.2500    40.0000    37.5981     1.4124     0.2000     0.2000     0.2000    -0.1500     0.0000     1.9500     0.0000 
 2295.9118     0.0000    -0.2500    40.0000    36.0036     1.4152     0.2000     0.2000     0.2000    -0.1500     0.0000     1.9500     0.0000 
 2296.0642     0.0000    -0.2500    40.0000    33.0079     1.4137     0.2000     0.2000     0.2000    -0.1500     0.0000     1.9500     0.0000 
 2296.2166     0.0000    -0.2500    40.0000    31.8658     1.4086     0.2000     0.2000     0.2000    -0.1500     0.0000     1.9500     0.0000 
 2296.3690     0.0000    -0.2500    40.0000    32.1653     1.4007     0.2000     0.2000     0.2000    -0.1500     0.0000     1.9500     0.0000 
 2296.5214     0.0000    -0.2500    40.0000    33.8335     1.3973     0.2000     0.2000     0.2000    -0.1500     0.0000     1.9500     0.0000 
 2296.6738     0.0000    -0.2500    40.0000    36.6216     1.3980     0.2000     0.2000     0.2000    -0.1500     0.0000     1.9500     0.0000 
 2296.8262     0.0000    -0.2500    40.0000    39.6310     1.4050     0.2000     0.2000     0.2000    -0.1500     0.0000     1.9500     0.0000 
 2296.9786     0.0000    -0.2500    40.0000    42.8476     1.4180     0.2000     0.2000     0.2000    -0.1500     0.0000     1.9500     0.0000 
 2297.1310     0.0000    -0.2500    40.0000    45.8547     1.4189     0.2000     0.2000     0.2000    -0.1500     0.0000     1.9500     0.0000 
 2297.2834     0.0000    -0.2500    40.0000    48.5728     1.4085     0.2000     0.2000     0.2000    -0.1500     0.0000     1.9500     0.0000 
 2297.4358     0.0000    -0.2500    40.0000    49.9228     1.3867     0.2000     0.2000     0.2000    -0.1500     0.0000     1.9500     0.0000 
 2297.5882     0.0000    -0.2500    40.0000    49.7939     1.3528     0.2000     0.2000     0.2000    -0.1500     0.0000     1.9500     0.0000 
 2297.7406     0.0000    -0.2500    40.0000    47.7144     1.3301     0.2000     0.2000     0.2000    -0.1500     0.0000     1.9500     0.0000 
 2297.8930     0.0000    -0.2500    40.0000    44.2172     1.3163     0.2000     0.2000     0.2000    -0.1500     0.0000     1.9500     0.0000 
 2298.0454     0.0000    -0.2500    40.0000    42.0549     1.3043     0.2000     0.2000     0.2000    -0.1500     0.0000     1.9500     0.0000 
 2298.1978     0.0000    -0.2500    40.0000    41.3543     1.2938     0.2000     0.2000     0.2000    -0.1500     0.0000     1.9500     0.0000 
 2298.3502     0.0000    -0.2500    40.0000    41.7257     1.3055     0.2000     0.2000     0.2000    -0.1500     0.0000     1.9500     0.0000 
 2298.5026     0.0000    -0.2500    40.0000    42.8625     1.3336     0.2000     0.2000     0.2000    -0.1500     0.0000     1.9500     0.0000 
 2298.6550     0.0000    -0.2500    40.0000    42.1822     1.3615     0.2000     0.2000     0.2000    -0.1500     0.0000     1.9500     0.0000 
