#------------------------------------------------------------------------------
#
#   Created by  : [OpenWorks] Log Export Utility (LEXP)
#   Created on  : 2016-05-13 12:10:04
#   Project     : CANT971
#   User        : R5K
#   Interpreter : PEP
#
#------------------------------------------------------------------------------
~VERSION INFORMATION
VERS. 2.0 : CWLS Log ASCII Standard - version 2.0
WRAP.  NO : One line per depth step
~WELL INFORMATION
#MNEMONIC   .UNIT                                           VALUE :DESCRIPTION
#------------------------------------------------------------------------------
STRT        .M                                          1900.1613 :START DEPTH
STOP        .M                                          3117.2275 :STOP DEPTH
STEP        .M                                             0.1524 :STEP
NULL        .                                           -999.2500 :NULL VALUE
COMP        .                                             UNKNOWN :COMPANY
WELL        .                                                1008 :WELL
FLD         .                                             UNKNOWN :FIELD
LOC         .                                             UNKNOWN :LOCATION
CNTY        .                                             UNKNOWN :COUNTY
STAT        .                                             UNKNOWN :STATE
CTRY        .                                             UNKNOWN :COUNTRY
SRVC        .                                             UNKNOWN :SERVICE COMPANY
DATE        .                                             UNKNOWN :LOG DATE
UWI         .                                                1008 :UNIQUE WELL ID
XCOORD      .                                            0.000000 :SURFACE X
YCOORD      .                                            0.000000 :SURFACE Y
LAT         .                                            0.000000 :LATITUDE
LON         .                                            0.000000 :LONGITUDE
ELEV        .M                                             0.0000 :SURFACE ELEV
ELEV_TYPE   .                                                  KB :ELEV TYPE
~CURVE INFORMATION
#MNEMONIC.UNIT        API CODE       : CURVE DESCRIPTION
#------------------------------------------------------------------------------
DEPTH    .M                          : Measured Depth
CGR      .API         UNKNOWN        : CGR:Entubado:r1:0001:v3 
DT       .us/ft       UNKNOWN        : DT:sonico:r1:0001:v1 
GR-LWD   .API         UNKNOWN        : GR-LWD:PETROWORKS:rC:NONE:v3 
GR       .API         UNKNOWN        : GR:Entubado:r1:0001:v3 
LLD-LWD  .ohm.m       UNKNOWN        : LLD-LWD:PETROWORKS:rC:NONE:v3 
LLM-LWD  .UNKNOWN     UNKNOWN        : LLM-LWD:PETROWORKS:rC:NONE:v3 
LLS-LWD  .ohm.m       UNKNOWN        : LLS-LWD:PETROWORKS:rC:NONE:v3 
MSFL-LWD .ohm.m       UNKNOWN        : MSFL-LWD:PETROWORKS:rC:NONE:v3 
NPHI     .v/v_decimal UNKNOWN        : NPHI:Entubado:r1:0001:v3 
POTA     .UNKNOWN     UNKNOWN        : POTA:Entubado:r1:0001:v3 
THOR     .ppm         UNKNOWN        : THOR:Entubado:r1:0001:v3 
URAN     .ppm         UNKNOWN        : URAN:Entubado:r1:0001:v3 
~A     DEPTH          CGR           DT       GR-LWD           GR      LLD-LWD      LLM-LWD      LLS-LWD     MSFL-LWD         NPHI         POTA         THOR         URAN
# ...
   2485.3772      10.0969      59.5069      42.0716      24.8855      79.5973      72.7849      85.0330      80.8843       0.0465       0.0047       0.4866       1.9217
   2485.5295       9.0666      58.6937      45.9589      24.6235      83.1777      73.6739      86.4339      83.4791       0.0474       0.0044       0.3525       2.0534
   2485.6821       8.5128      58.3337      44.0526      24.7542      87.9541      75.1858      86.4133      82.6329       0.0482       0.0041       0.3246       2.1611
   2485.8345       8.4424      58.2437      42.8133      25.2282      88.8751      76.0586      86.1491      81.3955       0.0479       0.0040       0.3587       2.2127
   2485.9868       8.3004      58.2320      41.4708      25.7193      87.5195      75.8158      85.6079      78.9017       0.0460       0.0038       0.4388       2.2629
   2486.1392       8.1610      58.2442      42.2613      25.5494      85.0651      75.6480      85.9309      77.4547       0.0443       0.0036       0.4875       2.2398
   2486.2917       8.0186      57.9209      46.4373      24.5764      83.9717      73.6006      80.8714      71.8558       0.0435       0.0036       0.4879       2.1277
   2486.4441       8.1404      58.3032      49.4724      24.2582      81.9566      70.4852      75.4158      67.2242       0.0433       0.0036       0.5155       2.0908
   2486.5964       8.3477      58.2202      51.0116      24.6721      78.5510      66.9027      70.8677      63.5248       0.0436       0.0035       0.6113       2.1403
   2486.7488       8.5090      58.2723      51.5597      24.9880      76.5139      64.7352      69.2066      63.3651       0.0439       0.0035       0.6732       2.1819
   2486.9014       9.0426      58.0838      46.9705      25.5315      73.2040      61.1527      65.8424      61.3387       0.0436       0.0037       0.7313       2.1996
   2487.0537      10.4899      58.0580      46.2733      26.9514      67.3666      55.6080      58.9130      55.0761       0.0426       0.0043       0.9101       2.2219
   2487.2061      11.7326      57.8484      49.8575      28.1703      65.3767      53.8993      57.3908      52.8189       0.0422       0.0047       1.0679       2.2152
   2487.3584      12.7962      57.7873      51.7949      29.4786      67.6312      55.0197      59.4017      54.3741       0.0421       0.0050       1.1937       2.2321
   2487.5107      13.3007      57.9466      51.9756      30.5282      67.7537      54.5418      58.1136      53.7892       0.0423       0.0052       1.2769       2.3241
   2487.6633      13.1690      58.1429      52.7978      30.9732      66.1327      54.5074      59.0263      54.2678       0.0409       0.0052       1.2102       2.4366
   2487.8157      13.0462      58.4025      54.5212      31.4321      65.4734      57.0065      63.9575      59.1933       0.0377       0.0054       1.0472       2.5381
   2487.9680      13.2691      58.7697      52.2884      31.9464      62.8510      58.3810      66.5950      63.7240       0.0368       0.0056       1.0120       2.5877
   2488.1204      14.0258      58.9907      53.5076      33.0659      59.7566      58.3598      69.5459      68.7458       0.0383       0.0059       1.0804       2.6325
   2488.2729      14.4827      58.3428      57.5022      34.2062      56.7700      57.3764      72.3267      72.5457       0.0397       0.0061       1.0591       2.7005
   2488.4253      14.0659      58.1978      59.5332      33.8516      51.2894      52.8575      69.2703      67.7852       0.0396       0.0060       0.9833       2.6990
   2488.5776      13.0927      59.0286      54.3093      32.1368      43.5220      44.5803      56.3889      55.5601       0.0386       0.0057       0.9045       2.6067
   2488.7300      11.8260      58.3220      46.4735      30.0134      35.0325      33.9287      39.2556      38.0356       0.0377       0.0052       0.7825       2.4752
   2488.8826       9.4700      58.0088      39.0637      25.7543      28.5655      26.1632      26.8833      24.3159       0.0351       0.0043       0.5603       2.1708
   2489.0349       7.2223      58.1950      31.8542      21.1096      26.5276      23.8233      22.4612      19.8729       0.0314       0.0033       0.3737       1.8095
   2489.1873       6.6934      57.2280      32.9655      19.7384      30.3072      29.8696      31.1236      32.2361       0.0288       0.0031       0.3388       1.6681
   2489.3396       7.2350      57.9212      43.4176      21.0057      32.6019      33.5623      37.8591      43.0444       0.0279       0.0033       0.3983       1.7360
   2489.4919       9.1262      57.7158      57.5534      25.8554      29.6144      29.1172      33.3631      36.7206       0.0321       0.0041       0.5658       2.1055
   2489.6445      13.4349      58.1839      70.3367      36.2368      26.6177      25.6715      28.8353      31.2671       0.0405       0.0058       0.9500       2.8960
   2489.7969      16.6544      59.9286      75.8411      43.1567      24.7392      23.7232      27.2024      30.2847       0.0452       0.0071       1.2380       3.3832
   2489.9492      18.8466      60.1056      77.3912      46.7302      22.2885      21.5638      25.2591      28.5131       0.0477       0.0081       1.3102       3.5063
   2490.1016      19.6549      60.4743      76.6976      48.0561      21.0981      20.6635      24.2296      27.5388       0.0492       0.0086       1.2920       3.5370
   2490.2542      20.0959      60.2991      76.2453      47.1003      18.3249      18.3321      21.1589      23.4580       0.0531       0.0085       1.5025       3.3475
   2490.4065      21.3733      60.6271      71.4022      45.8651      16.5849      16.7162      18.9934      20.5914       0.0547       0.0086       1.8395       3.0533
   2490.5588      22.0163      61.8416      73.0696      45.4098      14.1895      13.8200      15.3524      15.8961       0.0552       0.0088       1.9433       2.9502
   2490.7112      22.6747      61.8955      71.6595      44.8273      11.9816      11.3614      12.1093      11.9297       0.0563       0.0091       1.9884       2.8725
   2490.8638      23.2418      62.1813      63.3962      44.7309      11.1662      10.3870      10.8488      10.3883       0.0568       0.0093       2.0101       2.8517
   2491.0161      24.8057      64.7372      63.7875      45.2695      11.3150      10.5070      11.4385      11.0730       0.0593       0.0100       2.1207       2.8322
   2491.1685      28.7382      65.3902      68.5859      48.9453      11.1918      10.5868      11.6312      11.6660       0.0788       0.0118       2.3546       2.8909
   2491.3208      30.8519      68.7038      76.7835      51.2874      11.7081      11.5142      12.7210      13.6855       0.0939       0.0128       2.4548       2.9371
   2491.4731      32.2587      68.9442      81.8943      54.6565      11.6184      11.5104      12.7654      14.2233       0.1165       0.0134       2.5621       3.2864
   2491.6257      32.7359      69.3846      85.0600      56.3357      10.5673       9.8556      10.7640      11.4663       0.1214       0.0134       2.6681       3.5181
   2491.7781      32.8505      70.0698      87.0926      56.4357      10.7913       9.8451      10.5633      10.6288       0.1177       0.0130       2.9412       3.5786
   2491.9304      28.9965      70.3203      78.1090      51.2751      12.3217      11.7335      12.4444      12.4325       0.1160       0.0116       2.5351       3.3851
   2492.0828      26.5445      69.5709      69.0237      47.9817      13.4153      13.3577      14.5738      15.5891       0.1132       0.0108       2.2183       3.2435
   2492.2354      21.6385      60.5209      61.6286      39.4035      14.2890      14.4970      16.7468      18.2375       0.0835       0.0090       1.7165       2.6293
   2492.3877      19.9203      60.1289      57.1323      36.2680      15.0759      15.6652      18.8655      20.5003       0.0700       0.0083       1.5509       2.3856
   2492.5400      17.8213      59.6994      52.2064      33.1662      15.8160      17.3909      20.8487      23.5956       0.0607       0.0074       1.4239       2.1310
