#------------------------------------------------------------------------------
#
#   Created by  : [OpenWorks] Log Export Utility (LEXP)
#   Created on  : 2016-05-13 12:10:04
#   Project     : CANT971
#   User        : R5K
#   Interpreter : PEP
#
#------------------------------------------------------------------------------
~VERSION INFORMATION
VERS. 2.0 : CWLS Log ASCII Standard - version 2.0
WRAP.  NO : One line per depth step
~WELL INFORMATION
#MNEMONIC   .UNIT                                           VALUE :DESCRIPTION
#------------------------------------------------------------------------------
STRT        .M                                          1900.1613 :START DEPTH
STOP        .M                                          3117.2275 :STOP DEPTH
STEP        .M                                             0.1524 :STEP
NULL        .                                           -999.2500 :NULL VALUE
COMP        .                                             UNKNOWN :COMPANY
WELL        .                                                1008 :WELL
FLD         .                                             UNKNOWN :FIELD
LOC         .                                             UNKNOWN :LOCATION
CNTY        .                                             UNKNOWN :COUNTY
STAT        .                                             UNKNOWN :STATE
CTRY        .                                             UNKNOWN :COUNTRY
SRVC        .                                             UNKNOWN :SERVICE COMPANY
DATE        .                                             UNKNOWN :LOG DATE
UWI         .                                                1008 :UNIQUE WELL ID
XCOORD      .                                            0.000000 :SURFACE X
YCOORD      .                                            0.000000 :SURFACE Y
LAT         .                                            0.000000 :LATITUDE
LON         .                                            0.000000 :LONGITUDE
ELEV        .M                                             0.0000 :SURFACE ELEV
ELEV_TYPE   .                                                  KB :ELEV TYPE
~CURVE INFORMATION
#MNEMONIC.UNIT        API CODE       : CURVE DESCRIPTION
#------------------------------------------------------------------------------
DEPTH    .M                          : Measured Depth
CGR      .API         UNKNOWN        : CGR:Entubado:r1:0001:v3 
DT       .us/ft       UNKNOWN        : DT:sonico:r1:0001:v1 
GR-LWD   .API         UNKNOWN        : GR-LWD:PETROWORKS:rC:NONE:v3 
GR       .API         UNKNOWN        : GR:Entubado:r1:0001:v3 
LLD-LWD  .ohm.m       UNKNOWN        : LLD-LWD:PETROWORKS:rC:NONE:v3 
LLM-LWD  .UNKNOWN     UNKNOWN        : LLM-LWD:PETROWORKS:rC:NONE:v3 
LLS-LWD  .ohm.m       UNKNOWN        : LLS-LWD:PETROWORKS:rC:NONE:v3 
MSFL-LWD .ohm.m       UNKNOWN        : MSFL-LWD:PETROWORKS:rC:NONE:v3 
NPHI     .v/v_decimal UNKNOWN        : NPHI:Entubado:r1:0001:v3 
POTA     .UNKNOWN     UNKNOWN        : POTA:Entubado:r1:0001:v3 
THOR     .ppm         UNKNOWN        : THOR:Entubado:r1:0001:v3 
URAN     .ppm         UNKNOWN        : URAN:Entubado:r1:0001:v3 
~A     DEPTH          CGR           DT       GR-LWD           GR      LLD-LWD      LLM-LWD      LLS-LWD     MSFL-LWD         NPHI         POTA         THOR         URAN
# ...
   2324.4429       4.2079    -999.2500      24.4552      13.7183      14.3336      13.7866      16.6008      20.5976       0.1104       0.0019       0.2582       1.2842
   2324.5952       4.2406    -999.2500      31.8220      13.6275      12.0136      11.6440      14.0906      15.8716       0.1102       0.0019       0.2574       1.2538
   2324.7476       4.2874    -999.2500      41.5813      13.7878      10.5639      10.1103      11.7079      12.2458       0.1163       0.0019       0.2605       1.2569
   2324.9001       4.3168    -999.2500      45.6739      14.1119       9.8943       9.1190       9.6934       9.7795       0.1325       0.0019       0.2640       1.2914
   2325.0525       4.3315    -999.2500      43.6182      12.6822      10.3525       9.0580       9.0376       8.9814       0.1407       0.0019       0.2842       1.1172
   2325.2048       4.4012    -999.2500      40.3491      10.3398      11.5640       9.7344       9.4809       9.4079       0.1396       0.0019       0.3284       0.8296
   2325.3572       4.2944    -999.2500      37.0126       9.6533      13.2252      11.0224      10.7481      10.8919       0.1236       0.0018       0.3068       0.7592
   2325.5098       4.8045    -999.2500      33.8730      10.1604      15.3800      13.1338      13.0231      13.4799       0.1098       0.0021       0.3129       0.7750
   2325.6621       5.9292    -999.2500      30.9493      11.8793      18.1684      16.4089      16.6047      17.3511       0.1035       0.0026       0.3566       0.8766
   2325.8145       7.3204    -999.2500      27.3302      13.3899      21.4102      20.7232      21.6460      22.7145       0.1192       0.0032       0.4821       0.9046
   2325.9668       8.9315    -999.2500      23.5106      14.8965      25.0269      26.2826      29.2806      31.4979       0.1433       0.0037       0.7035       0.8944
   2326.1191       9.5287    -999.2500      22.4209      15.2013      29.3422      34.1670      41.5461      46.5968       0.1511       0.0037       0.8933       0.8458
   2326.2717      10.7994    -999.2500      23.5015      15.7453      33.9585      43.5437      57.3085      66.0376       0.1674       0.0040       1.1326       0.7429
   2326.4241      11.9155    -999.2500      25.1132      15.9331      38.3648      53.0358      73.9186      84.6951       0.1771       0.0044       1.2700       0.6114
   2326.5764      10.7386    -999.2500      25.0506      14.3579      42.5185      62.7356      89.7797      98.5668       0.1519       0.0040       1.1363       0.5578
   2326.7288       9.2376    -999.2500      23.9590      12.8507      45.9421      71.9415     101.1010     105.5495       0.1269       0.0034       0.9914       0.5622
   2326.8813       8.6614    -999.2500      23.8353      12.4185      47.3561      77.3504     103.6788     105.7198       0.1185       0.0032       0.9332       0.5796
   2327.0337       8.0257    -999.2500      24.5987      11.4885      46.3812      76.2803      97.3713     100.5074       0.1069       0.0028       0.9295       0.5295
   2327.1860       7.6001    -999.2500      25.2114      10.6580      43.4273      69.3722      85.2481      90.7618       0.0982       0.0026       0.9549       0.4641
   2327.3384       6.8486    -999.2500      25.8122       9.0036      37.9256      57.6221      69.2293      75.1509       0.0835       0.0022       0.9405       0.3234
   2327.4910       6.3164    -999.2500      28.3318       7.9169      29.4855      41.7104      49.1622      53.5536       0.0721       0.0019       0.9410       0.2435
   2327.6433       6.1837    -999.2500      34.3164       7.7945      20.2404      25.7437      29.2113      31.9380       0.0677       0.0018       0.9650       0.2553
   2327.7957       5.4515    -999.2500      43.2645       7.3281      13.2707      14.7204      15.6659      16.9610       0.0571       0.0016       0.8224       0.2877
   2327.9480       4.8039    -999.2500      51.3330       6.9965       9.5468       9.4180       9.2297       9.3906       0.0503       0.0015       0.6618       0.3264
   2328.1003       3.3696    -999.2500      54.5659       7.0526       7.9313       7.4917       6.8484       6.5314       0.0497       0.0011       0.4654       0.5445
   2328.2529       2.8717    -999.2500      53.4782       7.3157       6.8647       6.4502       5.7765       5.5464       0.0501       0.0009       0.3863       0.6529
   2328.4053       3.0712    -999.2500      52.6897       7.6275       5.7936       5.3568       4.9327       4.9420       0.0505       0.0011       0.3828       0.6643
   2328.5576       4.0765    -999.2500      55.3325       8.3662       4.9160       4.4417       4.3035       4.4262       0.0513       0.0016       0.3748       0.6116
   2328.7100       4.8474    -999.2500      56.6382       8.9258       4.2926       3.8913       3.9170       4.0527       0.0520       0.0020       0.3806       0.5652
   2328.8625       6.3560    -999.2500      53.5316      11.0458       3.7641       3.4843       3.5780       3.7342       0.0622       0.0027       0.4663       0.6467
   2329.0149       7.3596    -999.2500      51.6363      12.5457       3.3025       3.0946       3.2234       3.4045       0.0772       0.0031       0.5522       0.7136
   2329.1672       8.0908    -999.2500      53.2147      13.6511       2.9982       2.8148       2.9649       3.1307       0.0925       0.0034       0.6297       0.7627
   2329.3196      11.2299    -999.2500      55.6361      18.1252       2.8303       2.6297       2.7769       2.9315       0.1768       0.0045       0.9978       0.9506
   2329.4722      12.7693    -999.2500      58.0819      20.4493       2.7364       2.4759       2.5696       2.7145       0.2225       0.0050       1.2097       1.0599
   2329.6245      13.4509    -999.2500      58.8709      20.6183       3.0770       2.7537       2.7199       2.8015       0.2488       0.0052       1.2639       0.9526
   2329.7769      13.4034    -999.2500      54.3199      20.0752       3.9381       3.6283       3.4645       3.6093       0.2596       0.0053       1.2115       0.8832
   2329.9292      13.2252    -999.2500      48.5211      19.4537       4.5263       4.3413       4.2990       4.7867       0.2675       0.0053       1.1424       0.8296
   2330.0815      13.5518    -999.2500      43.3721      19.8752       4.7214       4.6759       5.0988       5.8958       0.2651       0.0055       1.1565       0.8440
   2330.2341      13.7593    -999.2500      41.5569      20.2740       4.7314       4.7599       5.5436       6.2836       0.2621       0.0055       1.1948       0.8646
   2330.3865      14.0994    -999.2500      42.4343      21.7064       4.7215       4.8710       5.5619       6.0229       0.2656       0.0053       1.4225       1.0365
   2330.5388      13.9169    -999.2500      42.8698      21.8455       5.0133       5.3691       5.7277       5.8884       0.2944       0.0053       1.3709       1.0836
   2330.6912      13.6834    -999.2500      45.1696      21.8504       5.3590       5.6155       5.7915       6.0445       0.3255       0.0054       1.2909       1.1171
   2330.8438      12.6607    -999.2500      47.9439      21.1666       5.1882       5.3310       5.5622       5.7864       0.3987       0.0051       1.1001       1.1687
   2330.9961      12.4784    -999.2500      46.3064      20.9364       5.0185       5.2103       5.4952       5.5854       0.4162       0.0051       1.0567       1.1618
   2331.1484      11.9176    -999.2500      47.6980      19.6026       4.5868       4.9699       5.2245       5.3437       0.3404       0.0051       0.8712       1.0817
   2331.3008      11.3547    -999.2500      52.0217      19.0709       3.7079       4.1762       4.4483       4.7289       0.3142       0.0048       0.8265       1.0883
   2331.4534      10.7630    -999.2500      57.7801      18.4956       2.6455       2.8800       3.2153       3.4712       0.2860       0.0046       0.7822       1.0930
   2331.6057       9.5707    -999.2500      61.7475      16.6817       1.7969       1.7361       1.9334       2.0564       0.2052       0.0039       0.7976       1.0150
