#------------------------------------------------------------------------------
#
#   Created by  : [OpenWorks] Log Export Utility (LEXP)
#   Created on  : 2016-05-13 12:10:04
#   Project     : CANT971
#   User        : R5K
#   Interpreter : PEP
#
#------------------------------------------------------------------------------
~VERSION INFORMATION
VERS. 2.0 : CWLS Log ASCII Standard - version 2.0
WRAP.  NO : One line per depth step
~WELL INFORMATION
#MNEMONIC   .UNIT                                           VALUE :DESCRIPTION
#------------------------------------------------------------------------------
STRT        .M                                          1900.1613 :START DEPTH
STOP        .M                                          3117.2275 :STOP DEPTH
STEP        .M                                             0.1524 :STEP
NULL        .                                           -999.2500 :NULL VALUE
COMP        .                                             UNKNOWN :COMPANY
WELL        .                                                1008 :WELL
FLD         .                                             UNKNOWN :FIELD
LOC         .                                             UNKNOWN :LOCATION
CNTY        .                                             UNKNOWN :COUNTY
STAT        .                                             UNKNOWN :STATE
CTRY        .                                             UNKNOWN :COUNTRY
SRVC        .                                             UNKNOWN :SERVICE COMPANY
DATE        .                                             UNKNOWN :LOG DATE
UWI         .                                                1008 :UNIQUE WELL ID
XCOORD      .                                            0.000000 :SURFACE X
YCOORD      .                                            0.000000 :SURFACE Y
LAT         .                                            0.000000 :LATITUDE
LON         .                                            0.000000 :LONGITUDE
ELEV        .M                                             0.0000 :SURFACE ELEV
ELEV_TYPE   .                                                  KB :ELEV TYPE
~CURVE INFORMATION
#MNEMONIC.UNIT        API CODE       : CURVE DESCRIPTION
#------------------------------------------------------------------------------
DEPTH    .M                          : Measured Depth
CGR      .API         UNKNOWN        : CGR:Entubado:r1:0001:v3 
DT       .us/ft       UNKNOWN        : DT:sonico:r1:0001:v1 
GR-LWD   .API         UNKNOWN        : GR-LWD:PETROWORKS:rC:NONE:v3 
GR       .API         UNKNOWN        : GR:Entubado:r1:0001:v3 
LLD-LWD  .ohm.m       UNKNOWN        : LLD-LWD:PETROWORKS:rC:NONE:v3 
LLM-LWD  .UNKNOWN     UNKNOWN        : LLM-LWD:PETROWORKS:rC:NONE:v3 
LLS-LWD  .ohm.m       UNKNOWN        : LLS-LWD:PETROWORKS:rC:NONE:v3 
MSFL-LWD .ohm.m       UNKNOWN        : MSFL-LWD:PETROWORKS:rC:NONE:v3 
NPHI     .v/v_decimal UNKNOWN        : NPHI:Entubado:r1:0001:v3 
POTA     .UNKNOWN     UNKNOWN        : POTA:Entubado:r1:0001:v3 
THOR     .ppm         UNKNOWN        : THOR:Entubado:r1:0001:v3 
URAN     .ppm         UNKNOWN        : URAN:Entubado:r1:0001:v3 
~A     DEPTH          CGR           DT       GR-LWD           GR      LLD-LWD      LLM-LWD      LLS-LWD     MSFL-LWD         NPHI         POTA         THOR         URAN
# ...
   2909.6589      19.6864      67.8190      91.1201      57.9332    1928.6617     833.1813    1627.3346     852.2818       0.1369       0.0066       2.5044       5.1601
   2909.8113      18.5423      66.4820      85.7466      54.7052    1112.4314     397.4726     709.7969     325.1696       0.1263       0.0061       2.4161       4.8945
   2909.9636      19.4434      66.5131      84.5965      55.7059     979.7496     313.0639     381.8779     155.9068       0.1050       0.0066       2.4191       4.8656
   2910.1160      20.0672      68.6627      84.6372      56.2151    1168.5599     376.8912     350.3463     133.1995       0.0992       0.0069       2.4265       4.8160
   2910.2686      20.4608      66.9695      81.9258      56.3319    1669.5238    1060.3972    1375.7998     782.0737       0.0995       0.0071       2.4333       4.7529
   2910.4209      20.6336      68.1868      80.2225      55.9208    1682.3733    1244.0549    1697.9899    1138.7455       0.1055       0.0070       2.5724       4.7459
   2910.5732      20.7100      68.9568      78.8091      55.7101     638.9824     384.0508     456.4711     295.4995       0.1081       0.0069       2.6550       4.7589
   2910.7256      23.1805      66.9524      79.7668      54.9233     459.8280     218.2653     190.9180     102.4560       0.1037       0.0072       3.2288       4.2953
   2910.8782      23.6646      69.4861      81.2205      54.7510     502.7781     237.6770     189.7345      95.3542       0.1033       0.0072       3.3884       4.1862
   2911.0305      23.6943      67.4242      87.4401      54.7159     801.0743     335.9085     483.9035     158.5844       0.1038       0.0071       3.4528       4.1601
   2911.1829      23.7973      66.4767      88.9771      56.8861     950.5474     415.2302     748.9853     207.8430       0.1156       0.0072       3.4766       4.4077
   2911.3352      23.8622      67.8259      94.4070      58.0316     824.5850     385.1374     638.7604     243.6971       0.1217       0.0071       3.4979       4.5411
   2911.4875      24.0075      68.5672      93.6237      59.4543     585.0544     275.4034     407.2907     167.0906       0.1340       0.0074       3.3914       4.6837
   2911.6401      24.2808      69.9111      92.1505      59.4085     337.4101     159.0276     168.3568      79.2638       0.1390       0.0075       3.4687       4.6118
   2911.7925      24.5635      69.7778      86.9216      59.2381    1013.1100     273.7072     650.6809     109.4878       0.1434       0.0075       3.5620       4.5221
   2911.9448      25.3888      70.5993      86.0953      60.1395    1334.6918     352.1593    1092.2146     138.9810       0.1505       0.0077       3.6822       4.4824
   2912.0972      25.6408      69.7847      88.2706      60.6953     727.1411     207.3570     198.2585     114.1658       0.1504       0.0079       3.6677       4.5053
   2912.2498      26.9461      68.0371      96.4861      61.6139     644.2633     189.2159     165.7514      98.2872       0.1457       0.0083       3.8498       4.4938
   2912.4021      26.2597      67.9559     104.5931      60.5014     566.1818     172.7766     146.1272      82.4266       0.1453       0.0081       3.6892       4.4587
   2912.5544      25.5358      68.7452     100.1245      59.3175     341.9740     150.4423     142.7131      62.9164       0.1448       0.0080       3.5136       4.4178
   2912.7068      23.7363      71.9616      95.2059      56.1016     327.0284     149.1012     159.4124      61.8703       0.1425       0.0080       2.9127       4.2157
   2912.8594      23.7666      75.1223      91.9435      56.1584     378.0281     175.6460     184.2941      68.5310       0.1443       0.0083       2.7792       4.2208
   2913.0117      27.6298      76.3767      98.2672      63.3021     378.6842     159.9967     188.4096      57.8757       0.1552       0.0101       3.0159       4.6754
   2913.1641      29.2858      77.2696     104.5986      66.1354     409.4250     153.7214     215.3342      49.9217       0.1656       0.0106       3.2643       4.8400
   2913.3164      30.8777      73.2761     111.0902      68.6465     723.1937     235.4120     456.8904      67.2325       0.1787       0.0110       3.5233       4.9745
   2913.4688      31.7897      74.4785     116.6331      68.5159    1024.2952     336.9333     710.2322      91.6177       0.2101       0.0109       3.8301       4.8734
   2913.6213      31.2345      75.8661     115.7333      67.0375    1241.6205     575.2811    1046.8033     164.6973       0.2132       0.0106       3.8350       4.7414
   2913.7737      30.1234      76.3006     113.6629      63.7843    1397.8354     753.7272    1309.9000     222.8340       0.1877       0.0103       3.6894       4.4354
   2913.9260      31.1182      78.3441     105.4458      65.0787    1233.2255     617.7013    1187.2833     202.5276       0.1780       0.0106       3.8307       4.4380
   2914.0784      32.5529      78.5804      96.6572      67.4675    1016.3778     455.3200     941.2031     169.5896       0.1695       0.0110       4.0364       4.5208
   2914.2310      35.2109      78.6508      87.4202      73.2618     691.9859     243.1934     343.6454     104.9251       0.1677       0.0119       4.4201       4.8748
   2914.3833      35.0637      77.5545      85.5921      72.7240     801.2381     266.0905     401.7805     123.4917       0.1687       0.0118       4.4281       4.8020
   2914.5356      33.8342      76.1916      84.0520      67.3277     884.3756     281.3586     435.6029     135.9851       0.1579       0.0111       4.4392       4.2599
   2914.6880      33.0322      73.8620      83.4292      64.4292     884.2525     272.2998     391.8912     129.1127       0.1447       0.0103       4.5895       4.0473
   2914.8406      31.8303      71.7834      83.5513      60.4984     892.1317     271.1797     361.9236     133.8748       0.1305       0.0095       4.6843       3.7082
   2914.9929      29.8373      71.2252      85.6910      55.2913     921.6676     291.5696     369.2751     170.1424       0.1172       0.0086       4.5951       3.2161
   2915.1453      28.9818      71.0453      89.2378      55.8263     936.8663     301.5054     374.9014     205.7423       0.1137       0.0084       4.4432       3.4218
   2915.2976      29.5867      71.4341      96.0410      60.2708     918.7176     287.1291     376.5030     239.6766       0.1172       0.0086       4.4679       3.9857
   2915.4500      31.3149      76.3824     106.8996      63.5081     733.5890     249.5412     320.9124     218.3311       0.1271       0.0091       4.7594       4.2034
   2915.6025      33.1497      77.5161     118.2544      67.7356     379.8314     185.1423     194.9745     128.5823       0.1461       0.0096       5.0788       4.5612
   2915.7549      34.3177      77.9801     111.7175      71.1288     373.9276     170.1036     166.1037     121.4049       0.1728       0.0098       5.3005       4.9182
   2915.9072      29.6460      76.7386      97.4565      61.6502     579.0190     214.4574     249.5910     138.2747       0.1701       0.0086       4.5135       4.3183
   2916.0596      21.9171      73.2601      82.6784      46.3798     923.4122     302.3289     503.7586     185.7500       0.1497       0.0065       3.2524       3.3567
   2916.2122      20.2240      69.8510      66.2176      42.5297     739.2017     272.6987     477.5504     169.1259       0.1352       0.0058       3.1148       3.0768
   2916.3645      18.9309      70.1193      53.1314      39.9976     285.2271     158.4787     175.0592      87.4462       0.1171       0.0055       2.8691       2.8859
   2916.5168      18.5347      70.4982      50.3121      40.4627     455.6495     218.6389     463.8880     204.3500       0.1018       0.0058       2.6089       2.9818
   2916.6692      22.3869      71.2762      48.9730      45.5211     730.3198     371.0686    1219.4001     595.8693       0.1012       0.0071       3.0676       3.1805
   2916.8215      27.3992      72.6419      52.0085      50.3690     567.3632     315.3817    1009.0677     500.4728       0.1074       0.0087       3.7253       3.1804
