#------------------------------------------------------------------------------
#
#   Created by  : [OpenWorks] Log Export Utility (LEXP)
#   Created on  : 2016-05-13 12:10:04
#   Project     : CANT971
#   User        : R5K
#   Interpreter : PEP
#
#------------------------------------------------------------------------------
~VERSION INFORMATION
VERS. 2.0 : CWLS Log ASCII Standard - version 2.0
WRAP.  NO : One line per depth step
~WELL INFORMATION
#MNEMONIC   .UNIT                                           VALUE :DESCRIPTION
#------------------------------------------------------------------------------
STRT        .M                                          1900.1613 :START DEPTH
STOP        .M                                          3117.2275 :STOP DEPTH
STEP        .M                                             0.1524 :STEP
NULL        .                                           -999.2500 :NULL VALUE
COMP        .                                             UNKNOWN :COMPANY
WELL        .                                                1008 :WELL
FLD         .                                             UNKNOWN :FIELD
LOC         .                                             UNKNOWN :LOCATION
CNTY        .                                             UNKNOWN :COUNTY
STAT        .                                             UNKNOWN :STATE
CTRY        .                                             UNKNOWN :COUNTRY
SRVC        .                                             UNKNOWN :SERVICE COMPANY
DATE        .                                             UNKNOWN :LOG DATE
UWI         .                                                1008 :UNIQUE WELL ID
XCOORD      .                                            0.000000 :SURFACE X
YCOORD      .                                            0.000000 :SURFACE Y
LAT         .                                            0.000000 :LATITUDE
LON         .                                            0.000000 :LONGITUDE
ELEV        .M                                             0.0000 :SURFACE ELEV
ELEV_TYPE   .                                                  KB :ELEV TYPE
~CURVE INFORMATION
#MNEMONIC.UNIT        API CODE       : CURVE DESCRIPTION
#------------------------------------------------------------------------------
DEPTH    .M                          : Measured Depth
CGR      .API         UNKNOWN        : CGR:Entubado:r1:0001:v3 
DT       .us/ft       UNKNOWN        : DT:sonico:r1:0001:v1 
GR-LWD   .API         UNKNOWN        : GR-LWD:PETROWORKS:rC:NONE:v3 
GR       .API         UNKNOWN        : GR:Entubado:r1:0001:v3 
LLD-LWD  .ohm.m       UNKNOWN        : LLD-LWD:PETROWORKS:rC:NONE:v3 
LLM-LWD  .UNKNOWN     UNKNOWN        : LLM-LWD:PETROWORKS:rC:NONE:v3 
LLS-LWD  .ohm.m       UNKNOWN        : LLS-LWD:PETROWORKS:rC:NONE:v3 
MSFL-LWD .ohm.m       UNKNOWN        : MSFL-LWD:PETROWORKS:rC:NONE:v3 
NPHI     .v/v_decimal UNKNOWN        : NPHI:Entubado:r1:0001:v3 
POTA     .UNKNOWN     UNKNOWN        : POTA:Entubado:r1:0001:v3 
THOR     .ppm         UNKNOWN        : THOR:Entubado:r1:0001:v3 
URAN     .ppm         UNKNOWN        : URAN:Entubado:r1:0001:v3 
~A     DEPTH          CGR           DT       GR-LWD           GR      LLD-LWD      LLM-LWD      LLS-LWD     MSFL-LWD         NPHI         POTA         THOR         URAN
# ...
   2434.1709       1.3265     101.4333      18.4296       8.6155    1648.7772     236.4228      84.0544      30.6029       0.1631       0.0002       0.3408       1.0095
   2434.3232       1.5185      96.0257      16.3606       8.5411    2000.0000     274.9865      93.3748      31.6356       0.1674       0.0002       0.3743       0.9725
   2434.4756       1.0687      88.2169      14.4904       8.0566    2000.0000     274.9865      93.3748      31.6356       0.1659       0.0001       0.2894       0.9739
   2434.6282       0.8084      76.3177      14.5707       7.8734     737.8550     231.7029      77.9453      44.1214       0.1629       0.0001       0.2482       0.9911
   2434.7805       1.0404      73.5331      15.0393       7.7541     525.3317     224.4147      75.3472      46.2238       0.1292       0.0000       0.3219       0.9290
   2434.9329       1.1031      72.9704      14.0099       7.4723     343.3795     121.8995      67.2405      43.5020       0.1148       0.0000       0.3359       0.8703
   2435.0852       1.1312      73.5353      18.9293       7.1678     320.3756     108.9387      66.2156      43.1579       0.1038       0.0001       0.3389       0.8139
   2435.2375       1.3344      73.1427      18.9334       6.9519     320.3756     108.9387      66.2156      43.1579       0.0942       0.0002       0.2883       0.7391
   2435.3901       1.4736      73.7881      19.8479       7.1552    1892.3969     320.8197      91.6349      58.7522       0.0944       0.0003       0.2715       0.7409
   2435.5425       2.0152      79.5262      20.4930       8.4268    2000.0000     335.3227      93.3748      59.8196       0.0957       0.0005       0.3432       0.8726
   2435.6948       2.0651      98.1299      25.9643       8.5304    1386.0078     227.9988     100.2396      57.3389       0.0943       0.0005       0.3467       0.8803
   2435.8472       2.0895     101.2612      15.7387       8.5735    1365.5033     224.4147     100.4689      57.2561       0.0927       0.0005       0.3466       0.8816
   2435.9998       1.8059     100.0440      19.1685       9.0341     998.7516     203.0489     110.7527      55.4429       0.0897       0.0006       0.2660       1.0017
   2436.1521       1.9482     101.6902      16.9050       9.4181     665.9867     191.7343     120.5482      54.4341       0.0889       0.0006       0.2764       1.0449
   2436.3044       2.4277      96.3585      14.5635       9.6786     868.7563     251.8286     145.6556      70.6218       0.0899       0.0008       0.3111       0.9823
   2436.4568       2.4109      93.7243      12.1084       9.4733    1300.0255     324.9865     197.9897     102.0210       0.0920       0.0007       0.3149       0.9517
   2436.6094       2.3980      90.4707      11.1208       9.2505    1360.2531     332.6431     184.3783     107.4644       0.0944       0.0007       0.3150       0.9195
   2436.7617       2.4471      89.1168      16.1281       8.7724    1246.7933     287.3535     177.1495     117.5173       0.0997       0.0009       0.2660       0.8626
   2436.9141       2.6387      88.5670      21.0474       8.5995     909.2293     224.0730     165.3020     112.0686       0.0982       0.0010       0.2876       0.8092
   2437.0664       3.6245      88.4850      24.1797      10.3267    1795.0911     314.2244     177.2957     106.7454       0.0912       0.0012       0.4434       0.9032
   2437.2188       4.3597      90.7331      25.5359      12.1102    1858.6823     327.6156     177.5599     106.7454       0.0934       0.0015       0.5242       1.0318
   2437.3713       5.1613      92.7992      29.1288      14.2020     899.0198     273.9518     159.6140     108.2701       0.0960       0.0018       0.6164       1.1890
   2437.5237       6.2408      94.9411      23.7624      17.7075     968.6948     272.5644     182.8230     122.5865       0.1005       0.0021       0.7593       1.4757
   2437.6760       6.2859      97.0614      19.0649      18.0222    1119.3982     293.4400     224.2552     147.8874       0.1007       0.0022       0.7583       1.4821
   2437.8284       4.8849      95.9096      15.3437      15.1761     824.3077     264.9839     216.4920     134.4242       0.1024       0.0017       0.5901       1.2770
   2437.9810       4.3889      93.6199      17.6916      13.6579     545.6984     227.2111     174.9504     122.6039       0.1006       0.0015       0.5239       1.1553
   2438.1333       3.8776      93.9961      25.8086      12.3000     547.6274     224.4147     160.0360     108.4381       0.0960       0.0014       0.4373       1.0614
   2438.2856       3.4938      91.8769      25.5194      11.8494     683.2117     224.4147     167.1135     108.5458       0.0838       0.0014       0.3169       1.0779
   2438.4380       4.0636      83.1204      25.8829      13.8098     860.3115     224.4147     177.8740     118.2425       0.0796       0.0017       0.3002       1.2606
   2438.5906       5.4726      80.3213      26.6790      18.3717     789.0012     224.4147     169.8864     130.3472       0.0753       0.0026       0.2544       1.6743
   2438.7429       6.2372      81.0344      27.8421      19.5863     555.1221     200.3513     140.4006     115.6137       0.0745       0.0029       0.2965       1.7125
   2438.8953       7.1754      82.8931      30.0536      21.6474     251.6790     126.2663      90.4280      67.1491       0.0744       0.0034       0.3312       1.8329
   2439.0476       8.3194      83.4386      32.5535      24.9852     153.8275      83.4948      63.5446      41.9965       0.0754       0.0040       0.3360       2.0922
   2439.2000       9.5181      83.2132      39.0033      27.5207     134.5168      64.5871      45.1705      26.2513       0.0817       0.0046       0.3453       2.3146
   2439.3525      11.0090      83.1059      45.2444      30.0377     163.5371      71.7459      37.6410      20.3068       0.0965       0.0053       0.3937       2.5387
   2439.5049      11.1745      81.2043      49.1232      29.7509     217.0647      87.3411      40.7973      20.9017       0.1047       0.0054       0.3953       2.4628
   2439.6572      11.6202      74.3988      50.7003      29.3358     515.6352     131.6227      50.2334      23.8037       0.1091       0.0057       0.4100       2.3438
   2439.8096      12.5235      73.3337      46.8953      29.4579     802.4298     165.0193      61.3763      27.4371       0.1085       0.0061       0.4518       2.2464
   2439.9622      14.3487      69.9322      42.2784      30.8235     753.4099     147.9462      62.4809      28.9973       0.1067       0.0067       0.7157       2.1743
   2440.1145      15.8123      68.6505      43.8267      31.3055    1362.3262     237.4301      67.6934      36.3599       0.1015       0.0069       1.0322       2.0291
   2440.2668      14.9866      67.7103      45.4197      30.4115    1402.8090     254.8318      75.7761      35.1789       0.0975       0.0065       1.0043       2.0123
   2440.4192      14.9245      64.6985      45.9901      30.6387     482.0239     130.2127      77.9758      26.8249       0.0923       0.0065       1.0267       2.0617
   2440.5715      15.9586      64.1503      49.9856      32.6188     204.7276      90.0457      67.6941      36.7587       0.0879       0.0069       1.0929       2.2127
   2440.7241      18.9224      64.0303      63.2057      39.2669     114.3473      65.7396      45.3863      33.8475       0.0932       0.0084       1.1899       2.6299
   2440.8765      21.3974      63.3679      66.5051      44.2209     216.9695      90.0182      74.0662      30.0174       0.1027       0.0095       1.3349       2.8805
   2441.0288      21.6224      65.4397      58.3512      43.1890     422.8610     149.8967     144.8546      44.4153       0.1090       0.0094       1.4773       2.7199
   2441.1812      21.9185      71.7272      59.5731      41.4519     487.1335     146.6264     141.4393      46.7071       0.1169       0.0092       1.6788       2.4634
   2441.3337      22.5381      71.5345      72.4133      41.3584     734.3517     173.0710     119.9998      53.1384       0.1220       0.0093       1.8328       2.3706
