#------------------------------------------------------------------------------
#
#   Created by  : [OpenWorks] Log Export Utility (LEXP)
#   Created on  : 2016-05-13 12:10:04
#   Project     : CANT971
#   User        : R5K
#   Interpreter : PEP
#
#------------------------------------------------------------------------------
~VERSION INFORMATION
VERS. 2.0 : CWLS Log ASCII Standard - version 2.0
WRAP.  NO : One line per depth step
~WELL INFORMATION
#MNEMONIC   .UNIT                                           VALUE :DESCRIPTION
#------------------------------------------------------------------------------
STRT        .M                                          1900.1613 :START DEPTH
STOP        .M                                          3117.2275 :STOP DEPTH
STEP        .M                                             0.1524 :STEP
NULL        .                                           -999.2500 :NULL VALUE
COMP        .                                             UNKNOWN :COMPANY
WELL        .                                                1008 :WELL
FLD         .                                             UNKNOWN :FIELD
LOC         .                                             UNKNOWN :LOCATION
CNTY        .                                             UNKNOWN :COUNTY
STAT        .                                             UNKNOWN :STATE
CTRY        .                                             UNKNOWN :COUNTRY
SRVC        .                                             UNKNOWN :SERVICE COMPANY
DATE        .                                             UNKNOWN :LOG DATE
UWI         .                                                1008 :UNIQUE WELL ID
XCOORD      .                                            0.000000 :SURFACE X
YCOORD      .                                            0.000000 :SURFACE Y
LAT         .                                            0.000000 :LATITUDE
LON         .                                            0.000000 :LONGITUDE
ELEV        .M                                             0.0000 :SURFACE ELEV
ELEV_TYPE   .                                                  KB :ELEV TYPE
~CURVE INFORMATION
#MNEMONIC.UNIT        API CODE       : CURVE DESCRIPTION
#------------------------------------------------------------------------------
DEPTH    .M                          : Measured Depth
CGR      .API         UNKNOWN        : CGR:Entubado:r1:0001:v3 
DT       .us/ft       UNKNOWN        : DT:sonico:r1:0001:v1 
GR-LWD   .API         UNKNOWN        : GR-LWD:PETROWORKS:rC:NONE:v3 
GR       .API         UNKNOWN        : GR:Entubado:r1:0001:v3 
LLD-LWD  .ohm.m       UNKNOWN        : LLD-LWD:PETROWORKS:rC:NONE:v3 
LLM-LWD  .UNKNOWN     UNKNOWN        : LLM-LWD:PETROWORKS:rC:NONE:v3 
LLS-LWD  .ohm.m       UNKNOWN        : LLS-LWD:PETROWORKS:rC:NONE:v3 
MSFL-LWD .ohm.m       UNKNOWN        : MSFL-LWD:PETROWORKS:rC:NONE:v3 
NPHI     .v/v_decimal UNKNOWN        : NPHI:Entubado:r1:0001:v3 
POTA     .UNKNOWN     UNKNOWN        : POTA:Entubado:r1:0001:v3 
THOR     .ppm         UNKNOWN        : THOR:Entubado:r1:0001:v3 
URAN     .ppm         UNKNOWN        : URAN:Entubado:r1:0001:v3 
~A     DEPTH          CGR           DT       GR-LWD           GR      LLD-LWD      LLM-LWD      LLS-LWD     MSFL-LWD         NPHI         POTA         THOR         URAN
# ...
   2697.5181       6.8387      64.1516      45.8061      26.6847      62.2377      42.0977      32.5551      25.0899       0.0785       0.0028       0.5736       2.5438
   2697.6704       6.4185      64.4589      45.4800      26.5961      62.8523      42.2259      34.8148      25.2189       0.0771       0.0026       0.5474       2.5923
   2697.8228       5.4963      65.3704      45.2861      24.6454      64.3062      43.7306      38.1427      26.2912       0.0855       0.0022       0.5227       2.4183
   2697.9753       4.9775      65.4079      43.7410      22.5975      61.5577      43.8157      36.2266      26.4123       0.0944       0.0018       0.5467       2.1759
   2698.1277       5.3765      63.6509      37.6421      22.0627      54.9590      40.7632      33.3407      23.8833       0.0970       0.0020       0.5991       2.0430
   2698.2800       5.7786      62.6031      31.5711      20.5394      49.0914      37.6434      32.0344      21.0906       0.0909       0.0020       0.6903       1.7643
   2698.4324       6.0102      58.9244      30.1879      19.0633      40.6821      31.6184      27.7542      19.3459       0.0823       0.0020       0.7913       1.5269
   2698.5850       5.3472      63.6681      29.3888      18.0794      32.8137      25.3429      22.6365      17.4488       0.0827       0.0017       0.7324       1.4937
   2698.7373       5.1145      67.8083      28.5210      18.0265      29.6343      22.5047      20.2962      16.0690       0.0866       0.0016       0.6975       1.5296
   2698.8896       5.6279      77.6018      28.9926      18.8188      24.6358      17.9661      16.4823      13.4426       0.0906       0.0018       0.7600       1.5811
   2699.0420       5.9397      79.7126      28.9819      19.8445      20.2049      14.2104      12.7997      10.7531       0.0989       0.0018       0.8250       1.7150
   2699.1943       6.2204      78.1952      31.7476      20.7798      19.1033      12.1187       9.8683       8.2439       0.1049       0.0019       0.8701       1.8303
   2699.3469       7.7911      75.8784      34.3718      24.0474      20.7779      12.2870       9.1818       7.4463       0.1175       0.0023       1.1589       2.0900
   2699.4993       8.7595      73.8884      35.6493      26.0110      23.2826      13.5956       9.7618       7.7318       0.1261       0.0025       1.3257       2.2541
   2699.6516       9.0467      68.7172      40.6667      26.5548      30.2159      17.9463      12.6024      10.1911       0.1299       0.0026       1.3525       2.3124
   2699.8040       8.6711      63.4543      42.7915      26.5486      36.0336      21.9200      15.4017      12.6178       0.1291       0.0025       1.2960       2.3920
   2699.9565       8.1879      60.9613      40.8309      26.1216      49.4849      33.6595      33.8711      31.2439       0.1256       0.0024       1.2171       2.4196
   2700.1089       8.3986      59.1173      41.5146      26.0418      56.7210      42.7135      51.2981      53.5860       0.1122       0.0029       0.9873       2.3893
   2700.2612       9.4956      56.8127      43.5595      27.7057      59.9710      49.2543      65.5781      74.5619       0.1047       0.0035       1.0257       2.4873
   2700.4136      10.8257      56.9216      51.3165      29.9399      52.2328      45.2108      58.7653      58.2737       0.1007       0.0040       1.1834       2.6361
   2700.5662      15.0079      57.2122      57.0764      35.5229      47.0267      41.7819      52.0271      45.7565       0.0918       0.0054       1.6910       2.8306
   2700.7185      17.1996      58.6930      63.2867      38.1251      47.8852      43.4033      52.0091      43.6680       0.0872       0.0062       1.9459       2.8712
   2700.8708      18.0477      59.4260      65.2642      36.1129      49.3351      44.4372      50.1462      42.5033       0.0846       0.0067       1.9030       2.5084
   2701.0232      18.5421      58.6395      66.0379      35.6268      50.6346      45.0473      47.4877      41.1845       0.0856       0.0070       1.8721       2.3899
   2701.1755      18.9860      57.5280      56.5814      35.6968      45.2880      37.1863      36.1094      30.4678       0.0873       0.0073       1.8554       2.3485
   2701.3281      20.1956      58.2621      52.4720      36.2365      43.2796      34.0185      31.6199      26.1577       0.0944       0.0081       1.7795       2.2051
   2701.4805      20.6090      58.4131      58.1665      36.1446      53.8592      41.6419      42.1702      36.3466       0.0986       0.0084       1.7200       2.1099
   2701.6328      19.2272      59.3710      57.0735      32.3557      54.0611      40.4456      40.9633      35.8209       0.1134       0.0077       1.6754       1.8533
   2701.7852      19.7831      58.5630      54.8155      32.9919      52.5064      37.7669      37.7646      33.4624       0.1164       0.0079       1.7547       1.8880
   2701.9377      20.6023      60.8545      48.6194      34.2273      47.2683      34.4908      31.3091      28.9075       0.1176       0.0082       1.8488       1.9611
   2702.0901      23.2348      63.4621      49.7885      36.1176      46.1053      33.3099      29.5541      27.7305       0.1209       0.0090       2.2120       1.8523
   2702.2424      23.2992      63.4071      61.2439      35.6869      43.9893      31.2321      27.7009      24.4915       0.1250       0.0090       2.2735       1.7771
   2702.3948      15.8711      63.2561      56.2635      26.1482      42.0294      28.5502      25.0220      20.5661       0.1392       0.0063       1.4269       1.4531
   2702.5474      14.4322      63.1103      49.6333      24.4267      43.0249      29.1560      25.6660      20.3299       0.1318       0.0058       1.2428       1.3918
   2702.6997      13.2258      63.7811      38.6985      23.0031      44.5351      28.4851      24.1124      19.9324       0.1241       0.0054       1.0853       1.3406
   2702.8521      12.2943      63.1725      35.3241      22.0113      45.2748      28.7211      23.7715      20.3523       0.1114       0.0052       0.9343       1.3562
   2703.0044      12.6595      63.0278      33.0905      22.7462      48.5179      29.9754      24.7582      22.1564       0.1101       0.0053       0.9810       1.4205
   2703.1567      15.2419      61.9128      34.1253      28.3251      49.8030      29.3560      23.9837      20.1789       0.1138       0.0065       1.1390       1.8801
   2703.3093      15.5509      60.0588      35.9218      29.0292      54.6851      31.7709      27.3423      26.2543       0.1148       0.0066       1.1530       1.9019
   2703.4617      15.8493      58.2995      41.7942      29.8219     117.9616      63.4171      80.1522     127.7182       0.1166       0.0067       1.1577       1.9387
   2703.6140      15.9922      57.2316      43.7104      31.5402     164.2271      87.0498     118.2680     198.2066       0.1265       0.0070       1.0587       2.1407
   2703.7664      15.7464      58.9366      45.5312      32.8323     109.8525      65.4080      78.0256     101.2285       0.1265       0.0071       0.9353       2.3538
   2703.9189      15.3696      57.4514      50.4653      37.7194      80.0863      52.8981      50.9610      44.9936       0.1123       0.0075       0.5827       3.0420
   2704.0713      14.8385      58.8073      55.0863      36.8830      84.9434      56.3962      54.4664      48.0277       0.1085       0.0072       0.5651       2.9975
   2704.2236      14.1834      60.2555      58.7117      35.7138      95.1538      64.1500      61.5856      55.3819       0.1035       0.0068       0.5826       2.9238
   2704.3760      13.0995      61.9610      52.5652      33.3061      96.7795      66.2690      63.4434      56.2251       0.0935       0.0059       0.7694       2.7310
   2704.5286      13.6621      64.2215      46.8809      34.2563      97.8098      67.3304      63.3796      55.4856       0.0902       0.0059       0.9377       2.7441
   2704.6809      16.1366      64.6840      56.5297      38.0905      95.0396      64.8728      59.4239      49.4606       0.0841       0.0067       1.3057       2.8962
