#------------------------------------------------------------------------------
#
#   Created by  : [OpenWorks] Log Export Utility (LEXP)
#   Created on  : 2016-05-13 12:10:04
#   Project     : CANT971
#   User        : R5K
#   Interpreter : PEP
#
#------------------------------------------------------------------------------
~VERSION INFORMATION
VERS. 2.0 : CWLS Log ASCII Standard - version 2.0
WRAP.  NO : One line per depth step
~WELL INFORMATION
#MNEMONIC   .UNIT                                           VALUE :DESCRIPTION
#------------------------------------------------------------------------------
STRT        .M                                          1900.1613 :START DEPTH
STOP        .M                                          3117.2275 :STOP DEPTH
STEP        .M                                             0.1524 :STEP
NULL        .                                           -999.2500 :NULL VALUE
COMP        .                                             UNKNOWN :COMPANY
WELL        .                                                1008 :WELL
FLD         .                                             UNKNOWN :FIELD
LOC         .                                             UNKNOWN :LOCATION
CNTY        .                                             UNKNOWN :COUNTY
STAT        .                                             UNKNOWN :STATE
CTRY        .                                             UNKNOWN :COUNTRY
SRVC        .                                             UNKNOWN :SERVICE COMPANY
DATE        .                                             UNKNOWN :LOG DATE
UWI         .                                                1008 :UNIQUE WELL ID
XCOORD      .                                            0.000000 :SURFACE X
YCOORD      .                                            0.000000 :SURFACE Y
LAT         .                                            0.000000 :LATITUDE
LON         .                                            0.000000 :LONGITUDE
ELEV        .M                                             0.0000 :SURFACE ELEV
ELEV_TYPE   .                                                  KB :ELEV TYPE
~CURVE INFORMATION
#MNEMONIC.UNIT        API CODE       : CURVE DESCRIPTION
#------------------------------------------------------------------------------
DEPTH    .M                          : Measured Depth
CGR      .API         UNKNOWN        : CGR:Entubado:r1:0001:v3 
DT       .us/ft       UNKNOWN        : DT:sonico:r1:0001:v1 
GR-LWD   .API         UNKNOWN        : GR-LWD:PETROWORKS:rC:NONE:v3 
GR       .API         UNKNOWN        : GR:Entubado:r1:0001:v3 
LLD-LWD  .ohm.m       UNKNOWN        : LLD-LWD:PETROWORKS:rC:NONE:v3 
LLM-LWD  .UNKNOWN     UNKNOWN        : LLM-LWD:PETROWORKS:rC:NONE:v3 
LLS-LWD  .ohm.m       UNKNOWN        : LLS-LWD:PETROWORKS:rC:NONE:v3 
MSFL-LWD .ohm.m       UNKNOWN        : MSFL-LWD:PETROWORKS:rC:NONE:v3 
NPHI     .v/v_decimal UNKNOWN        : NPHI:Entubado:r1:0001:v3 
POTA     .UNKNOWN     UNKNOWN        : POTA:Entubado:r1:0001:v3 
THOR     .ppm         UNKNOWN        : THOR:Entubado:r1:0001:v3 
URAN     .ppm         UNKNOWN        : URAN:Entubado:r1:0001:v3 
~A     DEPTH          CGR           DT       GR-LWD           GR      LLD-LWD      LLM-LWD      LLS-LWD     MSFL-LWD         NPHI         POTA         THOR         URAN
# ...
   2851.1372      20.3809      62.8120      84.0994      54.7575      67.1479      51.3980      53.8540      52.1564       0.0794       0.0059       3.0880       4.7142
   2851.2896      19.7832      63.6435      80.1748      55.0347      72.8401      55.6739      59.0241      48.2441       0.0787       0.0058       2.9829       4.8235
   2851.4421      18.0660      62.8684      61.2285      50.1277      76.8236      58.6876      64.6335      50.7527       0.0834       0.0053       2.7062       4.3723
   2851.5945      15.5285      61.1845      46.6670      42.1224      75.1241      59.4807      64.7247      54.2569       0.0908       0.0046       2.3200       3.6240
   2851.7468      13.7832      61.6154      44.0026      36.7099      77.7454      62.9140      68.8560      63.6916       0.0926       0.0041       2.0413       3.1136
   2851.8992      12.9230      61.7838      44.8720      33.1352      83.1306      67.3704      75.4159      75.2678       0.0855       0.0039       1.8751       2.7212
   2852.0518      13.1299      62.8528      53.9465      32.5254      87.9261      69.1473      78.3980      80.0915       0.0758       0.0040       1.8838       2.6003
   2852.2041      16.2334      64.4325      68.2962      40.6984      90.7186      68.3046      76.7047      79.5272       0.0688       0.0049       2.3666       3.2851
   2852.3564      19.6061      65.9917      84.1777      50.1459      93.0399      68.6896      76.5617      83.8434       0.0667       0.0058       2.9246       4.1054
   2852.5088      20.1859      65.9886      86.1338      53.1037      91.5808      68.3006      75.2210      79.7133       0.0695       0.0060       2.9950       4.3948
   2852.6611      19.0621      66.0371      76.2324      52.3431      86.0207      63.8355      67.5111      64.2650       0.0788       0.0059       2.7026       4.3900
   2852.8137      17.9414      65.1936      75.1255      50.4423      89.1299      63.4390      62.6538      55.3956       0.0869       0.0057       2.4179       4.2602
   2852.9661      15.5749      63.5937      69.2831      45.3965     100.5786      69.1298      66.7415      65.6522       0.0841       0.0053       1.9189       3.9067
   2853.1184      13.2115      61.1421      52.3230      40.6989      98.5525      66.2688      62.1310      58.5291       0.0771       0.0047       1.4737       3.6110
   2853.2708      11.9027      60.5302      43.4723      36.9911     101.7688      72.2779      74.3356      55.4385       0.0739       0.0044       1.2740       3.3060
   2853.4233      10.4441      61.1919      47.9299      32.6943     103.2189      74.6997      78.7869      56.6221       0.0698       0.0038       1.1036       2.9381
   2853.5757       9.7879      63.3541      54.8375      31.1730     103.7095      75.6172      80.2952      58.1861       0.0670       0.0036       1.0496       2.8205
   2853.7280      13.0304      65.4876      75.8418      41.0553     123.8565      89.8984      92.7423      70.1646       0.0634       0.0048       1.3897       3.6895
   2853.8804      16.7465      68.7598      88.7597      51.3303     117.1105      87.9263      91.1823      71.3261       0.0618       0.0062       1.7657       4.5459
   2854.0330      18.1870      69.3083      90.5591      55.2349     108.9727      80.7132      87.5190      64.3160       0.0654       0.0067       1.9422       4.8938
   2854.1853      20.4904      69.5183      90.3967      58.3181     113.2836      85.0439     118.7389      68.2164       0.0791       0.0071       2.4204       5.0427
   2854.3376      21.9093      70.2353      83.5190      58.6314     152.1158     101.4797     215.0840     116.6797       0.0902       0.0072       2.8021       4.9204
   2854.4900      22.2687      68.0422      79.3129      54.8723      98.7702      73.9287      94.3879      65.0778       0.1033       0.0071       3.0227       4.3712
   2854.6423      21.7465      66.6659      72.8768      51.7276     101.3932      74.9406      78.3709      59.2284       0.1110       0.0068       3.0034       4.0235
   2854.7949      21.5930      64.9187      59.6809      50.8393     119.0371      86.9126     105.1104      64.9248       0.1079       0.0067       3.0499       3.8927
   2854.9473      19.9978      63.7734      47.1532      46.6265     107.4251      73.4438     100.6981      69.0958       0.1018       0.0059       3.0021       3.5131
   2855.0996      18.5387      64.1850      51.6210      43.2121     100.9112      68.5465      82.4681      65.5206       0.0994       0.0053       2.9033       3.2569
   2855.2520      18.4920      64.8025      56.6769      41.8309      94.5161      63.8529      64.3157      61.9274       0.0919       0.0049       3.0619       3.0992
   2855.4045      19.8079      65.6517      80.7870      43.3526      90.8020      63.6125      64.1967      64.2305       0.0860       0.0051       3.3645       3.1089
   2855.5569      22.1983      67.1183      95.6995      48.5550      87.6723      61.1340      61.9224      60.3730       0.0863       0.0056       3.8543       3.4686
   2855.7092      26.0295      69.1112      89.5807      56.7130      80.7157      55.6106      57.3337      48.0470       0.0904       0.0066       4.5443       3.9820
   2855.8616      27.2884      69.3570      86.0118      59.6628      82.3398      56.2799      59.8513      46.3037       0.0943       0.0070       4.6975       4.1569
   2856.0142      24.2033      69.2347      83.5134      57.2995      84.4915      57.4203      61.8979      44.3708       0.0984       0.0066       3.9191       4.2174
   2856.1665      24.2795      69.4177      90.9117      58.0554      91.1736      62.6779      60.3908      41.9203       0.0990       0.0066       3.9646       4.3042
   2856.3188      24.3816      70.2451      95.9195      58.9942      92.0914      63.7313      63.4240      47.1775       0.1004       0.0065       4.0111       4.4158
   2856.4712      24.6380      71.1815      89.0495      60.9664      78.0401      53.1182      54.9727      39.1851       0.1072       0.0066       4.0523       4.6725
   2856.6235      24.4220      71.6051      87.2993      60.7103      86.1276      57.7460      61.0629      41.1933       0.1143       0.0067       3.9318       4.6777
   2856.7761      22.7339      70.8197      85.7099      56.3945      92.0721      62.4410      66.5385      42.7676       0.1261       0.0066       3.4608       4.2347
   2856.9285      22.5997      67.8775      82.5839      56.1434      87.3938      65.0614      66.4918      42.4100       0.1262       0.0066       3.4218       4.2373
   2857.0808      21.8468      65.9045      68.2771      54.4366      84.3244      61.5272      59.1467      45.0672       0.1241       0.0065       3.2573       4.1416
   2857.2332      18.7833      63.0275      52.0854      47.2649      93.5934      70.4371      64.9724      53.6537       0.1131       0.0059       2.6297       3.6675
   2857.3857      15.8576      62.4376      48.7905      40.5210      91.7653      69.2521      64.3486      48.3464       0.1009       0.0052       2.0946       3.2043
   2857.5381      13.7270      63.4148      47.0624      36.3612      98.2530      75.3149     106.3944      56.2294       0.0874       0.0045       1.7865       2.9665
   2857.6904      14.6228      65.2495      56.5105      39.4960     121.8850      97.1976     252.5067      99.0670       0.0791       0.0049       1.8521       3.2535
   2857.8428      16.5128      68.5996      78.1853      43.9856     114.8773      94.0733     254.5521     111.1491       0.0777       0.0056       2.0101       3.5912
   2857.9954      20.4836      70.9619      86.5354      50.8294      86.2605      69.8952      92.0072      76.6298       0.0935       0.0072       2.3532       3.9695
   2858.1477      22.4742      70.9945      92.7739      52.9888      75.7140      59.8832      64.3952      56.6031       0.1047       0.0081       2.4848       3.9826
   2858.3000      22.4534      70.4675      89.8130      51.3298      76.9970      60.9192      64.1615      48.7490       0.1072       0.0082       2.4696       3.7578
