#------------------------------------------------------------------------------
#
#   Created by  : [OpenWorks] Log Export Utility (LEXP)
#   Created on  : 2016-05-13 12:10:04
#   Project     : CANT971
#   User        : R5K
#   Interpreter : PEP
#
#------------------------------------------------------------------------------
~VERSION INFORMATION
VERS. 2.0 : CWLS Log ASCII Standard - version 2.0
WRAP.  NO : One line per depth step
~WELL INFORMATION
#MNEMONIC   .UNIT                                           VALUE :DESCRIPTION
#------------------------------------------------------------------------------
STRT        .M                                          1900.1613 :START DEPTH
STOP        .M                                          3117.2275 :STOP DEPTH
STEP        .M                                             0.1524 :STEP
NULL        .                                           -999.2500 :NULL VALUE
COMP        .                                             UNKNOWN :COMPANY
WELL        .                                                1008 :WELL
FLD         .                                             UNKNOWN :FIELD
LOC         .                                             UNKNOWN :LOCATION
CNTY        .                                             UNKNOWN :COUNTY
STAT        .                                             UNKNOWN :STATE
CTRY        .                                             UNKNOWN :COUNTRY
SRVC        .                                             UNKNOWN :SERVICE COMPANY
DATE        .                                             UNKNOWN :LOG DATE
UWI         .                                                1008 :UNIQUE WELL ID
XCOORD      .                                            0.000000 :SURFACE X
YCOORD      .                                            0.000000 :SURFACE Y
LAT         .                                            0.000000 :LATITUDE
LON         .                                            0.000000 :LONGITUDE
ELEV        .M                                             0.0000 :SURFACE ELEV
ELEV_TYPE   .                                                  KB :ELEV TYPE
~CURVE INFORMATION
#MNEMONIC.UNIT        API CODE       : CURVE DESCRIPTION
#------------------------------------------------------------------------------
DEPTH    .M                          : Measured Depth
CGR      .API         UNKNOWN        : CGR:Entubado:r1:0001:v3 
DT       .us/ft       UNKNOWN        : DT:sonico:r1:0001:v1 
GR-LWD   .API         UNKNOWN        : GR-LWD:PETROWORKS:rC:NONE:v3 
GR       .API         UNKNOWN        : GR:Entubado:r1:0001:v3 
LLD-LWD  .ohm.m       UNKNOWN        : LLD-LWD:PETROWORKS:rC:NONE:v3 
LLM-LWD  .UNKNOWN     UNKNOWN        : LLM-LWD:PETROWORKS:rC:NONE:v3 
LLS-LWD  .ohm.m       UNKNOWN        : LLS-LWD:PETROWORKS:rC:NONE:v3 
MSFL-LWD .ohm.m       UNKNOWN        : MSFL-LWD:PETROWORKS:rC:NONE:v3 
NPHI     .v/v_decimal UNKNOWN        : NPHI:Entubado:r1:0001:v3 
POTA     .UNKNOWN     UNKNOWN        : POTA:Entubado:r1:0001:v3 
THOR     .ppm         UNKNOWN        : THOR:Entubado:r1:0001:v3 
URAN     .ppm         UNKNOWN        : URAN:Entubado:r1:0001:v3 
~A     DEPTH          CGR           DT       GR-LWD           GR      LLD-LWD      LLM-LWD      LLS-LWD     MSFL-LWD         NPHI         POTA         THOR         URAN
# ...
   2536.5837      11.8342      53.3991      56.8279      33.3249      98.6731      67.6682      65.9437      47.4427       0.0504       0.0051       0.7881       2.7974
   2536.7361      11.7425      53.9004      62.1400      32.6629     139.6351     102.8687     137.4474      96.2631       0.0534       0.0050       0.8472       2.7386
   2536.8884      11.0863      54.4523      60.9344      31.3715     165.8941     132.3619     242.8944     206.9471       0.0612       0.0047       0.8482       2.6742
   2537.0408      10.4096      54.6494      57.2870      30.4523     163.9901     131.3762     257.8352     249.7192       0.0680       0.0044       0.8173       2.6561
   2537.1934       9.7799      52.4215      51.8753      28.8527     150.3026     122.5170     223.7741     218.8237       0.0633       0.0040       0.8034       2.5777
   2537.3457       9.1048      50.9491      50.2366      27.0486     116.7719      96.0298     156.4643     147.5373       0.0562       0.0037       0.7817       2.4505
   2537.4980       8.4806      50.6909      53.3083      25.5775      88.0636      65.5741      75.0511      65.1302       0.0509       0.0034       0.7514       2.3293
   2537.6504       7.9488      50.9766      55.0371      25.2257      93.9378      65.6049      58.1110      46.6298       0.0464       0.0031       0.7560       2.3440
   2537.8027       7.8884      52.0954      44.5961      26.0358     101.7341      71.2855      64.0080      52.1295       0.0458       0.0030       0.7652       2.4684
   2537.9553       8.4801      51.9606      37.9911      31.0074     104.1960      73.4459      66.8056      53.6402       0.0494       0.0037       0.5892       3.0475
   2538.1077       8.6680      54.0358      41.5407      32.8925     103.8749      73.4088      66.8883      55.4918       0.0517       0.0039       0.5124       3.2718
   2538.2600       8.6091      55.7484      47.5534      32.8116     103.4908      73.2177      69.9011      65.3631       0.0531       0.0039       0.5087       3.2721
   2538.4124       7.2071      56.4441      54.0373      29.4248     117.5711      82.4928      88.4898      91.6091       0.0638       0.0033       0.3868       2.9567
   2538.5649       6.3824      54.6905      53.6666      27.0231     118.0361      84.0692      92.4028      95.1973       0.0757       0.0030       0.3329       2.7164
   2538.7173       5.5601      53.7520      47.9854      22.4174      98.8393      72.3573      66.0284      52.2214       0.0761       0.0025       0.3087       2.1703
   2538.8696       5.0200      52.6657      41.0804      20.6870     112.8751      82.7343      72.4539      49.1716       0.0623       0.0023       0.2764       1.9922
   2539.0220       4.5827      53.1566      35.9450      19.9588     150.2845     104.8341      96.0209      65.1356       0.0457       0.0021       0.2424       1.9419
   2539.1746       4.0951      53.8213      31.7927      20.5099     155.5709     101.2944      88.1126      61.8960       0.0297       0.0020       0.1657       2.0986
   2539.3269       3.9752      53.9516      28.0402      21.1481     193.8539     123.8055     116.8368      89.2609       0.0328       0.0020       0.1239       2.2027
   2539.4792       3.9915      53.5043      34.2403      19.6930     206.2031     132.4713     146.5589     110.9104       0.0459       0.0019       0.1879       1.9631
   2539.6316       3.9347      60.3820      40.3473      18.0495     188.8468     128.9568     150.0821     113.1752       0.0475       0.0018       0.2510       1.7632
   2539.7839       3.8652      74.1969      36.1127      16.4348     187.0631     126.5985     151.7113     121.3558       0.0472       0.0016       0.3113       1.5784
   2539.9365       3.5468      72.4810      26.6566      13.4496     327.9660     217.0918     276.8173     159.9642       0.0389       0.0014       0.3381       1.2492
   2540.0889       3.5365      70.1537      21.6376      12.5316    1312.2079     618.4933    1403.4237     853.2640       0.0348       0.0014       0.3354       1.1438
   2540.2412       3.0659      68.6167      19.6603      11.0886     847.3561     364.9622    1559.2234     272.8607       0.0315       0.0013       0.2440       1.0354
   2540.3936       2.9614      70.0102      20.2830      10.8761     472.9656     244.6359     646.0031     122.6216       0.0317       0.0012       0.2383       1.0196
   2540.5461       2.8802      68.0511      20.5492      10.7375     431.2177     223.1349     456.1529     116.7961       0.0322       0.0012       0.2379       1.0093
   2540.6985       2.5826      54.3338      20.7968      10.7589     402.4363     205.1333     297.2431     115.6362       0.0345       0.0010       0.2460       1.0318
   2540.8508       2.4470      55.2953      21.1170      11.0564     485.7491     217.8194     301.1100     117.9634       0.0360       0.0009       0.2550       1.0750
   2541.0032       2.8913      58.5401      22.5246      12.4720     830.0308     229.1391     241.5614     133.5521       0.0399       0.0010       0.3615       1.1842
   2541.1558       2.9453      59.0989      22.6789      12.5300     669.9705     278.0834     190.0250     120.4397       0.0420       0.0010       0.3686       1.2008
   2541.3081       3.0041      59.2222      22.9327      12.6780     514.1656     261.8704     167.2662     130.0052       0.0447       0.0010       0.3737       1.2286
   2541.4604       3.1471      57.8262      21.0101      14.2823     534.6357     216.7140     159.7322      81.2551       0.0594       0.0011       0.3440       1.4346
   2541.6128       3.3047      54.6339      21.0260      15.1665     918.7609     289.7993     285.5915      97.0996       0.0636       0.0012       0.3259       1.5232
   2541.7651       3.6301      55.1554      24.8307      17.9709     819.6914     274.9550     269.9171     100.2010       0.0419       0.0014       0.3792       1.8191
   2541.9177       3.7257      51.8265      30.1135      18.4702     970.8680     347.0904     320.7875     100.9047       0.0261       0.0013       0.4402       1.8861
   2542.0701       3.8441      51.9288      30.6802      18.8141    1179.6312     328.1068     168.6535      91.8868       0.0138       0.0013       0.4914       1.9373
   2542.2224       4.1064      52.6044      29.8148      18.2421     888.8636     277.6909     146.3916      84.9970       0.0237       0.0014       0.4821       1.8895
   2542.3748       4.5735      54.6050      29.2722      18.3443     653.6260     237.0425     128.6627      80.1200       0.0297       0.0017       0.5071       1.8477
   2542.5273       5.9406      55.4512      30.3184      19.4820     822.6677     265.0965     144.1640      86.5631       0.0298       0.0022       0.6282       1.8066
   2542.6797       6.3381      58.0519      31.2971      20.2231    1431.7574     350.7579     211.1973      99.7807       0.0302       0.0024       0.6472       1.8629
   2542.8320       6.5945      57.3963      32.5427      20.9501    1416.6625     321.2396     277.3698     110.6468       0.0323       0.0026       0.6290       1.9256
   2542.9844       6.2988      56.5733      33.1637      21.2621     825.0557     279.4274     236.8783      89.0721       0.0397       0.0027       0.4855       1.9729
   2543.1370       5.9635      55.9234      33.1194      20.1537     680.1150     254.1438     190.5052      83.7991       0.0442       0.0026       0.3984       1.8539
   2543.2893       6.0325      56.5710      28.0658      19.4593    1085.3904     395.7170     405.1707     102.8069       0.0483       0.0027       0.3911       1.7454
   2543.4417       6.6017      56.7500      27.8186      21.6004     858.6481     351.5417     554.4043      91.1535       0.0469       0.0028       0.4702       1.9844
   2543.5940       7.3257      54.9428      36.3350      23.6141     700.4219     253.0046     192.7114      84.1852       0.0458       0.0031       0.5437       2.1805
   2543.7463       7.9923      54.0038      40.0293      24.5871     967.5251     274.7615     167.1666      90.8495       0.0453       0.0034       0.5755       2.2265
