#------------------------------------------------------------------------------
#
#   Created by  : [OpenWorks] Log Export Utility (LEXP)
#   Created on  : 2016-05-13 12:10:04
#   Project     : CANT971
#   User        : R5K
#   Interpreter : PEP
#
#------------------------------------------------------------------------------
~VERSION INFORMATION
VERS. 2.0 : CWLS Log ASCII Standard - version 2.0
WRAP.  NO : One line per depth step
~WELL INFORMATION
#MNEMONIC   .UNIT                                           VALUE :DESCRIPTION
#------------------------------------------------------------------------------
STRT        .M                                          1900.1613 :START DEPTH
STOP        .M                                          3117.2275 :STOP DEPTH
STEP        .M                                             0.1524 :STEP
NULL        .                                           -999.2500 :NULL VALUE
COMP        .                                             UNKNOWN :COMPANY
WELL        .                                                1008 :WELL
FLD         .                                             UNKNOWN :FIELD
LOC         .                                             UNKNOWN :LOCATION
CNTY        .                                             UNKNOWN :COUNTY
STAT        .                                             UNKNOWN :STATE
CTRY        .                                             UNKNOWN :COUNTRY
SRVC        .                                             UNKNOWN :SERVICE COMPANY
DATE        .                                             UNKNOWN :LOG DATE
UWI         .                                                1008 :UNIQUE WELL ID
XCOORD      .                                            0.000000 :SURFACE X
YCOORD      .                                            0.000000 :SURFACE Y
LAT         .                                            0.000000 :LATITUDE
LON         .                                            0.000000 :LONGITUDE
ELEV        .M                                             0.0000 :SURFACE ELEV
ELEV_TYPE   .                                                  KB :ELEV TYPE
~CURVE INFORMATION
#MNEMONIC.UNIT        API CODE       : CURVE DESCRIPTION
#------------------------------------------------------------------------------
DEPTH    .M                          : Measured Depth
CGR      .API         UNKNOWN        : CGR:Entubado:r1:0001:v3 
DT       .us/ft       UNKNOWN        : DT:sonico:r1:0001:v1 
GR-LWD   .API         UNKNOWN        : GR-LWD:PETROWORKS:rC:NONE:v3 
GR       .API         UNKNOWN        : GR:Entubado:r1:0001:v3 
LLD-LWD  .ohm.m       UNKNOWN        : LLD-LWD:PETROWORKS:rC:NONE:v3 
LLM-LWD  .UNKNOWN     UNKNOWN        : LLM-LWD:PETROWORKS:rC:NONE:v3 
LLS-LWD  .ohm.m       UNKNOWN        : LLS-LWD:PETROWORKS:rC:NONE:v3 
MSFL-LWD .ohm.m       UNKNOWN        : MSFL-LWD:PETROWORKS:rC:NONE:v3 
NPHI     .v/v_decimal UNKNOWN        : NPHI:Entubado:r1:0001:v3 
POTA     .UNKNOWN     UNKNOWN        : POTA:Entubado:r1:0001:v3 
THOR     .ppm         UNKNOWN        : THOR:Entubado:r1:0001:v3 
URAN     .ppm         UNKNOWN        : URAN:Entubado:r1:0001:v3 
~A     DEPTH          CGR           DT       GR-LWD           GR      LLD-LWD      LLM-LWD      LLS-LWD     MSFL-LWD         NPHI         POTA         THOR         URAN
# ...
   2960.8652      32.6380    -999.2500      53.2162      45.8897       7.8891       8.6187       8.4437       8.3609       0.2076       0.0125       3.1915       1.8829
   2961.0176      39.6299    -999.2500      89.8878      53.8233       5.3227       5.6538       5.8522       5.8389       0.3477       0.0146       4.2206       2.0236
   2961.1702      45.0845    -999.2500     121.9321      62.0677       3.6993       3.6391       3.7258       3.7431       0.5429       0.0166       4.8120       2.4293
   2961.3225      50.2093    -999.2500     142.3359      68.1839       3.2437       2.9996       2.9777       3.0000       0.5923       0.0182       5.5290       2.5624
   2961.4749      56.0137    -999.2500     152.7478      75.3392       2.9703       2.6341       2.6423       2.7041       0.5782       0.0200       6.3445       2.7116
   2961.6272      56.9231    -999.2500     156.1007      76.3645       2.8233       2.4418       2.5258       2.6323       0.6039       0.0202       6.5176       2.6641
   2961.7795      54.4987    -999.2500     159.2067      71.8431       2.8204       2.4366       2.5699       2.7030       0.5124       0.0190       6.4288       2.4079
   2961.9321      40.6841    -999.2500     143.8416      52.7751       3.1158       2.8529       3.0227       3.1988       0.3975       0.0137       5.0405       1.7130
   2962.0845      18.8146    -999.2500     127.8200      26.4304       3.8222       3.7547       4.0704       4.5237       0.2038       0.0063       2.4027       1.0556
   2962.2368      16.9663    -999.2500     103.1896      24.0512       4.5975       4.8923       5.5728       6.5073       0.1780       0.0057       2.1501       0.9794
   2962.3892      16.6238    -999.2500      69.7864      23.7775       4.7801       5.6121       6.7361       7.8803       0.1595       0.0055       2.1449       0.9915
   2962.5417      22.2545    -999.2500      43.8855      32.0826       4.4203       5.5500       6.6834       7.6262       0.1759       0.0072       2.9990       1.3679
   2962.6941      32.9954    -999.2500      36.6102      47.0774       3.6236       4.4453       4.8664       5.4010       0.2393       0.0105       4.5090       1.9341
   2962.8464      43.5897    -999.2500      53.9153      59.9799       3.0692       3.3780       3.4519       3.4976       0.3399       0.0133       6.2112       2.2105
   2962.9988      48.8483    -999.2500      87.5149      67.5664       2.8766       2.9735       2.9084       2.7047       0.4214       0.0152       6.8266       2.4680
   2963.1514      49.4339    -999.2500     121.3768      69.5764       2.6657       2.6145       2.4443       2.3545       0.4404       0.0157       6.7285       2.6609
   2963.3037      48.9707    -999.2500     152.3824      68.5655       2.5437       2.3626       2.1283       2.1504       0.5257       0.0159       6.5027       2.6376
   2963.4561      48.5585    -999.2500     156.7323      66.6802       2.5239       2.2388       1.9872       2.0445       0.6258       0.0160       6.3030       2.5320
   2963.6084      51.3717    -999.2500     147.3129      67.9541       2.5140       2.2014       1.9941       2.0573       0.6721       0.0171       6.5316       2.4196
   2963.7607      56.6975    -999.2500     146.1730      72.3374       2.3229       2.0229       1.9433       2.0434       0.5603       0.0191       7.0691       2.3834
   2963.9133      62.2402    -999.2500     146.8510      77.2017       2.1134       1.8200       1.8546       1.9743       0.5287       0.0210       7.7765       2.3804
   2964.0657      66.3977    -999.2500     145.9149      79.7903       2.0796       1.7807       1.8199       1.9051       0.5417       0.0222       8.3689       2.2267
   2964.2180      66.3707    -999.2500     149.3873      78.7490       2.0242       1.7959       1.8423       1.9124       0.5528       0.0225       8.2386       2.1077
   2964.3704      61.9576    -999.2500     150.9020      73.8785       2.1751       1.9299       1.9508       2.0120       0.5418       0.0213       7.5212       2.0502
   2964.5229      52.3006    -999.2500     141.7086      62.8712       2.9278       2.5800       2.4658       2.4590       0.4995       0.0181       6.2334       1.8473
   2964.6753      38.9412    -999.2500     120.1343      46.3145       4.4296       4.1341       3.8164       3.7835       0.4259       0.0134       4.6571       1.3674
   2964.8276      25.1583    -999.2500      78.6934      28.9617       5.9525       6.0672       5.9355       6.6014       0.2800       0.0086       3.0598       0.7978
   2964.9800      14.5592    -999.2500      35.5960      16.2040       6.9870       7.7707       8.7555      11.7033       0.1541       0.0049       1.8235       0.4106
   2965.1326       9.6089    -999.2500      17.4788      10.4234       7.8432       9.3687      12.3764      18.2671       0.1022       0.0031       1.2639       0.2288
   2965.2849       8.0174    -999.2500      15.5264       8.6549       8.6810      11.0906      16.7478      23.9764       0.0977       0.0024       1.1545       0.1675
   2965.4373       7.8332    -999.2500      15.6312       8.3953       9.7980      13.6909      22.0407      28.6239       0.1053       0.0022       1.2438       0.1281
   2965.5896       8.2303    -999.2500      17.2160       8.9527      11.2274      17.1059      26.7309      31.8278       0.1091       0.0023       1.3087       0.1191
   2965.7419       9.2600    -999.2500      17.6323      10.3577      13.4856      21.8573      30.0204      33.1932       0.1136       0.0027       1.3744       0.1553
   2965.8945      10.9869    -999.2500      16.2180      12.6203      15.9010      24.8146      30.7872      32.3360       0.1191       0.0034       1.5679       0.2265
   2966.0469      12.7982    -999.2500      18.0792      15.0930      17.8682      25.3356      29.8081      30.9669       0.1250       0.0039       1.8328       0.3142
   2966.1992      14.1002    -999.2500      24.7999      16.8435      18.5829      21.6930      24.0881      25.1065       0.1329       0.0043       2.0295       0.3849
   2966.3516      14.0268    -999.2500      23.6734      17.1967      18.5193      18.6306      19.6036      19.9904       0.1413       0.0044       1.9650       0.4456
   2966.5042      12.9424    -999.2500      20.6248      16.5390      19.0205      18.2501      18.7202      18.7564       0.1426       0.0043       1.6513       0.4749
   2966.6565      12.0797    -999.2500      19.4454      15.9480      19.6015      18.2759      18.5530      18.5933       0.1371       0.0043       1.3797       0.4917
   2966.8088      11.3770    -999.2500      18.4252      15.7344      19.9550      18.1984      18.4094      18.7840       0.1340       0.0042       1.2248       0.5533
   2966.9612      11.1523    -999.2500      15.9431      16.0237      20.1730      18.4480      19.0579      19.1989       0.1357       0.0042       1.1486       0.6144
   2967.1138      11.7118    -999.2500      14.1529      16.8152      20.4497      18.9399      19.6446      19.4046       0.1378       0.0044       1.2081       0.6626
   2967.2661      12.4735    -999.2500      12.7732      17.5424      21.4239      21.1043      22.1179      21.4165       0.1386       0.0045       1.3968       0.6833
   2967.4185      13.2814    -999.2500      16.1268      17.8912      21.4598      23.2736      25.5896      24.8192       0.1458       0.0045       1.6275       0.6239
   2967.5708      13.8343    -999.2500      14.8160      17.8470      19.6813      22.6090      25.6218      25.8115       0.1528       0.0045       1.7866       0.5591
   2967.7231      15.5093    -999.2500      14.7712      19.5515      16.8588      20.3249      23.6101      24.8695       0.1527       0.0050       2.0518       0.5938
   2967.8757      21.1135    -999.2500      22.9880      26.5644      12.7948      15.6715      18.4001      20.3560       0.1655       0.0069       2.7845       0.8103
   2968.0281      32.7376    -999.2500      68.4683      39.6548       7.8129       8.9100      10.2305      11.3635       0.2240       0.0103       4.4936       1.0383
