#------------------------------------------------------------------------------
#
#   Created by  : [OpenWorks] Log Export Utility (LEXP)
#   Created on  : 2016-05-13 12:10:04
#   Project     : CANT971
#   User        : R5K
#   Interpreter : PEP
#
#------------------------------------------------------------------------------
~VERSION INFORMATION
VERS. 2.0 : CWLS Log ASCII Standard - version 2.0
WRAP.  NO : One line per depth step
~WELL INFORMATION
#MNEMONIC   .UNIT                                           VALUE :DESCRIPTION
#------------------------------------------------------------------------------
STRT        .M                                          1900.1613 :START DEPTH
STOP        .M                                          3117.2275 :STOP DEPTH
STEP        .M                                             0.1524 :STEP
NULL        .                                           -999.2500 :NULL VALUE
COMP        .                                             UNKNOWN :COMPANY
WELL        .                                                1008 :WELL
FLD         .                                             UNKNOWN :FIELD
LOC         .                                             UNKNOWN :LOCATION
CNTY        .                                             UNKNOWN :COUNTY
STAT        .                                             UNKNOWN :STATE
CTRY        .                                             UNKNOWN :COUNTRY
SRVC        .                                             UNKNOWN :SERVICE COMPANY
DATE        .                                             UNKNOWN :LOG DATE
UWI         .                                                1008 :UNIQUE WELL ID
XCOORD      .                                            0.000000 :SURFACE X
YCOORD      .                                            0.000000 :SURFACE Y
LAT         .                                            0.000000 :LATITUDE
LON         .                                            0.000000 :LONGITUDE
ELEV        .M                                             0.0000 :SURFACE ELEV
ELEV_TYPE   .                                                  KB :ELEV TYPE
~CURVE INFORMATION
#MNEMONIC.UNIT        API CODE       : CURVE DESCRIPTION
#------------------------------------------------------------------------------
DEPTH    .M                          : Measured Depth
CGR      .API         UNKNOWN        : CGR:Entubado:r1:0001:v3 
DT       .us/ft       UNKNOWN        : DT:sonico:r1:0001:v1 
GR-LWD   .API         UNKNOWN        : GR-LWD:PETROWORKS:rC:NONE:v3 
GR       .API         UNKNOWN        : GR:Entubado:r1:0001:v3 
LLD-LWD  .ohm.m       UNKNOWN        : LLD-LWD:PETROWORKS:rC:NONE:v3 
LLM-LWD  .UNKNOWN     UNKNOWN        : LLM-LWD:PETROWORKS:rC:NONE:v3 
LLS-LWD  .ohm.m       UNKNOWN        : LLS-LWD:PETROWORKS:rC:NONE:v3 
MSFL-LWD .ohm.m       UNKNOWN        : MSFL-LWD:PETROWORKS:rC:NONE:v3 
NPHI     .v/v_decimal UNKNOWN        : NPHI:Entubado:r1:0001:v3 
POTA     .UNKNOWN     UNKNOWN        : POTA:Entubado:r1:0001:v3 
THOR     .ppm         UNKNOWN        : THOR:Entubado:r1:0001:v3 
URAN     .ppm         UNKNOWN        : URAN:Entubado:r1:0001:v3 
~A     DEPTH          CGR           DT       GR-LWD           GR      LLD-LWD      LLM-LWD      LLS-LWD     MSFL-LWD         NPHI         POTA         THOR         URAN
# ...
   2273.2366       1.6563    -999.2500      29.3428       3.4344      21.5198      15.8577      13.7421      11.9072       0.1217       0.0002       0.4080       0.2216
   2273.3889       2.1665    -999.2500      29.5324       4.3584      25.2743      17.2254      13.1013      10.3719       0.1163       0.0004       0.4595       0.2597
   2273.5413       2.5280    -999.2500      24.7518       4.8582      30.2063      19.5690      14.3720      11.9645       0.1112       0.0005       0.5105       0.2676
   2273.6936       3.4807    -999.2500      20.1554       6.0322      32.4692      19.9612      15.7025      14.9274       0.1068       0.0009       0.6351       0.2798
   2273.8459       5.1357    -999.2500      16.9344       8.8970      39.6874      24.3946      21.7394      21.2856       0.1239       0.0015       0.7756       0.4417
   2273.9985       5.8262    -999.2500      17.2123      10.0367      46.1042      29.2998      31.2516      28.9594       0.1340       0.0018       0.8469       0.5024
   2274.1509       7.0922    -999.2500      17.0022      11.0492      46.0263      33.5311      40.3622      32.8835       0.1877       0.0021       1.0698       0.4356
   2274.3032       6.9815    -999.2500      17.0968      10.6387      43.5377      40.2444      42.2790      30.8626       0.2070       0.0020       1.0596       0.3928
   2274.4556       5.5496    -999.2500      16.4663       8.5117      50.2330      55.1149      56.5329      32.8564       0.2072       0.0016       0.8455       0.3079
   2274.6082       4.7264    -999.2500      16.3833       6.9934      58.9718      72.6071      70.3550      37.9443       0.1659       0.0013       0.7711       0.2278
   2274.7605       4.7736    -999.2500      16.4977       7.0844      69.8302      90.4248      77.4148      44.1413       0.1560       0.0013       0.7972       0.2384
   2274.9128       5.6902    -999.2500      16.0177       8.5584      98.9353     140.8028     120.2671      65.2922       0.1562       0.0015       0.9743       0.2996
   2275.0652       5.9530    -999.2500      15.2914       8.8624     111.4206     157.3965     158.8952      84.7528       0.1660       0.0015       1.0237       0.3117
   2275.2178       5.9552    -999.2500      15.9327       8.9996     106.2235     131.7475     131.8453      90.2397       0.1854       0.0016       0.9920       0.3486
   2275.3701       5.3348    -999.2500      13.5388       8.7479     102.3633     117.8435     113.0555      89.6022       0.2132       0.0015       0.8460       0.3967
   2275.5225       5.1073    -999.2500      14.2132       8.8336      96.6911     110.1157     100.5187      82.1526       0.2224       0.0014       0.8354       0.4422
   2275.6748       5.2193    -999.2500      13.6465       9.6754      93.5501     100.3353      91.1097      71.0876       0.2472       0.0012       0.9924       0.5490
   2275.8271       4.9961    -999.2500      15.7512       9.9060     102.1157     102.8808      94.8387      70.0284       0.2577       0.0011       0.9764       0.6204
   2275.9797       4.0331    -999.2500      14.3425       8.9636     119.3634     120.2096     120.9413      81.6493       0.2551       0.0009       0.8114       0.6349
   2276.1321       2.9602    -999.2500      12.8673       6.9275     114.6805     119.0823     117.3670      87.6546       0.2269       0.0005       0.6452       0.5442
   2276.2844       2.5223    -999.2500      13.0244       6.0607     101.3931     100.2603      96.6721      81.6610       0.2110       0.0004       0.5676       0.4960
   2276.4368       2.3544    -999.2500      14.4513       5.6529      87.7892      80.9365      77.7657      72.2521       0.1940       0.0003       0.5614       0.4698
   2276.5894       2.1747    -999.2500      16.5784       5.4872      77.8984      67.5269      65.1253      60.8723       0.1928       0.0003       0.5510       0.4805
   2276.7417       1.9117    -999.2500      18.2490       5.2694      75.3235      63.8182      61.2833      55.0009       0.1822       0.0001       0.5616       0.4850
   2276.8940       1.6314    -999.2500      18.5536       4.9548      76.4635      65.1447      62.7745      55.6231       0.1726      -0.0000       0.5759       0.4783
   2277.0464       1.3718    -999.2500      18.4926       4.9771      75.2059      63.8561      60.9986      54.4913       0.1589      -0.0001       0.5388       0.5154
   2277.1990       1.1483    -999.2500      17.5763       5.2242      77.7197      64.5083      60.6021      54.0381       0.1381      -0.0002       0.4798       0.5813
   2277.3513       1.0927    -999.2500      16.0952       5.4462      83.5971      68.7092      64.5405      57.1255       0.1320      -0.0001       0.4235       0.6169
   2277.5037       1.3442    -999.2500      14.8137       5.8683      88.5595      72.9770      69.3178      62.3776       0.1332       0.0001       0.4081       0.6271
   2277.6560       1.5986    -999.2500      14.9565       5.8486      93.2299      78.4645      76.7645      70.2686       0.1392       0.0002       0.3908       0.5735
   2277.8083       1.7639    -999.2500      14.9938       5.9238      97.1017      84.4126      87.2370      79.6831       0.1374       0.0002       0.4093       0.5486
   2277.9609       1.8725    -999.2500      14.6484       5.8210      99.0556      88.8242      96.8234      87.9648       0.1312       0.0003       0.4288       0.5206
   2278.1133       1.9135    -999.2500      14.3771       5.8003      99.2187      90.1191     100.0729      91.7758       0.1282       0.0003       0.4137       0.5105
   2278.2656       2.1267    -999.2500      15.0847       6.0269      98.6609      89.1723      96.7039      90.4110       0.1242       0.0004       0.4284       0.5056
   2278.4180       2.1925    -999.2500      17.6592       6.2528      98.7164      87.9145      89.9809      85.0005       0.1207       0.0005       0.4199       0.5206
   2278.5706       2.2203    -999.2500      19.6796       5.4319     102.2898      89.9706      86.3369      79.4127       0.1166       0.0005       0.4174       0.4041
   2278.7229       2.1558    -999.2500      18.7266       4.1688     110.0458      97.5374      91.1682      80.3451       0.1131       0.0004       0.4287       0.2582
   2278.8752       2.2597    -999.2500      16.1738       3.8461     119.5965     107.2081     102.9921      88.9803       0.1027       0.0004       0.4640       0.1971
   2279.0276       2.3401    -999.2500      15.0637       4.2174     127.9881     114.5396     116.1515      99.2861       0.0811       0.0004       0.4903       0.2280
   2279.1802       2.3720    -999.2500      15.0367       4.7244     134.5330     119.0401     126.6669     105.3027       0.0683       0.0004       0.5143       0.2883
   2279.3325       2.6038    -999.2500      14.9564       5.3213     140.3714     124.0137     134.2280     107.6440       0.0663       0.0005       0.5640       0.3425
   2279.4849       2.6578    -999.2500      15.3400       5.8019     147.4943     132.0218     140.7266     110.7673       0.0663       0.0005       0.5585       0.4048
   2279.6372       2.5942    -999.2500      15.6164       5.8900     153.1265     138.7772     143.6021     114.0299       0.0635       0.0006       0.4787       0.4062
   2279.7896       2.7094    -999.2500      15.6166       5.5251     153.7711     141.0933     142.0233     114.9186       0.0589       0.0007       0.4551       0.3237
   2279.9421       3.0401    -999.2500      16.1760       5.2619     153.5485     142.0026     139.9421     113.5809       0.0578       0.0008       0.5265       0.2362
   2280.0945       3.2036    -999.2500      16.9354       5.6470     154.7501     141.6300     136.2013     109.1623       0.0600       0.0008       0.5904       0.2877
   2280.2468       3.1822    -999.2500      16.8430       6.1451     157.2735     141.2639     131.8638     102.4111       0.0619       0.0008       0.5957       0.3736
   2280.3992       2.7995    -999.2500      15.6031       6.3948     164.5769     146.0909     132.6228      98.5704       0.0620       0.0008       0.4594       0.4463
