#------------------------------------------------------------------------------
#
#   Created by  : [OpenWorks] Log Export Utility (LEXP)
#   Created on  : 2016-05-13 12:10:04
#   Project     : CANT971
#   User        : R5K
#   Interpreter : PEP
#
#------------------------------------------------------------------------------
~VERSION INFORMATION
VERS. 2.0 : CWLS Log ASCII Standard - version 2.0
WRAP.  NO : One line per depth step
~WELL INFORMATION
#MNEMONIC   .UNIT                                           VALUE :DESCRIPTION
#------------------------------------------------------------------------------
STRT        .M                                          1900.1613 :START DEPTH
STOP        .M                                          3117.2275 :STOP DEPTH
STEP        .M                                             0.1524 :STEP
NULL        .                                           -999.2500 :NULL VALUE
COMP        .                                             UNKNOWN :COMPANY
WELL        .                                                1008 :WELL
FLD         .                                             UNKNOWN :FIELD
LOC         .                                             UNKNOWN :LOCATION
CNTY        .                                             UNKNOWN :COUNTY
STAT        .                                             UNKNOWN :STATE
CTRY        .                                             UNKNOWN :COUNTRY
SRVC        .                                             UNKNOWN :SERVICE COMPANY
DATE        .                                             UNKNOWN :LOG DATE
UWI         .                                                1008 :UNIQUE WELL ID
XCOORD      .                                            0.000000 :SURFACE X
YCOORD      .                                            0.000000 :SURFACE Y
LAT         .                                            0.000000 :LATITUDE
LON         .                                            0.000000 :LONGITUDE
ELEV        .M                                             0.0000 :SURFACE ELEV
ELEV_TYPE   .                                                  KB :ELEV TYPE
~CURVE INFORMATION
#MNEMONIC.UNIT        API CODE       : CURVE DESCRIPTION
#------------------------------------------------------------------------------
DEPTH    .M                          : Measured Depth
CGR      .API         UNKNOWN        : CGR:Entubado:r1:0001:v3 
DT       .us/ft       UNKNOWN        : DT:sonico:r1:0001:v1 
GR-LWD   .API         UNKNOWN        : GR-LWD:PETROWORKS:rC:NONE:v3 
GR       .API         UNKNOWN        : GR:Entubado:r1:0001:v3 
LLD-LWD  .ohm.m       UNKNOWN        : LLD-LWD:PETROWORKS:rC:NONE:v3 
LLM-LWD  .UNKNOWN     UNKNOWN        : LLM-LWD:PETROWORKS:rC:NONE:v3 
LLS-LWD  .ohm.m       UNKNOWN        : LLS-LWD:PETROWORKS:rC:NONE:v3 
MSFL-LWD .ohm.m       UNKNOWN        : MSFL-LWD:PETROWORKS:rC:NONE:v3 
NPHI     .v/v_decimal UNKNOWN        : NPHI:Entubado:r1:0001:v3 
POTA     .UNKNOWN     UNKNOWN        : POTA:Entubado:r1:0001:v3 
THOR     .ppm         UNKNOWN        : THOR:Entubado:r1:0001:v3 
URAN     .ppm         UNKNOWN        : URAN:Entubado:r1:0001:v3 
~A     DEPTH          CGR           DT       GR-LWD           GR      LLD-LWD      LLM-LWD      LLS-LWD     MSFL-LWD         NPHI         POTA         THOR         URAN
# ...
   2587.7900       2.4424      59.5399      29.5105      20.4817     110.2746      57.0562      42.5668      27.9658       0.0707       0.0010       0.1811       2.3898
   2587.9424       2.5793      60.3852      28.2203      19.7663      88.8656      46.3693      34.0879      24.6668       0.0681       0.0011       0.1449       2.2491
   2588.0950       2.6549      60.9112      27.8401      19.1904      82.2116      42.0191      32.2092      23.5368       0.0688       0.0012       0.1680       2.1663
   2588.2473       2.7270      60.9573      27.7008      18.6245      80.4690      41.4161      31.5850      25.2167       0.0696       0.0012       0.1939       2.0869
   2588.3997       2.5496      61.2488      28.5302      17.8968      72.1539      40.2427      33.8231      26.6891       0.0715       0.0010       0.2341       2.0438
   2588.5520       2.4949      59.9022      29.8017      18.0194      59.2251      32.7071      25.5675      19.7461       0.0725       0.0010       0.2357       2.0712
   2588.7043       3.3093      61.1148      29.5722      17.8556      45.9849      24.9299      19.1101      14.5123       0.0882       0.0010       0.4443       1.9504
   2588.8569       3.0906      66.8114      27.0061      17.2796      49.8293      23.7654      16.7569      12.2179       0.0931       0.0009       0.4345       1.8956
   2589.0093       2.8486      68.4576      28.5216      16.5832     256.0394      60.3328      44.3457      18.8237       0.0979       0.0008       0.4175       1.8283
   2589.1616       2.2990      69.2477      28.0046      14.2556     846.9239     147.6825      99.7514      44.8607       0.1013       0.0007       0.3032       1.5905
   2589.3140       2.1939      66.7422      26.2195      13.9327     144.1460      49.8000      36.1035      23.8406       0.1029       0.0007       0.3024       1.5581
   2589.4666       2.1366      65.8505      25.4027      16.5832      74.3288      41.3157      30.4919      25.0153       0.1092       0.0004       0.4828       1.9119
   2589.6189       2.1438      65.5341      25.6608      17.3204      77.4665      41.6077      30.2648      25.4067       0.1073       0.0003       0.4960       1.9996
   2589.7712       2.1269      63.9071      26.4723      17.7695      87.9712      42.2671      28.9161      23.3258       0.1063       0.0003       0.4860       2.0548
   2589.9236       1.9813      63.1486      28.6442      16.5710     121.6616      52.9989      33.3257      21.7075       0.1102       0.0005       0.3486       1.9194
   2590.0762       2.0026      61.5047      30.6952      15.8484     183.9834      75.7385      46.8517      29.0881       0.1105       0.0006       0.2860       1.7997
   2590.2285       2.2343      61.7385      29.8073      15.7080     148.6348      63.6923      43.5004      27.0551       0.1122       0.0008       0.2652       1.7061
   2590.3809       1.8164      64.5950      28.7328      16.7163     142.1230      57.1678      36.3439      22.8705       0.1146       0.0006       0.2193       1.9107
   2590.5332       1.4693      63.9046      28.0574      18.0469     196.2640      70.9217      41.4138      24.0118       0.1162       0.0005       0.1874       2.1433
   2590.6855       1.3661      60.9348      31.3649      20.0821     521.5289     208.5126     188.7736      77.2662       0.1158       0.0004       0.1977       2.4172
   2590.8381       1.3478      60.5204      37.8429      22.3606    1166.3085     583.5529     712.9388     308.7919       0.1233       0.0004       0.1942       2.7027
   2590.9905       1.4710      59.4911      39.8140      28.0563    1362.2170     631.3273    1026.7399     451.7874       0.1443       0.0005       0.1972       3.4185
   2591.1428       1.2048      63.1975      43.1667      29.9207    1082.9072     381.1075     749.5278     132.0132       0.1475       0.0004       0.1571       3.7078
   2591.2952       1.3089      65.2089      48.2518      31.3106     264.9042     117.3546     175.5259      53.1307       0.1444       0.0003       0.2282       3.9029
   2591.4478       1.9245      64.4571      48.2714      31.4793     182.2631     134.5126     136.0983     106.5656       0.1313       0.0003       0.4599       3.8913
   2591.6001       1.6838      69.8797      50.2903      30.0697     506.3138     405.8907     445.6440     361.2371       0.1282       0.0001       0.4669       3.7553
   2591.7524       1.4276      69.1401      48.2135      27.3764    1018.4892     829.4357     930.3538     739.1700       0.1266       0.0000       0.4606       3.4573
   2591.9048       1.5143      68.3791      41.6936      27.2704    1614.9902    1329.7219    1515.7695    1263.2913       0.1276       0.0000       0.4761       3.4281
   2592.0574       1.9322      64.7634      36.8762      26.8428    1443.1472    1179.3976    1354.8577    1233.5437       0.1300       0.0002       0.4753       3.2896
   2592.2097       2.5346      64.1650      36.7337      25.8712     753.8909     551.4757     613.1423     532.4395       0.1340       0.0006       0.4559       3.0457
   2592.3621       2.4715      72.5326      36.3416      22.5208     287.9170     147.7177     132.7982      83.9319       0.1258       0.0006       0.4310       2.6683
   2592.5144       2.3083      63.1620      34.6019      18.3620     215.8428     103.3070      71.3433      35.6872       0.1087       0.0006       0.4002       2.2114
   2592.6667       2.2364      64.2884      31.5307      17.6698     240.2191     107.2741      66.1317      35.6928       0.1003       0.0005       0.3961       2.1237
   2592.8193       2.0732      63.0087      28.3309      16.4171     429.4450     148.7322      85.8690      45.3447       0.0932       0.0005       0.3386       1.9614
   2592.9717       1.7571      61.2712      25.9036      15.3159     551.9251     179.1335     108.4168      55.0628       0.0905       0.0006       0.2171       1.8337
   2593.1240       1.7117      61.2433      25.3191      15.8001     535.4648     172.0708     107.4594      53.2523       0.0939       0.0008       0.0837       1.8868
   2593.2764       1.8969      58.0218      25.5857      16.4067     679.6825     190.6152     113.1732      52.6606       0.0980       0.0010       0.0364       1.9305
   2593.4290       1.9793      56.0407      26.1489      16.4372     802.3504     224.1045     130.7481      64.4209       0.0996       0.0009       0.0847       1.9201
   2593.5813       1.8352      52.4199      26.6931      16.5539     957.8288     267.1381     157.5481      77.9511       0.1003       0.0008       0.1065       1.9517
   2593.7336       1.5957      52.0937      26.8171      16.4742     947.3309     265.4695     158.7602      75.8991       0.0985       0.0007       0.0992       1.9681
   2593.8860       1.5497      52.2351      26.8056      15.5412     764.6456     230.3999     140.3515      67.9381       0.0858       0.0007       0.0776       1.8466
   2594.0386       1.5185      54.2493      24.0955      14.6343     392.7837     144.9608      96.3706      56.9078       0.0766       0.0007       0.0730       1.7302
   2594.1909       1.4370      59.0772      22.1377      14.0907     225.9177     146.1003     131.4975     114.1189       0.0753       0.0006       0.0858       1.6696
   2594.3433       1.2629      63.9408      22.9904      13.2853     184.0734     111.7389      88.2609      72.8727       0.0748       0.0006       0.0816       1.5966
   2594.4956       1.1876      62.9089      24.5962      12.8110     146.4812      71.0940      39.1809      24.1179       0.0748       0.0005       0.0843       1.5538
   2594.6479       1.9074      64.2873      26.2704      14.8490     149.1480      69.9853      39.4596      24.5022       0.0718       0.0006       0.2385       1.7522
   2594.8005       2.3396      64.0209      34.8990      16.6784     412.6438     130.9287      62.6094      30.8924       0.0705       0.0007       0.3308       1.9503
   2594.9529       2.4292      61.9152      37.5064      17.7810    1391.5321     566.9155     203.9684      54.0848       0.0710       0.0007       0.3522       2.0871
