#------------------------------------------------------------------------------
#
#   Created by  : [OpenWorks] Log Export Utility (LEXP)
#   Created on  : 2016-05-13 12:10:04
#   Project     : CANT971
#   User        : R5K
#   Interpreter : PEP
#
#------------------------------------------------------------------------------
~VERSION INFORMATION
VERS. 2.0 : CWLS Log ASCII Standard - version 2.0
WRAP.  NO : One line per depth step
~WELL INFORMATION
#MNEMONIC   .UNIT                                           VALUE :DESCRIPTION
#------------------------------------------------------------------------------
STRT        .M                                          1900.1613 :START DEPTH
STOP        .M                                          3117.2275 :STOP DEPTH
STEP        .M                                             0.1524 :STEP
NULL        .                                           -999.2500 :NULL VALUE
COMP        .                                             UNKNOWN :COMPANY
WELL        .                                                1008 :WELL
FLD         .                                             UNKNOWN :FIELD
LOC         .                                             UNKNOWN :LOCATION
CNTY        .                                             UNKNOWN :COUNTY
STAT        .                                             UNKNOWN :STATE
CTRY        .                                             UNKNOWN :COUNTRY
SRVC        .                                             UNKNOWN :SERVICE COMPANY
DATE        .                                             UNKNOWN :LOG DATE
UWI         .                                                1008 :UNIQUE WELL ID
XCOORD      .                                            0.000000 :SURFACE X
YCOORD      .                                            0.000000 :SURFACE Y
LAT         .                                            0.000000 :LATITUDE
LON         .                                            0.000000 :LONGITUDE
ELEV        .M                                             0.0000 :SURFACE ELEV
ELEV_TYPE   .                                                  KB :ELEV TYPE
~CURVE INFORMATION
#MNEMONIC.UNIT        API CODE       : CURVE DESCRIPTION
#------------------------------------------------------------------------------
DEPTH    .M                          : Measured Depth
CGR      .API         UNKNOWN        : CGR:Entubado:r1:0001:v3 
DT       .us/ft       UNKNOWN        : DT:sonico:r1:0001:v1 
GR-LWD   .API         UNKNOWN        : GR-LWD:PETROWORKS:rC:NONE:v3 
GR       .API         UNKNOWN        : GR:Entubado:r1:0001:v3 
LLD-LWD  .ohm.m       UNKNOWN        : LLD-LWD:PETROWORKS:rC:NONE:v3 
LLM-LWD  .UNKNOWN     UNKNOWN        : LLM-LWD:PETROWORKS:rC:NONE:v3 
LLS-LWD  .ohm.m       UNKNOWN        : LLS-LWD:PETROWORKS:rC:NONE:v3 
MSFL-LWD .ohm.m       UNKNOWN        : MSFL-LWD:PETROWORKS:rC:NONE:v3 
NPHI     .v/v_decimal UNKNOWN        : NPHI:Entubado:r1:0001:v3 
POTA     .UNKNOWN     UNKNOWN        : POTA:Entubado:r1:0001:v3 
THOR     .ppm         UNKNOWN        : THOR:Entubado:r1:0001:v3 
URAN     .ppm         UNKNOWN        : URAN:Entubado:r1:0001:v3 
~A     DEPTH          CGR           DT       GR-LWD           GR      LLD-LWD      LLM-LWD      LLS-LWD     MSFL-LWD         NPHI         POTA         THOR         URAN
# ...
   3012.0715      53.3114    -999.2500     139.2186      66.5946       3.7193       3.5292       3.6568       3.8207       0.4813       0.0171       7.1630       2.2632
   3012.2241      53.3114    -999.2500     141.2152      66.5946       3.7314       3.5518       3.6690       3.8459       0.4801       0.0171       7.1630       2.2632
   3012.3765      53.3114    -999.2500     143.8634      66.5946       3.7359       3.5710       3.6871       3.8623       0.4928       0.0171       7.1630       2.2632
   3012.5288      53.3114    -999.2500     146.3693      66.5946       3.7261       3.5837       3.7053       3.8742       0.4991       0.0171       7.1630       2.2632
   3012.6812      53.3114    -999.2500     148.7512      66.5946       3.6810       3.5461       3.6793       3.8444       0.4844       0.0171       7.1630       2.2632
   3012.8337      53.3114    -999.2500     146.7262      66.5946       3.6277       3.4769       3.6145       3.7619       0.4678       0.0171       7.1630       2.2632
   3012.9861      53.3114    -999.2500     141.9438      66.5946       3.6157       3.4736       3.5925       3.7056       0.4735       0.0171       7.1630       2.2632
   3013.1384      53.3114    -999.2500     139.5903      66.5946       3.5810       3.4539       3.5550       3.6535       0.4984       0.0171       7.1630       2.2632
   3013.2908      53.3114    -999.2500     146.2797      66.5946       3.5527       3.4030       3.4847       3.5824       0.5124       0.0171       7.1630       2.2632
   3013.4434      53.3114    -999.2500     147.5334      66.5946       3.5798       3.4012       3.4629       3.5584       0.5124       0.0171       7.1630       2.2632
   3013.5957      53.3114    -999.2500     144.8111      66.5946       3.6381       3.4429       3.4907       3.5949       0.5082       0.0171       7.1630       2.2632
   3013.7480      53.3114    -999.2500     142.3198      66.5946       3.6991       3.5039       3.5611       3.6879       0.5105       0.0171       7.1630       2.2632
   3013.9004      53.3114    -999.2500     143.9634      66.5946       3.7456       3.5612       3.6404       3.7913       0.5147       0.0171       7.1630       2.2632
   3014.0527      53.3114    -999.2500     147.5288      66.5946       3.7601       3.6041       3.7060       3.8640       0.5299       0.0171       7.1630       2.2632
   3014.2053      53.3114    -999.2500     146.0833      66.5946       3.7564       3.6191       3.7359       3.9033       0.5399       0.0171       7.1630       2.2632
   3014.3577      53.3114    -999.2500     144.9404      66.5946       3.7155       3.5884       3.7190       3.8820       0.5090       0.0171       7.1630       2.2632
   3014.5100      53.3114    -999.2500     142.9053      66.5946       3.7008       3.5612       3.6688       3.8054       0.4634       0.0171       7.1630       2.2632
   3014.6624      53.3114    -999.2500     141.8163      66.5946       3.7086       3.5752       3.6733       3.7671       0.4382       0.0171       7.1630       2.2632
   3014.8149      53.3114    -999.2500     139.9213      66.5946       3.7116       3.5873       3.6734       3.7814       0.4881       0.0171       7.1630       2.2632
   3014.9673      53.3114    -999.2500     141.4471      66.5946       3.7046       3.5399       3.6396       3.7764       0.5769       0.0171       7.1630       2.2632
   3015.1196      53.3114    -999.2500     140.5577      66.5946       3.6408       3.4693       3.5783       3.7435       0.6708       0.0171       7.1630       2.2632
   3015.2720      53.3114    -999.2500     141.1400      66.5946       3.5834       3.4480       3.5563       3.7007       0.9321       0.0171       7.1630       2.2632
   3015.4246      53.3114    -999.2500     138.4456      66.5946       3.4694       3.3644       3.4840       3.6429       1.1989       0.0171       7.1630       2.2632
   3015.5769      53.3114    -999.2500     140.6759      66.5946       3.2174       3.1188       3.2433       3.4244       1.2867       0.0171       7.1630       2.2632
   3015.7292      53.3114    -999.2500     149.5894      66.5946       2.9255       2.7791       2.8999       3.0485       1.3126       0.0171       7.1630       2.2632
   3015.8816      53.3114    -999.2500     155.7836      66.5946       2.7730       2.5915       2.6663       2.7624       1.3154       0.0171       7.1630       2.2632
   3016.0339      53.3114    -999.2500     159.2327      66.5946       2.7154       2.5085       2.5281       2.6090       1.3154       0.0171       7.1630       2.2632
   3016.1865      53.3114    -999.2500     155.4505      66.5946       2.7107       2.4976       2.4905       2.6082       1.3154       0.0171       7.1630       2.2632
   3016.3389      53.3114    -999.2500     157.1228      66.5946       2.6548       2.4295       2.4567       2.5941       1.3155       0.0171       7.1630       2.2632
   3016.4912      53.3114    -999.2500     150.6500      66.5946       2.6637       2.4189       2.4784       2.6024       1.3155       0.0171       7.1630       2.2632
   3016.6436      53.3114    -999.2500     142.2060      66.5946       2.7172       2.5078       2.5643       2.6624       1.3155       0.0171       7.1630       2.2632
   3016.7961      53.3114    -999.2500     151.0067      66.5946       2.7302       2.5711       2.6396       2.7327       1.3155       0.0171       7.1630       2.2632
   3016.9485      53.3114    -999.2500     154.8960      66.5946       2.7956       2.6836       2.7580       2.8835       1.3155       0.0171       7.1630       2.2632
   3017.1008      53.3114    -999.2500     150.3890      66.5946       2.6834       2.5694       2.6760       2.8118       1.3155       0.0171       7.1630       2.2632
   3017.2532    -999.2500    -999.2500     149.2358    -999.2500       2.6368       2.4637       2.5481       2.6526    -999.2500    -999.2500    -999.2500    -999.2500
   3017.4058    -999.2500    -999.2500     149.5158    -999.2500       2.8850       2.7046       2.7003       2.7154    -999.2500    -999.2500    -999.2500    -999.2500
   3017.5581    -999.2500    -999.2500     140.3167    -999.2500       3.2574       3.1350       3.0493       3.0632    -999.2500    -999.2500    -999.2500    -999.2500
   3017.7104    -999.2500    -999.2500     130.0805    -999.2500       3.3414       3.3296       3.3367       3.5299    -999.2500    -999.2500    -999.2500    -999.2500
   3017.8628    -999.2500    -999.2500     122.3114    -999.2500       3.0459       2.9994       3.1541       3.4599    -999.2500    -999.2500    -999.2500    -999.2500
   3018.0151    -999.2500    -999.2500     134.9921    -999.2500       2.7739       2.6476       2.8557       3.0505    -999.2500    -999.2500    -999.2500    -999.2500
   3018.1677    -999.2500    -999.2500     147.6395    -999.2500       2.7702       2.6358       2.7568       2.7718    -999.2500    -999.2500    -999.2500    -999.2500
   3018.3201    -999.2500    -999.2500     137.4632    -999.2500       2.9273       2.8297       2.8269       2.8090    -999.2500    -999.2500    -999.2500    -999.2500
   3018.4724    -999.2500    -999.2500     137.4443    -999.2500       2.9841       2.8958       2.8345       2.9081    -999.2500    -999.2500    -999.2500    -999.2500
   3018.6248    -999.2500    -999.2500     140.4898    -999.2500       2.9370       2.7982       2.7967       2.9559    -999.2500    -999.2500    -999.2500    -999.2500
   3018.7773    -999.2500    -999.2500     145.2371    -999.2500       2.8397       2.6746       2.7467       2.8864    -999.2500    -999.2500    -999.2500    -999.2500
   3018.9297    -999.2500    -999.2500     146.6889    -999.2500       2.7719       2.6176       2.7146       2.8045    -999.2500    -999.2500    -999.2500    -999.2500
   3019.0820    -999.2500    -999.2500     144.8218    -999.2500       2.7137       2.5856       2.6585       2.7396    -999.2500    -999.2500    -999.2500    -999.2500
   3019.2344    -999.2500    -999.2500     147.5115    -999.2500       2.6626       2.5394       2.5914       2.6752    -999.2500    -999.2500    -999.2500    -999.2500
