#------------------------------------------------------------------------------
#
#   Created by  : [OpenWorks] Log Export Utility (LEXP)
#   Created on  : 2016-05-13 12:10:04
#   Project     : CANT971
#   User        : R5K
#   Interpreter : PEP
#
#------------------------------------------------------------------------------
~VERSION INFORMATION
VERS. 2.0 : CWLS Log ASCII Standard - version 2.0
WRAP.  NO : One line per depth step
~WELL INFORMATION
#MNEMONIC   .UNIT                                           VALUE :DESCRIPTION
#------------------------------------------------------------------------------
STRT        .M                                          1900.1613 :START DEPTH
STOP        .M                                          3117.2275 :STOP DEPTH
STEP        .M                                             0.1524 :STEP
NULL        .                                           -999.2500 :NULL VALUE
COMP        .                                             UNKNOWN :COMPANY
WELL        .                                                1008 :WELL
FLD         .                                             UNKNOWN :FIELD
LOC         .                                             UNKNOWN :LOCATION
CNTY        .                                             UNKNOWN :COUNTY
STAT        .                                             UNKNOWN :STATE
CTRY        .                                             UNKNOWN :COUNTRY
SRVC        .                                             UNKNOWN :SERVICE COMPANY
DATE        .                                             UNKNOWN :LOG DATE
UWI         .                                                1008 :UNIQUE WELL ID
XCOORD      .                                            0.000000 :SURFACE X
YCOORD      .                                            0.000000 :SURFACE Y
LAT         .                                            0.000000 :LATITUDE
LON         .                                            0.000000 :LONGITUDE
ELEV        .M                                             0.0000 :SURFACE ELEV
ELEV_TYPE   .                                                  KB :ELEV TYPE
~CURVE INFORMATION
#MNEMONIC.UNIT        API CODE       : CURVE DESCRIPTION
#------------------------------------------------------------------------------
DEPTH    .M                          : Measured Depth
CGR      .API         UNKNOWN        : CGR:Entubado:r1:0001:v3 
DT       .us/ft       UNKNOWN        : DT:sonico:r1:0001:v1 
GR-LWD   .API         UNKNOWN        : GR-LWD:PETROWORKS:rC:NONE:v3 
GR       .API         UNKNOWN        : GR:Entubado:r1:0001:v3 
LLD-LWD  .ohm.m       UNKNOWN        : LLD-LWD:PETROWORKS:rC:NONE:v3 
LLM-LWD  .UNKNOWN     UNKNOWN        : LLM-LWD:PETROWORKS:rC:NONE:v3 
LLS-LWD  .ohm.m       UNKNOWN        : LLS-LWD:PETROWORKS:rC:NONE:v3 
MSFL-LWD .ohm.m       UNKNOWN        : MSFL-LWD:PETROWORKS:rC:NONE:v3 
NPHI     .v/v_decimal UNKNOWN        : NPHI:Entubado:r1:0001:v3 
POTA     .UNKNOWN     UNKNOWN        : POTA:Entubado:r1:0001:v3 
THOR     .ppm         UNKNOWN        : THOR:Entubado:r1:0001:v3 
URAN     .ppm         UNKNOWN        : URAN:Entubado:r1:0001:v3 
~A     DEPTH          CGR           DT       GR-LWD           GR      LLD-LWD      LLM-LWD      LLS-LWD     MSFL-LWD         NPHI         POTA         THOR         URAN
# ...
   2222.0300    -999.2500    -999.2500      61.1221    -999.2500       1.4931       1.5412       1.5567       1.5149    -999.2500    -999.2500    -999.2500    -999.2500
   2222.1824    -999.2500    -999.2500      59.5388    -999.2500       1.4987       1.5421       1.5555       1.5248    -999.2500    -999.2500    -999.2500    -999.2500
   2222.3350    -999.2500    -999.2500      57.9791    -999.2500       1.5261       1.5630       1.5669       1.5373    -999.2500    -999.2500    -999.2500    -999.2500
   2222.4873    -999.2500    -999.2500      59.0295    -999.2500       1.5625       1.6002       1.5942       1.5617    -999.2500    -999.2500    -999.2500    -999.2500
   2222.6396    -999.2500    -999.2500      59.3686    -999.2500       1.5502       1.5916       1.5867       1.5669    -999.2500    -999.2500    -999.2500    -999.2500
   2222.7920    -999.2500    -999.2500      59.3954    -999.2500       1.4589       1.4888       1.4987       1.5004    -999.2500    -999.2500    -999.2500    -999.2500
   2222.9443    -999.2500    -999.2500      62.1988    -999.2500       1.3516       1.3562       1.3768       1.3810    -999.2500    -999.2500    -999.2500    -999.2500
   2223.0969    -999.2500    -999.2500      64.8723    -999.2500       1.2822       1.2649       1.2781       1.2682    -999.2500    -999.2500    -999.2500    -999.2500
   2223.2493    -999.2500    -999.2500      65.0087    -999.2500       1.2439       1.2117       1.2081       1.1942    -999.2500    -999.2500    -999.2500    -999.2500
   2223.4016    -999.2500    -999.2500      65.5961    -999.2500       1.2241       1.1803       1.1669       1.1658    -999.2500    -999.2500    -999.2500    -999.2500
   2223.5540    -999.2500    -999.2500      66.4361    -999.2500       1.2156       1.1645       1.1577       1.1736    -999.2500    -999.2500    -999.2500    -999.2500
   2223.7065    -999.2500    -999.2500      65.8601    -999.2500       1.2113       1.1593       1.1721       1.2006    -999.2500    -999.2500    -999.2500    -999.2500
   2223.8589    -999.2500    -999.2500      64.4030    -999.2500       1.2070       1.1553       1.1914       1.2265    -999.2500    -999.2500    -999.2500    -999.2500
   2224.0112    -999.2500    -999.2500      61.9991    -999.2500       1.2192       1.1610       1.2130       1.2466    -999.2500    -999.2500    -999.2500    -999.2500
   2224.1636    -999.2500    -999.2500      61.2717    -999.2500       1.2977       1.2296       1.2797       1.3026    -999.2500    -999.2500    -999.2500    -999.2500
   2224.3162    -999.2500    -999.2500      61.9824    -999.2500       1.4624       1.3925       1.4306       1.4464    -999.2500    -999.2500    -999.2500    -999.2500
   2224.4685    -999.2500    -999.2500      60.6771    -999.2500       1.6627       1.5996       1.6421       1.6767    -999.2500    -999.2500    -999.2500    -999.2500
   2224.6208    -999.2500    -999.2500      56.3836    -999.2500       1.8720       1.8263       1.9129       1.9881    -999.2500    -999.2500    -999.2500    -999.2500
   2224.7732    -999.2500    -999.2500      48.8898    -999.2500       2.0921       2.0918       2.2567       2.3552    -999.2500    -999.2500    -999.2500    -999.2500
   2224.9255    -999.2500    -999.2500      42.3836    -999.2500       2.3463       2.4765       2.7099       2.7935    -999.2500    -999.2500    -999.2500    -999.2500
   2225.0781    -999.2500    -999.2500      37.9102    -999.2500       2.6043       2.9767       3.2678       3.3448    -999.2500    -999.2500    -999.2500    -999.2500
   2225.2305    -999.2500    -999.2500      34.4413    -999.2500       2.5442       3.0218       3.3583       3.4919    -999.2500    -999.2500    -999.2500    -999.2500
   2225.3828    -999.2500    -999.2500      34.7874    -999.2500       2.1798       2.4799       2.7893       2.9531    -999.2500    -999.2500    -999.2500    -999.2500
   2225.5352    -999.2500    -999.2500      40.6217    -999.2500       1.9052       1.9316       2.1448       2.2169    -999.2500    -999.2500    -999.2500    -999.2500
   2225.6877    -999.2500    -999.2500      49.0174    -999.2500       2.0412       1.7980       1.8238       1.7812    -999.2500    -999.2500    -999.2500    -999.2500
   2225.8401    -999.2500    -999.2500      50.0757    -999.2500       2.9337       2.3353       2.0175       1.8975    -999.2500    -999.2500    -999.2500    -999.2500
   2225.9924    -999.2500    -999.2500      43.7899    -999.2500       4.7794       3.6640       2.8904       2.8229    -999.2500    -999.2500    -999.2500    -999.2500
   2226.1448    -999.2500    -999.2500      35.6440    -999.2500       6.3655       4.9791       4.3399       4.6274    -999.2500    -999.2500    -999.2500    -999.2500
   2226.2974    -999.2500    -999.2500      32.0744    -999.2500       7.1449       5.7720       6.2935       7.3017    -999.2500    -999.2500    -999.2500    -999.2500
   2226.4497      11.4674    -999.2500      31.1763      15.2072       7.8830       7.0853       8.8002      10.1385       0.0198       0.0036       1.5761       0.4104
   2226.6021      11.4674    -999.2500      28.6479      15.2072       8.6297       9.0870      11.4238      12.1202       0.0340       0.0036       1.5761       0.4104
   2226.7544      11.4596    -999.2500      27.7123      15.2034      10.1959      11.3226      13.4601      13.0833       0.0483       0.0036       1.5745       0.4108
   2226.9067      11.2056    -999.2500      30.4175      15.0792      12.7480      14.5067      15.6104      13.5950       0.0660       0.0036       1.5227       0.4244
   2227.0593      10.9050    -999.2500      27.9122      14.9575      16.8916      20.2346      21.3384      18.4340       0.0659       0.0035       1.4704       0.4428
   2227.2117       9.9706    -999.2500      22.8154      14.8890      19.4142      23.2277      24.7200      20.6667       0.0500       0.0031       1.4174       0.5292
   2227.3640       9.9492    -999.2500      18.9844      15.0480      21.4945      25.1620      26.9906      23.0191       0.0466       0.0030       1.4571       0.5404
   2227.5164       9.6906    -999.2500      19.5342      14.9248      24.6705      28.6973      31.0508      28.2325       0.0430       0.0028       1.4607       0.5466
   2227.6689       7.6910    -999.2500      18.5227      12.6490      29.2935      34.5025      39.0939      34.7876       0.0384       0.0022       1.1995       0.5080
   2227.8213       6.6830    -999.2500      14.8360      10.7939      35.0645      41.2688      49.1618      42.1768       0.0377       0.0018       1.0860       0.4176
   2227.9736       4.2151    -999.2500      14.5934       6.3494      37.4197      45.4849      54.4488      45.6295       0.0383       0.0010       0.7749       0.2374
   2228.1260       3.8677    -999.2500      16.0914       5.9814      38.4004      47.1188      55.7738      48.4692       0.0381       0.0008       0.7546       0.2392
   2228.2786       3.6112    -999.2500      13.6473       5.7362      37.8955      45.8875      54.9669      48.2011       0.0389       0.0007       0.7330       0.2486
   2228.4309       3.7199    -999.2500      11.1472       5.9895      36.7159      43.8442      51.7167      46.1565       0.0432       0.0008       0.7030       0.2886
   2228.5833       3.7895    -999.2500       7.4660       6.1411      35.3925      40.7461      45.9541      40.3386       0.0447       0.0009       0.7095       0.3082
   2228.7356       3.9200    -999.2500       7.8860       6.1719      33.4483      37.3336      40.7371      34.9075       0.0437       0.0008       0.8143       0.2926
   2228.8879       3.6099    -999.2500      10.8760       5.7239      30.3592      33.2444      35.4778      31.1013       0.0439       0.0007       0.7372       0.2695
   2229.0405       3.1020    -999.2500      13.4686       5.2468      24.4979      26.0374      27.1012      24.0121       0.0463       0.0007       0.6074       0.2714
   2229.1929       2.2881    -999.2500      17.8808       4.8409      17.7229      18.6047      19.7610      18.0679       0.0537       0.0006       0.3953       0.3303
