#------------------------------------------------------------------------------
#
#   Created by  : [OpenWorks] Log Export Utility (LEXP)
#   Created on  : 2016-05-13 12:10:04
#   Project     : CANT971
#   User        : R5K
#   Interpreter : PEP
#
#------------------------------------------------------------------------------
~VERSION INFORMATION
VERS. 2.0 : CWLS Log ASCII Standard - version 2.0
WRAP.  NO : One line per depth step
~WELL INFORMATION
#MNEMONIC   .UNIT                                           VALUE :DESCRIPTION
#------------------------------------------------------------------------------
STRT        .M                                          1900.1613 :START DEPTH
STOP        .M                                          3117.2275 :STOP DEPTH
STEP        .M                                             0.1524 :STEP
NULL        .                                           -999.2500 :NULL VALUE
COMP        .                                             UNKNOWN :COMPANY
WELL        .                                                1008 :WELL
FLD         .                                             UNKNOWN :FIELD
LOC         .                                             UNKNOWN :LOCATION
CNTY        .                                             UNKNOWN :COUNTY
STAT        .                                             UNKNOWN :STATE
CTRY        .                                             UNKNOWN :COUNTRY
SRVC        .                                             UNKNOWN :SERVICE COMPANY
DATE        .                                             UNKNOWN :LOG DATE
UWI         .                                                1008 :UNIQUE WELL ID
XCOORD      .                                            0.000000 :SURFACE X
YCOORD      .                                            0.000000 :SURFACE Y
LAT         .                                            0.000000 :LATITUDE
LON         .                                            0.000000 :LONGITUDE
ELEV        .M                                             0.0000 :SURFACE ELEV
ELEV_TYPE   .                                                  KB :ELEV TYPE
~CURVE INFORMATION
#MNEMONIC.UNIT        API CODE       : CURVE DESCRIPTION
#------------------------------------------------------------------------------
DEPTH    .M                          : Measured Depth
CGR      .API         UNKNOWN        : CGR:Entubado:r1:0001:v3 
DT       .us/ft       UNKNOWN        : DT:sonico:r1:0001:v1 
GR-LWD   .API         UNKNOWN        : GR-LWD:PETROWORKS:rC:NONE:v3 
GR       .API         UNKNOWN        : GR:Entubado:r1:0001:v3 
LLD-LWD  .ohm.m       UNKNOWN        : LLD-LWD:PETROWORKS:rC:NONE:v3 
LLM-LWD  .UNKNOWN     UNKNOWN        : LLM-LWD:PETROWORKS:rC:NONE:v3 
LLS-LWD  .ohm.m       UNKNOWN        : LLS-LWD:PETROWORKS:rC:NONE:v3 
MSFL-LWD .ohm.m       UNKNOWN        : MSFL-LWD:PETROWORKS:rC:NONE:v3 
NPHI     .v/v_decimal UNKNOWN        : NPHI:Entubado:r1:0001:v3 
POTA     .UNKNOWN     UNKNOWN        : POTA:Entubado:r1:0001:v3 
THOR     .ppm         UNKNOWN        : THOR:Entubado:r1:0001:v3 
URAN     .ppm         UNKNOWN        : URAN:Entubado:r1:0001:v3 
~A     DEPTH          CGR           DT       GR-LWD           GR      LLD-LWD      LLM-LWD      LLS-LWD     MSFL-LWD         NPHI         POTA         THOR         URAN
# ...
   2748.7244      12.9961      75.9165      40.3524      28.0712     142.6897      90.9712      81.5694      56.1105       0.0597       0.0051       1.2051       1.8787
   2748.8770      12.4527      76.2288      42.1710      27.2645     111.0356      78.0397      67.6443      51.5664       0.0584       0.0048       1.2008       1.8333
   2749.0293      11.0100      71.8424      42.3671      24.9694     100.8149      74.2875      64.9906      50.1708       0.0575       0.0043       1.0347       1.7168
   2749.1816      10.3721      58.7267      39.1527      24.2230      93.6113      61.1836      53.4979      36.8325       0.0582       0.0041       0.9546       1.7002
   2749.3340      11.3193      58.7307      38.7950      25.9233     102.4506      63.8934      60.2121      44.9951       0.0630       0.0043       1.1260       1.7770
   2749.4866      11.5152      56.0065      38.8779      26.6706     113.4097      68.9095      69.5347      56.2365       0.0639       0.0044       1.1076       1.8389
   2749.6389      11.6059      52.8606      37.2810      27.2783      79.1885      52.2591      45.3060      38.3557       0.0643       0.0046       1.0647       1.8978
   2749.7913      11.8002      54.4627      36.6704      28.1631      72.8055      48.7926      38.6346      32.6371       0.0658       0.0049       0.9460       2.0006
   2749.9436      11.8465      54.8576      37.0735      28.3821      81.2662      56.6099      41.6783      34.7093       0.0667       0.0050       0.9052       2.0315
   2750.0959      13.0512      55.4716      40.0158      29.5267      79.0906      57.5987      43.3081      36.9637       0.0702       0.0050       1.2553       2.0482
   2750.2485      13.3945      55.2136      43.0728      29.8027      76.4512      58.2975      44.8715      39.2221       0.0752       0.0051       1.3236       2.0474
   2750.4009      13.7106      58.8884      45.1014      30.0531     128.8400      74.2574      81.2549      55.7067       0.0801       0.0051       1.3839       2.0461
   2750.5532      13.8738      59.9497      45.8122      29.6305     128.8266      73.1471      80.8087      54.8303       0.0966       0.0050       1.5139       1.9691
   2750.7056      13.4929      60.8069      46.1019      28.9507      63.9802      39.2267      30.8259      22.4934       0.0999       0.0048       1.5268       1.9410
   2750.8582      11.5644      62.5655      45.1055      26.0261      74.9434      44.2091      33.3087      23.0711       0.0985       0.0041       1.3358       1.8646
   2751.0105      11.0367      64.3061      43.8039      25.2671      85.6145      49.2372      35.9937      23.7157       0.0982       0.0040       1.2170       1.8408
   2751.1628      10.6060      65.5465      38.9028      24.3801      92.3032      54.5243      41.1615      25.0631       0.0983       0.0039       1.1297       1.7930
   2751.3152      11.1273      66.2839      37.4665      22.3157      94.8420      56.3616      44.3792      25.8479       0.1018       0.0038       1.3543       1.5174
   2751.4678      11.3336      66.4593      33.7560      21.6775      98.1128      65.2446      46.9421      36.0068       0.1036       0.0037       1.4811       1.4273
   2751.6201      11.9436      64.9129      33.4249      21.7565      92.1245      61.4447      50.6369      36.0954       0.1079       0.0038       1.6639       1.3564
   2751.7725      12.3310      64.5870      33.4302      22.5351      85.1226      56.4893      52.2454      35.0088       0.1075       0.0040       1.6225       1.4114
   2751.9248      12.5779      61.6546      35.2010      23.1064      73.5892      46.2160      42.9830      28.0897       0.1058       0.0043       1.5688       1.4588
   2752.0771      12.1278      60.7629      36.8071      22.6615      67.0140      42.4027      37.7160      25.3327       0.0988       0.0042       1.4712       1.4701
   2752.2297      11.0401      59.0460      38.8876      21.1620      58.2414      40.3585      32.0729      23.6339       0.0918       0.0038       1.3569       1.4165
   2752.3821       8.1296      55.3122      34.0548      16.3754      62.6149      39.7674      31.3604      22.9373       0.0754       0.0028       0.9512       1.1313
   2752.5344       8.0719      53.8535      28.2724      16.0363      83.2597      47.7721      40.8978      29.9031       0.0697       0.0029       0.8736       1.0849
   2752.6868       8.1940      59.2365      21.1059      16.1773     134.7441      74.4649      74.0878      54.0725       0.0639       0.0031       0.8241       1.0802
   2752.8394       8.7295      70.8975      22.8872      17.5975     102.0919      61.8217      62.8668      45.2528       0.0594       0.0034       0.8412       1.1913
   2752.9917       8.7501      58.7980      31.5018      19.0815      58.9463      37.7491      33.1605      25.5823       0.0632       0.0036       0.7054       1.3606
   2753.1440       8.6887      58.2015      33.2451      21.7693      68.7539      43.2246      38.6480      27.5399       0.0737       0.0041       0.4126       1.6860
   2753.2964       9.2167      57.5136      35.7290      23.5274      76.9076      47.8776      44.1443      30.8955       0.0786       0.0044       0.3576       1.8146
   2753.4490       9.1305      56.1986      38.8163      24.6312      79.8712      49.9343      48.3322      36.0442       0.0823       0.0044       0.3283       1.9465
   2753.6013       8.0980      57.5152      38.5936      24.2912      75.8366      47.1726      45.1214      34.2580       0.0837       0.0039       0.3555       2.0286
   2753.7537       7.1627      58.9725      35.6148      21.7697      69.3587      42.0422      38.3215      28.3176       0.0859       0.0034       0.3184       1.8257
   2753.9060       5.9373      59.1353      31.5005      17.7146      72.1300      44.0226      41.2679      29.3855       0.0872       0.0029       0.2105       1.4830
   2754.0583       5.8885      58.8631      27.9830      17.2390      69.5795      43.8408      41.2142      28.4940       0.0854       0.0029       0.2006       1.4376
   2754.2109       6.2175      58.7664      26.0961      17.0461      58.2470      38.8788      34.4485      23.7331       0.0847       0.0028       0.3778       1.3558
   2754.3633       6.9000      57.8297      28.5898      17.3157      72.6248      45.7028      40.1776      23.8810       0.0853       0.0026       0.6904       1.2676
   2754.5156       9.0936      58.1432      34.2556      20.9982     105.5347      62.6376      59.3320      30.9498       0.0897       0.0032       1.0150       1.4488
   2754.6680      12.1193      57.8105      37.9589      26.2424     115.0049      67.7204      68.0391      36.0716       0.0952       0.0041       1.4671       1.7368
   2754.8206      13.3084      58.2737      43.5323      28.0701     111.1450      63.4702      56.4191      31.8813       0.0955       0.0044       1.7444       1.8315
   2754.9729      14.5496      60.0172      47.9386      29.1621     101.7841      55.4348      37.5000      23.7090       0.0958       0.0047       1.9566       1.8314
   2755.1252      14.9444      61.2188      44.3973      28.6181     104.3188      58.4073      42.4308      28.0692       0.0952       0.0048       1.9882       1.7282
   2755.2776      14.1614      62.2967      39.0712      27.0484      96.3646      56.6179      45.1739      30.5045       0.0948       0.0044       1.9678       1.6759
   2755.4302      14.2422      62.9989      36.2663      26.8521      77.1600      46.8919      39.4855      25.9966       0.0959       0.0043       2.0986       1.6710
   2755.5825      15.3155      63.9406      38.0347      28.0215      69.3022      42.9170      36.9278      23.4885       0.0980       0.0045       2.3134       1.6641
   2755.7349      16.0885      65.1887      42.1968      28.6007      73.3480      44.5004      37.3561      23.4864       0.1090       0.0046       2.4744       1.6402
   2755.8872      16.1508      65.8237      42.3945      28.5257      70.4553      42.5118      32.9010      22.5121       0.1200       0.0046       2.4893       1.6577
