#------------------------------------------------------------------------------
#
#   Created by  : [OpenWorks] Log Export Utility (LEXP)
#   Created on  : 2016-05-13 12:10:04
#   Project     : CANT971
#   User        : R5K
#   Interpreter : PEP
#
#------------------------------------------------------------------------------
~VERSION INFORMATION
VERS. 2.0 : CWLS Log ASCII Standard - version 2.0
WRAP.  NO : One line per depth step
~WELL INFORMATION
#MNEMONIC   .UNIT                                           VALUE :DESCRIPTION
#------------------------------------------------------------------------------
STRT        .M                                          1900.1613 :START DEPTH
STOP        .M                                          3117.2275 :STOP DEPTH
STEP        .M                                             0.1524 :STEP
NULL        .                                           -999.2500 :NULL VALUE
COMP        .                                             UNKNOWN :COMPANY
WELL        .                                                1008 :WELL
FLD         .                                             UNKNOWN :FIELD
LOC         .                                             UNKNOWN :LOCATION
CNTY        .                                             UNKNOWN :COUNTY
STAT        .                                             UNKNOWN :STATE
CTRY        .                                             UNKNOWN :COUNTRY
SRVC        .                                             UNKNOWN :SERVICE COMPANY
DATE        .                                             UNKNOWN :LOG DATE
UWI         .                                                1008 :UNIQUE WELL ID
XCOORD      .                                            0.000000 :SURFACE X
YCOORD      .                                            0.000000 :SURFACE Y
LAT         .                                            0.000000 :LATITUDE
LON         .                                            0.000000 :LONGITUDE
ELEV        .M                                             0.0000 :SURFACE ELEV
ELEV_TYPE   .                                                  KB :ELEV TYPE
~CURVE INFORMATION
#MNEMONIC.UNIT        API CODE       : CURVE DESCRIPTION
#------------------------------------------------------------------------------
DEPTH    .M                          : Measured Depth
CGR      .API         UNKNOWN        : CGR:Entubado:r1:0001:v3 
DT       .us/ft       UNKNOWN        : DT:sonico:r1:0001:v1 
GR-LWD   .API         UNKNOWN        : GR-LWD:PETROWORKS:rC:NONE:v3 
GR       .API         UNKNOWN        : GR:Entubado:r1:0001:v3 
LLD-LWD  .ohm.m       UNKNOWN        : LLD-LWD:PETROWORKS:rC:NONE:v3 
LLM-LWD  .UNKNOWN     UNKNOWN        : LLM-LWD:PETROWORKS:rC:NONE:v3 
LLS-LWD  .ohm.m       UNKNOWN        : LLS-LWD:PETROWORKS:rC:NONE:v3 
MSFL-LWD .ohm.m       UNKNOWN        : MSFL-LWD:PETROWORKS:rC:NONE:v3 
NPHI     .v/v_decimal UNKNOWN        : NPHI:Entubado:r1:0001:v3 
POTA     .UNKNOWN     UNKNOWN        : POTA:Entubado:r1:0001:v3 
THOR     .ppm         UNKNOWN        : THOR:Entubado:r1:0001:v3 
URAN     .ppm         UNKNOWN        : URAN:Entubado:r1:0001:v3 
~A     DEPTH          CGR           DT       GR-LWD           GR      LLD-LWD      LLM-LWD      LLS-LWD     MSFL-LWD         NPHI         POTA         THOR         URAN
# ...
   2382.9644       4.8768      56.3986    -999.2500      28.4999    -999.2500    -999.2500    -999.2500    -999.2500       0.2865       0.0019       0.4698       3.1546
   2383.1169       4.4393      56.4143    -999.2500      27.5258    -999.2500    -999.2500    -999.2500    -999.2500       0.2645       0.0017       0.4284       3.0890
   2383.2693       4.5691      56.4741    -999.2500      27.5116    -999.2500    -999.2500    -999.2500    -999.2500       0.2475       0.0017       0.4533       3.0574
   2383.4216       4.4790      56.4540    -999.2500      27.4554    -999.2500    -999.2500    -999.2500    -999.2500       0.2361       0.0016       0.4766       3.0597
   2383.5740       4.2690      56.5102    -999.2500      27.4438    -999.2500    -999.2500    -999.2500    -999.2500       0.2459       0.0016       0.4609       3.0822
   2383.7266       4.0736      56.5336    -999.2500      27.5718    -999.2500    -999.2500    -999.2500    -999.2500       0.2510       0.0014       0.4985       3.1311
   2383.8789       4.0874      56.7462    -999.2500      27.4390    -999.2500    -999.2500    -999.2500    -999.2500       0.2506       0.0013       0.5797       3.1281
   2384.0312       3.4295      56.5953    -999.2500      26.8785    -999.2500    -999.2500    -999.2500    -999.2500       0.2272       0.0009       0.5983       3.1376
   2384.1836       2.7155      56.7062    -999.2500      27.0611    -999.2500    -999.2500    -999.2500    -999.2500       0.2095       0.0005       0.6088       3.2483
   2384.3359       2.5578      56.5632    -999.2500      27.8901    -999.2500    -999.2500    -999.2500    -999.2500       0.2120       0.0003       0.6512       3.3817
   2384.4885       2.3946      56.6395    -999.2500      28.8433    -999.2500    -999.2500    -999.2500    -999.2500       0.2264       0.0004       0.5692       3.5319
   2384.6409       2.3687      56.7174    -999.2500      29.6879    -999.2500    -999.2500    -999.2500    -999.2500       0.2391       0.0005       0.4781       3.6550
   2384.7932       2.8738      56.7849    -999.2500      30.1455    -999.2500    -999.2500    -999.2500    -999.2500       0.2317       0.0007       0.5041       3.7041
   2384.9456       3.1324      56.7181    -999.2500      30.3769    -999.2500    -999.2500    -999.2500    -999.2500       0.2221       0.0008       0.5246       3.7334
   2385.0981       3.0852      56.5362    -999.2500      30.5694    -999.2500    -999.2500    -999.2500    -999.2500       0.2160       0.0008       0.5184       3.7688
   2385.2505       3.3608      56.5571    -999.2500      30.7713    -999.2500    -999.2500    -999.2500    -999.2500       0.2101       0.0007       0.6887       3.7842
   2385.4028       3.5654      56.5683    -999.2500      31.0202    -999.2500    -999.2500    -999.2500    -999.2500       0.2112       0.0005       0.8183       3.8082
   2385.5552       3.9407      56.4936    -999.2500      31.4425    -999.2500    -999.2500    -999.2500    -999.2500       0.2206       0.0008       0.8113       3.8268
   2385.7078       4.2415      56.4968    -999.2500      31.9805    -999.2500    -999.2500    -999.2500    -999.2500       0.2234       0.0010       0.7885       3.8735
   2385.8601       4.4599      56.5983    -999.2500      32.5374    -999.2500    -999.2500    -999.2500    -999.2500       0.2225       0.0011       0.7728       3.9343
   2386.0125       4.2538      56.6965    -999.2500      31.9757    -999.2500    -999.2500    -999.2500    -999.2500       0.2086       0.0012       0.6857       3.8860
   2386.1648       4.0239      56.6111    -999.2500      31.3119    -999.2500    -999.2500    -999.2500    -999.2500       0.1992       0.0011       0.6449       3.8242
   2386.3171       3.5057      57.2066    -999.2500      29.3710    -999.2500    -999.2500    -999.2500    -999.2500       0.1830       0.0008       0.6687       3.5937
   2386.4697       3.2313      56.7917    -999.2500      28.6733    -999.2500    -999.2500    -999.2500    -999.2500       0.1789       0.0006       0.6647       3.5262
   2386.6221       3.0491      55.8283    -999.2500      28.4204    -999.2500    -999.2500    -999.2500    -999.2500       0.1789       0.0006       0.6499       3.5168
   2386.7744       3.4390      55.7038    -999.2500      29.4283    -999.2500    -999.2500    -999.2500    -999.2500       0.1758       0.0009       0.5925       3.5826
   2386.9268       3.6086      55.4504    -999.2500      30.1073    -999.2500    -999.2500    -999.2500    -999.2500       0.1753       0.0011       0.5206       3.6342
   2387.0793       3.3486      55.3047    -999.2500      29.2532    -999.2500    -999.2500    -999.2500    -999.2500       0.1763       0.0012       0.3448       3.5005
   2387.2317       3.1045      54.7394    -999.2500      28.1849    -999.2500    -999.2500    -999.2500    -999.2500       0.1786       0.0012       0.2891       3.3817
   2387.3840       2.8731      54.9554    -999.2500      27.1234    -999.2500    -999.2500    -999.2500    -999.2500       0.1811       0.0012       0.2547       3.2701
   2387.5364       3.2187      53.8955    -999.2500      25.3172    -999.2500    -999.2500    -999.2500    -999.2500       0.1845       0.0013       0.2744       2.9788
   2387.6890       3.4025      55.7901    -999.2500      24.8160    -999.2500    -999.2500    -999.2500    -999.2500       0.1857       0.0013       0.3100       2.8877
   2387.8413       4.0560      55.4581    -999.2500      24.9633    -999.2500    -999.2500    -999.2500    -999.2500       0.1779       0.0016       0.3718       2.8073
   2387.9937       4.0244      54.4359    -999.2500      24.8680    -999.2500    -999.2500    -999.2500    -999.2500       0.1756       0.0016       0.3337       2.7706
   2388.1460       3.9509      56.0649    -999.2500      24.7565    -999.2500    -999.2500    -999.2500    -999.2500       0.1736       0.0016       0.2898       2.7365
   2388.2983       3.3924      55.6681    -999.2500      23.6112    -999.2500    -999.2500    -999.2500    -999.2500       0.1732       0.0014       0.2458       2.6397
   2388.4509       3.0716      54.2317    -999.2500      22.9612    -999.2500    -999.2500    -999.2500    -999.2500       0.1730       0.0012       0.2426       2.6031
   2388.6033       2.2198      53.2347    -999.2500      19.4195    -999.2500    -999.2500    -999.2500    -999.2500       0.1781       0.0009       0.2080       2.2331
   2388.7556       2.3163      53.2448    -999.2500      19.4010    -999.2500    -999.2500    -999.2500    -999.2500       0.1749       0.0009       0.2355       2.2137
   2388.9080       2.4316      53.8134    -999.2500      19.5195    -999.2500    -999.2500    -999.2500    -999.2500       0.1707       0.0009       0.2669       2.2079
   2389.0605       2.8443      54.0333    -999.2500      21.8779    -999.2500    -999.2500    -999.2500    -999.2500       0.1501       0.0009       0.3619       2.4270
   2389.2129       2.8706      54.4830    -999.2500      22.8370    -999.2500    -999.2500    -999.2500    -999.2500       0.1455       0.0009       0.3673       2.5325
   2389.3652       2.8360      54.2965    -999.2500      23.7526    -999.2500    -999.2500    -999.2500    -999.2500       0.1383       0.0012       0.1875       2.6010
   2389.5176       2.5833      53.1568    -999.2500      22.5241    -999.2500    -999.2500    -999.2500    -999.2500       0.1361       0.0011       0.1784       2.4942
   2389.6702       2.3499      52.4396    -999.2500      21.0228    -999.2500    -999.2500    -999.2500    -999.2500       0.1347       0.0010       0.1737       2.3568
   2389.8225       2.2564      52.6440    -999.2500      18.1047    -999.2500    -999.2500    -999.2500    -999.2500       0.1381       0.0009       0.1974       2.0573
   2389.9749       2.2303      51.2683    -999.2500      17.3591    -999.2500    -999.2500    -999.2500    -999.2500       0.1419       0.0008       0.2193       1.9913
   2390.1272       2.0989      51.7347      28.6541      17.2154    1772.6704    -999.2500    -999.2500    -999.2500       0.1451       0.0008       0.2280       2.0250
