#------------------------------------------------------------------------------
#
#   Created by  : [OpenWorks] Log Export Utility (LEXP)
#   Created on  : 2016-05-13 12:10:04
#   Project     : CANT971
#   User        : R5K
#   Interpreter : PEP
#
#------------------------------------------------------------------------------
~VERSION INFORMATION
VERS. 2.0 : CWLS Log ASCII Standard - version 2.0
WRAP.  NO : One line per depth step
~WELL INFORMATION
#MNEMONIC   .UNIT                                           VALUE :DESCRIPTION
#------------------------------------------------------------------------------
STRT        .M                                          1900.1613 :START DEPTH
STOP        .M                                          3117.2275 :STOP DEPTH
STEP        .M                                             0.1524 :STEP
NULL        .                                           -999.2500 :NULL VALUE
COMP        .                                             UNKNOWN :COMPANY
WELL        .                                                1008 :WELL
FLD         .                                             UNKNOWN :FIELD
LOC         .                                             UNKNOWN :LOCATION
CNTY        .                                             UNKNOWN :COUNTY
STAT        .                                             UNKNOWN :STATE
CTRY        .                                             UNKNOWN :COUNTRY
SRVC        .                                             UNKNOWN :SERVICE COMPANY
DATE        .                                             UNKNOWN :LOG DATE
UWI         .                                                1008 :UNIQUE WELL ID
XCOORD      .                                            0.000000 :SURFACE X
YCOORD      .                                            0.000000 :SURFACE Y
LAT         .                                            0.000000 :LATITUDE
LON         .                                            0.000000 :LONGITUDE
ELEV        .M                                             0.0000 :SURFACE ELEV
ELEV_TYPE   .                                                  KB :ELEV TYPE
~CURVE INFORMATION
#MNEMONIC.UNIT        API CODE       : CURVE DESCRIPTION
#------------------------------------------------------------------------------
DEPTH    .M                          : Measured Depth
CGR      .API         UNKNOWN        : CGR:Entubado:r1:0001:v3 
DT       .us/ft       UNKNOWN        : DT:sonico:r1:0001:v1 
GR-LWD   .API         UNKNOWN        : GR-LWD:PETROWORKS:rC:NONE:v3 
GR       .API         UNKNOWN        : GR:Entubado:r1:0001:v3 
LLD-LWD  .ohm.m       UNKNOWN        : LLD-LWD:PETROWORKS:rC:NONE:v3 
LLM-LWD  .UNKNOWN     UNKNOWN        : LLM-LWD:PETROWORKS:rC:NONE:v3 
LLS-LWD  .ohm.m       UNKNOWN        : LLS-LWD:PETROWORKS:rC:NONE:v3 
MSFL-LWD .ohm.m       UNKNOWN        : MSFL-LWD:PETROWORKS:rC:NONE:v3 
NPHI     .v/v_decimal UNKNOWN        : NPHI:Entubado:r1:0001:v3 
POTA     .UNKNOWN     UNKNOWN        : POTA:Entubado:r1:0001:v3 
THOR     .ppm         UNKNOWN        : THOR:Entubado:r1:0001:v3 
URAN     .ppm         UNKNOWN        : URAN:Entubado:r1:0001:v3 
~A     DEPTH          CGR           DT       GR-LWD           GR      LLD-LWD      LLM-LWD      LLS-LWD     MSFL-LWD         NPHI         POTA         THOR         URAN
# ...
   2799.9309      10.9070      72.3804      44.1261      29.3456     149.3656      84.2109      77.8792      34.7365       0.0743       0.0042       1.0226       2.3343
   2800.0833      11.2457      68.7867      43.6917      28.5921     114.7152      64.6035      56.1904      27.2445       0.0866       0.0045       0.9910       2.2204
   2800.2356      11.7768      60.5808      43.7474      29.8075     106.2833      56.5361      37.9532      23.0393       0.0873       0.0046       1.0813       2.2852
   2800.3879      12.6265      59.4938      45.0098      30.7028     103.3250      52.8414      36.0491      21.0685       0.0901       0.0049       1.2207       2.2687
   2800.5405      13.7698      59.2094      44.2119      30.4959     214.3589      60.3522      62.4292      24.5861       0.0982       0.0052       1.4212       2.0885
   2800.6929      13.2422      61.4037      43.0710      29.2858     505.4559      85.0077     130.3378      37.9499       0.1035       0.0049       1.4023       2.0137
   2800.8452      13.1283      65.6060      45.5493      27.6423     403.2968      82.5454      98.5537      37.4178       0.1091       0.0048       1.3977       1.7972
   2800.9976      13.5726      65.4940      48.9311      28.2276     319.3737      91.6217      66.8420      43.7200       0.1101       0.0051       1.3922       1.8170
   2801.1501      15.1713      54.8682      51.1455      30.4089     338.6325     106.6793      90.2075      60.8284       0.1142       0.0056       1.6183       1.9062
   2801.3025      18.2365      56.4514      50.1313      34.5437     202.7092      92.0895      80.5919      61.3105       0.1231       0.0063       2.1841       2.0756
   2801.4548      19.3903      55.1989      51.5483      35.0612     156.6303      86.3469      71.2796      62.4941       0.1288       0.0065       2.4589       2.0257
   2801.6072      19.5550      54.6028      52.7594      33.6801     161.0889      89.7173      73.7608      64.5858       0.1299       0.0064       2.5426       1.8488
   2801.7598      19.0343      55.9930      52.6194      32.8685     181.6457     103.2073      91.2777      69.6957       0.1251       0.0062       2.4789       1.7752
   2801.9121      19.6908      57.0800      49.1247      34.7005     209.0293     119.2931     120.7711      76.5515       0.1107       0.0065       2.5253       1.9202
   2802.0645      21.4472      58.5073      54.0494      39.3115     216.9273     119.5974     128.6804      80.6799       0.0911       0.0073       2.6535       2.3098
   2802.2168      23.4888      58.8763      64.9486      44.4168     218.2857     114.7513     122.2109      83.4934       0.0872       0.0078       2.9721       2.6676
   2802.3691      24.6742      57.4480      68.0833      47.6180     204.0361     109.9278     116.0043      77.1581       0.0884       0.0080       3.2418       2.8860
   2802.5217      23.2675      56.0616      64.5659      45.8493     242.6543     139.2861     186.5728      83.8638       0.0888       0.0076       3.0209       2.8518
   2802.6741      20.8034      54.3143      59.8944      40.9317     342.0586     192.8999     339.4291     110.4382       0.0857       0.0067       2.7425       2.5781
   2802.8264      18.3170      55.9010      56.8446      35.4959     346.4789     206.8336     399.7926     118.2139       0.0805       0.0059       2.4569       2.2480
   2802.9788      16.1404      72.3653      55.9353      31.3257     281.0248     193.6468     297.9394     104.7726       0.0719       0.0053       2.0823       1.9357
   2803.1313      14.4480      72.7927      53.7592      28.6716     244.3927     166.0015     172.7280      85.8087       0.0652       0.0049       1.7794       1.7531
   2803.2837      13.7586      73.3260      48.6655      28.4458     232.9333     168.3079     132.1736      91.1488       0.0641       0.0047       1.6488       1.8165
   2803.4360      12.8604      72.7548      46.6284      28.4362     224.8710     196.3066     130.8587     102.8515       0.0641       0.0046       1.4779       1.9651
   2803.5884      12.2375      72.5241      46.7841      28.4324     198.9211     177.0912     134.4143      85.7172       0.0648       0.0044       1.3598       2.0575
   2803.7410      12.2520      69.6153      46.6619      28.1656     168.8424     133.4103     125.2858      64.7594       0.0607       0.0046       1.2553       2.0249
   2803.8933      12.5421      58.4877      48.5819      28.4326     165.9558     122.8581     106.6646      61.0923       0.0573       0.0048       1.1912       2.0402
   2804.0457      12.8667      54.6998      48.6562      29.0937     207.5244     145.4619     152.8490      76.6655       0.0562       0.0051       1.1713       2.1015
   2804.1980      13.5344      59.1654      47.9374      30.6406     234.9555     148.2845     206.2434      88.7577       0.0587       0.0054       1.1887       2.2284
   2804.3503      13.8558      69.3008      42.8631      31.7362     185.1465     119.4072     155.3845      81.9669       0.0616       0.0056       1.1654       2.3271
   2804.5029      12.7697      67.5148      40.3764      31.7090     145.8128     107.1910     101.2471      75.5224       0.0701       0.0052       1.0354       2.4246
   2804.6553      12.0953      60.4692      43.0939      31.3863     135.1531     101.7965      91.6076      65.6678       0.0745       0.0050       0.9619       2.4591
   2804.8076      11.8379      63.0150      48.6847      31.0694     143.9053      98.6075     102.4801      81.3816       0.0760       0.0049       0.9290       2.4595
   2804.9600      13.0535      59.5373      53.3866      31.7566     137.1298      96.3982      93.2883      97.3851       0.0754       0.0054       1.0228       2.3969
   2805.1125      14.0114      60.6234      49.8138      32.2523      99.5714      80.4159      75.7264      62.9261       0.0739       0.0059       1.0831       2.3262
   2805.2649      14.6437      61.3060      47.7703      31.0927      89.7850      78.3693      81.9774      52.7352       0.0747       0.0059       1.2609       2.1131
   2805.4172      15.2784      60.9795      52.7085      31.5565      57.0665      47.9572      50.2175      35.7462       0.0772       0.0061       1.3627       2.1028
   2805.5696      15.9170      64.0650      53.0614      32.6297      41.9455      33.5795      34.3221      29.1865       0.0800       0.0063       1.4287       2.1655
   2805.7222      18.5749      64.0859      50.1475      37.4229      37.1246      28.7785      28.7400      26.7311       0.0973       0.0074       1.6733       2.4813
   2805.8745      19.5695      65.0353      46.3515      39.0709      28.3352      21.3751      20.3663      18.6679       0.1093       0.0078       1.7642       2.5872
   2806.0269      16.4384      67.4386      45.1798      32.3062      24.6401      18.0708      16.9466      15.1120       0.0981       0.0060       1.7666       2.1404
   2806.1792      15.8369      72.6559      58.3064      30.0166      25.0858      18.3303      16.1539      13.9734       0.0855       0.0055       1.8656       1.9226
   2806.3315      15.7966      77.1200      71.2215      28.7573      37.9596      26.6797      22.8966      20.4433       0.0733       0.0053       1.9826       1.7613
   2806.4841      14.6105      76.9867      74.6112      26.3988      42.5680      30.1014      26.1544      24.8172       0.0620       0.0049       1.8408       1.6077
   2806.6365      13.8581      78.5858      55.2363      25.1982      43.3558      32.4356      31.5581      33.0351       0.0602       0.0047       1.7266       1.5474
   2806.7888      13.7119      79.2472      47.5577      26.0722      43.0992      32.9750      34.0879      36.0175       0.0573       0.0050       1.5364       1.7007
   2806.9412      14.3291      79.8854      40.3412      27.6357      42.3059      34.9525      38.2733      37.8705       0.0575       0.0053       1.5218       1.8253
   2807.0938      14.9979      81.8293      36.9478      29.2342      43.4444      38.5462      42.6169      34.3348       0.0579       0.0057       1.5206       1.9461
