#------------------------------------------------------------------------------
#
#   Created by  : [OpenWorks] Log Export Utility (LEXP)
#   Created on  : 2016-05-13 12:10:04
#   Project     : CANT971
#   User        : R5K
#   Interpreter : PEP
#
#------------------------------------------------------------------------------
~VERSION INFORMATION
VERS. 2.0 : CWLS Log ASCII Standard - version 2.0
WRAP.  NO : One line per depth step
~WELL INFORMATION
#MNEMONIC   .UNIT                                           VALUE :DESCRIPTION
#------------------------------------------------------------------------------
STRT        .M                                          1900.1613 :START DEPTH
STOP        .M                                          3117.2275 :STOP DEPTH
STEP        .M                                             0.1524 :STEP
NULL        .                                           -999.2500 :NULL VALUE
COMP        .                                             UNKNOWN :COMPANY
WELL        .                                                1008 :WELL
FLD         .                                             UNKNOWN :FIELD
LOC         .                                             UNKNOWN :LOCATION
CNTY        .                                             UNKNOWN :COUNTY
STAT        .                                             UNKNOWN :STATE
CTRY        .                                             UNKNOWN :COUNTRY
SRVC        .                                             UNKNOWN :SERVICE COMPANY
DATE        .                                             UNKNOWN :LOG DATE
UWI         .                                                1008 :UNIQUE WELL ID
XCOORD      .                                            0.000000 :SURFACE X
YCOORD      .                                            0.000000 :SURFACE Y
LAT         .                                            0.000000 :LATITUDE
LON         .                                            0.000000 :LONGITUDE
ELEV        .M                                             0.0000 :SURFACE ELEV
ELEV_TYPE   .                                                  KB :ELEV TYPE
~CURVE INFORMATION
#MNEMONIC.UNIT        API CODE       : CURVE DESCRIPTION
#------------------------------------------------------------------------------
DEPTH    .M                          : Measured Depth
CGR      .API         UNKNOWN        : CGR:Entubado:r1:0001:v3 
DT       .us/ft       UNKNOWN        : DT:sonico:r1:0001:v1 
GR-LWD   .API         UNKNOWN        : GR-LWD:PETROWORKS:rC:NONE:v3 
GR       .API         UNKNOWN        : GR:Entubado:r1:0001:v3 
LLD-LWD  .ohm.m       UNKNOWN        : LLD-LWD:PETROWORKS:rC:NONE:v3 
LLM-LWD  .UNKNOWN     UNKNOWN        : LLM-LWD:PETROWORKS:rC:NONE:v3 
LLS-LWD  .ohm.m       UNKNOWN        : LLS-LWD:PETROWORKS:rC:NONE:v3 
MSFL-LWD .ohm.m       UNKNOWN        : MSFL-LWD:PETROWORKS:rC:NONE:v3 
NPHI     .v/v_decimal UNKNOWN        : NPHI:Entubado:r1:0001:v3 
POTA     .UNKNOWN     UNKNOWN        : POTA:Entubado:r1:0001:v3 
THOR     .ppm         UNKNOWN        : THOR:Entubado:r1:0001:v3 
URAN     .ppm         UNKNOWN        : URAN:Entubado:r1:0001:v3 
~A     DEPTH          CGR           DT       GR-LWD           GR      LLD-LWD      LLM-LWD      LLS-LWD     MSFL-LWD         NPHI         POTA         THOR         URAN
# ...
   2646.3118       9.4149      70.0918      43.4399      26.4053    1312.8727     639.4448     142.4178      29.9549       0.1670       0.0027       1.4488       2.1712
   2646.4641       9.2778      66.8136      43.3381      26.8614    1165.3616     335.5915     139.7423      42.5735       0.1774       0.0027       1.4262       2.2635
   2646.6165       8.0985      64.4142      43.6701      26.2185    1636.4773     634.6438     314.7436      71.1326       0.1951       0.0024       1.1681       2.3736
   2646.7688       7.4862      65.4057      41.2454      25.5196    1953.7450    1382.3468     895.8010     240.0819       0.1990       0.0023       1.0422       2.3779
   2646.9211       7.2124      67.2450      41.0926      24.7514    1844.8054    1259.5894    1408.3406     976.0954       0.1810       0.0024       0.9252       2.2894
   2647.0737       7.6388      66.4310      40.4609      24.8975    1713.6943    1210.2926    1504.1090     899.5230       0.1470       0.0024       1.0218       2.2439
   2647.2261       7.9179      61.3653      42.4904      24.8962     946.8093     398.2944     435.7096     227.8048       0.1174       0.0025       1.1074       2.2021
   2647.3784       7.6036      57.1787      41.7217      24.3038    1545.1277     958.1555    1085.3425     835.2588       0.1106       0.0022       1.1424       2.1809
   2647.5308       7.8309      59.6520      40.4416      24.0902    1655.3970    1025.7736    1244.4788     979.3257       0.1113       0.0023       1.1948       2.1502
   2647.6833       8.3260      58.4333      39.2901      23.8877     912.2812     255.5159     272.1936     134.9640       0.1057       0.0024       1.2618       2.0769
   2647.8357       8.2002      58.0074      36.3931      24.6313     618.0243     175.2490     126.3142      67.0598       0.0950       0.0026       1.1417       2.1875
   2647.9880       8.6077      58.2592      39.9398      26.1304     930.8975     199.0265     138.8489      68.4111       0.0845       0.0029       1.0949       2.3314
   2648.1404      10.1213      58.0129      44.1664      29.0791    1373.3052     222.3067     176.0542      82.6603       0.0756       0.0035       1.2211       2.5304
   2648.2930      10.4652      60.6892      48.4644      30.0091     879.1168     202.7755     150.0158      80.9572       0.0709       0.0037       1.2133       2.6033
   2648.4453      11.0766      60.2805      53.0103      31.1794     631.3852     168.1906     147.6247      87.5826       0.0676       0.0041       1.1993       2.6522
   2648.5977      11.7607      65.2313      52.2630      32.3375     304.8982     119.2851     124.7933      83.6552       0.0690       0.0043       1.2757       2.6963
   2648.7500      12.1820      64.0547      51.5447      33.3707     289.6160     126.5546     123.0226      78.4921       0.0694       0.0045       1.2786       2.7572
   2648.9023      12.1800      62.0734      52.9438      33.9739     365.0174     151.1357     144.5382      91.3165       0.0680       0.0046       1.1849       2.8185
   2649.0549      12.1443      62.2680      50.6086      34.1890     297.0464     128.1409     123.2387      72.2352       0.0677       0.0047       1.1610       2.8267
   2649.2073      11.3332      60.0774      52.7363      33.8035     248.9859     121.7042     102.1527      64.1450       0.0693       0.0045       1.0188       2.8464
   2649.3596       9.9084      57.5512      53.5221      32.5767     278.6797     133.6940     113.7380      69.9053       0.0718       0.0041       0.7560       2.8574
   2649.5120       9.4052      58.4394      47.8857      31.8654     295.2337     139.2217     125.7776      74.3294       0.0764       0.0041       0.6291       2.8321
   2649.6646       9.8473      58.7937      45.4984      31.9588     284.4039     136.9245     124.4367      74.0205       0.0822       0.0043       0.6712       2.8024
   2649.8169       9.6959      58.4262      45.2267      31.3129     258.4462     125.7658     113.6128      67.3515       0.0875       0.0041       0.6988       2.7225
   2649.9692       9.2101      59.0882      47.1811      29.0950     241.8887     114.8504      96.4184      59.2093       0.0931       0.0038       0.7320       2.4866
   2650.1216       8.4643      63.3529      46.6285      26.2594     234.7796     110.5898      87.6403      56.3680       0.0966       0.0034       0.7424       2.2374
   2650.2742       7.5566      63.3096      43.8768      23.9585     200.7021      98.6968      80.8615      50.7984       0.1082       0.0030       0.6892       2.0689
   2650.4265       6.9180      61.7929      37.4183      23.0561     226.6315     104.2961      83.7176      47.4542       0.1207       0.0027       0.6088       2.0379
   2650.5789       6.8686      57.3993      34.7697      23.0869     225.4255     103.1153      76.6993      43.8771       0.1252       0.0028       0.5646       2.0535
   2650.7312       6.8566      55.1970      39.1077      23.0014     212.3848      97.6422      68.0415      42.3069       0.1224       0.0028       0.5404       2.0278
   2650.8835       6.7495      53.1766      41.2177      22.7289     241.2764     104.3774      73.1531      44.3122       0.1143       0.0028       0.5350       1.9712
   2651.0361       7.5218      53.7182      41.4333      23.1852     256.9790     108.5759      78.1209      46.2561       0.1051       0.0030       0.6935       1.9191
   2651.1885       8.4369      56.5256      41.3472      24.0519     187.8209      91.8462      73.6803      50.2616       0.0999       0.0031       0.8834       1.9194
   2651.3408       9.7394      63.1228      41.6622      28.3612     119.6925      70.9616      61.2537      48.1740       0.1043       0.0036       1.0245       2.3187
   2651.4932      10.7489      64.6317      42.3888      32.0925      92.8507      57.3188      47.9992      41.0341       0.1104       0.0041       1.1012       2.6735
   2651.6458      11.2579      64.0566      48.4895      33.9827      75.2831      43.0306      35.2402      29.1534       0.1153       0.0043       1.1305       2.8483
   2651.7981      11.7527      63.4721      52.1465      37.5170      69.4696      36.2569      29.2769      21.8123       0.1191       0.0044       1.1981       3.2462
   2651.9504      12.0208      63.6701      57.1404      39.7869      86.4162      42.0160      28.5752      20.1211       0.1195       0.0045       1.2542       3.5113
   2652.1028      11.2407      63.8849      58.0129      39.4964      95.8819      46.1767      30.1608      20.4972       0.1112       0.0042       1.1583       3.5684
   2652.2554      10.9167      62.8663      55.8663      39.8120      97.1099      47.5817      32.4151      21.4520       0.1093       0.0041       1.1290       3.6588
   2652.4077      10.9889      64.8587      57.3596      40.6986      82.9308      40.9528      27.9590      20.1064       0.1119       0.0041       1.1575       3.7802
   2652.5601      11.9303      67.5010      61.1836      45.1809      83.4019      39.7309      27.1644      20.5608       0.1194       0.0043       1.3294       4.2665
   2652.7124      12.3590      68.7408      63.9510      47.6550     104.3848      49.3003      35.5216      23.2027       0.1239       0.0044       1.3880       4.5358
   2652.8647       9.9832      70.8230      62.0489      42.0990     120.4809      55.4286      38.8122      25.0164       0.1283       0.0039       0.9372       4.0995
   2653.0173       8.6952      71.6007      58.8053      37.5515     133.5730      59.6012      39.7163      26.4326       0.1288       0.0035       0.7507       3.6624
   2653.1697       7.9638      72.3417      50.1718      33.9507     129.7981      59.7754      39.2084      27.9044       0.1281       0.0032       0.6842       3.2803
   2653.3220       8.0199      71.1889      45.3921      28.7786     129.8636      59.5881      39.7538      28.5505       0.1170       0.0029       0.8759       2.6182
   2653.4744       8.3556      62.8646      44.7556      27.1726     174.8876      70.8341      49.1026      34.4124       0.1099       0.0029       1.0002       2.3783
