~Version Information
 VERS.                  2.0:   CWLS log ASCII Standard -VERSION 2.0
 WRAP.                   NO:   One line per depth step
~Well Information Block
#MNEM.UNIT       Data Type    Information
#---------     -----------    ---------------------------
 STRT.M               690.2196:
 STOP.M              3268.1373:
 STEP.M                 0.1524:
 NULL.               -999.2500:
 UWI .                    1009:  UWI
 API .                    1009:  UWI
 WELL.                    1009:  COMMON WELL NAME
 COMP.                 UNKNOWN:  WELL OPERATOR
 FLD .                 UNKNOWN:  FIELD
 LIC .                 UNKNOWN:  AUTHORIZATION NO
 LOC .                 UNKNOWN:  BASIN
 CTRY.                 UNKNOWN:  COUNTRY
 STAT.                 UNKNOWN:  STATE
 CNTY.                 UNKNOWN:  COUNTY
 PROV.                 UNKNOWN:  STATE
 SRVC.                 UNKNOWN:  COMPANY
 DATE.                 UNKNOWN:  LOG RUN DATE
 LONG.                -92.0500:  LONGITUDE
 LATI.                 19.4616:  LATITUDE
 XCOORD.           599709.5625:  X COORDINATE
 YCOORD.          2152047.7500:  Y COORDINATE
 ELEV.M                 0.0000:  ELEVATION
 TD  .M              3280.0000:  TOTAL DEPTH
~Parameter Information Block
#MNEM.UNIT       Value        Description
#---------     -----------    ---------------------------
~Curve Information Block
#MNEM.UNIT                 API CODE     Curve Description
#---------               -----------    ---------------------------
 DEPTH.M                00 000 000 000:  Index Curve
 CGR .GAPI              00 000 000 000:  Gamma ray; Uranium-free
 DT  .US/F              00 000 000 000:  Acoustic wave travel time
 GR  .GAPI              00 000 000 000:  Gamma ray; total
 GR-LWD.GAPI            00 000 000 000:  
 LLD-LWD.OHMM           00 000 000 000:  
 LLS-LWD.OHMM           00 000 000 000:  
 MSFL-LWD.OHMM          00 000 000 000:  
 NPHI.V/V               00 000 000 000:  Neutron porosity
 POTA.                  00 000 000 000:  Potassium contribution from spectral gamma ray
 THOR.PPM               00 000 000 000:  Thorium contribution from spectral gamma ray
 URAN.PPM               00 000 000 000:  Uranium contribution from spectral gamma ray
~A DEPTH        CGR    DT    GR   GR-LWD   LLD-LWD   LLS-LWD  MSFL-LWD    NPHI    POTA    THOR    URAN
# ...
 2865.5772     4.9953  -999.2500    13.2423    16.7470  -999.2500     0.0934     0.0984     0.0997     0.0007     1.1793     1.1676 
 2865.7296     5.5541  -999.2500    13.4281    17.0614  -999.2500     0.0934     0.0964     0.1098     0.0008     1.3164     1.2079 
 2865.8820     4.8499  -999.2500    12.4618    16.3849  -999.2500     0.0934     0.0974     0.1278     0.0009     1.0401     1.0268 
 2866.0344     4.8539  -999.2500    11.4583    15.5675  -999.2500     0.0934     0.1027     0.1423     0.0012     0.8351     0.9120 
 2866.1868     4.8107  -999.2500    11.4138    15.2478  -999.2500     0.0934     0.1068     0.1280     0.0013     0.7590     0.8498 
 2866.3392     5.7581  -999.2500    12.9972    17.8460  -999.2500     0.0934     0.1043     0.1080     0.0018     0.8241     0.9558 
 2866.4916     7.3247  -999.2500    16.3833    24.4548  -999.2500     0.0934     0.0971     0.0960     0.0023     1.0292     1.2185 
 2866.6440     9.7827  -999.2500    21.1280    30.2721  -999.2500     0.0934     0.0937     0.1125     0.0029     1.4324     1.6120 
 2866.7964    11.9114  -999.2500    25.1584    33.4510  -999.2500     0.0934     0.0980     0.1218     0.0039     1.5525     2.0445 
 2866.9488    12.1014  -999.2500    25.8186    34.1550  -999.2500     0.0934     0.1382     0.1363     0.0038     1.6573     2.0463 
 2867.1012     9.5173  -999.2500    22.7319    29.1491  -999.2500     0.0934     0.1748     0.1821     0.0032     1.1897     1.9148 
 2867.2536     6.5225  -999.2500    17.8683    20.4657  -999.2500     0.0934     0.1365     0.2598     0.0022     0.7896     1.4978 
 2867.4060     5.0731  -999.2500    13.9819    15.5923  -999.2500     0.0934     0.1096     0.2821     0.0017     0.6292     1.1851 
 2867.5584     4.2188  -999.2500    12.3003    14.5803  -999.2500     0.0934     0.1153     0.2357     0.0014     0.5392     1.0569 
 2867.7108     3.8056  -999.2500    13.0653    14.5826  -999.2500     0.0934     0.1054     0.1893     0.0012     0.5181     1.2270 
 2867.8632     4.0440  -999.2500    15.6667    15.2044  -999.2500     0.0934     0.0959     0.1675     0.0012     0.5854     1.6546 
 2868.0156     5.0120  -999.2500    17.9945    15.5405  -999.2500     0.0934     0.0938     0.1396     0.0012     0.8845     1.9297 
 2868.1680     4.6600  -999.2500    18.0651    15.5620  -999.2500     0.0934     0.0946     0.1171     0.0010     0.9183     1.9981 
 2868.3204     3.7216  -999.2500    15.6542    15.5468  -999.2500     0.0934     0.0953     0.1106     0.0008     0.7433     1.6967 
 2868.4728     2.8112  -999.2500    12.9294    15.5024  -999.2500     0.0934     0.0987     0.1114     0.0006     0.5573     1.3660 
 2868.6252     2.6677  -999.2500    11.5646    15.3880  -999.2500     0.0934     0.1095     0.1040     0.0007     0.4389     1.2337 
 2868.7776     2.8200  -999.2500    11.2669    15.4275  -999.2500     0.0934     0.1272     0.1016     0.0008     0.4365     1.1866 
 2868.9300     3.0847  -999.2500    11.5918    16.5298  -999.2500     0.0934     0.1269     0.1207     0.0009     0.4390     1.1659 
 2869.0824     3.4672  -999.2500    13.0633    20.1934  -999.2500     0.1092     0.1071     0.1419     0.0012     0.4287     1.2603 
 2869.2348     4.7279  -999.2500    16.1273    25.3147  -999.2500     0.1270     0.0951     0.1682     0.0015     0.6150     1.5454 
 2869.3872     5.9151  -999.2500    19.3040    28.1862  -999.2500     0.1188     0.0935     0.1717     0.0020     0.7367     1.8754 
 2869.5396     6.3594  -999.2500    20.3280    27.5517  -999.2500     0.1014     0.0937     0.1535     0.0021     0.8236     2.0261 
 2869.6920     5.5090  -999.2500    18.2195    23.8746  -999.2500     0.0943     0.0937     0.1243     0.0019     0.6415     1.7595 
 2869.8444     4.6136  -999.2500    14.9537    19.1344  -999.2500     0.0934     0.0936     0.1195     0.0017     0.5007     1.4162 
 2869.9968     3.8414  -999.2500    12.1370    16.3554  -999.2500     0.0934     0.0935     0.1219     0.0015     0.3570     1.1051 
 2870.1492     3.9187  -999.2500    10.8365    16.8860  -999.2500     0.0934     0.0935     0.1201     0.0016     0.3526     0.9304 
 2870.3016     3.8927  -999.2500    10.9449    23.0865  -999.2500    11.5964    12.6945     0.1158     0.0016     0.3152     0.8725 
 2870.4540     5.5607  -999.2500    15.4979    34.8032  -999.2500    27.0683    29.4228     0.1398     0.0024     0.4073     1.2426 
 2870.6064     8.9516  -999.2500    24.8234    46.3036  -999.2500    28.2603    30.1530     0.1839     0.0038     0.6289     1.9792 
 2870.7588    13.5960  -999.2500    37.9069    53.8208  -999.2500    24.2903    25.5168     0.2098     0.0056     1.0709     3.1251 
 2870.9112    16.6237  -999.2500    46.1122    55.2686  -999.2500    37.7713    26.8853     0.1839     0.0068     1.3587     3.8120 
 2871.0636    15.8309  -999.2500    44.9071    48.6014  -999.2500    59.7058    28.4472     0.1434     0.0063     1.4262     3.7724 
 2871.2160    12.8394  -999.2500    36.3295    37.9966    92.2962    65.0260    25.8171     0.1159     0.0052     1.0671     2.9970 
 2871.3684     9.5182  -999.2500    28.2998    30.2184    86.7822    55.0867    20.5326     0.1180     0.0039     0.7569     2.3979 
 2871.5208     8.5960  -999.2500    25.4897    25.6915    89.4840    67.6544    16.5050     0.1285     0.0036     0.6835     2.1862 
 2871.6732     8.1784  -999.2500    22.8555    21.7128   104.2903    95.2827    17.6720     0.1298     0.0030     0.8488     1.8925 
 2871.8256     5.6329  -999.2500    18.5692    18.4513   100.6230    93.1393    20.7142     0.1212     0.0020     0.6397     1.6543 
 2871.9780     4.2082  -999.2500    15.0887    17.0686    80.5189    70.7545    19.9609     0.1313     0.0014     0.5493     1.3756 
 2872.1304     3.8684  -999.2500    13.7593    19.4181    85.7391    55.2257    16.2858     0.1816     0.0013     0.4685     1.2706 
 2872.2828     4.4528  -999.2500    14.7661    30.4195   131.1749    90.0903    26.5231     0.2291     0.0016     0.5144     1.3837 
 2872.4352     4.6730  -999.2500    15.3114    50.1302   162.5833   144.1005    47.6824     0.2081     0.0018     0.4416     1.3381 
 2872.5876     5.7392  -999.2500    20.8635    69.6280   127.4535   113.1310    47.6062     0.1443     0.0023     0.4794     1.8534 
 2872.7400     9.6310  -999.2500    34.6958    80.8883    75.8305    46.2732    32.4110     0.0992     0.0041     0.6966     3.1757 
 2872.8924    14.8511  -999.2500    51.4693    78.4483    95.6213    74.4031    46.2793     0.0845     0.0063     1.1091     4.9580 
 2873.0448    17.1836  -999.2500    56.8433    60.8963   224.2273   219.8658   129.2398     0.0779     0.0072     1.3053     5.4636 
 2873.1972    13.8156  -999.2500    46.2681    37.8366   431.8141   409.0091   204.9555     0.0666     0.0059     1.0183     4.2749 
 2873.3496     7.1905  -999.2500    29.0702    21.2886   527.3718   491.4774   179.8023     0.0563     0.0035     0.2752     2.6644 
 2873.5020     3.9480  -999.2500    16.5463    13.7006   401.7641   358.7206   139.2619     0.0559     0.0019     0.1564     1.4386 
 2873.6544     2.8261  -999.2500    10.7439    11.2631   301.2613   270.2422   136.6954     0.0702     0.0013     0.1530     0.9724 
 2873.8068     2.0131  -999.2500     8.0100    11.3765   348.7519   320.8893   218.5016     0.0901     0.0009     0.1341     0.7125 
 2873.9592     1.6344  -999.2500     6.9731    12.7487   390.5168   363.4207   355.3018     0.1031     0.0008     0.0707     0.6659 
 2874.1116     1.0690  -999.2500     6.4880    13.7540   359.7136   355.8188   384.7253     0.1030     0.0005     0.0740     0.6451 
 2874.2640     1.4895  -999.2500     6.4771    13.9040   317.6670   343.2811   349.1000     0.1040     0.0007     0.0955     0.6073 
 2874.4164     1.6320  -999.2500     6.7320    13.3342   302.3137   353.9997   343.6125     0.1029     0.0007     0.0900     0.6301 
 2874.5688     2.1381  -999.2500     7.4330    12.8221   282.3964   322.5656   307.6265     0.1046     0.0009     0.1428     0.6424 
 2874.7212     2.5063  -999.2500     8.7583    14.4626   270.2331   294.5550   212.2052     0.0998     0.0011     0.1636     0.7836 
