~Version Information
 VERS.                  2.0:   CWLS log ASCII Standard -VERSION 2.0
 WRAP.                   NO:   One line per depth step
~Well Information Block
#MNEM.UNIT       Data Type    Information
#---------     -----------    ---------------------------
 STRT.M               690.2196:
 STOP.M              3268.1373:
 STEP.M                 0.1524:
 NULL.               -999.2500:
 UWI .                    1009:  UWI
 API .                    1009:  UWI
 WELL.                    1009:  COMMON WELL NAME
 COMP.                 UNKNOWN:  WELL OPERATOR
 FLD .                 UNKNOWN:  FIELD
 LIC .                 UNKNOWN:  AUTHORIZATION NO
 LOC .                 UNKNOWN:  BASIN
 CTRY.                 UNKNOWN:  COUNTRY
 STAT.                 UNKNOWN:  STATE
 CNTY.                 UNKNOWN:  COUNTY
 PROV.                 UNKNOWN:  STATE
 SRVC.                 UNKNOWN:  COMPANY
 DATE.                 UNKNOWN:  LOG RUN DATE
 LONG.                -92.0500:  LONGITUDE
 LATI.                 19.4616:  LATITUDE
 XCOORD.           599709.5625:  X COORDINATE
 YCOORD.          2152047.7500:  Y COORDINATE
 ELEV.M                 0.0000:  ELEVATION
 TD  .M              3280.0000:  TOTAL DEPTH
~Parameter Information Block
#MNEM.UNIT       Value        Description
#---------     -----------    ---------------------------
~Curve Information Block
#MNEM.UNIT                 API CODE     Curve Description
#---------               -----------    ---------------------------
 DEPTH.M                00 000 000 000:  Index Curve
 CGR .GAPI              00 000 000 000:  Gamma ray; Uranium-free
 DT  .US/F              00 000 000 000:  Acoustic wave travel time
 GR  .GAPI              00 000 000 000:  Gamma ray; total
 GR-LWD.GAPI            00 000 000 000:  
 LLD-LWD.OHMM           00 000 000 000:  
 LLS-LWD.OHMM           00 000 000 000:  
 MSFL-LWD.OHMM          00 000 000 000:  
 NPHI.V/V               00 000 000 000:  Neutron porosity
 POTA.                  00 000 000 000:  Potassium contribution from spectral gamma ray
 THOR.PPM               00 000 000 000:  Thorium contribution from spectral gamma ray
 URAN.PPM               00 000 000 000:  Uranium contribution from spectral gamma ray
~A DEPTH        CGR    DT    GR   GR-LWD   LLD-LWD   LLS-LWD  MSFL-LWD    NPHI    POTA    THOR    URAN
# ...
 3153.7656    14.3171  -999.2500    47.1579    46.6595    52.0000    37.7347    36.1857     0.0379     0.0051     1.6468     4.3278 
 3153.9180    13.3457  -999.2500    45.1652    44.7938    45.1439    35.8609    33.9560     0.0365     0.0047     1.5261     4.0764 
 3154.0704    13.1786  -999.2500    43.7267    43.4521    29.2913    42.9841    34.1579     0.0347     0.0047     1.4719     3.9080 
 3154.2228    12.4727  -999.2500    44.0152    42.9694    26.8440    48.6339    31.1500     0.0334     0.0047     1.2526     3.9695 
 3154.3752    13.7258  -999.2500    46.9002    42.9129    36.3785    53.2608    32.5644     0.0354     0.0049     1.5396     4.3490 
 3154.5276    14.7038  -999.2500    50.3250    43.0240    38.6946    53.4637    39.9160     0.0363     0.0054     1.5451     4.5621 
 3154.6800    15.9623  -999.2500    53.6033    43.5284    35.3774    64.4659    53.5080     0.0407     0.0056     1.8745     4.7758 
 3154.8324    15.9487  -999.2500    56.2304    45.0307    41.1788    85.0337    67.5908     0.0431     0.0056     1.8629     5.2010 
 3154.9848    14.9337  -999.2500    57.5431    47.9044    43.8934    94.4897    74.9522     0.0483     0.0051     1.8018     5.4335 
 3155.1372    15.8500  -999.2500    59.3808    51.3721    41.0806    91.7284    76.2932     0.0503     0.0055     1.8558     5.6708 
 3155.2896    15.4534  -999.2500    59.7507    53.5684    50.6753    82.9949    70.2662     0.0510     0.0056     1.7249     5.5878 
 3155.4420    15.2287  -999.2500    61.1376    54.0737    55.3103    77.7319    65.6883     0.0476     0.0057     1.5767     6.0215 
 3155.5944    15.4380  -999.2500    60.7962    53.6246    45.1534    95.0615    77.2011     0.0450     0.0059     1.4904     5.9330 
 3155.7468    15.6007  -999.2500    60.0869    52.3713    40.4081   110.3002    85.8783     0.0426     0.0061     1.4692     5.8459 
 3155.8992    15.8583  -999.2500    58.7896    50.1085    41.2292   103.4595    82.9535     0.0400     0.0058     1.6992     5.5999 
 3156.0516    15.4297  -999.2500    55.6100    47.0327    42.3879   106.6387    86.4582     0.0356     0.0056     1.6705     5.1904 
 3156.2040    14.9852  -999.2500    53.1457    44.3748    43.9324   121.2302    95.4676     0.0327     0.0053     1.7131     5.0604 
 3156.3564    12.9880  -999.2500    49.1574    44.3056    45.2927   116.4724    93.2647     0.0328     0.0050     1.2815     4.8048 
 3156.5088    13.0329  -999.2500    46.4600    48.6923    47.9499    92.6725    77.6247     0.0363     0.0049     1.3165     4.4371 
 3156.6612    13.9131  -999.2500    46.0327    56.9772    47.6858    73.1209    63.7543     0.0398     0.0053     1.3549     4.1981 
 3156.8136    15.4955  -999.2500    52.9682    66.1852    47.0695    65.4292    58.9887     0.0440     0.0061     1.4215     4.9034 
 3156.9660    21.3436  -999.2500    71.3682    73.0299    53.1396    57.6683    47.7187     0.0523     0.0085     1.9008     6.6192 
 3157.1184    33.3941  -999.2500   103.7324    76.1178    57.8260    42.4152    29.6696     0.0601     0.0130     3.1640     9.3626 
 3157.2708    42.3786  -999.2500   130.2345    76.8045    49.9688    27.7079    19.7193     0.0702     0.0163     4.1227    11.6560 
 3157.4232    43.3104  -999.2500   132.5249    76.7599    38.0403    21.5833    17.5160     0.0820     0.0165     4.2851    11.8835 
 3157.5756    36.4542  -999.2500   111.8213    76.5215    35.5898    20.5967    16.6042     0.0891     0.0139     3.6130    10.0273 
 3157.7280    28.8715  -999.2500    87.9337    77.1433    37.6505    19.6036    14.8304     0.0895     0.0112     2.7560     7.7485 
 3157.8804    24.9903  -999.2500    74.7977    79.2812    35.9061    19.4001    14.2083     0.0925     0.0095     2.4656     6.4622 
 3158.0328    25.4541  -999.2500    73.7553    80.7439    34.2605    18.7445    13.8037     0.1020     0.0096     2.5509     6.3366 
 3158.1852    27.0414  -999.2500    76.0541    78.1447    33.7549    17.0362    12.2331     0.1027     0.0103     2.6656     6.4393 
 3158.3376    26.8983  -999.2500    76.8574    71.1381    31.0519    19.0969    12.9289     0.0967     0.0102     2.6909     6.6461 
 3158.4900    26.8511  -999.2500    72.9861    63.7951    28.9952    22.9215    17.6173     0.0854     0.0097     2.9717     6.0779 
 3158.6424    24.7413  -999.2500    67.2600    59.9931    30.1900    23.5109    21.6345     0.0855     0.0090     2.7109     5.4933 
 3158.7948    22.6588  -999.2500    62.8628    59.4060    30.9340    22.4949    21.4438     0.0839     0.0082     2.4651     5.1841 
 3158.9472    21.7323  -999.2500    60.1798    59.7254    30.6254    21.3407    19.0910     0.0827     0.0079     2.3951     4.8650 
 3159.0996    21.1715  -999.2500    59.8780    58.7966    40.2586    33.8829    25.9257     0.0793     0.0076     2.3808     4.9779 
 3159.2520    22.1620  -999.2500    60.3455    55.1532    66.8728    61.1453    45.9819     0.0742     0.0082     2.3260     4.9040 
 3159.4044    22.0069  -999.2500    60.4945    49.5793    94.3226    69.2974    58.9577     0.0729     0.0084     2.1600     4.9628 
 3159.5568    21.2044  -999.2500    59.5026    44.6491   108.0985    66.1770    62.4375     0.0719     0.0083     1.9595     4.8991 
 3159.7092    20.3642  -999.2500    58.2040    41.8168   106.6077    58.9590    54.5122     0.0696     0.0080     1.8793     4.8841 
 3159.8616    18.8126  -999.2500    56.1326    40.8344    93.8097    51.8763    46.7774     0.0667     0.0071     1.8836     4.8869 
 3160.0140    18.3470  -999.2500    53.4556    41.8441    88.3455    52.1336    49.2328     0.0661     0.0071     1.7328     4.5110 
 3160.1664    15.9902  -999.2500    50.7953    44.0047    77.9142    44.0092    43.8956     0.0689     0.0066     1.2611     4.4461 
 3160.3188    14.4578  -999.2500    49.4201    44.1332    50.9302    43.3173    44.3504     0.0682     0.0060     1.1187     4.3931 
 3160.4712    14.1099  -999.2500    50.1257    40.9692    41.1036    52.0647    45.9202     0.0745     0.0057     1.2195     4.7553 
 3160.6236    13.1724  -999.2500    50.4049    37.4391    60.5509    55.4095    27.3449     0.0823     0.0054     1.0763     4.8292 
 3160.7760    13.3262  -999.2500    49.7252    36.0733    73.0938    37.6247    15.6833     0.0939     0.0055     1.0675     4.8804 
 3160.9284    10.6572  -999.2500    47.5908    36.6488    55.9297    23.0818    18.1929     0.0960     0.0044     0.8833     4.7527 
 3161.0808    10.3129  -999.2500    45.3380    38.7767    39.2127    24.5285    21.5014     0.0888     0.0040     0.9598     4.6576 
 3161.2332     9.9080  -999.2500    43.5672    43.1880    38.5161    28.3678    26.7327     0.0734     0.0039     0.9217     4.2819 
 3161.3856    10.9639  -999.2500    43.5508    49.6457    42.5867    34.1968    34.0933     0.0592     0.0044     0.9730     4.2386 
 3161.5380    11.6364  -999.2500    45.7258    55.8103    47.4209    37.8163    42.4426     0.0542     0.0049     0.8953     4.3219 
 3161.6904    12.8696  -999.2500    49.7867    58.6241    49.1559    37.1101    49.2298     0.0655     0.0052     1.0914     4.9036 
 3161.8428    14.7467  -999.2500    53.6458    56.1067    45.0984    37.1504    44.8107     0.0765     0.0059     1.2797     5.2736 
 3161.9952    16.5677  -999.2500    54.2918    50.3325    41.9075    46.2227    41.9757     0.0796     0.0064     1.5737     5.2148 
 3162.1476    15.9874  -999.2500    50.5995    44.5510    46.6511    60.7261    43.6001     0.0656     0.0064     1.3709     4.5995 
 3162.3000    14.4154  -999.2500    44.4530    40.0298    59.4634    72.0481    40.1305     0.0521     0.0058     1.2426     3.9535 
 3162.4524    12.6431  -999.2500    38.4184    35.9462    63.5067    76.9989    45.5729     0.0440     0.0048     1.2593     3.3178 
 3162.6048    11.5684  -999.2500    34.3512    33.2819    48.5859    76.9758    58.5451     0.0434     0.0044     1.1697     2.9336 
 3162.7572    10.9924  -999.2500    32.9972    34.1450    37.6344    81.0795    69.2917     0.0473     0.0040     1.1871     2.8340 
 3162.9096    10.9045  -999.2500    34.3620    36.6738    35.6212    79.5259    75.0315     0.0573     0.0040     1.1891     3.0125 
