~Version Information
 VERS.                  2.0:   CWLS log ASCII Standard -VERSION 2.0
 WRAP.                   NO:   One line per depth step
~Well Information Block
#MNEM.UNIT       Data Type    Information
#---------     -----------    ---------------------------
 STRT.M               690.2196:
 STOP.M              3268.1373:
 STEP.M                 0.1524:
 NULL.               -999.2500:
 UWI .                    1009:  UWI
 API .                    1009:  UWI
 WELL.                    1009:  COMMON WELL NAME
 COMP.                 UNKNOWN:  WELL OPERATOR
 FLD .                 UNKNOWN:  FIELD
 LIC .                 UNKNOWN:  AUTHORIZATION NO
 LOC .                 UNKNOWN:  BASIN
 CTRY.                 UNKNOWN:  COUNTRY
 STAT.                 UNKNOWN:  STATE
 CNTY.                 UNKNOWN:  COUNTY
 PROV.                 UNKNOWN:  STATE
 SRVC.                 UNKNOWN:  COMPANY
 DATE.                 UNKNOWN:  LOG RUN DATE
 LONG.                -92.0500:  LONGITUDE
 LATI.                 19.4616:  LATITUDE
 XCOORD.           599709.5625:  X COORDINATE
 YCOORD.          2152047.7500:  Y COORDINATE
 ELEV.M                 0.0000:  ELEVATION
 TD  .M              3280.0000:  TOTAL DEPTH
~Parameter Information Block
#MNEM.UNIT       Value        Description
#---------     -----------    ---------------------------
~Curve Information Block
#MNEM.UNIT                 API CODE     Curve Description
#---------               -----------    ---------------------------
 DEPTH.M                00 000 000 000:  Index Curve
 CGR .GAPI              00 000 000 000:  Gamma ray; Uranium-free
 DT  .US/F              00 000 000 000:  Acoustic wave travel time
 GR  .GAPI              00 000 000 000:  Gamma ray; total
 GR-LWD.GAPI            00 000 000 000:  
 LLD-LWD.OHMM           00 000 000 000:  
 LLS-LWD.OHMM           00 000 000 000:  
 MSFL-LWD.OHMM          00 000 000 000:  
 NPHI.V/V               00 000 000 000:  Neutron porosity
 POTA.                  00 000 000 000:  Potassium contribution from spectral gamma ray
 THOR.PPM               00 000 000 000:  Thorium contribution from spectral gamma ray
 URAN.PPM               00 000 000 000:  Uranium contribution from spectral gamma ray
~A DEPTH        CGR    DT    GR   GR-LWD   LLD-LWD   LLS-LWD  MSFL-LWD    NPHI    POTA    THOR    URAN
# ...
 3256.0260    18.7428  -999.2500    50.9482    40.5537    22.0772    26.1059    40.1950     0.0738     0.0067     2.0998     4.0958 
 3256.1784    19.1884  -999.2500    54.7089    42.2046    18.5941    21.4558    34.0477     0.0710     0.0073     1.8798     4.6483 
 3256.3308    19.7476  -999.2500    57.8138    44.2516    17.6773    16.2887    26.3715     0.0680     0.0079     1.7037     4.9049 
 3256.4832    18.9658  -999.2500    60.5391    46.2306    19.1340    16.3721    23.1177     0.0693     0.0081     1.3640     5.3994 
 3256.6356    19.2818  -999.2500    63.5127    47.7905    21.3720    18.7961    24.2021     0.0761     0.0083     1.3663     5.7580 
 3256.7880    20.2922  -999.2500    66.4915    48.3950    22.9686    20.5593    27.2570     0.0889     0.0086     1.4934     6.1778 
 3256.9404    20.0058  -999.2500    67.0527    47.9442    26.0938    24.3204    30.1494     0.1062     0.0083     1.5756     6.3263 
 3257.0928    18.7585  -999.2500    62.8627    46.7103    31.0788    29.7701    36.8557     0.1195     0.0072     1.8403     6.0079 
 3257.2452    16.5801  -999.2500    54.8390    44.3370    34.1735    33.6084    42.8651     0.1232     0.0064     1.5997     5.0564 
 3257.3976    13.8103  -999.2500    47.2680    40.4566    31.7441    36.0527    46.5801     0.1153     0.0052     1.4049     4.2966 
 3257.5500    12.9345  -999.2500    43.6580    36.6233    31.2883    38.7484    55.3313     0.1014     0.0049     1.3173     3.9852 
 3257.7024    12.5351  -999.2500    43.7060    35.5756    38.1436    48.5415    75.2354     0.0857     0.0047     1.3015     4.1217 
 3257.8548    13.9285  -999.2500    45.0868    38.1576    37.1357    52.8420    87.7219     0.0723     0.0048     1.6471     4.2124 
 3258.0072    14.0057  -999.2500    46.2156    42.7487    46.8893    51.5927    82.5140     0.0625     0.0045     1.8600     4.3180 
 3258.1596    13.1668  -999.2500    47.0788    48.2887    69.7336    55.8025    76.5132     0.0564     0.0043     1.7202     4.6263 
 3258.3120    12.5935  -999.2500    47.1256    53.6323    65.7064    52.8798    68.6832     0.0535     0.0043     1.5580     4.7058 
 3258.4644    12.2460  -999.2500    45.9975    56.4807    48.3955    46.6965    60.5426     0.0557     0.0045     1.2862     4.4741 
 3258.6168    11.7169  -999.2500    44.4009    57.0544    42.9016    43.8906    53.5244     0.0616     0.0048     0.9601     4.3056 
 3258.7692    10.4059  -999.2500    42.8775    56.8145    44.0862    39.8925    46.2211     0.0708     0.0050     0.4418     4.1703 
 3258.9216     9.0995  -999.2500    41.9144    55.7226    39.8750    32.8739    40.9628     0.0742     0.0049     0.0425     4.2788 
 3259.0740     8.1771  -999.2500    40.9349    53.5235    30.3531    28.4980    39.0283     0.0844     0.0050    -0.3040     4.1621 
 3259.2264     7.7403  -999.2500    40.2547    50.8388    31.5363    38.0318    53.5710     0.0819     0.0053    -0.6116     4.1235 
 3259.3788     7.0126  -999.2500    39.7778    49.1712    50.5755    58.3039    81.0621     0.0676     0.0054    -0.9301     4.1108 
 3259.5312     5.8779  -999.2500    39.6552    49.2930    67.7725    70.8721    96.6458     0.0426     0.0055    -1.3100     4.2485 
 3259.6836     5.3421  -999.2500    39.6552    50.3068    65.3175    68.2892    86.3631     0.0273     0.0058    -1.6533     4.2563 
 3259.8360     5.7053  -999.2500    39.6552    51.2446    57.7027    58.8585    68.4364     0.0263     0.0061    -1.7602     4.1645 
 3259.9884     6.1408  -999.2500    39.6552    52.2192    53.4946    49.6210    57.3878     0.0301     0.0066    -1.8602     4.0791 
 3260.1408     6.1408  -999.2500    39.6552    53.5481    48.2524    41.9978    47.9999     0.0354     0.0066    -1.8602     4.0791 
 3260.2932     6.1408  -999.2500    39.6552    54.5794    43.9498    36.9355    40.4576     0.0382     0.0066    -1.8602     4.0791 
 3260.4456     6.1408  -999.2500    39.6552    54.0252    41.8726    35.8275    39.9049     0.0365     0.0066    -1.8602     4.0791 
 3260.5980     6.1408  -999.2500    39.6552    52.2986    42.5349    37.0834    44.2563     0.0327     0.0066    -1.8602     4.0791 
 3260.7504     6.1408  -999.2500    39.6552    50.4517    44.3778    39.0803    50.4607     0.0312     0.0066    -1.8602     4.0791 
 3260.9028     6.1408  -999.2500    39.6552    48.4244    43.7457    40.4691    54.3120     0.0337     0.0066    -1.8602     4.0791 
 3261.0552     6.1408  -999.2500    39.6552    46.3789    41.8937    39.5003    52.0691     0.0365     0.0066    -1.8602     4.0791 
 3261.2076     6.1408  -999.2500    39.6552    45.0871    43.5530    40.1837    49.7595     0.0384     0.0066    -1.8602     4.0791 
 3261.3600     6.1408  -999.2500    39.6552    45.2285    51.2907    45.3529    55.9821     0.0377     0.0066    -1.8602     4.0791 
 3261.5124     6.1408  -999.2500    39.6552    46.8942    59.4426    49.7262    64.7067     0.0344     0.0066    -1.8602     4.0791 
 3261.6648     6.1408  -999.2500    39.6552    49.3824    59.6439    49.4972    66.0331     0.0327     0.0066    -1.8602     4.0791 
 3261.8172     6.1408  -999.2500    39.6552    51.7142    54.5167    46.2990    59.9980     0.0328     0.0066    -1.8602     4.0791 
 3261.9696     6.1408  -999.2500    39.6552    53.2381    51.9596    43.2026    55.1760     0.0391     0.0066    -1.8602     4.0791 
 3262.1220     6.1408  -999.2500    39.6552    53.1849    57.0754    47.5162    64.4585     0.0547     0.0066    -1.8602     4.0791 
 3262.2744     6.1408  -999.2500    39.6552    50.6860    75.4258    62.6129    92.7574     0.0686     0.0066    -1.8602     4.0791 
 3262.4268     6.1408  -999.2500    39.6552    46.1490   106.7893    89.2637   137.4644     0.0730     0.0066    -1.8602     4.0791 
 3262.5792     6.1408  -999.2500    39.6552    41.6885   131.1232   119.7611   187.2802     0.0654     0.0066    -1.8602     4.0791 
 3262.7316     6.1408  -999.2500    39.6552    39.2168   129.1729   126.6930   217.3970     0.0576     0.0066    -1.8602     4.0791 
 3262.8840     6.1408  -999.2500    39.6552    38.6273   112.4213   101.0995   190.0712     0.0547     0.0066    -1.8602     4.0791 
 3263.0364     6.1408  -999.2500    39.6552    38.1116   100.9018    74.5838   127.2098     0.0594     0.0066    -1.8602     4.0791 
 3263.1888     6.1408  -999.2500    39.6552    35.9721   103.8080    71.5582   100.5157     0.0596     0.0066    -1.8602     4.0791 
 3263.3412  -999.2500  -999.2500  -999.2500    32.5407   113.2131    84.4326   111.9448  -999.2500  -999.2500  -999.2500  -999.2500 
 3263.4936  -999.2500  -999.2500  -999.2500    29.8967   106.6838    92.0674   130.1139  -999.2500  -999.2500  -999.2500  -999.2500 
 3263.6460  -999.2500  -999.2500  -999.2500    29.3199    83.5490    78.1923   133.9761  -999.2500  -999.2500  -999.2500  -999.2500 
 3263.7984  -999.2500  -999.2500  -999.2500    29.9135    61.6241    57.3880   117.2709  -999.2500  -999.2500  -999.2500  -999.2500 
 3263.9508  -999.2500  -999.2500  -999.2500    30.1391    50.4232    44.4361    81.6062  -999.2500  -999.2500  -999.2500  -999.2500 
 3264.1032  -999.2500  -999.2500  -999.2500    29.7362    46.4442    42.6416    62.1050  -999.2500  -999.2500  -999.2500  -999.2500 
 3264.2556  -999.2500  -999.2500  -999.2500    29.6853    40.0832    40.7725    60.9309  -999.2500  -999.2500  -999.2500  -999.2500 
 3264.4080  -999.2500  -999.2500  -999.2500    30.7464    31.8946    32.5590    50.4157  -999.2500  -999.2500  -999.2500  -999.2500 
 3264.5604  -999.2500  -999.2500  -999.2500    31.9602    29.6508    25.2522    36.5877  -999.2500  -999.2500  -999.2500  -999.2500 
 3264.7128  -999.2500  -999.2500  -999.2500    31.8694    32.4304    24.9529    34.3111  -999.2500  -999.2500  -999.2500  -999.2500 
 3264.8652  -999.2500  -999.2500  -999.2500    30.9982    32.6666    25.4866    36.5618  -999.2500  -999.2500  -999.2500  -999.2500 
 3265.0176  -999.2500  -999.2500  -999.2500    30.9413    33.2854    29.4353    45.9850  -999.2500  -999.2500  -999.2500  -999.2500 
 3265.1700  -999.2500  -999.2500  -999.2500    32.4101    40.0983    34.8674    56.4266  -999.2500  -999.2500  -999.2500  -999.2500 
