~Version Information
 VERS.                  2.0:   CWLS log ASCII Standard -VERSION 2.0
 WRAP.                   NO:   One line per depth step
~Well Information Block
#MNEM.UNIT       Data Type    Information
#---------     -----------    ---------------------------
 STRT.M               690.2196:
 STOP.M              3268.1373:
 STEP.M                 0.1524:
 NULL.               -999.2500:
 UWI .                    1009:  UWI
 API .                    1009:  UWI
 WELL.                    1009:  COMMON WELL NAME
 COMP.                 UNKNOWN:  WELL OPERATOR
 FLD .                 UNKNOWN:  FIELD
 LIC .                 UNKNOWN:  AUTHORIZATION NO
 LOC .                 UNKNOWN:  BASIN
 CTRY.                 UNKNOWN:  COUNTRY
 STAT.                 UNKNOWN:  STATE
 CNTY.                 UNKNOWN:  COUNTY
 PROV.                 UNKNOWN:  STATE
 SRVC.                 UNKNOWN:  COMPANY
 DATE.                 UNKNOWN:  LOG RUN DATE
 LONG.                -92.0500:  LONGITUDE
 LATI.                 19.4616:  LATITUDE
 XCOORD.           599709.5625:  X COORDINATE
 YCOORD.          2152047.7500:  Y COORDINATE
 ELEV.M                 0.0000:  ELEVATION
 TD  .M              3280.0000:  TOTAL DEPTH
~Parameter Information Block
#MNEM.UNIT       Value        Description
#---------     -----------    ---------------------------
~Curve Information Block
#MNEM.UNIT                 API CODE     Curve Description
#---------               -----------    ---------------------------
 DEPTH.M                00 000 000 000:  Index Curve
 CGR .GAPI              00 000 000 000:  Gamma ray; Uranium-free
 DT  .US/F              00 000 000 000:  Acoustic wave travel time
 GR  .GAPI              00 000 000 000:  Gamma ray; total
 GR-LWD.GAPI            00 000 000 000:  
 LLD-LWD.OHMM           00 000 000 000:  
 LLS-LWD.OHMM           00 000 000 000:  
 MSFL-LWD.OHMM          00 000 000 000:  
 NPHI.V/V               00 000 000 000:  Neutron porosity
 POTA.                  00 000 000 000:  Potassium contribution from spectral gamma ray
 THOR.PPM               00 000 000 000:  Thorium contribution from spectral gamma ray
 URAN.PPM               00 000 000 000:  Uranium contribution from spectral gamma ray
~A DEPTH        CGR    DT    GR   GR-LWD   LLD-LWD   LLS-LWD  MSFL-LWD    NPHI    POTA    THOR    URAN
# ...
 2930.6520     7.5706  -999.2500    33.6097    38.5046   172.3471   151.9199   140.0990     0.0832     0.0027     0.8404     3.3174 
 2930.8044     7.2360  -999.2500    32.7142    37.0080   191.7191   176.6012   161.2325     0.1098     0.0026     0.7872     3.3257 
 2930.9568     7.3044  -999.2500    31.0131    38.0666   164.2172   171.5224   169.1030     0.1309     0.0027     0.7833     3.0502 
 2931.1092     7.2180  -999.2500    30.3897    40.3246   107.9216   104.2164   119.8615     0.1381     0.0023     0.9744     2.9766 
 2931.2616     8.0264  -999.2500    31.6924    41.4924   109.6090   101.0542    97.3939     0.1296     0.0027     1.0220     3.2079 
 2931.4140     9.5492  -999.2500    32.7177    41.9463   139.7639   159.4606   130.7311     0.1358     0.0035     1.0516     3.1810 
 2931.5664    10.0990  -999.2500    32.2465    43.8188   117.7753   129.5865   110.6825     0.1428     0.0037     1.1113     3.0566 
 2931.7188    10.1057  -999.2500    31.2382    47.1302    77.8976    80.0946    70.2939     0.1472     0.0037     1.0913     2.6945 
 2931.8712    11.0940  -999.2500    32.5927    49.2396    59.4466    62.9234    54.3731     0.1437     0.0042     1.1398     2.8117 
 2932.0236    12.8256  -999.2500    35.7901    48.8679    58.2057    56.1607    48.1163     0.1442     0.0048     1.3240     3.0912 
 2932.1760    14.2083  -999.2500    38.0311    48.0233    67.0802    63.2398    53.3296     0.1298     0.0054     1.3846     3.3440 
 2932.3284    13.9059  -999.2500    37.6020    48.4742    68.5906    65.5040    55.7125     0.1226     0.0055     1.2735     3.2431 
 2932.4808    13.9602  -999.2500    36.3206    48.8848    61.7928    58.7455    51.4846     0.1231     0.0054     1.3449     2.9047 
 2932.6332    14.2356  -999.2500    36.2710    48.6237    81.5072    77.8432    61.9983     0.1274     0.0056     1.2952     2.8674 
 2932.7856    14.5739  -999.2500    36.6064    52.6353   106.3347   113.6542    83.7237     0.1266     0.0059     1.2543     2.9654 
 2932.9380    14.5360  -999.2500    36.5871    62.2575    69.3852    74.6200    59.6333     0.1307     0.0057     1.3266     2.7990 
 2933.0904    14.7470  -999.2500    38.6445    68.7048    25.7285    25.1581    26.7948     0.1454     0.0057     1.4243     2.9167 
 2933.2428    16.6317  -999.2500    43.7863    65.9141    32.9216    35.3412    32.3714     0.1571     0.0064     1.6208     3.5789 
 2933.3952    19.2077  -999.2500    47.4089    56.2725    55.6505    57.7007    45.9017     0.1445     0.0072     1.9809     3.9415 
 2933.5476    18.2142  -999.2500    45.2420    47.2400    57.5225    53.5503    45.2596     0.1293     0.0067     1.9394     3.6711 
 2933.7000    15.8233  -999.2500    39.3146    43.2716    45.7354    40.6676    37.9701     0.1188     0.0058     1.7060     3.0225 
 2933.8524    13.3132  -999.2500    34.1395    40.7900    40.9740    40.3671    37.6973     0.1172     0.0047     1.5282     2.6154 
 2934.0048    12.1636  -999.2500    31.1180    38.7494    42.8753    44.8082    42.7816     0.1101     0.0044     1.3452     2.4489 
 2934.1572    10.9124  -999.2500    29.5199    40.6511    41.8907    42.3809    41.2766     0.1019     0.0041     1.0922     2.3843 
 2934.3096    10.1223  -999.2500    29.6319    47.2135    39.1816    36.4270    36.6548     0.1018     0.0039     0.9761     2.5466 
 2934.4620    10.7395  -999.2500    31.9728    57.9115    42.2636    36.7218    38.2642     0.1098     0.0040     1.1056     2.8017 
 2934.6144    12.4336  -999.2500    37.4700    68.0839    45.1727    37.6412    41.8113     0.1170     0.0048     1.1837     3.2030 
 2934.7668    16.3851  -999.2500    45.9578    71.0499    42.6900    36.7962    43.5102     0.1241     0.0067     1.3573     4.0914 
 2934.9192    18.5164  -999.2500    52.0621    67.3168    43.0611    39.7399    45.1212     0.1504     0.0076     1.5120     4.7186 
 2935.0716    17.8764  -999.2500    51.9158    62.7466    45.0742    43.1874    44.5062     0.1731     0.0074     1.4005     4.7332 
 2935.2240    16.2491  -999.2500    48.1572    62.3709    43.2701    41.9829    40.8594     0.1727     0.0067     1.2821     4.1088 
 2935.3764    16.3848  -999.2500    47.3426    67.3494    40.3863    39.8091    38.8722     0.1497     0.0068     1.2644     3.9519 
 2935.5288    18.6160  -999.2500    50.8783    72.6163    38.6515    39.4921    38.8539     0.1400     0.0078     1.3971     4.2449 
 2935.6812    20.1484  -999.2500    55.1608    73.5289    37.3104    38.3137    37.1125     0.1676     0.0084     1.5392     4.7727 
 2935.8336    21.2497  -999.2500    55.8425    69.0290    36.0556    35.1462    34.1039     0.1878     0.0086     1.7795     4.6568 
 2935.9860    21.8739  -999.2500    53.4764    60.6307    35.9405    32.6550    32.5902     0.2157     0.0085     2.0616     4.2874 
 2936.1384    18.7252  -999.2500    47.9329    53.7929    36.0653    31.7491    32.7198     0.2062     0.0075     1.6393     3.7543 
 2936.2908    16.4492  -999.2500    42.4436    50.4176    35.4188    31.2546    32.8532     0.2035     0.0064     1.5604     3.3106 
 2936.4432    14.5823  -999.2500    38.2129    48.7400    35.0389    30.9852    32.3625     0.1867     0.0056     1.4183     3.0253 
 2936.5956    12.9997  -999.2500    35.8020    49.1451    37.8241    35.2329    35.7133     0.1814     0.0050     1.2315     2.9475 
 2936.7480    11.9868  -999.2500    35.0045    52.8595    44.6400    42.4468    42.8982     0.1713     0.0047     1.0874     2.9630 
 2936.9004    10.9284  -999.2500    35.8928    60.1018    53.3553    51.7706    52.9337     0.1615     0.0044     0.9471     3.2485 
 2937.0528    10.6502  -999.2500    39.5877    68.9721    62.9210    62.7332    64.0758     0.1656     0.0043     0.9314     3.7411 
 2937.2052    11.5506  -999.2500    47.3467    74.6259    73.5053    71.9969    75.0834     0.1754     0.0047     0.9901     4.6746 
 2937.3576    13.6097  -999.2500    55.7702    73.8695    87.9835    80.4664    88.3524     0.1930     0.0054     1.2149     5.5318 
 2937.5100    11.8983  -999.2500    59.4069    67.5349   111.5638    97.3879   107.0013     0.1949     0.0050     0.9292     6.1185 
 2937.6624     9.9261  -999.2500    56.8337    58.0925   140.6507   116.6025   127.3748     0.1876     0.0043     0.6602     6.0411 
 2937.8148     8.2182  -999.2500    48.4619    49.7043   162.4213   126.2435   141.2656     0.1639     0.0035     0.5958     5.1833 
 2937.9672     6.4643  -999.2500    41.3721    45.3559   173.3673   131.7540   148.5935     0.1438     0.0030     0.3037     4.4764 
 2938.1196     4.6155  -999.2500    35.5831    43.9703   181.7610   137.7238   153.5904     0.1282     0.0021     0.2753     3.9997 
 2938.2720     4.0569  -999.2500    33.5541    43.4691   193.6125   144.8241   158.1052     0.1153     0.0018     0.2542     3.7963 
 2938.4244     3.4080  -999.2500    32.5072    43.6857   212.4336   154.4493   162.6821     0.1215     0.0015     0.2315     3.7582 
 2938.5768     3.4486  -999.2500    31.9981    46.6230   229.8226   156.4931   156.7046     0.1719     0.0013     0.3294     3.6505 
 2938.7292     2.9560  -999.2500    32.7952    53.9285   208.6615   131.6581   109.9579     0.2663     0.0012     0.2574     3.8289 
 2938.8816     2.8912  -999.2500    33.2154    63.1554   147.6577    85.0773    41.8565     0.3163     0.0012     0.2518     3.8218 
 2939.0340     3.4593  -999.2500    35.7743    68.7826   122.3654    50.2243    12.0311     0.2727     0.0013     0.3733     4.0585 
 2939.1864     4.2601  -999.2500    40.3457    67.4072   176.4970   107.9634    49.8361     0.1831     0.0016     0.4406     4.5483 
 2939.3388     5.0719  -999.2500    47.8949    61.0837   249.4976   230.2638   151.0487     0.1411     0.0020     0.4666     5.5286 
 2939.4912     5.9378  -999.2500    51.4466    54.9878   263.5348   258.0086   230.3234     0.1289     0.0023     0.5368     5.8723 
 2939.6436     5.9288  -999.2500    50.6406    52.2984   226.2905   216.3771   228.5251     0.1272     0.0023     0.5864     5.8838 
 2939.7960     5.5877  -999.2500    45.1345    53.2191   195.0264   196.9212   210.3625     0.1212     0.0022     0.5294     5.0410 
