~Version Information
 VERS.                  2.0:   CWLS log ASCII Standard -VERSION 2.0
 WRAP.                   NO:   One line per depth step
~Well Information Block
#MNEM.UNIT       Data Type    Information
#---------     -----------    ---------------------------
 STRT.M               690.2196:
 STOP.M              3268.1373:
 STEP.M                 0.1524:
 NULL.               -999.2500:
 UWI .                    1009:  UWI
 API .                    1009:  UWI
 WELL.                    1009:  COMMON WELL NAME
 COMP.                 UNKNOWN:  WELL OPERATOR
 FLD .                 UNKNOWN:  FIELD
 LIC .                 UNKNOWN:  AUTHORIZATION NO
 LOC .                 UNKNOWN:  BASIN
 CTRY.                 UNKNOWN:  COUNTRY
 STAT.                 UNKNOWN:  STATE
 CNTY.                 UNKNOWN:  COUNTY
 PROV.                 UNKNOWN:  STATE
 SRVC.                 UNKNOWN:  COMPANY
 DATE.                 UNKNOWN:  LOG RUN DATE
 LONG.                -92.0500:  LONGITUDE
 LATI.                 19.4616:  LATITUDE
 XCOORD.           599709.5625:  X COORDINATE
 YCOORD.          2152047.7500:  Y COORDINATE
 ELEV.M                 0.0000:  ELEVATION
 TD  .M              3280.0000:  TOTAL DEPTH
~Parameter Information Block
#MNEM.UNIT       Value        Description
#---------     -----------    ---------------------------
~Curve Information Block
#MNEM.UNIT                 API CODE     Curve Description
#---------               -----------    ---------------------------
 DEPTH.M                00 000 000 000:  Index Curve
 CGR .GAPI              00 000 000 000:  Gamma ray; Uranium-free
 DT  .US/F              00 000 000 000:  Acoustic wave travel time
 GR  .GAPI              00 000 000 000:  Gamma ray; total
 GR-LWD.GAPI            00 000 000 000:  
 LLD-LWD.OHMM           00 000 000 000:  
 LLS-LWD.OHMM           00 000 000 000:  
 MSFL-LWD.OHMM          00 000 000 000:  
 NPHI.V/V               00 000 000 000:  Neutron porosity
 POTA.                  00 000 000 000:  Potassium contribution from spectral gamma ray
 THOR.PPM               00 000 000 000:  Thorium contribution from spectral gamma ray
 URAN.PPM               00 000 000 000:  Uranium contribution from spectral gamma ray
~A DEPTH        CGR    DT    GR   GR-LWD   LLD-LWD   LLS-LWD  MSFL-LWD    NPHI    POTA    THOR    URAN
# ...
 2958.5412    14.9452  -999.2500    49.6296    60.2863    23.8271    16.2797    13.2832     0.0977     0.0055     1.6055     4.4411 
 2958.6936    15.3289  -999.2500    48.0434    56.5506    30.6467    21.3459    14.9846     0.1149     0.0058     1.5466     4.2396 
 2958.8460    13.7260  -999.2500    45.0284    54.6490    47.4636    39.8841    25.4906     0.1275     0.0053     1.3019     4.1115 
 2958.9984    12.4883  -999.2500    42.4210    55.6731    54.1416    51.8279    34.1526     0.1293     0.0047     1.2536     3.9010 
 2959.1508    11.6698  -999.2500    42.3005    58.4592    46.0584    45.3178    33.3600     0.1205     0.0043     1.2493     3.9704 
 2959.3032    13.1291  -999.2500    45.7726    60.8904    38.7568    37.1429    31.4256     0.1005     0.0049     1.3641     4.3841 
 2959.4556    14.0809  -999.2500    49.1588    60.3354    42.1975    40.8570    36.1521     0.0796     0.0052     1.4994     4.7159 
 2959.6080    13.7738  -999.2500    51.5381    54.4624    51.1404    48.4724    39.3043     0.0588     0.0052     1.3652     5.2054 
 2959.7604    12.1701  -999.2500    50.1649    43.7887    63.5175    61.0369    40.7364     0.0413     0.0045     1.2966     5.2306 
 2959.9128    10.0712  -999.2500    43.8804    32.4136    98.8149    85.9928    47.5725     0.0294     0.0038     1.0289     4.6470 
 2960.0652     7.1252  -999.2500    33.4520    24.3406   206.4164   162.6950    87.6024     0.0256     0.0026     0.7587     3.5113 
 2960.2176     4.5636  -999.2500    23.2584    20.2017   346.8878   302.1726   174.6834     0.0234     0.0017     0.4484     2.3105 
 2960.3700     2.8428  -999.2500    16.9609    18.2983   440.6034   397.8033   205.0801     0.0226     0.0010     0.3049     1.7634 
 2960.5224     2.4872  -999.2500    14.1300    17.6036   528.1721   541.1860   180.0034     0.0224     0.0009     0.2789     1.4528 
 2960.6748     2.6762  -999.2500    13.0658    17.8405   562.9064   603.2829   153.6352     0.0224     0.0010     0.3002     1.2909 
 2960.8272     2.9176  -999.2500    12.9575    18.5916   494.1291   522.0261   141.3169     0.0233     0.0011     0.3002     1.1902 
 2960.9796     3.0428  -999.2500    13.6390    19.6760   374.6973   414.4108   166.3727     0.0253     0.0011     0.3594     1.2816 
 2961.1320     2.8977  -999.2500    14.6646    20.7102   282.0483   314.1199   185.0279     0.0251     0.0011     0.2625     1.4406 
 2961.2844     2.9637  -999.2500    15.2558    21.1760   266.1611   279.7444   173.1893     0.0289     0.0011     0.3177     1.5636 
 2961.4368     3.0247  -999.2500    15.0050    21.0281   243.1371   249.9032   138.8163     0.0430     0.0011     0.3349     1.5117 
 2961.5892     2.8172  -999.2500    14.4210    20.5345   159.6779   163.2786    80.3844     0.0790     0.0012     0.2278     1.4476 
 2961.7416     2.8326  -999.2500    14.1792    20.3216   103.4027    98.3679    37.1466     0.0948     0.0012     0.2160     1.3828 
 2961.8940     3.3001  -999.2500    14.3390    20.6440    91.5337    71.7814    27.7598     0.0884     0.0014     0.2380     1.3988 
 2962.0464     3.2812  -999.2500    14.5167    21.1283    76.6075    54.2013    23.7172     0.0722     0.0013     0.2791     1.3840 
 2962.1988     3.7163  -999.2500    14.8182    21.5446    75.7865    47.6312    15.9989     0.0674     0.0014     0.3728     1.3739 
 2962.3512     3.5928  -999.2500    15.2826    21.6436    92.1700    44.5561    10.7628     0.0604     0.0014     0.3379     1.5242 
 2962.5036     3.5029  -999.2500    15.4519    21.2471    86.3873    36.1119     8.8223     0.0522     0.0013     0.3655     1.4991 
 2962.6560     3.7077  -999.2500    15.3156    20.6413    68.9203    28.7241     8.3438     0.0435     0.0013     0.4237     1.5168 
 2962.8084     3.2302  -999.2500    15.2013    20.0944    62.1351    24.7382     7.3957     0.0395     0.0012     0.3618     1.5205 
 2962.9608     3.6378  -999.2500    15.4407    19.8624    84.8623    32.3119    11.2354     0.0347     0.0013     0.4385     1.5488 
 2963.1132     3.4119  -999.2500    15.3687    20.0014   148.3436    73.1238    33.6686     0.0320     0.0012     0.3825     1.5739 
 2963.2656     2.7244  -999.2500    14.9874    20.0219   206.3762   142.7399    76.3305     0.0328     0.0009     0.3495     1.5516 
 2963.4180     3.2245  -999.2500    15.4975    19.7586   212.1808   174.3862   109.2292     0.0385     0.0009     0.4834     1.6104 
 2963.5704     3.9094  -999.2500    16.8240    19.7621   188.8912   188.3397   136.6611     0.0569     0.0012     0.5522     1.6815 
 2963.7228     4.9805  -999.2500    18.3389    20.5432   162.6546   173.3527   121.1108     0.1053     0.0014     0.7779     1.7971 
 2963.8752     5.0311  -999.2500    19.1585    21.5015   101.8671    98.0083    53.7599     0.1349     0.0015     0.7422     1.8853 
 2964.0276     5.1049  -999.2500    19.1065    22.0468    63.3094    47.9755    14.6618     0.1227     0.0015     0.7810     1.8220 
 2964.1800     5.1734  -999.2500    18.5775    22.9387   101.0196    80.8562    61.1884     0.0728     0.0015     0.8077     1.7936 
 2964.3324     4.9897  -999.2500    17.6161    24.6277   166.3355   150.0680   148.0872     0.0421     0.0015     0.7383     1.6261 
 2964.4848     5.3938  -999.2500    17.0140    25.9352   201.9011   193.2025   195.3651     0.0373     0.0016     0.8141     1.5105 
 2964.6372     4.6919  -999.2500    16.6088    25.9672   209.2275   210.9929   204.0309     0.0355     0.0013     0.7331     1.5718 
 2964.7896     4.9015  -999.2500    16.2828    25.1508   204.0664   203.0414   188.6572     0.0348     0.0014     0.7513     1.4954 
 2964.9420     5.4710  -999.2500    16.0937    24.0927   188.3138   178.7304   165.7788     0.0312     0.0017     0.7938     1.4028 
 2965.0944     5.4244  -999.2500    15.8148    23.2182   183.3055   171.6317   160.9404     0.0310     0.0017     0.7425     1.3411 
 2965.2468     4.7225  -999.2500    15.5889    22.5492   186.0112   184.2773   170.2719     0.0289     0.0013     0.7779     1.4712 
 2965.3992     3.4137  -999.2500    14.6844    21.6641   178.0040   170.6427   167.4711     0.0320     0.0010     0.5027     1.5118 
 2965.5516     3.2959  -999.2500    14.2775    20.4948   184.6385   181.8294   183.3675     0.0359     0.0010     0.4880     1.4815 
 2965.7040     2.9167  -999.2500    13.9273    19.5045   238.4424   247.1452   234.6973     0.0399     0.0009     0.4281     1.4872 
 2965.8564     2.5656  -999.2500    13.4574    18.9686   324.8595   330.9398   296.7613     0.0391     0.0009     0.3251     1.4457 
 2966.0088     2.6979  -999.2500    13.5633    18.8782   409.7169   440.4976   368.5547     0.0354     0.0008     0.3862     1.4695 
 2966.1612     2.3896  -999.2500    13.6566    19.3762   416.2948   457.3446   385.6749     0.0331     0.0008     0.3000     1.5020 
 2966.3136     2.8114  -999.2500    15.1686    20.7189   301.8806   302.9114   267.9066     0.0329     0.0010     0.2970     1.6356 
 2966.4660     2.9948  -999.2500    15.9394    22.3355   175.6306   156.1910   120.0967     0.0364     0.0011     0.3156     1.6773 
 2966.6184     2.7909  -999.2500    16.6783    22.9633   143.6051   141.7548    66.1259     0.0422     0.0011     0.2825     1.8009 
 2966.7708     2.6621  -999.2500    16.5673    22.2266   168.1916   169.9354    88.9091     0.0500     0.0010     0.2469     1.8127 
 2966.9232     3.1479  -999.2500    16.4238    20.9115   176.0885   170.4974   136.6295     0.0578     0.0014     0.1969     1.7242 
 2967.0756     3.6755  -999.2500    16.3893    19.9107   158.6926   159.3580   160.3194     0.0580     0.0016     0.2711     1.6185 
 2967.2280     3.4567  -999.2500    16.7861    19.3029   145.2102   145.5270   145.7695     0.0523     0.0014     0.2670     1.7374 
 2967.3804     3.6348  -999.2500    16.4342    18.6818   152.6038   153.4205   116.1540     0.0464     0.0016     0.2590     1.6652 
 2967.5328     3.7247  -999.2500    15.5801    18.2453   171.0731   176.2245    87.3946     0.0517     0.0015     0.3043     1.5409 
 2967.6852     3.2324  -999.2500    14.6045    18.6306   191.1127   190.3351    88.9188     0.0536     0.0015     0.1878     1.4593 
