~Version Information
 VERS.                  2.0:   CWLS log ASCII Standard -VERSION 2.0
 WRAP.                   NO:   One line per depth step
~Well Information Block
#MNEM.UNIT       Data Type    Information
#---------     -----------    ---------------------------
 STRT.M               690.2196:
 STOP.M              3268.1373:
 STEP.M                 0.1524:
 NULL.               -999.2500:
 UWI .                    1009:  UWI
 API .                    1009:  UWI
 WELL.                    1009:  COMMON WELL NAME
 COMP.                 UNKNOWN:  WELL OPERATOR
 FLD .                 UNKNOWN:  FIELD
 LIC .                 UNKNOWN:  AUTHORIZATION NO
 LOC .                 UNKNOWN:  BASIN
 CTRY.                 UNKNOWN:  COUNTRY
 STAT.                 UNKNOWN:  STATE
 CNTY.                 UNKNOWN:  COUNTY
 PROV.                 UNKNOWN:  STATE
 SRVC.                 UNKNOWN:  COMPANY
 DATE.                 UNKNOWN:  LOG RUN DATE
 LONG.                -92.0500:  LONGITUDE
 LATI.                 19.4616:  LATITUDE
 XCOORD.           599709.5625:  X COORDINATE
 YCOORD.          2152047.7500:  Y COORDINATE
 ELEV.M                 0.0000:  ELEVATION
 TD  .M              3280.0000:  TOTAL DEPTH
~Parameter Information Block
#MNEM.UNIT       Value        Description
#---------     -----------    ---------------------------
~Curve Information Block
#MNEM.UNIT                 API CODE     Curve Description
#---------               -----------    ---------------------------
 DEPTH.M                00 000 000 000:  Index Curve
 CGR .GAPI              00 000 000 000:  Gamma ray; Uranium-free
 DT  .US/F              00 000 000 000:  Acoustic wave travel time
 GR  .GAPI              00 000 000 000:  Gamma ray; total
 GR-LWD.GAPI            00 000 000 000:  
 LLD-LWD.OHMM           00 000 000 000:  
 LLS-LWD.OHMM           00 000 000 000:  
 MSFL-LWD.OHMM          00 000 000 000:  
 NPHI.V/V               00 000 000 000:  Neutron porosity
 POTA.                  00 000 000 000:  Potassium contribution from spectral gamma ray
 THOR.PPM               00 000 000 000:  Thorium contribution from spectral gamma ray
 URAN.PPM               00 000 000 000:  Uranium contribution from spectral gamma ray
~A DEPTH        CGR    DT    GR   GR-LWD   LLD-LWD   LLS-LWD  MSFL-LWD    NPHI    POTA    THOR    URAN
# ...
 2893.4664    16.1389  -999.2500    58.1035    58.6360    77.9936    63.2569    66.3718     0.1254     0.0065     1.3759     5.5074 
 2893.6188    19.1304  -999.2500    64.8324    68.1726    70.9523    44.9322    60.0232     0.1188     0.0074     1.8053     6.0968 
 2893.7712    20.3319  -999.2500    65.0999    80.1295    49.5732    34.3200    41.4897     0.1085     0.0080     1.8410     6.0503 
 2893.9236    17.9659  -999.2500    57.9080    86.7079    37.4621    32.9451    31.8637     0.0910     0.0072     1.5444     5.3250 
 2894.0760    15.5275  -999.2500    46.7556    81.1607    45.0748    39.4414    35.5073     0.0838     0.0061     1.4311     4.0643 
 2894.2284    12.5983  -999.2500    36.7799    65.5518    59.4587    53.1087    46.6545     0.0911     0.0050     1.1413     3.0210 
 2894.3808    11.5044  -999.2500    32.1552    49.8761    72.4863    63.7213    63.4448     0.1109     0.0047     0.9523     2.4832 
 2894.5332    12.9283  -999.2500    33.3978    42.5456    85.0092    74.3236    77.7798     0.1152     0.0055     0.9282     2.6591 
 2894.6856    14.5730  -999.2500    38.2897    43.4839    89.7320    88.0641    85.3835     0.1118     0.0063     1.0163     2.9892 
 2894.8380    17.3732  -999.2500    46.8263    51.2497    74.1479    85.4377    78.8919     0.1042     0.0074     1.2473     3.7542 
 2894.9904    23.0921  -999.2500    59.7379    67.5838    44.3014    55.2446    52.6945     0.1159     0.0098     1.6680     4.7518 
 2895.1428    28.7974  -999.2500    72.2294    87.6149    22.3607    26.3193    26.7112     0.1462     0.0125     1.9371     6.2150 
 2895.2952    29.5797  -999.2500    74.5974    98.4382    15.0688    14.7990    13.5437     0.2141     0.0130     1.8842     6.5325 
 2895.4476    23.3120  -999.2500    63.3713    89.7983    50.5007    34.9052    24.7960     0.3278     0.0097     1.7962     5.6125 
 2895.6000    15.8827  -999.2500    45.9929    65.6682   120.6632    80.1700    68.7236     0.3773     0.0065     1.2917     3.8375 
 2895.7524    10.4489  -999.2500    32.7784    43.2955   132.2338    96.9272   102.9504     0.3179     0.0041     0.9343     2.6598 
 2895.9048     8.6789  -999.2500    28.1844    33.9001    87.2543    82.1933    90.4179     0.1853     0.0034     0.8169     2.3770 
 2896.0572     9.3574  -999.2500    30.8364    34.1787    54.8778    64.0072    59.2913     0.1128     0.0035     0.9754     2.7654 
 2896.2096    10.4964  -999.2500    36.9650    38.4769    42.9126    47.3979    41.5151     0.1029     0.0034     1.3641     3.5991 
 2896.3620    13.0874  -999.2500    41.6049    43.8081    38.7969    34.7061    32.1287     0.1370     0.0042     1.7686     3.9576 
 2896.5144    13.9715  -999.2500    40.5448    45.1815    64.0430    62.2593    73.3684     0.1772     0.0051     1.5309     3.6735 
 2896.6668    10.3350  -999.2500    34.5174    43.2084   134.8082   141.9397   148.8370     0.1721     0.0038     1.0746     3.0641 
 2896.8192     9.2862  -999.2500    31.7310    51.7689   188.5165   188.9137   166.1258     0.1408     0.0035     0.9216     2.5108 
 2896.9716    12.4280  -999.2500    42.5888    78.8201   157.8740   138.9643   119.7553     0.1030     0.0047     1.2452     3.3201 
 2897.1240    22.6721  -999.2500    66.7119   107.7156   123.3655    59.3004    68.6301     0.1521     0.0091     1.9449     5.9744 
 2897.2764    28.9867  -999.2500    83.1145   112.3970   361.2575   288.6649   337.7701     0.2058     0.0119     2.3857     7.5593 
 2897.4288    26.0015  -999.2500    75.7453    87.0754   706.6151   596.8708   639.9814     0.1869     0.0115     1.6321     6.8970 
 2897.5812    15.6445  -999.2500    49.2481    51.7239   659.3074   556.0104   572.3790     0.1006     0.0071     0.8772     4.0361 
 2897.7336     7.3993  -999.2500    25.5821    27.9106   446.5654   438.2130   410.4944     0.0382     0.0033     0.4312     1.9158 
 2897.8860     4.4250  -999.2500    14.7462    18.7167   388.8118   409.5710   341.6516     0.0361     0.0020     0.2304     1.1488 
 2898.0384     3.4636  -999.2500    11.5701    16.4766   394.5988   380.3318   335.4775     0.0387     0.0016     0.1529     0.9658 
 2898.1908     3.0097  -999.2500    11.3939    16.2017   413.4988   366.2571   353.1529     0.0381     0.0014     0.1210     1.0759 
 2898.3432     3.2779  -999.2500    11.6183    16.7279   421.7472   374.9444   342.0563     0.0357     0.0015     0.1507     1.0206 
 2898.4956     3.0212  -999.2500    13.0002    18.5902   387.8213   345.0824   304.1320     0.0363     0.0014     0.1277     1.2341 
 2898.6480     3.3329  -999.2500    15.5838    22.6054   307.2267   251.7946   244.7009     0.0465     0.0017     0.0876     1.4982 
 2898.8004     5.5271  -999.2500    20.2304    28.1158   215.8311   177.0768   184.1808     0.0658     0.0023     0.4240     1.8392 
 2898.9528     6.2196  -999.2500    23.6129    32.7886   174.3166   170.6659   166.4902     0.0794     0.0026     0.4727     2.2132 
 2899.1052     5.9043  -999.2500    23.9950    35.2930   179.9762   183.4639   162.8372     0.0865     0.0025     0.4339     2.2723 
 2899.2576     6.3498  -999.2500    24.2638    37.4082   175.4895   169.6890   144.8531     0.0878     0.0025     0.6060     2.2420 
 2899.4100     8.7461  -999.2500    27.8088    41.3391   165.4339   151.7645   130.3119     0.0991     0.0032     0.9429     2.4126 
 2899.5624    11.3918  -999.2500    34.2886    46.2724   196.8947   214.6568   168.8349     0.1227     0.0044     1.0812     2.9618 
 2899.7148    13.6864  -999.2500    36.7761    50.4496   229.0879   281.5864   216.5262     0.1320     0.0053     1.2954     2.9697 
 2899.8672    14.0906  -999.2500    36.6342    54.7878   187.5413   211.0613   172.4695     0.1295     0.0053     1.4249     2.8916 
 2900.0196    16.2912  -999.2500    41.2493    60.8027   109.1482    97.9447   100.4316     0.1364     0.0062     1.6192     3.1542 
 2900.1720    18.7955  -999.2500    48.2457    67.3970    59.9156    60.9237    94.7336     0.1737     0.0070     1.9283     3.7451 
 2900.3244    19.7751  -999.2500    53.3175    71.2946    41.3033    87.8147   145.3518     0.2105     0.0073     2.0981     4.3254 
 2900.4768    16.5735  -999.2500    46.2168    68.5002    40.8402   119.0532   188.7811     0.2131     0.0066     1.4953     3.8582 
 2900.6292    14.1599  -999.2500    37.9300    58.9855    51.7496   112.2948   178.9975     0.1826     0.0056     1.2791     3.1088 
 2900.7816    13.1270  -999.2500    33.5193    49.9429    60.5872    86.9098   132.3002     0.1600     0.0054     1.0784     2.5934 
 2900.9340    15.7617  -999.2500    39.2087    49.4845    59.7347    67.9723    80.7846     0.1569     0.0068     1.0719     3.1031 
 2901.0864    19.1679  -999.2500    47.6324    58.4255    52.3076    63.1114    57.4868     0.1683     0.0086     1.1101     3.7840 
 2901.2388    21.5642  -999.2500    53.8192    71.4170    42.9568    56.2748    52.6411     0.1711     0.0097     1.2655     4.2870 
 2901.3912    21.9681  -999.2500    59.6539    83.8762    34.3690    35.7889    38.1401     0.1739     0.0101     1.1577     4.9739 
 2901.5436    25.2922  -999.2500    66.9270    93.4767    30.9772    39.8248    36.1647     0.2101     0.0119     1.1629     5.5385 
 2901.6960    27.5571  -999.2500    71.3910    98.2781    38.4810    68.9785    47.7314     0.2575     0.0129     1.3254     5.8898 
 2901.8484    27.5116  -999.2500    70.5424    98.2110    48.5586    66.8347    40.5094     0.2654     0.0126     1.4970     5.6140 
 2902.0008    27.9915  -999.2500    72.1420    96.8510    46.1607    42.1828    30.4744     0.2313     0.0127     1.5724     5.5022 
 2902.1532    32.6366  -999.2500    84.1119   100.2002    40.8796    25.5231    28.4891     0.2958     0.0147     1.8719     6.6472 
 2902.3056    38.8271  -999.2500    96.7356   110.3304    48.8847    21.6602    34.5320     0.4268     0.0176     2.1771     7.9964 
 2902.4580    35.6010  -999.2500    92.7779   118.7478    71.4887    38.3004    80.5698     0.4505     0.0160     2.0852     7.7711 
 2902.6104    26.2766  -999.2500    73.5112   113.1573   110.2162    77.2567   142.2976     0.3233     0.0116     1.6583     6.0911 
