~Version Information
 VERS.                  2.0:   CWLS log ASCII Standard -VERSION 2.0
 WRAP.                   NO:   One line per depth step
~Well Information Block
#MNEM.UNIT       Data Type    Information
#---------     -----------    ---------------------------
 STRT.M               690.2196:
 STOP.M              3268.1373:
 STEP.M                 0.1524:
 NULL.               -999.2500:
 UWI .                    1009:  UWI
 API .                    1009:  UWI
 WELL.                    1009:  COMMON WELL NAME
 COMP.                 UNKNOWN:  WELL OPERATOR
 FLD .                 UNKNOWN:  FIELD
 LIC .                 UNKNOWN:  AUTHORIZATION NO
 LOC .                 UNKNOWN:  BASIN
 CTRY.                 UNKNOWN:  COUNTRY
 STAT.                 UNKNOWN:  STATE
 CNTY.                 UNKNOWN:  COUNTY
 PROV.                 UNKNOWN:  STATE
 SRVC.                 UNKNOWN:  COMPANY
 DATE.                 UNKNOWN:  LOG RUN DATE
 LONG.                -92.0500:  LONGITUDE
 LATI.                 19.4616:  LATITUDE
 XCOORD.           599709.5625:  X COORDINATE
 YCOORD.          2152047.7500:  Y COORDINATE
 ELEV.M                 0.0000:  ELEVATION
 TD  .M              3280.0000:  TOTAL DEPTH
~Parameter Information Block
#MNEM.UNIT       Value        Description
#---------     -----------    ---------------------------
~Curve Information Block
#MNEM.UNIT                 API CODE     Curve Description
#---------               -----------    ---------------------------
 DEPTH.M                00 000 000 000:  Index Curve
 CGR .GAPI              00 000 000 000:  Gamma ray; Uranium-free
 DT  .US/F              00 000 000 000:  Acoustic wave travel time
 GR  .GAPI              00 000 000 000:  Gamma ray; total
 GR-LWD.GAPI            00 000 000 000:  
 LLD-LWD.OHMM           00 000 000 000:  
 LLS-LWD.OHMM           00 000 000 000:  
 MSFL-LWD.OHMM          00 000 000 000:  
 NPHI.V/V               00 000 000 000:  Neutron porosity
 POTA.                  00 000 000 000:  Potassium contribution from spectral gamma ray
 THOR.PPM               00 000 000 000:  Thorium contribution from spectral gamma ray
 URAN.PPM               00 000 000 000:  Uranium contribution from spectral gamma ray
~A DEPTH        CGR    DT    GR   GR-LWD   LLD-LWD   LLS-LWD  MSFL-LWD    NPHI    POTA    THOR    URAN
# ...
 3088.6908    11.5878  -999.2500    41.0483    44.3572   106.2029   122.9823   101.7063     0.0338     0.0033     1.7971     3.8664 
 3088.8432    12.4297  -999.2500    42.1769    43.0152    85.4041    81.2753    64.8186     0.0337     0.0035     1.9482     3.9333 
 3088.9956    12.0164  -999.2500    39.3181    42.2084    54.2810    42.4272    33.1330     0.0371     0.0035     1.8174     3.5759 
 3089.1480    11.2988  -999.2500    35.2005    41.2721    49.4231    32.9044    22.8155     0.0397     0.0031     1.8131     3.1242 
 3089.3004     9.9938  -999.2500    32.4176    39.7387    85.6443    33.5205    19.4723     0.0465     0.0027     1.6308     2.9319 
 3089.4528     9.9097  -999.2500    31.8188    37.4746   128.0815    27.2159    15.0051     0.0569     0.0028     1.5567     2.9184 
 3089.6052    10.6165  -999.2500    30.5822    34.6470   152.5947    17.9660     9.3428     0.0643     0.0031     1.5993     2.6747 
 3089.7576    10.2801  -999.2500    28.9764    32.3744   171.1154    10.3919     4.7839     0.0821     0.0030     1.5288     2.4882 
 3089.9100     9.2220  -999.2500    27.0455    31.9675   175.8751     6.9383     3.0848     0.1101     0.0027     1.3685     2.4051 
 3090.0624     8.7664  -999.2500    26.4845    33.0870   146.7118     6.2121     3.0802     0.1896     0.0027     1.2474     2.3916 
 3090.2148     8.0715  -999.2500    26.4719    34.4516   100.7683     7.6137     3.8139     0.2996     0.0026     1.0657     2.5177 
 3090.3672     8.2104  -999.2500    26.8329    35.1865    62.1363     9.5402     5.4398     0.3762     0.0026     1.1021     2.5615 
 3090.5196     7.9975  -999.2500    27.6016    35.0893    40.1839    13.0358    13.1701     0.4272     0.0026     1.0560     2.7172 
 3090.6720     7.9800  -999.2500    28.1074    34.8421    34.4308    17.5223    18.9236     0.4563     0.0027     1.0057     2.7564 
 3090.8244     7.8022  -999.2500    27.7833    35.4305    41.7906    27.5689    16.2357     0.4407     0.0027     0.9481     2.6776 
 3090.9768     7.8281  -999.2500    28.0201    36.9399    61.1127    41.8625    22.3942     0.3043     0.0028     0.8688     2.6935 
 3091.1292     8.4793  -999.2500    29.3944    38.6624    75.8342    48.9315    46.6825     0.1537     0.0028     1.0799     2.8006 
 3091.2816     8.0091  -999.2500    31.0659    40.0766    73.4890    49.2841    61.0559     0.0772     0.0028     0.9349     3.0901 
 3091.4340     8.4021  -999.2500    32.0190    40.8121    65.1748    51.7363    50.8921     0.0705     0.0028     1.0521     3.1831 
 3091.5864     8.7550  -999.2500    32.7881    40.4980    58.5416    57.2030    40.1398     0.0738     0.0029     1.1296     3.2047 
 3091.7388     8.9179  -999.2500    33.1252    39.6363    52.5916    62.7571    37.0962     0.0755     0.0031     1.0690     3.2178 
 3091.8912     9.5331  -999.2500    33.4112    39.5839    51.3608    81.1551    53.7001     0.0698     0.0032     1.1821     3.1475 
 3092.0436     9.1094  -999.2500    32.6631    41.1229    56.9060   101.9455    82.4092     0.0589     0.0031     1.0969     3.0391 
 3092.1960     9.5755  -999.2500    33.5169    43.9278    60.7077   107.1982    90.9670     0.0494     0.0031     1.2449     3.1471 
 3092.3484     9.3601  -999.2500    34.8149    47.4231    55.1956   102.2164    84.5370     0.0460     0.0031     1.2256     3.3723 
 3092.5008    10.2508  -999.2500    37.0500    51.3384    47.2371    84.3122    70.8565     0.0466     0.0033     1.3767     3.5550 
 3092.6532    10.7367  -999.2500    39.8709    55.2812    49.1744    79.6247    63.0740     0.0492     0.0034     1.4860     3.8971 
 3092.8056    10.6363  -999.2500    42.3744    58.2981    70.5553    96.4716    70.9148     0.0487     0.0034     1.4082     4.1477 
 3092.9580    12.0874  -999.2500    45.2485    59.3475   115.1176   104.7118    75.2675     0.0461     0.0036     1.7723     4.4589 
 3093.1104    11.7728  -999.2500    46.7994    58.5443   142.5952   114.7854    81.0881     0.0453     0.0037     1.6489     4.5800 
 3093.2628    12.7259  -999.2500    48.0661    57.5024   119.3594   135.5636   101.9142     0.0446     0.0038     1.8702     4.7537 
 3093.4152    12.2199  -999.2500    47.7159    57.6966    92.3548   150.5989   128.1552     0.0446     0.0036     1.8362     4.6940 
 3093.5676    12.0552  -999.2500    46.7297    58.9903    78.1523   144.9801   130.8401     0.0429     0.0033     1.9303     4.6315 
 3093.7200    11.4822  -999.2500    45.8650    60.6676    62.9932   125.5061   108.5454     0.0400     0.0031     1.8664     4.5636 
 3093.8724    10.8947  -999.2500    46.1978    62.3322    58.8312   109.8854    88.7484     0.0372     0.0030     1.7297     4.6414 
 3094.0248    11.5836  -999.2500    48.5728    62.9913    64.3469   103.5955    93.4889     0.0358     0.0032     1.8471     4.8385 
 3094.1772    11.8455  -999.2500    53.2343    61.6556    75.5061   115.4434   101.8828     0.0346     0.0033     1.8767     5.4132 
 3094.3296    13.1388  -999.2500    58.4760    59.7243    92.0135   124.1484   103.6079     0.0356     0.0038     2.0272     6.1734 
 3094.4820    13.6056  -999.2500    60.4475    60.0409    92.1416   118.6497   100.2773     0.0362     0.0041     1.9950     6.2698 
 3094.6344    12.3089  -999.2500    58.4261    62.6887    91.1714   109.3599    92.1307     0.0389     0.0039     1.6718     6.1330 
 3094.7868    11.7811  -999.2500    54.9395    64.5486   103.4707    98.0018    85.5800     0.0458     0.0035     1.7292     5.5283 
 3094.9392    10.9659  -999.2500    52.9037    63.4081    83.2786    81.7299    74.8054     0.0531     0.0034     1.5447     5.4893 
 3095.0916    11.1366  -999.2500    51.8142    59.6857    61.2689    89.0980    81.4403     0.0603     0.0032     1.6985     5.4064 
 3095.2440     9.5619  -999.2500    49.3459    54.8710    61.5667   128.0998   113.8560     0.0576     0.0029     1.3915     5.3198 
 3095.3964     8.4644  -999.2500    44.8976    50.5246    69.3219   145.2893   131.9534     0.0512     0.0026     1.2237     4.7116 
 3095.5488     7.9954  -999.2500    39.9100    48.2703    69.6689   119.9094   116.4408     0.0421     0.0025     1.1320     4.0381 
 3095.7012     7.4865  -999.2500    36.9514    48.7184    64.0957    90.2447    87.0540     0.0385     0.0023     1.0736     3.5821 
 3095.8536     8.0898  -999.2500    37.6291    50.3618    61.2171    72.3120    62.0937     0.0385     0.0025     1.1216     3.7094 
 3096.0060     9.4155  -999.2500    40.2494    51.5447    51.3987    63.1680    52.5580     0.0424     0.0028     1.3637     3.9769 
 3096.1584    10.1708  -999.2500    41.8880    51.3051    43.9932    59.9120    53.1398     0.0491     0.0028     1.6062     4.1949 
 3096.3108    11.1066  -999.2500    41.1716    49.6476    37.8165    46.2179    45.4295     0.0576     0.0031     1.7586     3.9361 
 3096.4632    10.7978  -999.2500    39.0616    47.4860    33.2430    36.3330    39.7924     0.0619     0.0029     1.7949     3.6672 
 3096.6156    10.1920  -999.2500    37.0950    45.9533    47.3925    53.7091    54.3549     0.0608     0.0027     1.6838     3.4497 
 3096.7680     9.5349  -999.2500    35.7198    45.6016    73.5091    71.5530    68.7705     0.0523     0.0028     1.4584     3.4223 
 3096.9204     9.5715  -999.2500    35.0522    45.9165    99.4588    78.3901    74.4105     0.0409     0.0027     1.4719     3.2136 
 3097.0728     9.9753  -999.2500    35.6201    46.6071   114.4038    92.6174    89.5575     0.0357     0.0029     1.5261     3.4645 
 3097.2252     9.6489  -999.2500    35.7361    47.6750    96.8346   109.5651   102.3077     0.0352     0.0027     1.5161     3.4103 
 3097.3776     9.7877  -999.2500    35.7975    48.5713    94.2209   112.0524   103.2426     0.0376     0.0029     1.4667     3.4847 
 3097.5300     9.4899  -999.2500    35.2892    48.5036   110.3754    94.0817    96.9058     0.0412     0.0027     1.4489     3.2966 
 3097.6824    10.0342  -999.2500    35.8514    47.6933    79.9417    64.8026    73.9615     0.0423     0.0029     1.5280     3.3331 
 3097.8348    10.4529  -999.2500    37.1870    47.4934    42.7531    50.6470    54.2949     0.0506     0.0031     1.5555     3.4843 
