~Version Information
 VERS.                  2.0:   CWLS log ASCII Standard -VERSION 2.0
 WRAP.                   NO:   One line per depth step
~Well Information Block
#MNEM.UNIT       Data Type    Information
#---------     -----------    ---------------------------
 STRT.M               690.2196:
 STOP.M              3268.1373:
 STEP.M                 0.1524:
 NULL.               -999.2500:
 UWI .                    1009:  UWI
 API .                    1009:  UWI
 WELL.                    1009:  COMMON WELL NAME
 COMP.                 UNKNOWN:  WELL OPERATOR
 FLD .                 UNKNOWN:  FIELD
 LIC .                 UNKNOWN:  AUTHORIZATION NO
 LOC .                 UNKNOWN:  BASIN
 CTRY.                 UNKNOWN:  COUNTRY
 STAT.                 UNKNOWN:  STATE
 CNTY.                 UNKNOWN:  COUNTY
 PROV.                 UNKNOWN:  STATE
 SRVC.                 UNKNOWN:  COMPANY
 DATE.                 UNKNOWN:  LOG RUN DATE
 LONG.                -92.0500:  LONGITUDE
 LATI.                 19.4616:  LATITUDE
 XCOORD.           599709.5625:  X COORDINATE
 YCOORD.          2152047.7500:  Y COORDINATE
 ELEV.M                 0.0000:  ELEVATION
 TD  .M              3280.0000:  TOTAL DEPTH
~Parameter Information Block
#MNEM.UNIT       Value        Description
#---------     -----------    ---------------------------
~Curve Information Block
#MNEM.UNIT                 API CODE     Curve Description
#---------               -----------    ---------------------------
 DEPTH.M                00 000 000 000:  Index Curve
 CGR .GAPI              00 000 000 000:  Gamma ray; Uranium-free
 DT  .US/F              00 000 000 000:  Acoustic wave travel time
 GR  .GAPI              00 000 000 000:  Gamma ray; total
 GR-LWD.GAPI            00 000 000 000:  
 LLD-LWD.OHMM           00 000 000 000:  
 LLS-LWD.OHMM           00 000 000 000:  
 MSFL-LWD.OHMM          00 000 000 000:  
 NPHI.V/V               00 000 000 000:  Neutron porosity
 POTA.                  00 000 000 000:  Potassium contribution from spectral gamma ray
 THOR.PPM               00 000 000 000:  Thorium contribution from spectral gamma ray
 URAN.PPM               00 000 000 000:  Uranium contribution from spectral gamma ray
~A DEPTH        CGR    DT    GR   GR-LWD   LLD-LWD   LLS-LWD  MSFL-LWD    NPHI    POTA    THOR    URAN
# ...
 3218.8404    15.8556  -999.2500    57.4341    54.4959   344.8750    49.8981    52.9141     0.0439     0.0060     1.5659     5.1550 
 3218.9928    17.1183  -999.2500    62.0872    59.6767   341.2248    55.3877    58.2999     0.0486     0.0066     1.6575     5.7816 
 3219.1452    17.0250  -999.2500    62.4652    58.5612   292.7981    56.6077    59.7427     0.0507     0.0061     1.9079     5.9633 
 3219.2976    15.7930  -999.2500    57.7804    52.7998   168.7501    58.9455    57.5782     0.0493     0.0056     1.7902     5.2234 
 3219.4500    14.5070  -999.2500    52.9375    49.0634    82.1689    60.8170    54.9612     0.0423     0.0053     1.5949     4.6786 
 3219.6024    13.8666  -999.2500    50.4783    49.7232   171.2171    52.2723    52.3386     0.0380     0.0049     1.5898     4.6134 
 3219.7548    13.2511  -999.2500    48.3894    51.4673   214.4507    38.5968    47.0823     0.0353     0.0048     1.4763     4.3938 
 3219.9072    12.1200  -999.2500    46.1667    50.7597   132.6631    32.5280    42.0938     0.0385     0.0043     1.3634     4.1873 
 3220.0596    10.9707  -999.2500    44.9620    49.0248    99.7934    33.3018    42.2817     0.0392     0.0038     1.2991     4.1363 
 3220.2120    10.9736  -999.2500    44.0639    47.7491   148.3325    37.5794    46.5640     0.0435     0.0037     1.3883     4.1045 
 3220.3644    10.0698  -999.2500    41.8519    46.5075   159.4731    43.4952    50.9371     0.0455     0.0032     1.3626     3.9096 
 3220.5168     9.1019  -999.2500    38.8342    45.0639   117.0232    51.8040    55.7706     0.0513     0.0030     1.1713     3.6030 
 3220.6692     9.5331  -999.2500    37.5016    43.9479    87.7252    59.4321    60.8979     0.0555     0.0031     1.2609     3.3130 
 3220.8216     9.1316  -999.2500    39.0548    43.4691    80.2747    61.8721    64.0413     0.0581     0.0030     1.1846     3.6322 
 3220.9740     9.4066  -999.2500    42.2275    44.4805    74.1551    59.2294    61.7563     0.0602     0.0032     1.1687     4.0328 
 3221.1264    10.5951  -999.2500    46.0795    47.7518    80.1521    53.3163    55.0207     0.0626     0.0032     1.5219     4.4356 
 3221.2788    11.2031  -999.2500    49.7701    51.2370    91.9814    49.4217    49.8300     0.0676     0.0034     1.6001     4.7934 
 3221.4312    11.5333  -999.2500    53.7549    52.8427    96.7865    50.5998    47.5630     0.0688     0.0038     1.4989     5.3303 
 3221.5836    11.6372  -999.2500    56.6687    53.0283    88.3642    54.1455    49.1147     0.0676     0.0036     1.6540     5.6470 
 3221.7360    11.3410  -999.2500    58.0178    51.6159    83.6797    52.0687    49.3456     0.0704     0.0035     1.5824     5.8067 
 3221.8884    11.1295  -999.2500    59.2467    48.2099   103.5996    44.9562    47.4761     0.0716     0.0037     1.4143     6.0578 
 3222.0408    11.4670  -999.2500    58.9494    44.2567   127.9309    40.3443    50.0128     0.0709     0.0039     1.4115     5.9160 
 3222.1932    11.4238  -999.2500    58.6506    40.7936   133.1900    43.1100    56.9553     0.0635     0.0038     1.4250     5.9859 
 3222.3456    10.7649  -999.2500    56.5578    39.7650   120.6474    47.5531    61.4766     0.0602     0.0037     1.2942     5.7533 
 3222.4980    12.0935  -999.2500    55.8035    42.9649   100.3927    47.2083    59.9751     0.0633     0.0044     1.3398     5.5314 
 3222.6504    12.8815  -999.2500    56.0853    47.6079    82.1800    44.8787    55.4740     0.0680     0.0046     1.4249     5.4258 
 3222.8028    12.3128  -999.2500    56.4984    49.8412    72.0437    43.5559    51.0643     0.0732     0.0046     1.2702     5.5953 
 3222.9552    11.7966  -999.2500    55.3789    48.7548    71.3641    45.5637    51.9146     0.0793     0.0046     1.0948     5.4868 
 3223.1076    12.0444  -999.2500    53.6127    46.0967    72.5684    46.2880    54.7510     0.0845     0.0044     1.2841     5.2236 
 3223.2600    12.3021  -999.2500    51.5031    44.1655    68.0350    40.2278    52.0490     0.0784     0.0047     1.2358     4.9485 
 3223.4124    11.7054  -999.2500    49.5079    44.6439    59.1414    34.5076    44.4525     0.0676     0.0044     1.1682     4.7758 
 3223.5648    12.5310  -999.2500    50.2171    48.0503    56.9157    34.0353    37.7762     0.0543     0.0045     1.3937     4.7612 
 3223.7172    12.3190  -999.2500    52.3706    52.6491    64.8997    35.9724    35.5544     0.0519     0.0045     1.3303     5.0635 
 3223.8696    13.1819  -999.2500    55.1942    56.0772    71.9893    39.1502    35.7852     0.0508     0.0047     1.4769     5.2269 
 3224.0220    13.0179  -999.2500    54.3533    56.7663    75.8929    39.8989    37.3167     0.0517     0.0045     1.5583     5.1390 
 3224.1744    11.6852  -999.2500    49.5977    54.6047    78.4533    37.0502    38.7579     0.0523     0.0038     1.5550     4.7115 
 3224.3268    10.2825  -999.2500    45.1995    51.9555    73.8376    34.5017    36.4214     0.0525     0.0033     1.3915     4.3147 
 3224.4792     9.7759  -999.2500    41.2357    51.1665    64.6075    32.5335    30.1892     0.0509     0.0033     1.1978     3.8185 
 3224.6316    10.4381  -999.2500    42.9894    51.8491    61.6280    30.5154    26.1405     0.0497     0.0035     1.3277     4.0341 
 3224.7840    12.0239  -999.2500    47.1766    52.2188    67.9545    28.4822    26.2640     0.0485     0.0042     1.4289     4.4199 
 3224.9364    14.0726  -999.2500    50.7262    51.4375    71.3227    27.8486    27.2234     0.0475     0.0049     1.6610     4.5897 
 3225.0888    14.6263  -999.2500    51.6451    50.0012    60.4872    31.1329    30.6341     0.0458     0.0049     1.8261     4.6321 
 3225.2412    13.5559  -999.2500    50.2791    48.3015    47.5715    32.6309    33.0429     0.0436     0.0046     1.6692     4.5609 
 3225.3936    13.5931  -999.2500    48.8839    46.4947    51.0350    28.5064    29.7394     0.0441     0.0042     1.9072     4.3763 
 3225.5460    13.4500  -999.2500    48.0287    45.7001    65.7175    25.9045    26.3742     0.0441     0.0042     1.8560     4.2771 
 3225.6984    13.3810  -999.2500    48.7131    47.0540    73.4553    26.0745    26.5204     0.0428     0.0043     1.7803     4.3006 
 3225.8508    13.7761  -999.2500    51.1965    50.2878    69.7072    27.0552    28.1053     0.0428     0.0047     1.6735     4.5297 
 3226.0032    14.4951  -999.2500    54.0768    54.2223    65.0875    29.7118    30.4369     0.0429     0.0050     1.7304     4.8188 
 3226.1556    14.9588  -999.2500    57.0381    57.5595    68.8551    32.5700    33.6286     0.0458     0.0047     2.0474     5.1456 
 3226.3080    16.0548  -999.2500    59.5864    58.6337    75.6035    34.7210    36.1421     0.0467     0.0050     2.2388     5.3037 
 3226.4604    15.3045  -999.2500    60.9623    55.2852    78.6673    36.1946    36.1608     0.0501     0.0046     2.2152     5.5411 
 3226.6128    13.9014  -999.2500    60.5457    50.2882    77.9633    38.1811    37.0137     0.0533     0.0042     2.0079     5.7486 
 3226.7652    14.0992  -999.2500    57.7203    47.9389    81.5781    43.4128    44.7004     0.0568     0.0045     1.9305     5.3600 
 3226.9176    13.7812  -999.2500    53.9881    42.1211    91.8047    48.1677    51.9645     0.0604     0.0046     1.7412     4.8262 
 3227.0700    13.6094  -999.2500    51.6830    32.0140    88.3195    45.1408    47.1990     0.0624     0.0049     1.5200     4.5995 
 3227.2224    14.4087  -999.2500    50.6910    28.9704    79.1388    39.1365    41.3722     0.0662     0.0051     1.6327     4.4395 
 3227.3748    14.7519  -999.2500    49.2926    35.3833    80.1845    35.9789    43.2424     0.0653     0.0053     1.6621     4.3235 
 3227.5272    14.4568  -999.2500    46.0309    42.4869    89.4896    34.9807    43.5870     0.0678     0.0052     1.6350     4.0745 
 3227.6796    12.9666  -999.2500    41.2088    41.6907    98.9240    39.5244    45.2094     0.0714     0.0046     1.4940     3.5352 
 3227.8320    12.2197  -999.2500    36.1264    36.3753    98.6210    47.0452    49.7824     0.0770     0.0047     1.2087     3.0817 
 3227.9844    10.7187  -999.2500    31.2283    31.7997   100.8405    53.6814    54.4361     0.0751     0.0041     1.0647     2.4885 
