~Version Information
 VERS.                  2.0:   CWLS log ASCII Standard -VERSION 2.0
 WRAP.                   NO:   One line per depth step
~Well Information Block
#MNEM.UNIT       Data Type    Information
#---------     -----------    ---------------------------
 STRT.M               690.2196:
 STOP.M              3268.1373:
 STEP.M                 0.1524:
 NULL.               -999.2500:
 UWI .                    1009:  UWI
 API .                    1009:  UWI
 WELL.                    1009:  COMMON WELL NAME
 COMP.                 UNKNOWN:  WELL OPERATOR
 FLD .                 UNKNOWN:  FIELD
 LIC .                 UNKNOWN:  AUTHORIZATION NO
 LOC .                 UNKNOWN:  BASIN
 CTRY.                 UNKNOWN:  COUNTRY
 STAT.                 UNKNOWN:  STATE
 CNTY.                 UNKNOWN:  COUNTY
 PROV.                 UNKNOWN:  STATE
 SRVC.                 UNKNOWN:  COMPANY
 DATE.                 UNKNOWN:  LOG RUN DATE
 LONG.                -92.0500:  LONGITUDE
 LATI.                 19.4616:  LATITUDE
 XCOORD.           599709.5625:  X COORDINATE
 YCOORD.          2152047.7500:  Y COORDINATE
 ELEV.M                 0.0000:  ELEVATION
 TD  .M              3280.0000:  TOTAL DEPTH
~Parameter Information Block
#MNEM.UNIT       Value        Description
#---------     -----------    ---------------------------
~Curve Information Block
#MNEM.UNIT                 API CODE     Curve Description
#---------               -----------    ---------------------------
 DEPTH.M                00 000 000 000:  Index Curve
 CGR .GAPI              00 000 000 000:  Gamma ray; Uranium-free
 DT  .US/F              00 000 000 000:  Acoustic wave travel time
 GR  .GAPI              00 000 000 000:  Gamma ray; total
 GR-LWD.GAPI            00 000 000 000:  
 LLD-LWD.OHMM           00 000 000 000:  
 LLS-LWD.OHMM           00 000 000 000:  
 MSFL-LWD.OHMM          00 000 000 000:  
 NPHI.V/V               00 000 000 000:  Neutron porosity
 POTA.                  00 000 000 000:  Potassium contribution from spectral gamma ray
 THOR.PPM               00 000 000 000:  Thorium contribution from spectral gamma ray
 URAN.PPM               00 000 000 000:  Uranium contribution from spectral gamma ray
~A DEPTH        CGR    DT    GR   GR-LWD   LLD-LWD   LLS-LWD  MSFL-LWD    NPHI    POTA    THOR    URAN
# ...
 2800.5024    10.7467  -999.2500    33.1538    95.3566    26.3916  -999.2500  -999.2500     0.2598     0.0041     1.0602     3.0105 
 2800.6548    10.7826  -999.2500    32.9242   109.5342    23.0283  -999.2500  -999.2500     0.2745     0.0043     0.9615     2.9627 
 2800.8072    11.4886  -999.2500    33.6759   122.0199    21.9314  -999.2500  -999.2500     0.2684     0.0045     1.0459     3.0347 
 2800.9596    12.5052  -999.2500    34.8538   125.3404    23.1279  -999.2500  -999.2500     0.2914     0.0048     1.1952     3.0385 
 2801.1120    12.4219  -999.2500    35.6240   124.9899    21.2329  -999.2500  -999.2500     0.2947     0.0051     1.0029     3.1868 
 2801.2644    11.7656  -999.2500    35.0111   126.0957    17.9873  -999.2500  -999.2500     0.2982     0.0050     0.8563     3.1761 
 2801.4168    11.5028  -999.2500    32.9359   126.4306    16.5312  -999.2500  -999.2500     0.2787     0.0048     0.8701     2.9190 
 2801.5692    10.5963  -999.2500    30.2587   121.7189    17.1344  -999.2500  -999.2500     0.2422     0.0043     0.8944     2.5442 
 2801.7216    10.5973  -999.2500    28.9126   116.5268    20.2668  -999.2500  -999.2500     0.2374     0.0045     0.8066     2.3579 
 2801.8740    10.5278  -999.2500    29.5685   119.8730    23.5568  -999.2500  -999.2500     0.2902     0.0045     0.7826     2.4335 
 2802.0264    12.1148  -999.2500    32.1097   131.5802    23.3234  -999.2500  -999.2500     0.3509     0.0051     0.9375     2.6153 
 2802.1788    12.6128  -999.2500    34.7612   144.2554    19.4632  -999.2500  -999.2500     0.3968     0.0053     0.9363     2.8623 
 2802.3312    14.0688  -999.2500    35.9513   148.8580    16.8835  -999.2500  -999.2500     0.3910     0.0058     1.1082     2.8817 
 2802.4836    13.6141  -999.2500    34.1535   141.7935    17.6428  -999.2500  -999.2500     0.3739     0.0057     1.0441     2.6186 
 2802.6360    12.1744  -999.2500    31.2297   128.3628    18.7925  -999.2500  -999.2500     0.3705     0.0053     0.8356     2.4307 
 2802.7884    11.9334  -999.2500    28.6031   118.3184    18.0778  -999.2500  -999.2500     0.3768     0.0048     1.0117     2.1308 
 2802.9408    11.5596  -999.2500    27.2264   116.0585    14.8041  -999.2500  -999.2500     0.3902     0.0043     1.1876     2.0284 
 2803.0932    11.9596  -999.2500    27.0998   117.9531    10.6231  -999.2500  -999.2500     0.3885     0.0044     1.2891     1.9546 
 2803.2456    12.4178  -999.2500    27.6204   118.9824     7.6888  -999.2500  -999.2500     0.3782     0.0047     1.2392     1.9692 
 2803.3980    13.2028  -999.2500    28.8002   118.2879     6.0072  -999.2500  -999.2500     0.3663     0.0048     1.4391     2.0603 
 2803.5504    14.2769  -999.2500    30.1134   117.9003     5.0053  -999.2500  -999.2500     0.3700     0.0052     1.5550     2.1055 
 2803.7028    14.7579  -999.2500    31.6925   118.7130     4.6575  -999.2500  -999.2500     0.3787     0.0054     1.6085     2.3061 
 2803.8552    15.6944  -999.2500    33.6609   121.7230     4.8297  -999.2500  -999.2500     0.4005     0.0057     1.7145     2.4854 
 2804.0076    16.1556  -999.2500    34.5310   127.5277     4.8673  -999.2500  -999.2500     0.4016     0.0059     1.7615     2.5471 
 2804.1600    15.9046  -999.2500    33.8328   131.6114     4.5267  -999.2500  -999.2500     0.3993     0.0057     1.7790     2.4477 
 2804.3124    15.5246  -999.2500    32.1456   127.3542     4.2484  -999.2500  -999.2500     0.3946     0.0055     1.8013     2.2883 
 2804.4648    13.9453  -999.2500    30.0373   115.2526     4.2999  -999.2500  -999.2500     0.4000     0.0052     1.4572     2.1689 
 2804.6172    13.8031  -999.2500    29.3282   103.5696     4.6039  -999.2500  -999.2500     0.3998     0.0055     1.2374     2.1093 
 2804.7696    13.9823  -999.2500    29.9967    98.5062     4.9346  -999.2500  -999.2500     0.3870     0.0057     1.1869     2.2238 
 2804.9220    14.2558  -999.2500    31.0128    98.8649     4.9729  -999.2500  -999.2500     0.3985     0.0058     1.1968     2.3426 
 2805.0744    14.8654  -999.2500    32.2107   101.0647     4.7067  -999.2500  -999.2500     0.4210     0.0059     1.3172     2.4370 
 2805.2268    14.7912  -999.2500    31.3591   103.0872     4.4280  -999.2500  -999.2500     0.4358     0.0059     1.3214     2.3161 
 2805.3792    14.6618  -999.2500    31.0101   103.6693     4.2851  -999.2500  -999.2500     0.4261     0.0058     1.3288     2.2485 
 2805.5316    15.3384  -999.2500    30.4946   102.2591     4.2170  -999.2500  -999.2500     0.4110     0.0060     1.4128     2.0573 
 2805.6840    15.6614  -999.2500    30.8762    99.7554     4.1540  -999.2500  -999.2500     0.4414     0.0061     1.4892     2.0869 
 2805.8364    15.3104  -999.2500    30.4411    97.5222     4.0905  -999.2500  -999.2500     0.4755     0.0059     1.5030     2.0766 
 2805.9888    15.2931  -999.2500    30.2331    95.7795     4.0393  -999.2500  -999.2500     0.5231     0.0057     1.6051     2.0894 
 2806.1412    16.0418  -999.2500    30.0510    93.9841     3.9979  -999.2500  -999.2500     0.4420     0.0057     1.8117     2.0053 
 2806.2936    16.6833  -999.2500    29.8030    92.4938     3.9653  -999.2500  -999.2500     0.3363     0.0059     1.8981     1.8742 
 2806.4460    15.7221  -999.2500    28.5421    92.9645     3.9685  -999.2500  -999.2500     0.2389     0.0056     1.8023     1.8304 
 2806.5984    14.1674  -999.2500    25.6344    96.2288     4.0309  -999.2500  -999.2500     0.2621     0.0050     1.6534     1.6308 
 2806.7508    11.5372  -999.2500    21.8200   100.0341     4.1089  -999.2500  -999.2500     0.3344     0.0042     1.2590     1.3977 
 2806.9032     9.4783  -999.2500    18.6604   100.5802     4.1355  -999.2500  -999.2500     0.3438     0.0034     1.0719     1.1957 
 2807.0556     8.6730  -999.2500    17.0606    96.6180     4.1303  -999.2500  -999.2500     0.3406     0.0031     0.9784     1.0787 
 2807.2080     8.2566  -999.2500    16.7977    90.4146     4.3117  -999.2500  -999.2500     0.3046     0.0029     0.9518     1.1533 
 2807.3604     8.6580  -999.2500    17.0207    84.7534     4.8832  -999.2500  -999.2500     0.3018     0.0030     1.0134     1.1466 
 2807.5128     8.4173  -999.2500    17.2433    80.0319     5.7871  -999.2500  -999.2500     0.3100     0.0029     0.9964     1.2188 
 2807.6652     8.0286  -999.2500    16.7401    74.7019     7.0375  -999.2500  -999.2500     0.3137     0.0028     0.9186     1.2321 
 2807.8176     5.7908  -999.2500    14.3755    68.0273     8.7185  -999.2500  -999.2500     0.3193     0.0021     0.6342     1.1149 
 2807.9700     3.9074  -999.2500    11.2503    61.4026    10.5356  -999.2500  -999.2500     0.2986     0.0013     0.4953     0.9490 
 2808.1224     2.9820  -999.2500     8.6908    56.9959    11.9750  -999.2500  -999.2500     0.2780     0.0009     0.4273     0.6619 
 2808.2748     2.6279  -999.2500     7.5566    55.3164    12.8099  -999.2500  -999.2500     0.2497     0.0008     0.3940     0.6354 
 2808.4272     2.2765  -999.2500     7.0720    54.0592    13.9129  -999.2500  -999.2500     0.2313     0.0006     0.3972     0.6292 
 2808.5796     2.5749  -999.2500     6.7984    49.6719    17.4544  -999.2500  -999.2500     0.1969     0.0005     0.5411     0.5521 
 2808.7320     2.8266  -999.2500     6.8673    40.6912    33.0160  -999.2500  -999.2500     0.1824     0.0004     0.6505     0.5816 
 2808.8844     2.6560  -999.2500     7.0914    30.0876    96.7920  -999.2500  -999.2500     0.1663     0.0004     0.6326     0.6100 
 2809.0368     2.1841  -999.2500     7.3200    22.4559   375.6616  -999.2500  -999.2500     0.1821     0.0003     0.5535     0.7064 
 2809.1892     2.3070  -999.2500     7.4309    19.3543   874.2858  -999.2500  -999.2500     0.2140     0.0003     0.5421     0.7014 
 2809.3416     2.3831  -999.2500     7.5403    18.7273  1186.5728  -999.2500  -999.2500     0.2481     0.0004     0.5447     0.6855 
 2809.4940     2.5631  -999.2500     7.7782    18.3666  1130.5912  -999.2500  -999.2500     0.2731     0.0005     0.5273     0.7392 
 2809.6464     2.5117  -999.2500     8.1982    17.9475   926.8394  -999.2500  -999.2500     0.2594     0.0005     0.4996     0.7482 
