~Version Information
 VERS.                  2.0:   CWLS log ASCII Standard -VERSION 2.0
 WRAP.                   NO:   One line per depth step
~Well Information Block
#MNEM.UNIT       Data Type    Information
#---------     -----------    ---------------------------
 STRT.M               690.2196:
 STOP.M              3268.1373:
 STEP.M                 0.1524:
 NULL.               -999.2500:
 UWI .                    1009:  UWI
 API .                    1009:  UWI
 WELL.                    1009:  COMMON WELL NAME
 COMP.                 UNKNOWN:  WELL OPERATOR
 FLD .                 UNKNOWN:  FIELD
 LIC .                 UNKNOWN:  AUTHORIZATION NO
 LOC .                 UNKNOWN:  BASIN
 CTRY.                 UNKNOWN:  COUNTRY
 STAT.                 UNKNOWN:  STATE
 CNTY.                 UNKNOWN:  COUNTY
 PROV.                 UNKNOWN:  STATE
 SRVC.                 UNKNOWN:  COMPANY
 DATE.                 UNKNOWN:  LOG RUN DATE
 LONG.                -92.0500:  LONGITUDE
 LATI.                 19.4616:  LATITUDE
 XCOORD.           599709.5625:  X COORDINATE
 YCOORD.          2152047.7500:  Y COORDINATE
 ELEV.M                 0.0000:  ELEVATION
 TD  .M              3280.0000:  TOTAL DEPTH
~Parameter Information Block
#MNEM.UNIT       Value        Description
#---------     -----------    ---------------------------
~Curve Information Block
#MNEM.UNIT                 API CODE     Curve Description
#---------               -----------    ---------------------------
 DEPTH.M                00 000 000 000:  Index Curve
 CGR .GAPI              00 000 000 000:  Gamma ray; Uranium-free
 DT  .US/F              00 000 000 000:  Acoustic wave travel time
 GR  .GAPI              00 000 000 000:  Gamma ray; total
 GR-LWD.GAPI            00 000 000 000:  
 LLD-LWD.OHMM           00 000 000 000:  
 LLS-LWD.OHMM           00 000 000 000:  
 MSFL-LWD.OHMM          00 000 000 000:  
 NPHI.V/V               00 000 000 000:  Neutron porosity
 POTA.                  00 000 000 000:  Potassium contribution from spectral gamma ray
 THOR.PPM               00 000 000 000:  Thorium contribution from spectral gamma ray
 URAN.PPM               00 000 000 000:  Uranium contribution from spectral gamma ray
~A DEPTH        CGR    DT    GR   GR-LWD   LLD-LWD   LLS-LWD  MSFL-LWD    NPHI    POTA    THOR    URAN
# ...
 3023.6160    11.1658  -999.2500    42.8771    52.5665    61.2818    39.3892    38.4879     0.0870     0.0040     1.2410     4.0043 
 3023.7684    11.4523  -999.2500    42.1909    50.0923    36.8668    28.2018    27.8178     0.0897     0.0040     1.3673     3.8528 
 3023.9208    11.2291  -999.2500    39.4232    48.0532    27.4571    23.3375    20.6884     0.1030     0.0038     1.3996     3.5430 
 3024.0732    10.5158  -999.2500    36.4157    47.2926    28.8820    24.6240    20.4308     0.1094     0.0035     1.3380     3.2665 
 3024.2256    10.3096  -999.2500    36.5377    47.4234    34.1710    32.0660    26.1813     0.1093     0.0034     1.3166     3.3163 
 3024.3780    10.3826  -999.2500    36.9549    47.3820    36.7445    37.2493    31.4017     0.0951     0.0035     1.2691     3.3815 
 3024.5304    11.4553  -999.2500    37.4986    46.7813    35.5580    36.1382    32.1721     0.0834     0.0040     1.3710     3.3220 
 3024.6828    10.8972  -999.2500    36.5034    45.7356    39.9521    37.9228    36.9778     0.0762     0.0038     1.3078     3.2116 
 3024.8352    10.2021  -999.2500    36.1696    43.5610    55.2825    57.5977    56.8279     0.0755     0.0035     1.2544     3.2918 
 3024.9876    10.3446  -999.2500    34.7977    38.9354    63.8566    72.7619    69.9512     0.0673     0.0033     1.3921     3.1557 
 3025.1400    10.4923  -999.2500    31.7225    32.5686    57.3959    53.1501    52.0945     0.0550     0.0033     1.4571     2.7876 
 3025.2924     9.0359  -999.2500    26.9325    27.2194    63.4601    55.5948    43.9807     0.0414     0.0029     1.2247     2.3037 
 3025.4448     6.8601  -999.2500    21.8129    23.9338    89.9243    86.2641    56.2376     0.0367     0.0022     0.9147     1.8622 
 3025.5972     5.4310  -999.2500    18.5933    22.0385   113.7561   102.3554    64.8698     0.0349     0.0018     0.6682     1.6586 
 3025.7496     4.5883  -999.2500    16.7595    21.1935   119.2390   117.5055    77.3837     0.0350     0.0014     0.6510     1.5363 
 3025.9020     4.4020  -999.2500    16.0600    21.0027    96.5685    96.9189    67.5324     0.0354     0.0013     0.6521     1.5332 
 3026.0544     4.5920  -999.2500    15.8607    20.8318    67.3818    53.7738    43.3613     0.0393     0.0013     0.6896     1.4830 
 3026.2068     4.2578  -999.2500    16.0343    20.5405    87.7323    69.7481    60.2962     0.0422     0.0012     0.6652     1.5590 
 3026.3592     4.0482  -999.2500    16.2723    20.4722   164.9948   156.7152   136.7271     0.0400     0.0012     0.5845     1.6156 
 3026.5116     4.3468  -999.2500    16.3057    20.9152   217.3757   214.0081   211.9606     0.0354     0.0013     0.6211     1.6356 
 3026.6640     3.7731  -999.2500    15.8950    21.7698   195.5542   196.4689   218.8637     0.0355     0.0011     0.5503     1.6082 
 3026.8164     3.4242  -999.2500    15.8324    22.6565   159.1496   164.1701   177.0765     0.0383     0.0010     0.4947     1.6244 
 3026.9688     2.9143  -999.2500    16.4260    23.4854   159.9105   170.3421   169.2750     0.0385     0.0008     0.4518     1.8093 
 3027.1212     2.9855  -999.2500    17.3549    24.4574   178.5531   204.0230   201.2700     0.0355     0.0008     0.4934     1.9864 
 3027.2736     2.9955  -999.2500    18.2275    25.4729   183.5526   208.9223   208.8727     0.0333     0.0009     0.4243     2.0435 
 3027.4260     3.6260  -999.2500    19.0665    26.3278   177.4892   193.1730   198.1972     0.0328     0.0011     0.5507     2.0990 
 3027.5784     3.9849  -999.2500    19.7738    26.8711   155.0010   170.1433   175.2520     0.0335     0.0012     0.5891     2.1225 
 3027.7308     3.6904  -999.2500    20.2463    26.8394   117.3125   122.7208   108.8827     0.0325     0.0011     0.5236     2.1906 
 3027.8832     3.8798  -999.2500    20.6603    26.2777   120.7175   121.5085    83.6505     0.0345     0.0011     0.6219     2.2335 
 3028.0356     3.9377  -999.2500    21.1755    25.9255   146.8615   154.0071   123.5938     0.0359     0.0009     0.7347     2.3348 
 3028.1880     3.7137  -999.2500    21.4579    26.5839   126.6494   132.2685   113.7047     0.0355     0.0008     0.7058     2.4228 
 3028.3404     3.7755  -999.2500    20.9807    28.0876    90.0271    94.8764    67.2562     0.0335     0.0010     0.6472     2.3024 
 3028.4928     3.7912  -999.2500    20.6634    29.5772    80.7509    86.9341    55.3921     0.0352     0.0009     0.6715     2.1723 
 3028.6452     4.3805  -999.2500    21.7139    30.8624    91.7247    93.4192    66.5747     0.0409     0.0010     0.8034     2.2469 
 3028.7976     5.3354  -999.2500    23.7277    32.0616   108.1256   102.7995    82.3276     0.0420     0.0014     0.9169     2.3500 
 3028.9500     6.1835  -999.2500    25.7756    33.3116   125.2892   119.3780   104.8305     0.0386     0.0016     1.0503     2.5239 
 3029.1024     6.9572  -999.2500    27.5335    35.7951   137.0339   134.9845   123.1113     0.0354     0.0020     1.0679     2.5869 
 3029.2548     7.7681  -999.2500    29.4213    40.0119   114.5072   113.5643   108.2072     0.0373     0.0023     1.1517     2.7148 
 3029.4072     8.1532  -999.2500    31.7416    44.4199    77.8443    79.4890    75.0219     0.0383     0.0024     1.2196     2.9889 
 3029.5596     9.9534  -999.2500    33.8991    47.4303    64.9074    67.7033    55.7569     0.0425     0.0028     1.5730     3.0862 
 3029.7120    10.5995  -999.2500    35.1465    48.5108    62.5527    62.5481    48.2621     0.0473     0.0029     1.7149     3.0770 
 3029.8644    11.3637  -999.2500    35.3029    48.2209    60.5561    58.0422    44.9437     0.0574     0.0032     1.7751     3.1156 
 3030.0168    11.0301  -999.2500    34.1943    46.6805    59.7155    55.8594    43.2081     0.0641     0.0031     1.7526     2.9095 
 3030.1692    10.3737  -999.2500    32.6996    44.4162    58.1001    54.5372    41.1143     0.0652     0.0029     1.6378     2.8609 
 3030.3216    10.0038  -999.2500    31.3573    44.7745    60.2031    58.3648    46.2513     0.0727     0.0030     1.4902     2.6695 
 3030.4740     9.7281  -999.2500    31.4887    49.9818    56.8107    55.1959    49.5424     0.1011     0.0029     1.4535     2.8441 
 3030.6264    10.0536  -999.2500    33.1614    56.2737    37.9249    37.5337    83.8441     0.1526     0.0029     1.5630     2.9711 
 3030.7788    11.4573  -999.2500    37.1117    58.7332    20.9038    22.4586   102.7643     0.1792     0.0032     1.8134     3.4108 
 3030.9312    12.4982  -999.2500    41.4403    57.2077    18.9370    17.8326    16.1927     0.1965     0.0033     2.0619     3.9109 
 3031.0836    13.8321  -999.2500    43.1801    53.3271    39.1079    25.4448   -41.3389     0.2007     0.0038     2.2388     3.9328 
 3031.2360    12.3587  -999.2500    41.9546    47.5877    74.2147    41.6820     0.1426     0.1719     0.0036     1.8639     3.9617 
 3031.3884    11.3654  -999.2500    38.7237    41.8726    96.5297    53.6150    39.2152     0.1100     0.0034     1.6626     3.5445 
 3031.5408    10.7345  -999.2500    36.7397    38.5022   106.6549    58.1918    48.6530     0.0503     0.0031     1.6174     3.3996 
 3031.6932     9.8251  -999.2500    34.1472    36.4571   112.6168    57.9932    47.1452     0.0326     0.0029     1.4680     3.2366 
 3031.8456     9.1233  -999.2500    29.6282    33.3464   111.2434    62.1130    43.7577     0.0282     0.0028     1.3113     2.6967 
 3031.9980     7.5840  -999.2500    24.8677    29.1626   107.4411    74.0818    50.4265     0.0266     0.0022     1.1241     2.2383 
 3032.1504     6.6188  -999.2500    21.3112    25.5820   106.6566    86.8039    68.5459     0.0281     0.0020     0.9811     1.8854 
 3032.3028     6.4747  -999.2500    19.8747    22.8778   127.6369   127.5680    94.4025     0.0294     0.0020     0.9133     1.7476 
 3032.4552     5.4020  -999.2500    18.0858    20.6878   189.9520   192.8611   116.5749     0.0312     0.0017     0.7253     1.6124 
 3032.6076     5.4445  -999.2500    16.2732    19.4656   246.5100   214.2353   119.5802     0.0322     0.0018     0.6957     1.3935 
 3032.7600     4.8990  -999.2500    14.9218    19.2407   248.9021   171.6625   105.2329     0.0331     0.0015     0.7051     1.2954 
