~Version Information
 VERS.                  2.0:   CWLS log ASCII Standard -VERSION 2.0
 WRAP.                   NO:   One line per depth step
~Well Information Block
#MNEM.UNIT       Data Type    Information
#---------     -----------    ---------------------------
 STRT.M               690.2196:
 STOP.M              3268.1373:
 STEP.M                 0.1524:
 NULL.               -999.2500:
 UWI .                    1009:  UWI
 API .                    1009:  UWI
 WELL.                    1009:  COMMON WELL NAME
 COMP.                 UNKNOWN:  WELL OPERATOR
 FLD .                 UNKNOWN:  FIELD
 LIC .                 UNKNOWN:  AUTHORIZATION NO
 LOC .                 UNKNOWN:  BASIN
 CTRY.                 UNKNOWN:  COUNTRY
 STAT.                 UNKNOWN:  STATE
 CNTY.                 UNKNOWN:  COUNTY
 PROV.                 UNKNOWN:  STATE
 SRVC.                 UNKNOWN:  COMPANY
 DATE.                 UNKNOWN:  LOG RUN DATE
 LONG.                -92.0500:  LONGITUDE
 LATI.                 19.4616:  LATITUDE
 XCOORD.           599709.5625:  X COORDINATE
 YCOORD.          2152047.7500:  Y COORDINATE
 ELEV.M                 0.0000:  ELEVATION
 TD  .M              3280.0000:  TOTAL DEPTH
~Parameter Information Block
#MNEM.UNIT       Value        Description
#---------     -----------    ---------------------------
~Curve Information Block
#MNEM.UNIT                 API CODE     Curve Description
#---------               -----------    ---------------------------
 DEPTH.M                00 000 000 000:  Index Curve
 CGR .GAPI              00 000 000 000:  Gamma ray; Uranium-free
 DT  .US/F              00 000 000 000:  Acoustic wave travel time
 GR  .GAPI              00 000 000 000:  Gamma ray; total
 GR-LWD.GAPI            00 000 000 000:  
 LLD-LWD.OHMM           00 000 000 000:  
 LLS-LWD.OHMM           00 000 000 000:  
 MSFL-LWD.OHMM          00 000 000 000:  
 NPHI.V/V               00 000 000 000:  Neutron porosity
 POTA.                  00 000 000 000:  Potassium contribution from spectral gamma ray
 THOR.PPM               00 000 000 000:  Thorium contribution from spectral gamma ray
 URAN.PPM               00 000 000 000:  Uranium contribution from spectral gamma ray
~A DEPTH        CGR    DT    GR   GR-LWD   LLD-LWD   LLS-LWD  MSFL-LWD    NPHI    POTA    THOR    URAN
# ...
 2995.7268     5.6506  -999.2500    23.2203    31.3717   125.0715   124.2780   114.2976     0.0235     0.0022     0.5440     2.2193 
 2995.8792     4.9709  -999.2500    21.4875    29.5764   135.0300   129.5656   130.8615     0.0222     0.0020     0.4085     2.0522 
 2996.0316     5.0670  -999.2500    20.5476    27.7944   144.1379   144.3004   146.9245     0.0229     0.0022     0.3574     1.9439 
 2996.1840     5.2585  -999.2500    20.6689    27.0669   145.9085   158.1520   157.3469     0.0233     0.0023     0.3497     1.9874 
 2996.3364     5.4447  -999.2500    21.3782    27.6624   134.5807   143.3165   146.0904     0.0246     0.0024     0.3691     2.0333 
 2996.4888     5.8536  -999.2500    22.8394    29.6297   116.4405   116.2169   124.9339     0.0261     0.0025     0.4472     2.1883 
 2996.6412     6.7566  -999.2500    25.0951    32.5097    99.1715   101.8074   107.6402     0.0282     0.0027     0.5750     2.3653 
 2996.7936     7.8808  -999.2500    27.5205    34.2683    76.8396    81.5514    78.7992     0.0291     0.0030     0.7857     2.6175 
 2996.9460     7.7190  -999.2500    26.8621    33.4632    50.1360    45.5345    40.8506     0.0283     0.0028     0.8614     2.5740 
 2997.0984     6.9559  -999.2500    23.2351    31.2147    32.6679    24.3010    24.0476     0.0254     0.0024     0.8344     2.1380 
 2997.2508     5.8711  -999.2500    20.4630    29.1940    27.7257    20.2927    22.9775     0.0237     0.0020     0.7189     1.7771 
 2997.4032     6.9414  -999.2500    22.4476    28.6549    33.7986    28.6011    28.3081     0.0259     0.0024     0.8365     1.9705 
 2997.5556     8.4720  -999.2500    26.7813    29.8056    44.8461    49.2043    43.6521     0.0317     0.0029     1.0249     2.3757 
 2997.7080     9.4524  -999.2500    31.0623    31.3270    43.4989    49.2179    44.4148     0.0383     0.0031     1.2451     2.8851 
 2997.8604    10.0644  -999.2500    32.9124    33.2229    29.2069    30.2212    29.3474     0.0401     0.0032     1.3551     2.9471 
 2998.0128    10.1932  -999.2500    33.1284    36.4422    18.5571    16.3617    16.3686     0.0427     0.0032     1.3847     2.9825 
 2998.1652    10.5085  -999.2500    31.6035    39.6065    19.7902    17.5111    14.4379     0.0415     0.0032     1.4823     2.6633 
 2998.3176     9.4627  -999.2500    28.9822    40.6898    27.3263    27.0200    17.5663     0.0401     0.0029     1.3609     2.4524 
 2998.4700     8.3238  -999.2500    25.8940    39.7037    33.2153    34.6551    19.7443     0.0359     0.0027     1.0708     2.1766 
 2998.6224     6.9795  -999.2500    23.0729    37.1160    33.3852    35.6902    22.0254     0.0324     0.0023     0.9197     1.9333 
 2998.7748     6.3494  -999.2500    21.1801    33.0380    36.7184    34.8735    24.9264     0.0313     0.0022     0.7727     1.8239 
 2998.9272     5.6526  -999.2500    20.2365    28.8955    47.6240    47.3298    35.2705     0.0289     0.0019     0.7049     1.7206 
 2999.0796     6.0775  -999.2500    20.3514    26.7548    44.4402    46.7211    40.9592     0.0299     0.0019     0.8429     1.8169 
 2999.2320     6.0212  -999.2500    20.4089    26.3406    31.0172    32.5840    36.1509     0.0289     0.0018     0.8827     1.7590 
 2999.3844     5.7041  -999.2500    19.7636    26.1105    45.9128    43.7040    38.5941     0.0298     0.0018     0.8085     1.7859 
 2999.5368     5.3268  -999.2500    18.4827    25.2821    86.8374    82.6229    64.1500     0.0309     0.0016     0.8033     1.5795 
 2999.6892     5.0658  -999.2500    17.5398    24.1484   100.2884    95.1455    82.3982     0.0402     0.0014     0.7928     1.5217 
 2999.8416     4.2127  -999.2500    17.4479    23.1081    72.2402    68.7496    68.5373     0.0594     0.0012     0.6346     1.6555 
 2999.9940     4.2756  -999.2500    17.6445    22.0104    38.6037    36.1813    33.2621     0.0784     0.0013     0.6395     1.7132 
 3000.1464     4.2634  -999.2500    17.5833    21.0914    32.7833    29.1395    15.1960     0.0877     0.0010     0.7767     1.6922 
 3000.2988     4.0630  -999.2500    17.1079    20.8295    35.8007    32.1982    17.0293     0.0822     0.0010     0.7253     1.7064 
 3000.4512     3.4640  -999.2500    15.9898    20.5849    27.3559    25.3613    16.2409     0.0699     0.0008     0.6631     1.6076 
 3000.6036     2.9152  -999.2500    14.4214    19.7473    19.1398    18.5257    11.7019     0.0532     0.0007     0.5363     1.4609 
 3000.7560     2.3410  -999.2500    13.0734    18.5981    15.9212    15.4975     8.6696     0.0392     0.0006     0.4314     1.3278 
 3000.9084     2.1354  -999.2500    12.4390    17.4053    13.9331    12.7139     9.7738     0.0347     0.0004     0.4512     1.3161 
 3001.0608     2.1123  -999.2500    12.4684    16.8337    14.1288    13.0391    14.3809     0.0342     0.0004     0.4402     1.3111 
 3001.2132     2.1375  -999.2500    13.1093    16.5150    15.4646    14.3314    17.1184     0.0352     0.0005     0.4088     1.4095 
 3001.3656     2.7537  -999.2500    14.1637    15.9216    15.1140    12.9190    15.7534     0.0381     0.0007     0.4512     1.4735 
 3001.5180     3.4935  -999.2500    15.2703    15.8145    15.9178    12.4418    14.3498     0.0445     0.0010     0.5285     1.5093 
 3001.6704     3.4264  -999.2500    16.3945    16.3472    15.3488    12.6724    12.7696     0.0585     0.0010     0.5129     1.6724 
 3001.8228     3.0540  -999.2500    17.5209    16.9797    13.0878    11.7992     9.7925     0.0817     0.0010     0.3994     1.8869 
 3001.9752     3.7414  -999.2500    18.6366    17.4590    12.9255    13.1710     9.0675     0.0885     0.0012     0.5185     1.9466 
 3002.1276     3.6866  -999.2500    19.3016    18.3089    14.5991    14.5753    16.1527     0.0893     0.0011     0.5189     2.0407 
 3002.2800     4.0525  -999.2500    19.2873    19.8359    23.8309    15.4932    11.5712     0.0902     0.0011     0.6329     1.9662 
 3002.4324     3.5991  -999.2500    18.9573    21.1752    50.1158    21.5060   -17.8391     0.0897     0.0010     0.5639     2.0206 
 3002.5848     3.0455  -999.2500    18.4177    21.8939    88.7445   -19.8001   -56.7091     0.0855     0.0009     0.4261     2.0247 
 3002.7372     3.4641  -999.2500    17.8229    21.1863   138.4443   -52.7979   -54.0145     0.0566     0.0011     0.4939     1.8617 
 3002.8896     3.3426  -999.2500    16.7700    18.9016   185.4241   -20.6870   -14.1238     0.0392     0.0011     0.4517     1.7223 
 3003.0420     2.6237  -999.2500    15.1332    17.2331   215.5407    11.9830    12.0170     0.0260     0.0009     0.3438     1.6085 
 3003.1944     2.0002  -999.2500    13.1432    16.5451   269.3299    60.3055    42.6795     0.0197     0.0007     0.2500     1.3968 
 3003.3468     2.0297  -999.2500    11.5588    15.5592   305.9135    86.1346    58.6726     0.0202     0.0007     0.2729     1.1773 
 3003.4992     2.2225  -999.2500    10.7702    14.5511   254.5515    54.1320    39.8018     0.0252     0.0007     0.2952     1.0389 
 3003.6516     1.9772  -999.2500    10.5631    14.4015   200.8031    24.5702    22.4781     0.0315     0.0006     0.2704     1.0478 
 3003.8040     2.7710  -999.2500    11.3973    15.1395   186.0043    15.9358    16.3304     0.0321     0.0009     0.3609     1.0678 
 3003.9564     2.7462  -999.2500    11.9120    16.2124   209.0462    91.1347    87.8735     0.0293     0.0010     0.2821     1.1452 
 3004.1088     3.3545  -999.2500    12.6278    17.0504   304.8113   221.4264   218.6796     0.0260     0.0013     0.3441     1.1350 
 3004.2612     4.1188  -999.2500    12.5709    17.3763   410.2007   284.0620   288.7101     0.0249     0.0015     0.4703     0.9948 
 3004.4136     3.7618  -999.2500    12.4712    17.3316   463.7430   277.9771   288.5022     0.0275     0.0013     0.4610     1.0648 
 3004.5660     3.2467  -999.2500    12.5465    17.1259   460.7270   297.0335   286.1311     0.0314     0.0011     0.4141     1.1591 
 3004.7184     3.3678  -999.2500    12.3766    16.7437   393.3646   292.9806   253.1263     0.0336     0.0011     0.4623     1.1302 
 3004.8708     3.0730  -999.2500    11.6759    16.1757   323.7501   230.6002   187.4614     0.0333     0.0010     0.4209     1.0917 
