~Version Information
 VERS.                  2.0:   CWLS log ASCII Standard -VERSION 2.0
 WRAP.                   NO:   One line per depth step
~Well Information Block
#MNEM.UNIT       Data Type    Information
#---------     -----------    ---------------------------
 STRT.M               690.2196:
 STOP.M              3268.1373:
 STEP.M                 0.1524:
 NULL.               -999.2500:
 UWI .                    1009:  UWI
 API .                    1009:  UWI
 WELL.                    1009:  COMMON WELL NAME
 COMP.                 UNKNOWN:  WELL OPERATOR
 FLD .                 UNKNOWN:  FIELD
 LIC .                 UNKNOWN:  AUTHORIZATION NO
 LOC .                 UNKNOWN:  BASIN
 CTRY.                 UNKNOWN:  COUNTRY
 STAT.                 UNKNOWN:  STATE
 CNTY.                 UNKNOWN:  COUNTY
 PROV.                 UNKNOWN:  STATE
 SRVC.                 UNKNOWN:  COMPANY
 DATE.                 UNKNOWN:  LOG RUN DATE
 LONG.                -92.0500:  LONGITUDE
 LATI.                 19.4616:  LATITUDE
 XCOORD.           599709.5625:  X COORDINATE
 YCOORD.          2152047.7500:  Y COORDINATE
 ELEV.M                 0.0000:  ELEVATION
 TD  .M              3280.0000:  TOTAL DEPTH
~Parameter Information Block
#MNEM.UNIT       Value        Description
#---------     -----------    ---------------------------
~Curve Information Block
#MNEM.UNIT                 API CODE     Curve Description
#---------               -----------    ---------------------------
 DEPTH.M                00 000 000 000:  Index Curve
 CGR .GAPI              00 000 000 000:  Gamma ray; Uranium-free
 DT  .US/F              00 000 000 000:  Acoustic wave travel time
 GR  .GAPI              00 000 000 000:  Gamma ray; total
 GR-LWD.GAPI            00 000 000 000:  
 LLD-LWD.OHMM           00 000 000 000:  
 LLS-LWD.OHMM           00 000 000 000:  
 MSFL-LWD.OHMM          00 000 000 000:  
 NPHI.V/V               00 000 000 000:  Neutron porosity
 POTA.                  00 000 000 000:  Potassium contribution from spectral gamma ray
 THOR.PPM               00 000 000 000:  Thorium contribution from spectral gamma ray
 URAN.PPM               00 000 000 000:  Uranium contribution from spectral gamma ray
~A DEPTH        CGR    DT    GR   GR-LWD   LLD-LWD   LLS-LWD  MSFL-LWD    NPHI    POTA    THOR    URAN
# ...
 3190.9512    10.5035  -999.2500    44.8621    46.6056    31.1663    51.5063    66.9436     0.0891     0.0037     1.2201     4.3731 
 3191.1036     9.5366  -999.2500    41.3391    41.9287    28.3215    45.7184    60.5404     0.0876     0.0034     1.0571     4.0845 
 3191.2560     9.8164  -999.2500    40.2312    39.7225    34.2656    42.0025    47.1199     0.0819     0.0034     1.1869     3.8298 
 3191.4084    10.2200  -999.2500    40.3825    38.3332    40.3976    47.5207    50.9234     0.0771     0.0035     1.2377     3.9576 
 3191.5608    10.5960  -999.2500    39.7562    37.1039    38.2842    64.5891    72.9880     0.0792     0.0037     1.2681     3.7473 
 3191.7132    10.4158  -999.2500    38.2429    35.3006    44.1734    83.3679    99.5794     0.0903     0.0035     1.2925     3.5191 
 3191.8656    10.3282  -999.2500    37.0068    32.9985    71.3259    80.0899   118.9522     0.0971     0.0036     1.2464     3.3771 
 3192.0180     9.7406  -999.2500    36.4954    31.3722    89.3253    54.0488   100.9183     0.0931     0.0032     1.2518     3.3901 
 3192.1704     9.6323  -999.2500    36.3302    31.6190    63.9335    66.8349    87.3162     0.0835     0.0033     1.1973     3.4061 
 3192.3228     9.5755  -999.2500    35.8375    32.3872    35.0810   107.7017   121.0407     0.0716     0.0032     1.2324     3.2657 
 3192.4752     9.8876  -999.2500    35.9298    32.1831    27.0294    95.1616   123.9007     0.0672     0.0030     1.4003     3.2235 
 3192.6276     9.8761  -999.2500    36.8318    31.3055    26.1087    48.8305    72.3728     0.0645     0.0031     1.3735     3.3453 
 3192.7800    10.4058  -999.2500    37.6210    30.2046    33.6770    32.3482    40.0015     0.0631     0.0032     1.4865     3.3827 
 3192.9324     9.6634  -999.2500    37.0456    29.1556    67.9774    75.5861    91.8699     0.0596     0.0029     1.4151     3.5485 
 3193.0848     8.6176  -999.2500    33.8677    28.3976   106.8932   138.2618   186.0688     0.0577     0.0024     1.3643     3.2164 
 3193.2372     7.4778  -999.2500    30.5059    28.6060    94.7668   147.3388   189.9257     0.0585     0.0020     1.2429     2.9820 
 3193.3896     7.0623  -999.2500    28.9883    30.0411    63.9616   118.4072   140.6633     0.0580     0.0019     1.1851     2.8631 
 3193.5420     6.5926  -999.2500    29.7240    31.0338    56.6024    89.5897   118.3938     0.0561     0.0016     1.1782     3.0525 
 3193.6944     6.6660  -999.2500    31.5703    30.7236    69.0285    96.2003   134.0253     0.0553     0.0013     1.3638     3.3536 
 3193.8468     6.6897  -999.2500    33.2865    30.8086   103.7946   126.0583   165.4587     0.0582     0.0012     1.4475     3.5910 
 3193.9992     6.9408  -999.2500    36.1546    31.7208   120.2479   117.8326   153.1925     0.0578     0.0014     1.3908     4.0251 
 3194.1516     6.9437  -999.2500    37.9148    32.0501    91.6423    99.4710   127.4670     0.0532     0.0016     1.2931     4.2616 
 3194.3040     7.5805  -999.2500    38.0332    30.9370    61.9639    75.0311   112.8627     0.0523     0.0018     1.3700     4.2266 
 3194.4564     8.0118  -999.2500    34.6283    28.0666    49.5371    61.8154   101.9111     0.0751     0.0017     1.5583     3.6451 
 3194.6088     7.6759  -999.2500    30.1060    24.4576    46.9252    83.5205   105.6226     0.1211     0.0018     1.4296     3.0449 
 3194.7612     7.5838  -999.2500    25.6174    22.1263    59.2395   107.0362   117.3740     0.1388     0.0019     1.3174     2.4107 
 3194.9136     6.9708  -999.2500    22.6882    21.4518    84.9345   103.7098   122.2399     0.1157     0.0017     1.2275     2.0581 
 3195.0660     7.2275  -999.2500    22.0617    21.8797   107.4528    85.0994   116.5638     0.0686     0.0019     1.2388     1.9108 
 3195.2184     7.3683  -999.2500    21.3933    23.5228   115.8204    80.4206   110.5139     0.0445     0.0020     1.2254     1.8054 
 3195.3708     8.3913  -999.2500    21.5697    26.1171   117.2416    86.4513   109.3374     0.0385     0.0025     1.2201     1.6859 
 3195.5232     8.4584  -999.2500    21.4551    28.6601   117.4883    92.2821    86.9621     0.0339     0.0027     1.1701     1.6257 
 3195.6756     8.8859  -999.2500    22.9263    30.2341   117.9122    95.9449    44.3246     0.0303     0.0026     1.3214     1.7673 
 3195.8280     9.4701  -999.2500    25.9567    30.4454   120.9504    96.3284    21.4582     0.0287     0.0029     1.3477     2.0610 
 3195.9804    10.2237  -999.2500    30.1181    29.6951   125.7073    98.8207    23.5001     0.0294     0.0031     1.5033     2.5502 
 3196.1328     9.7915  -999.2500    31.0666    28.7899   128.6063   105.8179    55.0945     0.0296     0.0032     1.2887     2.7159 
 3196.2852     9.0489  -999.2500    29.8028    27.7662   129.8849   107.8446   102.1350     0.0335     0.0030     1.1626     2.6626 
 3196.4376     7.0665  -999.2500    27.1650    26.4914   129.3814    98.3831   118.8048     0.0313     0.0024     0.8612     2.4998 
 3196.5900     7.1576  -999.2500    27.7098    26.4673   123.0935    81.0048   106.3687     0.0310     0.0026     0.7744     2.6126 
 3196.7424     7.1027  -999.2500    28.5038    28.5964   121.1023    78.2616   105.7019     0.0288     0.0027     0.7344     2.7344 
 3196.8948     8.9839  -999.2500    29.7664    30.3200   135.9878   103.3760   131.7355     0.0349     0.0031     1.0663     2.7184 
 3197.0472     9.2743  -999.2500    29.6886    29.7221   144.8916   118.8059   133.5891     0.0354     0.0031     1.1943     2.6446 
 3197.1996     9.0168  -999.2500    28.0912    28.6428   126.4417   104.7038   111.3681     0.0333     0.0026     1.3650     2.5060 
 3197.3520     8.6192  -999.2500    25.5175    28.5557   110.2813    90.0324    93.9809     0.0301     0.0026     1.2650     2.1678 
 3197.5044     7.7137  -999.2500    23.0351    28.2836   122.0789    91.4629    85.8927     0.0338     0.0023     1.1433     1.9344 
 3197.6568     8.0809  -999.2500    21.9916    26.4272   130.1803    87.7895    94.8574     0.0470     0.0026     1.0871     1.7705 
 3197.8092     8.3157  -999.2500    21.9800    23.7087   112.2287    79.4876   102.1431     0.0536     0.0027     1.1053     1.8038 
 3197.9616     8.0415  -999.2500    21.9020    21.8204    89.5978    81.8925    98.8221     0.0528     0.0026     1.0943     1.7829 
 3198.1140     8.4633  -999.2500    21.9321    21.1538    70.5624    63.7227    71.6604     0.0441     0.0025     1.2663     1.8019 
 3198.2664     7.8309  -999.2500    21.5929    21.4584    62.9553    54.1648    56.9197     0.0445     0.0021     1.3060     1.7672 
 3198.4188     7.4981  -999.2500    22.0261    22.6412    70.4379    73.0518    72.1306     0.0545     0.0019     1.2950     1.8774 
 3198.5712     6.6396  -999.2500    23.9015    25.1572    70.2013    82.0080    80.9214     0.0601     0.0017     1.1397     2.1598 
 3198.7236     7.5602  -999.2500    27.9576    28.6561    57.1757    52.7030    55.3950     0.0585     0.0021     1.2110     2.6405 
 3198.8760     8.4927  -999.2500    32.8086    31.2758    57.8832    40.8736    47.8170     0.0485     0.0025     1.2512     3.2466 
 3199.0284     9.2888  -999.2500    36.0886    32.7470    63.1595    52.0399    64.1048     0.0388     0.0027     1.4149     3.6135 
 3199.1808    10.1831  -999.2500    37.1447    33.5603    54.7486    45.2862    66.3369     0.0298     0.0028     1.6502     3.5941 
 3199.3332     9.7574  -999.2500    36.8270    33.0752    65.8539    51.5051    77.9803     0.0252     0.0025     1.6678     3.5443 
 3199.4856     9.1037  -999.2500    35.9155    31.3392   103.3037    85.9402   105.5581     0.0232     0.0023     1.5667     3.5245 
 3199.6380     8.4633  -999.2500    33.9189    29.2208   122.0887   108.9639   120.4498     0.0221     0.0021     1.4920     3.3822 
 3199.7904     7.4963  -999.2500    30.6587    27.2353   114.9431   112.1894   120.3600     0.0213     0.0020     1.2303     2.9904 
 3199.9428     6.5323  -999.2500    27.4866    27.1729   104.9366    91.2069    98.7909     0.0201     0.0019     0.9653     2.6374 
 3200.0952     6.4083  -999.2500    26.3810    29.9103    91.4020    53.7337    51.3326     0.0258     0.0019     0.9298     2.4205 
