~Version Information
 VERS.                  2.0:   CWLS log ASCII Standard -VERSION 2.0
 WRAP.                   NO:   One line per depth step
~Well Information Block
#MNEM.UNIT       Data Type    Information
#---------     -----------    ---------------------------
 STRT.M               690.2196:
 STOP.M              3268.1373:
 STEP.M                 0.1524:
 NULL.               -999.2500:
 UWI .                    1009:  UWI
 API .                    1009:  UWI
 WELL.                    1009:  COMMON WELL NAME
 COMP.                 UNKNOWN:  WELL OPERATOR
 FLD .                 UNKNOWN:  FIELD
 LIC .                 UNKNOWN:  AUTHORIZATION NO
 LOC .                 UNKNOWN:  BASIN
 CTRY.                 UNKNOWN:  COUNTRY
 STAT.                 UNKNOWN:  STATE
 CNTY.                 UNKNOWN:  COUNTY
 PROV.                 UNKNOWN:  STATE
 SRVC.                 UNKNOWN:  COMPANY
 DATE.                 UNKNOWN:  LOG RUN DATE
 LONG.                -92.0500:  LONGITUDE
 LATI.                 19.4616:  LATITUDE
 XCOORD.           599709.5625:  X COORDINATE
 YCOORD.          2152047.7500:  Y COORDINATE
 ELEV.M                 0.0000:  ELEVATION
 TD  .M              3280.0000:  TOTAL DEPTH
~Parameter Information Block
#MNEM.UNIT       Value        Description
#---------     -----------    ---------------------------
~Curve Information Block
#MNEM.UNIT                 API CODE     Curve Description
#---------               -----------    ---------------------------
 DEPTH.M                00 000 000 000:  Index Curve
 CGR .GAPI              00 000 000 000:  Gamma ray; Uranium-free
 DT  .US/F              00 000 000 000:  Acoustic wave travel time
 GR  .GAPI              00 000 000 000:  Gamma ray; total
 GR-LWD.GAPI            00 000 000 000:  
 LLD-LWD.OHMM           00 000 000 000:  
 LLS-LWD.OHMM           00 000 000 000:  
 MSFL-LWD.OHMM          00 000 000 000:  
 NPHI.V/V               00 000 000 000:  Neutron porosity
 POTA.                  00 000 000 000:  Potassium contribution from spectral gamma ray
 THOR.PPM               00 000 000 000:  Thorium contribution from spectral gamma ray
 URAN.PPM               00 000 000 000:  Uranium contribution from spectral gamma ray
~A DEPTH        CGR    DT    GR   GR-LWD   LLD-LWD   LLS-LWD  MSFL-LWD    NPHI    POTA    THOR    URAN
# ...
 2828.3916     2.5123  -999.2500    14.2739    32.5067   404.9209  -999.2500  -999.2500     0.2426     0.0007     0.3810     1.6140 
 2828.5440     3.0610  -999.2500    14.7439    34.5235   313.1180  -999.2500  -999.2500     0.2206     0.0009     0.4421     1.6291 
 2828.6964     2.7325  -999.2500    13.6248    36.0977   241.1404  -999.2500  -999.2500     0.1934     0.0010     0.2793     1.4809 
 2828.8488     2.2296  -999.2500    11.8336    36.3787   218.1070  -999.2500  -999.2500     0.1677     0.0009     0.1749     1.2245 
 2829.0012     2.1022  -999.2500    10.5675    35.4311   238.9963  -999.2500  -999.2500     0.1671     0.0009     0.1593     1.0903 
 2829.1536     1.7912  -999.2500     9.9361    33.7023   338.9935  -999.2500  -999.2500     0.1764     0.0007     0.1609     1.0114 
 2829.3060     1.8838  -999.2500     9.5752    31.7878   461.6982  -999.2500  -999.2500     0.1873     0.0007     0.1742     0.9866 
 2829.4584     1.9835  -999.2500     9.1656    30.4383   506.3943  -999.2500  -999.2500     0.1891     0.0008     0.1900     0.8859 
 2829.6108     2.0336  -999.2500     9.1799    29.6693   437.1210  -999.2500  -999.2500     0.1892     0.0008     0.1779     0.8872 
 2829.7632     2.1116  -999.2500     9.8090    29.1207   358.5693  -999.2500  -999.2500     0.1858     0.0009     0.1759     0.9793 
 2829.9156     2.1484  -999.2500    10.4372    29.2799   401.5432  -999.2500  -999.2500     0.1918     0.0009     0.1740     1.0227 
 2830.0680     2.0329  -999.2500    10.6488    30.5261   511.4474  -999.2500  -999.2500     0.1947     0.0008     0.1817     1.1164 
 2830.2204     1.8356  -999.2500    10.6130    31.9241   596.7507  -999.2500  -999.2500     0.1863     0.0008     0.1308     1.0701 
 2830.3728     1.7958  -999.2500    10.9977    32.8228   652.6530  -999.2500  -999.2500     0.1816     0.0007     0.1441     1.1826 
 2830.5252     1.9250  -999.2500    11.4401    33.8538   673.7208  -999.2500  -999.2500     0.1811     0.0008     0.1461     1.1555 
 2830.6776     2.5466  -999.2500    12.0407    35.3363   622.7268  -999.2500  -999.2500     0.1898     0.0010     0.2121     1.2119 
 2830.8300     2.9024  -999.2500    12.3157    36.1754   581.3155  -999.2500  -999.2500     0.1912     0.0011     0.2873     1.1721 
 2830.9824     3.4679  -999.2500    12.5456    35.4662   576.4819  -999.2500  -999.2500     0.1913     0.0012     0.4029     1.1707 
 2831.1348     3.1992  -999.2500    12.1711    33.9353   600.5801  -999.2500  -999.2500     0.1897     0.0012     0.3483     1.1296 
 2831.2872     3.3762  -999.2500    11.7397    32.9718   618.6814  -999.2500  -999.2500     0.1987     0.0012     0.3736     1.0769 
 2831.4396     3.6113  -999.2500    11.1124    33.0107   524.9685  -999.2500  -999.2500     0.2055     0.0014     0.3565     0.9321 
 2831.5920     3.5648  -999.2500    10.5098    33.2406   420.8541  -999.2500  -999.2500     0.2127     0.0014     0.3149     0.8910 
 2831.7444     3.7057  -999.2500    10.0704    32.6466   406.1530  -999.2500  -999.2500     0.2015     0.0015     0.3072     0.7793 
 2831.8968     3.6884  -999.2500    10.2192    31.4882   400.4657  -999.2500  -999.2500     0.1848     0.0015     0.3126     0.8074 
 2832.0492     3.8513  -999.2500    10.9997    31.5089   353.8321  -999.2500  -999.2500     0.1622     0.0016     0.3136     0.8977 
 2832.2016     5.1297  -999.2500    12.6371    33.9474   292.7828  -999.2500  -999.2500     0.1512     0.0019     0.5407     0.9952 
 2832.3540     5.5961  -999.2500    13.9427    38.1892   226.3268  -999.2500  -999.2500     0.1541     0.0021     0.5539     1.0882 
 2832.5064     6.4257  -999.2500    15.7085    42.7508   159.6552  -999.2500  -999.2500     0.1757     0.0025     0.6026     1.2144 
 2832.6588     7.8098  -999.2500    17.5607    46.6565   110.6735  -999.2500  -999.2500     0.1769     0.0032     0.6712     1.2866 
 2832.8112     9.9761  -999.2500    20.2938    49.5678    86.5321  -999.2500  -999.2500     0.1770     0.0038     0.9640     1.3798 
 2832.9636    11.4190  -999.2500    22.9429    52.0528    81.4468  -999.2500  -999.2500     0.1635     0.0045     1.0363     1.5156 
 2833.1160    13.4976  -999.2500    25.3727    55.7843    76.7653  -999.2500  -999.2500     0.1673     0.0051     1.3752     1.5258 
 2833.2684    14.3691  -999.2500    26.7945    62.2841    60.6378  -999.2500  -999.2500     0.1953     0.0049     1.7485     1.6178 
 2833.4208    15.1425  -999.2500    29.0393    72.2381    42.7728  -999.2500  -999.2500     0.2495     0.0053     1.7575     1.8373 
 2833.5732    15.7623  -999.2500    30.3257    85.6154    31.3469  -999.2500  -999.2500     0.3071     0.0052     2.0152     1.8944 
 2833.7256    17.8697  -999.2500    33.5739   100.2073    21.4564  -999.2500  -999.2500     0.3356     0.0059     2.2777     2.0631 
 2833.8780    17.5819  -999.2500    34.3854   111.1858    13.2390  -999.2500  -999.2500     0.3406     0.0059     2.1943     2.1911 
 2834.0304    18.3002  -999.2500    35.6374   113.6704    11.7214  -999.2500  -999.2500     0.3274     0.0061     2.3063     2.2832 
 2834.1828    18.4999  -999.2500    36.7427   105.4520    18.4233  -999.2500  -999.2500     0.2976     0.0061     2.4033     2.4491 
 2834.3352    16.4410  -999.2500    34.8185    88.2202    31.0338  -999.2500  -999.2500     0.2457     0.0052     2.2458     2.4851 
 2834.4876    13.0385  -999.2500    29.3241    67.1611    45.4284  -999.2500  -999.2500     0.2289     0.0041     1.8149     2.2128 
 2834.6400     8.5872  -999.2500    20.4523    49.1976    61.0096  -999.2500  -999.2500     0.2107     0.0025     1.2885     1.5114 
 2834.7924     5.4231  -999.2500    14.5447    38.7641    76.6696  -999.2500  -999.2500     0.2041     0.0016     0.8154     1.1974 
 2834.9448     4.3226  -999.2500    12.2614    35.1010    81.5258  -999.2500  -999.2500     0.1970     0.0014     0.5619     1.0352 
 2835.0972     4.3075  -999.2500    12.2812    35.4658    68.9927  -999.2500  -999.2500     0.2370     0.0012     0.6846     1.0818 
 2835.2496     4.8459  -999.2500    13.0827    38.1072    51.1936  -999.2500  -999.2500     0.2923     0.0014     0.7160     1.2042 
 2835.4020     4.5520  -999.2500    13.3517    41.4426    43.6415  -999.2500  -999.2500     0.3277     0.0012     0.7607     1.2608 
 2835.5544     4.4719  -999.2500    13.2681    43.5191    65.2330  -999.2500  -999.2500     0.3045     0.0012     0.7389     1.2529 
 2835.7068     4.0767  -999.2500    12.9733    43.4535   114.5919  -999.2500  -999.2500     0.2727     0.0011     0.6933     1.2371 
 2835.8592     4.3607  -999.2500    12.6215    42.1562   148.8479  -999.2500  -999.2500     0.2385     0.0012     0.7134     1.1830 
 2836.0116     3.6054  -999.2500    11.7661    41.2528   158.1110  -999.2500  -999.2500     0.2124     0.0009     0.6100     1.1082 
 2836.1640     3.5132  -999.2500    10.9916    40.8172   168.8337  -999.2500  -999.2500     0.1929     0.0011     0.4973     1.0046 
 2836.3164     3.2346  -999.2500    10.4221    39.2686   187.8400  -999.2500  -999.2500     0.2035     0.0011     0.4037     0.9236 
 2836.4688     2.9151  -999.2500    10.5464    35.8568   240.8543  -999.2500  -999.2500     0.2129     0.0011     0.3235     1.0029 
 2836.6212     3.1044  -999.2500    11.3196    32.3997   433.8035  -999.2500  -999.2500     0.2047     0.0012     0.2944     1.0363 
 2836.7736     3.5644  -999.2500    13.8242    33.3331   763.8945  -999.2500  -999.2500     0.1840     0.0015     0.2914     1.2347 
 2836.9260     4.1427  -999.2500    18.2265    41.3946   908.1943  -999.2500  -999.2500     0.1920     0.0018     0.2514     1.8269 
 2837.0784     5.8393  -999.2500    21.9845    53.8501   698.7718  -999.2500  -999.2500     0.2123     0.0026     0.3765     2.1578 
 2837.2308     6.4464  -999.2500    22.3471    63.4618   415.7583  -999.2500  -999.2500     0.2114     0.0026     0.5453     2.2248 
 2837.3832     5.2949  -999.2500    18.8610    63.3030   311.1179  -999.2500  -999.2500     0.2062     0.0021     0.4506     1.7859 
 2837.5356     3.9816  -999.2500    14.0943    53.6407   339.4444  -999.2500  -999.2500     0.2190     0.0016     0.3489     1.2620 
