~Version Information
 VERS.                  2.0:   CWLS log ASCII Standard -VERSION 2.0
 WRAP.                   NO:   One line per depth step
~Well Information Block
#MNEM.UNIT       Data Type    Information
#---------     -----------    ---------------------------
 STRT.M               690.2196:
 STOP.M              3268.1373:
 STEP.M                 0.1524:
 NULL.               -999.2500:
 UWI .                    1009:  UWI
 API .                    1009:  UWI
 WELL.                    1009:  COMMON WELL NAME
 COMP.                 UNKNOWN:  WELL OPERATOR
 FLD .                 UNKNOWN:  FIELD
 LIC .                 UNKNOWN:  AUTHORIZATION NO
 LOC .                 UNKNOWN:  BASIN
 CTRY.                 UNKNOWN:  COUNTRY
 STAT.                 UNKNOWN:  STATE
 CNTY.                 UNKNOWN:  COUNTY
 PROV.                 UNKNOWN:  STATE
 SRVC.                 UNKNOWN:  COMPANY
 DATE.                 UNKNOWN:  LOG RUN DATE
 LONG.                -92.0500:  LONGITUDE
 LATI.                 19.4616:  LATITUDE
 XCOORD.           599709.5625:  X COORDINATE
 YCOORD.          2152047.7500:  Y COORDINATE
 ELEV.M                 0.0000:  ELEVATION
 TD  .M              3280.0000:  TOTAL DEPTH
~Parameter Information Block
#MNEM.UNIT       Value        Description
#---------     -----------    ---------------------------
~Curve Information Block
#MNEM.UNIT                 API CODE     Curve Description
#---------               -----------    ---------------------------
 DEPTH.M                00 000 000 000:  Index Curve
 CGR .GAPI              00 000 000 000:  Gamma ray; Uranium-free
 DT  .US/F              00 000 000 000:  Acoustic wave travel time
 GR  .GAPI              00 000 000 000:  Gamma ray; total
 GR-LWD.GAPI            00 000 000 000:  
 LLD-LWD.OHMM           00 000 000 000:  
 LLS-LWD.OHMM           00 000 000 000:  
 MSFL-LWD.OHMM          00 000 000 000:  
 NPHI.V/V               00 000 000 000:  Neutron porosity
 POTA.                  00 000 000 000:  Potassium contribution from spectral gamma ray
 THOR.PPM               00 000 000 000:  Thorium contribution from spectral gamma ray
 URAN.PPM               00 000 000 000:  Uranium contribution from spectral gamma ray
~A DEPTH        CGR    DT    GR   GR-LWD   LLD-LWD   LLS-LWD  MSFL-LWD    NPHI    POTA    THOR    URAN
# ...
 3060.8016    17.4121  -999.2500    42.1270    54.4300    16.2505    14.7152    14.4992     0.1476     0.0069     1.5432     3.2842 
 3060.9540    16.1863  -999.2500    40.9693    53.3417    17.7598    16.4503    16.1182     0.1480     0.0065     1.4214     3.2552 
 3061.1064    15.8130  -999.2500    40.9453    53.0386    19.4399    17.8805    17.6998     0.1514     0.0062     1.4727     3.3313 
 3061.2588    15.5596  -999.2500    41.2639    53.8131    20.1022    18.4260    18.4024     0.1479     0.0060     1.5130     3.3581 
 3061.4112    16.2925  -999.2500    43.8867    56.9355    19.5733    18.9207    16.8724     0.1381     0.0063     1.5597     3.6026 
 3061.5636    17.7113  -999.2500    48.3493    64.4926    17.6839    18.3345    15.7077     0.1287     0.0070     1.6067     3.9636 
 3061.7160    19.7813  -999.2500    55.1955    74.3230    15.5519    17.6952    18.1631     0.1217     0.0077     1.8829     4.6258 
 3061.8684    20.2586  -999.2500    60.5448    79.7134    14.9754    18.7476    21.2781     0.1162     0.0075     2.1012     5.2602 
 3062.0208    20.1384  -999.2500    61.9939    77.5056    15.4511    21.0416    21.6366     0.1034     0.0074     2.1609     5.5130 
 3062.1732    18.2838  -999.2500    57.0634    71.5218    15.1547    23.5759    20.6412     0.0922     0.0067     1.9513     5.1010 
 3062.3256    14.6602  -999.2500    49.6291    67.0996    14.7336    23.2443    19.6162     0.0797     0.0053     1.6002     4.5992 
 3062.4780    12.7793  -999.2500    43.7376    64.9687    17.1115    23.4889    20.9723     0.0698     0.0045     1.4937     4.0672 
 3062.6304    11.3747  -999.2500    39.0588    62.3905    22.9371    29.0333    28.7335     0.0614     0.0039     1.3710     3.6439 
 3062.7828    10.3407  -999.2500    35.5965    57.8349    31.6778    44.5561    46.4440     0.0537     0.0036     1.2413     3.3347 
 3062.9352     9.1927  -999.2500    31.9394    51.1188   101.1791    67.4404    75.0529     0.0501     0.0032     1.0741     2.9879 
 3063.0876     8.5390  -999.2500    29.9884    43.6989   302.7604   122.7553   118.8107     0.0495     0.0030     1.0041     2.8010 
 3063.2400     7.6036  -999.2500    29.6146    38.4119   454.9425   223.9299   187.5183     0.0485     0.0026     0.9379     2.9083 
 3063.3924     8.0630  -999.2500    29.7873    35.1737   356.5399   396.4255   262.2621     0.0408     0.0025     1.1168     2.8812 
 3063.5448     7.7415  -999.2500    27.9889    31.4482   224.0672   609.3257   350.1626     0.0354     0.0025     1.0557     2.7315 
 3063.6972     6.4260  -999.2500    23.7439    26.9192   274.1500   781.2889   395.2624     0.0321     0.0020     0.8751     2.2605 
 3063.8496     5.2820  -999.2500    19.9956    23.8867   391.0903   848.7079   284.9041     0.0299     0.0016     0.7534     1.8959 
 3064.0020     5.0203  -999.2500    18.5961    23.6125   547.8524   753.6221   323.8382     0.0260     0.0016     0.6923     1.7653 
 3064.1544     4.7681  -999.2500    18.7260    24.7570   834.4334   976.0492   667.1237     0.0220     0.0015     0.6833     1.8462 
 3064.3068     5.1537  -999.2500    19.2364    25.9906  1035.2002  1133.4723   805.6917     0.0212     0.0015     0.7759     1.8207 
 3064.4592     5.2745  -999.2500    20.1178    27.5161  1020.2318  1074.9637   691.2515     0.0208     0.0016     0.7848     1.9195 
 3064.6116     5.4717  -999.2500    21.7775    29.5514   944.7536  1045.7422   645.7111     0.0224     0.0016     0.7962     2.1246 
 3064.7640     6.0470  -999.2500    23.7315    31.9912   857.1057   971.3887   608.6334     0.0254     0.0018     0.8829     2.3335 
 3064.9164     6.7406  -999.2500    25.2418    35.1801   688.0244   853.2890   444.6132     0.0265     0.0020     1.0163     2.4560 
 3065.0688     6.5489  -999.2500    26.2510    39.5070   480.7398   635.2737   272.5751     0.0289     0.0019     0.9763     2.5805 
 3065.2212     6.7653  -999.2500    27.6228    44.4419   360.6670   364.6739   191.2632     0.0285     0.0020     1.0188     2.7313 
 3065.3736     7.9042  -999.2500    30.2831    48.9258   277.1874   227.9987   147.9837     0.0308     0.0022     1.2619     2.9533 
 3065.5260     8.8642  -999.2500    34.7876    51.7800   163.2197   196.0506   137.4395     0.0314     0.0023     1.5161     3.3609 
 3065.6784    10.2186  -999.2500    40.0728    49.5888    98.9190   136.1907   109.3580     0.0341     0.0026     1.7943     4.1023 
 3065.8308    10.7725  -999.2500    42.5354    42.8950    95.2873   101.4457    85.1251     0.0346     0.0029     1.7801     4.3735 
 3065.9832     9.5239  -999.2500    40.1861    41.0014    91.5512   125.1370   109.4866     0.0374     0.0025     1.6083     4.2974 
 3066.1356     7.8412  -999.2500    34.8097    46.6107    84.6553   157.7755   124.6481     0.0370     0.0021     1.2981     3.5095 
 3066.2880     7.1173  -999.2500    31.2438    52.2871   102.9245   139.0302   108.8817     0.0403     0.0019     1.1526     3.0628 
 3066.4404     7.5674  -999.2500    31.5731    53.3232   128.0889   112.7580   100.9079     0.0387     0.0021     1.2332     3.1178 
 3066.5928     8.3201  -999.2500    33.8698    51.2018   142.2568   109.7570   108.9530     0.0415     0.0024     1.2786     3.4410 
 3066.7452     8.3104  -999.2500    36.1300    48.8954   153.8137   107.2256   116.5100     0.0403     0.0025     1.1902     3.6910 
 3066.8976     8.4203  -999.2500    38.1242    46.6121   166.8787   103.3963   110.7218     0.0397     0.0025     1.2178     3.9097 
 3067.0500     8.3685  -999.2500    40.3608    44.2595   186.9227    92.0663    85.2525     0.0425     0.0026     1.1980     4.1342 
 3067.2024     9.1679  -999.2500    43.3763    43.1615   197.4192    75.9596    65.0597     0.0451     0.0032     1.0841     4.4817 
 3067.3548    10.8921  -999.2500    46.6624    43.0029   177.7817    67.4781    62.1634     0.0476     0.0038     1.2746     4.6956 
 3067.5072    11.6183  -999.2500    50.1021    42.9117   147.4319    68.3784    56.1030     0.0447     0.0039     1.4821     4.9691 
 3067.6596    13.3019  -999.2500    54.1753    43.8656   140.3098    79.3444    39.3153     0.0462     0.0046     1.5795     5.3892 
 3067.8120    14.0350  -999.2500    57.5109    46.8252   175.2523    89.7033    27.3140     0.0504     0.0048     1.7206     5.7554 
 3067.9644    14.2083  -999.2500    58.0492    50.6739   245.8885    83.5703    23.9215     0.0521     0.0046     1.8511     5.9822 
 3068.1168    13.6231  -999.2500    54.7150    55.0349   310.5805    89.2994    22.7618     0.0494     0.0042     1.9390     5.5588 
 3068.2692    11.9459  -999.2500    49.8479    59.5356   284.7509   116.1830    27.8428     0.0544     0.0036     1.7365     5.0478 
 3068.4216    11.1672  -999.2500    46.4188    61.5396   166.7949   127.4636    43.2378     0.0659     0.0033     1.6734     4.7570 
 3068.5740    11.7606  -999.2500    44.1506    60.4286    86.4630   117.7857    64.0891     0.0765     0.0035     1.7293     4.3549 
 3068.7264    11.0976  -999.2500    42.3964    57.8743    75.2799   148.4641    82.6481     0.0765     0.0036     1.4878     4.2035 
 3068.8788    10.3164  -999.2500    40.8796    55.0423   112.3776   159.4920    96.6460     0.0682     0.0032     1.4574     4.1128 
 3069.0312    10.2463  -999.2500    39.6968    53.1223   200.4640   112.4547   105.3909     0.0654     0.0027     1.6908     3.9264 
 3069.1836     9.9055  -999.2500    39.0744    52.4791   288.2226    96.2805   108.2717     0.0655     0.0029     1.5189     3.9614 
 3069.3360     9.3167  -999.2500    37.5699    27.6653   342.1080   111.6664    97.0302     0.0647     0.0026     1.4627     3.7850 
 3069.4884     8.7668  -999.2500    35.8199   -94.1979   363.5917   141.6808    65.9949     0.0609     0.0024     1.4171     3.6647 
 3069.6408     8.7406  -999.2500    33.6176  -240.0043   359.1909   157.8972    35.4205     0.0524     0.0025     1.3385     3.3066 
 3069.7932     7.9560  -999.2500    32.6567  -207.8801   340.1954   120.8919    20.7050     0.0430     0.0026     1.0364     3.2835 
 3069.9456     8.7117  -999.2500    32.1346   -63.9783   326.6961    85.0439    40.8575     0.0360     0.0028     1.1939     3.0501 
