~Version Information
 VERS.                  2.0:   CWLS log ASCII Standard -VERSION 2.0
 WRAP.                   NO:   One line per depth step
~Well Information Block
#MNEM.UNIT       Data Type    Information
#---------     -----------    ---------------------------
 STRT.M               690.2196:
 STOP.M              3268.1373:
 STEP.M                 0.1524:
 NULL.               -999.2500:
 UWI .                    1009:  UWI
 API .                    1009:  UWI
 WELL.                    1009:  COMMON WELL NAME
 COMP.                 UNKNOWN:  WELL OPERATOR
 FLD .                 UNKNOWN:  FIELD
 LIC .                 UNKNOWN:  AUTHORIZATION NO
 LOC .                 UNKNOWN:  BASIN
 CTRY.                 UNKNOWN:  COUNTRY
 STAT.                 UNKNOWN:  STATE
 CNTY.                 UNKNOWN:  COUNTY
 PROV.                 UNKNOWN:  STATE
 SRVC.                 UNKNOWN:  COMPANY
 DATE.                 UNKNOWN:  LOG RUN DATE
 LONG.                -92.0500:  LONGITUDE
 LATI.                 19.4616:  LATITUDE
 XCOORD.           599709.5625:  X COORDINATE
 YCOORD.          2152047.7500:  Y COORDINATE
 ELEV.M                 0.0000:  ELEVATION
 TD  .M              3280.0000:  TOTAL DEPTH
~Parameter Information Block
#MNEM.UNIT       Value        Description
#---------     -----------    ---------------------------
~Curve Information Block
#MNEM.UNIT                 API CODE     Curve Description
#---------               -----------    ---------------------------
 DEPTH.M                00 000 000 000:  Index Curve
 CGR .GAPI              00 000 000 000:  Gamma ray; Uranium-free
 DT  .US/F              00 000 000 000:  Acoustic wave travel time
 GR  .GAPI              00 000 000 000:  Gamma ray; total
 GR-LWD.GAPI            00 000 000 000:  
 LLD-LWD.OHMM           00 000 000 000:  
 LLS-LWD.OHMM           00 000 000 000:  
 MSFL-LWD.OHMM          00 000 000 000:  
 NPHI.V/V               00 000 000 000:  Neutron porosity
 POTA.                  00 000 000 000:  Potassium contribution from spectral gamma ray
 THOR.PPM               00 000 000 000:  Thorium contribution from spectral gamma ray
 URAN.PPM               00 000 000 000:  Uranium contribution from spectral gamma ray
~A DEPTH        CGR    DT    GR   GR-LWD   LLD-LWD   LLS-LWD  MSFL-LWD    NPHI    POTA    THOR    URAN
# ...
 2763.3168     5.4683  -999.2500  -999.2500    24.9923  2023.9189  -999.2500  -999.2500     0.0768     0.0022     0.4462     2.0822 
 2763.4692     5.4683  -999.2500  -999.2500    25.9753  2053.2778  -999.2500  -999.2500     0.0768     0.0022     0.4462     2.0822 
 2763.6216     5.4683  -999.2500  -999.2500    28.0430  1904.9315  -999.2500  -999.2500     0.0768     0.0022     0.4462     2.0822 
 2763.7740     5.4683  -999.2500  -999.2500    30.6563  1734.4788  -999.2500  -999.2500     0.0768     0.0022     0.4462     2.0822 
 2763.9264     5.4683  -999.2500  -999.2500    32.4715  1734.8171  -999.2500  -999.2500     0.0768     0.0022     0.4462     2.0822 
 2764.0788     5.4683  -999.2500  -999.2500    32.5536  1907.3822  -999.2500  -999.2500     0.0768     0.0022     0.4462     2.0822 
 2764.2312     5.4683  -999.2500  -999.2500    31.5988  2107.3196  -999.2500  -999.2500     0.0768     0.0022     0.4462     2.0822 
 2764.3836     5.4683  -999.2500  -999.2500    30.8604  2173.9175  -999.2500  -999.2500     0.0768     0.0022     0.4462     2.0822 
 2764.5360     5.4683  -999.2500  -999.2500    30.7419  2010.2622  -999.2500  -999.2500     0.0768     0.0022     0.4462     2.0822 
 2764.6884     5.4683  -999.2500  -999.2500    30.4479  1662.4636  -999.2500  -999.2500     0.0768     0.0022     0.4462     2.0822 
 2764.8408     5.4683  -999.2500  -999.2500    29.7369  1445.6941  -999.2500  -999.2500     0.0768     0.0022     0.4462     2.0822 
 2764.9932     5.4683  -999.2500  -999.2500    29.4758  1436.1859  -999.2500  -999.2500     0.0768     0.0022     0.4462     2.0822 
 2765.1456     5.4683  -999.2500  -999.2500    30.1802  1457.3265  -999.2500  -999.2500     0.0768     0.0022     0.4462     2.0822 
 2765.2980     5.4683  -999.2500  -999.2500    31.7553  1390.3057  -999.2500  -999.2500     0.0768     0.0022     0.4462     2.0822 
 2765.4504     5.4683  -999.2500  -999.2500    33.4960  1169.4286  -999.2500  -999.2500     0.0768     0.0022     0.4462     2.0822 
 2765.6028     5.4683  -999.2500  -999.2500    34.4023   941.4332  -999.2500  -999.2500     0.0768     0.0022     0.4462     2.0822 
 2765.7552     5.4683  -999.2500  -999.2500    33.9254   841.9268  -999.2500  -999.2500     0.0768     0.0022     0.4462     2.0822 
 2765.9076     5.4683  -999.2500    21.1295    32.5581   779.7740  -999.2500  -999.2500     0.0768     0.0022     0.4462     2.0822 
 2766.0600     5.4683  -999.2500    21.1295    31.5034   682.6916  -999.2500  -999.2500     0.0768     0.0022     0.4462     2.0822 
 2766.2124     5.4683  -999.2500    21.1295    31.3445   597.3898  -999.2500  -999.2500     0.0768     0.0022     0.4462     2.0822 
 2766.3648     5.4683  -999.2500    21.1295    31.6591   561.8863  -999.2500  -999.2500     0.0768     0.0022     0.4462     2.0822 
 2766.5172     5.4683  -999.2500    21.1295    31.8803   558.5137  -999.2500  -999.2500     0.0768     0.0022     0.4462     2.0822 
 2766.6696     5.4683  -999.2500    21.1295    31.9461   537.6785  -999.2500  -999.2500     0.0768     0.0022     0.4462     2.0822 
 2766.8220     5.4683  -999.2500    21.1295    32.5084   463.9243  -999.2500  -999.2500     0.0768     0.0022     0.4462     2.0822 
 2766.9744     5.4683  -999.2500    21.1295    35.0520   351.8438  -999.2500  -999.2500     0.0768     0.0022     0.4462     2.0822 
 2767.1268     5.4683  -999.2500    21.1295    40.8507   230.0511  -999.2500  -999.2500     0.0768     0.0022     0.4462     2.0822 
 2767.2792     5.4683  -999.2500    21.1295    48.5858   122.9481  -999.2500  -999.2500     0.0768     0.0022     0.4462     2.0822 
 2767.4316     5.4683  -999.2500    21.1295    54.0626   140.5396  -999.2500  -999.2500     0.0768     0.0022     0.4462     2.0822 
 2767.5840     5.4683  -999.2500    21.1295    54.5673   447.9667  -999.2500  -999.2500     0.0768     0.0022     0.4462     2.0822 
 2767.7364     5.4683  -999.2500    21.1295    53.4291   860.3192  -999.2500  -999.2500     0.0768     0.0022     0.4462     2.0822 
 2767.8888     5.5111  -999.2500    21.1295    55.8404   857.4092  -999.2500  -999.2500     0.0768     0.0022     0.4862     2.0828 
 2768.0412     5.1597  -999.2500    21.1295    60.1872   444.7588  -999.2500  -999.2500     0.0768     0.0020     0.4647     2.1491 
 2768.1936     4.9611  -999.2500    21.1295    59.7099   196.2829  -999.2500  -999.2500     0.0768     0.0019     0.5133     2.1592 
 2768.3460     4.5087  -999.2500    21.0263    52.1863   344.7835  -999.2500  -999.2500     0.0768     0.0017     0.4715     2.2151 
 2768.4984     3.8033  -999.2500    20.2118    43.0625   605.5533  -999.2500  -999.2500     0.0768     0.0014     0.4299     2.1902 
 2768.6508     3.1079  -999.2500    18.4869    38.4553   751.1188  -999.2500  -999.2500     0.0768     0.0010     0.4010     2.0219 
 2768.8032     2.5287  -999.2500    17.2474    39.3081   840.5567  -999.2500  -999.2500     0.0809     0.0008     0.3582     1.9299 
 2768.9556     2.3723  -999.2500    17.2143    42.7954   793.2914  -999.2500  -999.2500     0.0819     0.0007     0.3453     1.9530 
 2769.1080     2.3954  -999.2500    17.6772    45.1069   575.7225  -999.2500  -999.2500     0.0772     0.0006     0.4361     2.1040 
 2769.2604     2.1713  -999.2500    16.8517    43.9863   538.3738  -999.2500  -999.2500     0.0640     0.0004     0.4417     1.9964 
 2769.4128     1.6393  -999.2500    15.3618    40.5605   714.2071  -999.2500  -999.2500     0.0519     0.0002     0.4174     1.8559 
 2769.5652     1.1822  -999.2500    14.4414    37.3691   824.2822  -999.2500  -999.2500     0.0469     0.0001     0.3464     1.7486 
 2769.7176     1.0870  -999.2500    14.5611    35.2290   981.4203  -999.2500  -999.2500     0.0463    -0.0000     0.3521     1.8133 
 2769.8700     1.3956  -999.2500    14.8440    33.8561  1249.5203  -999.2500  -999.2500     0.0590     0.0001     0.3780     1.8468 
 2770.0224     1.2121  -999.2500    14.6053    33.6472  1368.8430  -999.2500  -999.2500     0.0726     0.0000     0.3684     1.8470 
 2770.1748     1.4679  -999.2500    13.9454    34.5791  1295.0872  -999.2500  -999.2500     0.0927     0.0002     0.3789     1.7171 
 2770.3272     1.6842  -999.2500    13.2766    35.1059  1188.7308  -999.2500  -999.2500     0.0971     0.0002     0.3971     1.6285 
 2770.4796     1.6062  -999.2500    12.9251    34.1591  1118.7926  -999.2500  -999.2500     0.0948     0.0002     0.3756     1.4968 
 2770.6320     1.5843  -999.2500    13.4191    32.4702  1095.3141  -999.2500  -999.2500     0.0845     0.0002     0.4104     1.6174 
 2770.7844     1.6856  -999.2500    14.2057    31.3302  1163.7085  -999.2500  -999.2500     0.0779     0.0003     0.3944     1.6836 
 2770.9368     1.6887  -999.2500    14.5123    31.5322  1202.5424  -999.2500  -999.2500     0.0742     0.0002     0.4089     1.7436 
 2771.0892     1.7344  -999.2500    14.0198    33.1729  1032.9469  -999.2500  -999.2500     0.0773     0.0003     0.3613     1.5935 
 2771.2416     1.4654  -999.2500    13.3271    35.2575   754.6661  -999.2500  -999.2500     0.0840     0.0004     0.2528     1.5116 
 2771.3940     1.9735  -999.2500    13.1759    35.7867   625.4401  -999.2500  -999.2500     0.0933     0.0006     0.2815     1.4292 
 2771.5464     1.9571  -999.2500    13.9269    34.0747   690.1198  -999.2500  -999.2500     0.0980     0.0006     0.2556     1.4911 
 2771.6988     2.4772  -999.2500    15.9288    31.6709   844.0146  -999.2500  -999.2500     0.0943     0.0008     0.3547     1.6993 
 2771.8512     2.6375  -999.2500    19.0335    30.7611   924.4306  -999.2500  -999.2500     0.0837     0.0009     0.3378     2.0963 
 2772.0036     3.0510  -999.2500    22.3102    32.2996   833.6084  -999.2500  -999.2500     0.0751     0.0011     0.3380     2.5330 
 2772.1560     3.2826  -999.2500    24.5779    36.4895   680.4615  -999.2500  -999.2500     0.0755     0.0012     0.3396     2.7686 
 2772.3084     3.4139  -999.2500    24.9815    43.0305   558.6225  -999.2500  -999.2500     0.0805     0.0013     0.3384     2.9066 
 2772.4608     2.6601  -999.2500    23.2348    50.1722   419.1210  -999.2500  -999.2500     0.0861     0.0010     0.2828     2.7111 
