~Version Information
 VERS.                  2.0:   CWLS log ASCII Standard -VERSION 2.0
 WRAP.                   NO:   One line per depth step
~Well Information Block
#MNEM.UNIT       Data Type    Information
#---------     -----------    ---------------------------
 STRT.M               690.2196:
 STOP.M              3268.1373:
 STEP.M                 0.1524:
 NULL.               -999.2500:
 UWI .                    1009:  UWI
 API .                    1009:  UWI
 WELL.                    1009:  COMMON WELL NAME
 COMP.                 UNKNOWN:  WELL OPERATOR
 FLD .                 UNKNOWN:  FIELD
 LIC .                 UNKNOWN:  AUTHORIZATION NO
 LOC .                 UNKNOWN:  BASIN
 CTRY.                 UNKNOWN:  COUNTRY
 STAT.                 UNKNOWN:  STATE
 CNTY.                 UNKNOWN:  COUNTY
 PROV.                 UNKNOWN:  STATE
 SRVC.                 UNKNOWN:  COMPANY
 DATE.                 UNKNOWN:  LOG RUN DATE
 LONG.                -92.0500:  LONGITUDE
 LATI.                 19.4616:  LATITUDE
 XCOORD.           599709.5625:  X COORDINATE
 YCOORD.          2152047.7500:  Y COORDINATE
 ELEV.M                 0.0000:  ELEVATION
 TD  .M              3280.0000:  TOTAL DEPTH
~Parameter Information Block
#MNEM.UNIT       Value        Description
#---------     -----------    ---------------------------
~Curve Information Block
#MNEM.UNIT                 API CODE     Curve Description
#---------               -----------    ---------------------------
 DEPTH.M                00 000 000 000:  Index Curve
 CGR .GAPI              00 000 000 000:  Gamma ray; Uranium-free
 DT  .US/F              00 000 000 000:  Acoustic wave travel time
 GR  .GAPI              00 000 000 000:  Gamma ray; total
 GR-LWD.GAPI            00 000 000 000:  
 LLD-LWD.OHMM           00 000 000 000:  
 LLS-LWD.OHMM           00 000 000 000:  
 MSFL-LWD.OHMM          00 000 000 000:  
 NPHI.V/V               00 000 000 000:  Neutron porosity
 POTA.                  00 000 000 000:  Potassium contribution from spectral gamma ray
 THOR.PPM               00 000 000 000:  Thorium contribution from spectral gamma ray
 URAN.PPM               00 000 000 000:  Uranium contribution from spectral gamma ray
~A DEPTH        CGR    DT    GR   GR-LWD   LLD-LWD   LLS-LWD  MSFL-LWD    NPHI    POTA    THOR    URAN
# ...
 3125.8764    14.2776  -999.2500    55.1672    54.9663    40.4693    26.2618    25.6204     0.0598     0.0042     2.1371     5.4810 
 3126.0288    15.4536  -999.2500    57.0400    53.0318    40.5837    24.4154    23.2669     0.0667     0.0046     2.2781     5.6388 
 3126.1812    16.3223  -999.2500    59.1939    51.5833    40.4958    22.6893    21.2597     0.0644     0.0049     2.3847     5.8903 
 3126.3336    17.3192  -999.2500    59.5612    50.4193    40.6719    21.6776    20.2762     0.0622     0.0053     2.4812     5.8312 
 3126.4860    15.7802  -999.2500    57.0989    49.5436    44.3125    21.8878    20.2588     0.0581     0.0053     1.9777     5.6343 
 3126.6384    15.4837  -999.2500    53.2357    48.3319    47.8788    22.1481    20.3792     0.0581     0.0054     1.8207     5.1330 
 3126.7908    15.1503  -999.2500    48.9680    46.4507    55.2340    21.9549    20.2910     0.0617     0.0050     1.9605     4.5310 
 3126.9432    14.8867  -999.2500    45.8612    44.5232    75.3396    21.9007    20.2002     0.0617     0.0049     1.9329     4.1559 
 3127.0956    14.7845  -999.2500    42.5510    42.8165    89.6978    21.8126    20.4041     0.0659     0.0049     1.8736     3.7326 
 3127.2480    14.8234  -999.2500    40.1990    41.0617    78.0085    21.3674    20.9958     0.0665     0.0052     1.7155     3.4033 
 3127.4004    15.1439  -999.2500    38.0292    39.1598    55.7505    21.7996    21.5602     0.0664     0.0055     1.6797     3.1121 
 3127.5528    15.2575  -999.2500    35.3720    37.3808    43.5899    23.0653    22.0429     0.0623     0.0054     1.7675     2.6658 
 3127.7052    15.0253  -999.2500    33.3215    36.0748    40.9703    23.8005    22.7262     0.0576     0.0052     1.7812     2.4405 
 3127.8576    14.8727  -999.2500    31.4530    35.0960    40.8717    23.3481    22.5859     0.0536     0.0051     1.8166     2.1930 
 3128.0100    14.0118  -999.2500    29.9402    34.2372    41.1941    23.4075    22.2982     0.0489     0.0048     1.7283     2.1248 
 3128.1624    14.0881  -999.2500    28.0104    33.5798    42.7079    25.6737    23.5579     0.0516     0.0046     1.8160     1.8645 
 3128.3148    14.1616  -999.2500    27.6242    33.2163    44.1313    28.7463    25.3985     0.0540     0.0047     1.7898     1.8120 
 3128.4672    14.7095  -999.2500    28.0652    33.3978    39.3943    31.2162    28.3944     0.0569     0.0049     1.8594     1.8361 
 3128.6196    15.2286  -999.2500    29.4216    34.1617    28.1036    31.7740    31.0330     0.0564     0.0053     1.7989     1.9481 
 3128.7720    15.6774  -999.2500    29.3123    35.0505    19.7585    29.6598    29.9188     0.0573     0.0054     1.8676     1.8933 
 3128.9244    15.9050  -999.2500    30.0832    35.9751    18.8027    30.6466    29.9343     0.0561     0.0053     1.9994     2.0126 
 3129.0768    16.4857  -999.2500    31.5973    37.1710    22.0774    35.4468    32.8060     0.0558     0.0055     2.0818     2.1524 
 3129.2292    17.8493  -999.2500    34.7551    38.3466    25.3713    36.2753    32.9112     0.0614     0.0060     2.2044     2.3996 
 3129.3816    19.6119  -999.2500    38.8550    39.1002    25.8936    32.7675    30.4444     0.0794     0.0067     2.4106     2.7225 
 3129.5340    22.7682  -999.2500    44.3026    39.7323    26.2949    28.6294    27.5861     0.1032     0.0078     2.7473     3.0177 
 3129.6864    25.9048  -999.2500    49.7612    41.1287    29.0274    26.7652    26.1770     0.1030     0.0092     2.9777     3.3174 
 3129.8388    27.3379  -999.2500    54.5802    43.9709    30.1965    27.1430    26.4050     0.0843     0.0097     3.1373     3.7224 
 3129.9912    28.7908  -999.2500    58.8003    47.5820    28.4080    26.2658    25.6822     0.0570     0.0104     3.1949     3.9987 
 3130.1436    30.8582  -999.2500    62.8531    50.7511    29.7016    25.3170    25.7314     0.0930     0.0118     3.0228     4.2906 
 3130.2960    30.5767  -999.2500    64.2010    54.1548    37.4602    23.6877    24.6402     0.0893     0.0118     2.9520     4.4719 
 3130.4484    29.5061  -999.2500    64.2595    58.7749    43.3948    21.1000    20.5373     0.0901     0.0116     2.6831     4.5429 
 3130.6008    30.2801  -999.2500    64.5216    62.8144    41.3917    21.2800    18.7354     0.0928     0.0122     2.6031     4.3116 
 3130.7532    31.4361  -999.2500    66.7403    63.9266    39.7274    20.4926    17.9147     0.1063     0.0125     2.7755     4.4866 
 3130.9056    31.8401  -999.2500    69.2211    62.7728    39.0728    18.5849    16.9143     0.1242     0.0131     2.5997     4.6219 
 3131.0580    34.1155  -999.2500    73.9180    62.8958    32.0708    18.4419    17.2151     0.1410     0.0142     2.6527     4.9108 
 3131.2104    36.0829  -999.2500    80.4237    66.4690    23.3308    16.7940    15.6019     0.1440     0.0153     2.6428     5.5859 
 3131.3628    36.2788  -999.2500    84.2388    70.9796    20.1325    14.3123    12.3140     0.1369     0.0153     2.6984     6.2311 
 3131.5152    34.5652  -999.2500    81.2028    73.5615    21.0935    13.3287    10.0874     0.1405     0.0148     2.4802     5.9679 
 3131.6676    30.7569  -999.2500    73.0932    71.9195    22.0666    13.1172     9.5773     0.1559     0.0125     2.5559     5.3507 
 3131.8200    25.5190  -999.2500    64.2012    63.7092    27.4279    14.6533    10.4989     0.1745     0.0101     2.3209     4.8352 
 3131.9724    22.4261  -999.2500    57.1678    52.7201    43.9405    24.5582    15.4178     0.1723     0.0088     2.0716     4.3428 
 3132.1248    19.9126  -999.2500    52.3044    45.8921    61.9569    32.9700    21.1515     0.1551     0.0078     1.8572     4.0229 
 3132.2772    16.7815  -999.2500    49.1632    43.5115    65.3289    36.4278    27.3808     0.1499     0.0064     1.6501     4.1522 
 3132.4296    15.6983  -999.2500    46.9075    43.6787    60.1049    44.7836    41.2272     0.1392     0.0060     1.5133     3.9597 
 3132.5820    15.5064  -999.2500    46.5669    45.8119    62.5121    56.4905    58.4805     0.1221     0.0056     1.7086     3.8905 
 3132.7344    17.0107  -999.2500    49.4498    48.1174    60.5428    58.0984    62.8072     0.0954     0.0063     1.7924     4.0323 
 3132.8868    19.7905  -999.2500    54.4306    50.2999    61.1712    64.7016    70.5793     0.0822     0.0074     2.0317     4.4490 
 3133.0392    22.6343  -999.2500    59.7137    52.9550    68.0008    78.1868    81.6324     0.0779     0.0085     2.3079     4.7062 
 3133.1916    25.6973  -999.2500    64.7317    54.9699    53.2660    58.7981    55.7244     0.0732     0.0097     2.5784     5.0344 
 3133.3440    27.7438  -999.2500    68.6292    55.2650    35.2094    40.6027    37.8159     0.0755     0.0109     2.5659     5.3328 
 3133.4964    29.1331  -999.2500    69.6429    53.7394    29.2973    40.2971    41.7866     0.0859     0.0114     2.6826     5.4040 
 3133.6488    27.6361  -999.2500    66.8801    50.2084    41.0691    42.2465    43.6139     0.0877     0.0108     2.5610     5.0732 
 3133.8012    25.5684  -999.2500    61.6240    46.5141    61.7062    49.1742    48.8537     0.0788     0.0098     2.4911     4.6787 
 3133.9536    23.3298  -999.2500    55.4211    45.1959    54.2664    50.0006    48.4585     0.0667     0.0088     2.3691     4.0692 
 3134.1060    20.5748  -999.2500    50.0687    46.0245    41.8076    54.7557    53.7570     0.0645     0.0078     2.0367     3.6731 
 3134.2584    19.0119  -999.2500    47.6576    47.6599    45.7265    60.6757    62.2354     0.0658     0.0072     1.8861     3.5121 
 3134.4108    18.9006  -999.2500    48.9189    48.4309    47.8552    59.5303    62.6653     0.0604     0.0070     1.9990     3.8031 
 3134.5632    19.2659  -999.2500    52.1254    47.2529    39.7136    65.0292    66.9420     0.0538     0.0068     2.1978     4.2837 
 3134.7156    19.9386  -999.2500    54.2331    45.8523    31.6224    78.7365    78.9951     0.0514     0.0068     2.4258     4.5555 
 3134.8680    18.1768  -999.2500    53.7990    45.2673    39.9307    86.1168    87.0211     0.0502     0.0060     2.3313     4.6618 
 3135.0204    16.3572  -999.2500    52.5900    45.4232    71.6142    86.5109    81.4858     0.0501     0.0055     2.0724     4.6195 
