#------------------------------------------------------------------------------
#
#   Created by  : [OpenWorks] Log Export Utility (LEXP)
#   Created on  : 2016-05-24 12:10:46
#   Project     : CANT971
#   User        : R5K
#   Interpreter : PEP
#
#------------------------------------------------------------------------------
~VERSION INFORMATION
VERS. 2.0 : CWLS Log ASCII Standard - version 2.0
WRAP.  NO : One line per depth step
~WELL INFORMATION
#MNEMONIC   .UNIT                                           VALUE :DESCRIPTION
#------------------------------------------------------------------------------
STRT        .M                                           493.6194 :START DEPTH
STOP        .M                                          3276.7483 :STOP DEPTH
STEP        .M                                             0.1524 :STEP
NULL        .                                           -999.2500 :NULL VALUE
COMP        .                                   PEMEX EXPL & PROD :COMPANY
WELL        .                                                1013 :WELL
FLD         .                                           CANTARELL :FIELD
LOC         .                                             UNKNOWN :LOCATION
CNTY        .                                      CD. DEL CARMEN :COUNTY
STAT        .                                            CAMPECHE :STATE
CTRY        .                                              MEXICO :COUNTRY
SRVC        .                                             UNKNOWN :SERVICE COMPANY
DATE        .                                             UNKNOWN :LOG DATE
UWI         .                                          3060000208 :UNIQUE WELL ID
XCOORD      .                                       598525.520000 :SURFACE X
YCOORD      .                                      2152013.570000 :SURFACE Y
LAT         .                                           19.461323 :LATITUDE
LON         .                                          -92.061319 :LONGITUDE
ELEV        .M                                            27.9700 :SURFACE ELEV
ELEV_TYPE   .                                                  KB :ELEV TYPE
~CURVE INFORMATION
#MNEMONIC.UNIT        API CODE       : CURVE DESCRIPTION
#------------------------------------------------------------------------------
DEPTH    .M                          : Measured Depth
CALI     .UNKNOWN     UNKNOWN        : CALI:registros:rC:NONE:v0 (auto-composite)
DRHO     .UNKNOWN     UNKNOWN        : DRHO:registros:rC:NONE:v0 (auto-composite)
DT       .us/ft       UNKNOWN        : DT:registros:rC:NONE:v0 (auto-composite)
GR       .API         UNKNOWN        : GR:PETROWORKS:rC:NONE:v1 
ILD      .UNKNOWN     UNKNOWN        : ILD:registros:rC:NONE:v0 (auto-composite)
LLD      .ohm.m       UNKNOWN        : LLD:PETROWORKS:rC:NONE:v1 
LLS      .UNKNOWN     UNKNOWN        : LLS:PETROWORKS:rC:NONE:v1 
MSFL     .UNKNOWN     UNKNOWN        : MSFL:registros:rC:NONE:v0 (auto-composite)
NPHI     .UNKNOWN     UNKNOWN        : NPHI:registros:rC:NONE:v0 (auto-composite)
PEF      .UNKNOWN     UNKNOWN        : PEF:registros:rC:NONE:v0 (auto-composite)
RHOB     .UNKNOWN     UNKNOWN        : RHOB:miremvroc:rC:NONE:v0 (auto-composite)
SP       .UNKNOWN     UNKNOWN        : SP:PETROWORKS:rC:NONE:v1 
~A     DEPTH         CALI         DRHO           DT           GR          ILD          LLD          LLS         MSFL         NPHI          PEF         RHOB           SP
# ...
   3002.7329       8.8156    -999.2500      48.0888      45.6772    -999.2500    5306.4375    2978.3884     644.8973       0.0273       2.8290       2.7819    -999.2500
   3002.8855       8.7781    -999.2500      48.0948      45.2567    -999.2500    3053.9141    2400.6448     294.8791       0.0303       2.8300       2.7859    -999.2500
   3003.0378       8.7236    -999.2500      48.8351      43.3218    -999.2500    2775.3132    1840.7806     284.8660       0.0336       3.0193       2.7860    -999.2500
   3003.1902       8.6687    -999.2500      49.5978      41.6643    -999.2500    2906.8701    1392.4153     285.2163       0.0364       3.2144       2.7860    -999.2500
   3003.3425       8.6670    -999.2500      50.0749      41.4425    -999.2500    3476.4302    1269.9021     325.7064       0.0370       3.2200       2.7792    -999.2500
   3003.4949       8.6670    -999.2500      50.5431      41.7626    -999.2500    4205.5869    1268.7874     367.4568       0.0363       3.2200       2.7722    -999.2500
   3003.6475       8.6670    -999.2500      51.6340      41.7501    -999.2500    3601.7351    1389.1346     430.9102       0.0330       3.2088       2.7754    -999.2500
   3003.7998       8.6670    -999.2500      52.7441      41.1291    -999.2500    3095.1650    1596.7236     495.0280       0.0295       3.1973       2.7789    -999.2500
   3003.9521       8.6675    -999.2500      51.9197      38.7228    -999.2500    2959.6658    2055.7495     638.9031       0.0288       3.1086       2.7790    -999.2500
   3004.1045       8.6680    -999.2500      51.0344      35.9115    -999.2500    3024.5039    2779.7383     785.2932       0.0289       3.0176       2.7790    -999.2500
   3004.2571       8.7020    -999.2500      51.0216      35.5914    -999.2500    3690.1912    5200.1597     586.1014       0.0299       2.8999       2.7785    -999.2500
   3004.4094       8.7370    -999.2500      51.0356      35.9403    -999.2500    4779.6689    7387.7593     376.2840       0.0322       2.7814       2.7780    -999.2500
   3004.5618       8.7584    -999.2500      51.9691      37.4871    -999.2500    7120.1729    7903.0034     407.6763       0.0393       2.7790       2.7606    -999.2500
   3004.7141       8.7794    -999.2500      52.9302      39.5805    -999.2500    9433.2705    7814.2627     446.2961       0.0498       2.7800       2.7426    -999.2500
   3004.8667       8.8377    -999.2500      56.2807      42.5579    -999.2500    9859.8955    7267.2905     446.0488       0.0694       2.9097       2.6844    -999.2500
   3005.0190       8.8973    -999.2500      59.7050      45.6892    -999.2500    9390.1387    6443.3779     444.6013       0.0881       3.0431       2.6248    -999.2500
   3005.1714       8.9480    -999.2500      62.9975      48.4009    -999.2500    6570.6450    4678.7959     289.5405       0.0919       3.0451       2.6322    -999.2500
   3005.3237       8.9985    -999.2500      66.2861      50.5421    -999.2500    3892.8948    3088.9978     129.8565       0.0918       3.0431       2.6417    -999.2500
   3005.4761       9.0000    -999.2500      66.3496      51.0860    -999.2500    3197.2354    2679.9407     125.2179       0.0908       2.9143       2.6313    -999.2500
   3005.6287       9.0000    -999.2500      66.3131      51.0192    -999.2500    3208.8635    2703.2251     125.3880       0.0886       2.7819       2.6203    -999.2500
   3005.7810       8.9990    -999.2500      63.2965      50.0118    -999.2500    3491.4077    3085.2412     238.0614       0.0817       2.7780       2.6205    -999.2500
   3005.9333       8.9980    -999.2500      60.1898      49.1407    -999.2500    4057.2676    3996.2856     354.1358       0.0744       2.7780       2.6210    -999.2500
   3006.0857       8.9466    -999.2500      60.1212      48.8946    -999.2500    5381.7549    6356.8320     329.4266       0.0704       2.7780       2.6399    -999.2500
   3006.2383       8.8936    -999.2500      60.1472      48.8967    -999.2500    6965.7515    9132.9834     300.3324       0.0668       2.7780       2.6594    -999.2500
   3006.3906       8.7829    -999.2500      61.2054      49.0926    -999.2500    7837.9414    8591.5117     333.4750       0.0615       2.7780       2.6934    -999.2500
   3006.5430       8.6704    -999.2500      62.2950      49.2553    -999.2500    8528.6865    7978.8560     368.5074       0.0567       2.7780       2.7280    -999.2500
   3006.6953       8.6670    -999.2500      62.6554      49.2731    -999.2500    8795.2314    7833.3809     349.8353       0.0559       2.7790       2.7285    -999.2500
   3006.8479       8.6670    -999.2500      62.9930      48.9732    -999.2500    9564.5283    8650.0117     329.4833       0.0570       2.7800       2.7280    -999.2500
   3007.0002       8.6670    -999.2500      62.4559      46.9155    -999.2500   14598.4512   14704.9502     329.8054       0.0630       2.8140       2.7217    -999.2500
   3007.1526       8.6670    -999.2500      61.8922      44.8995    -999.2500   19521.3691   20622.0391     330.7580       0.0698       2.8490       2.7152    -999.2500
   3007.3049       8.6670    -999.2500      61.8959      44.5060    -999.2500   20496.8145   21691.9277     368.1422       0.0749       2.9767       2.7039    -999.2500
   3007.4573       8.6670    -999.2500      61.9174      44.8893    -999.2500   19942.1797   20556.8613     406.6709       0.0801       3.1071       2.6924    -999.2500
   3007.6099       8.6132    -999.2500      62.6672      46.6531    -999.2500   17404.8242   15723.0342     431.0020       0.0870       3.1100       2.6726    -999.2500
   3007.7622       8.5577    -999.2500      63.4394      48.6080    -999.2500   13922.6650    9941.5205     454.8982       0.0960       3.1090       2.6526    -999.2500
   3007.9146       8.5560    -999.2500      64.6030      48.7835    -999.2500    7536.6221    5351.6465     483.8029       0.1132       2.9482       2.6142    -999.2500
   3008.0669       8.5560    -999.2500      65.7789      47.5127    -999.2500    2046.5856    1794.2450     512.8656       0.1296       2.7827       2.5752    -999.2500
   3008.2195       8.5560    -999.2500      65.8125      42.6464    -999.2500     549.4565     827.2951     510.6793       0.1327       2.7790       2.5750    -999.2500
   3008.3718       8.5560    -999.2500      65.8110      36.5475    -999.2500     574.0309     847.3546     507.5316       0.1309       2.7800       2.5760    -999.2500
   3008.5242       8.5560    -999.2500      65.2015      36.3435    -999.2500    3349.4324    3168.4905     422.2887       0.1206       2.8198       2.6162    -999.2500
   3008.6765       8.5560    -999.2500      64.5738      37.9769    -999.2500    5634.8213    5093.5610     334.5846       0.1122       2.8608       2.6577    -999.2500
   3008.8291       8.5662    -999.2500      64.6113      44.3750    -999.2500    6185.5386    5607.7549     477.2841       0.1223       2.9829       2.6585    -999.2500
   3008.9814       8.5767    -999.2500      64.6693      51.9409    -999.2500    5939.7798    5529.6768     627.1024       0.1349       3.1074       2.6580    -999.2500
   3009.1338       8.8521    -999.2500      66.5379      52.6995    -999.2500    4089.0415    4768.0122     618.0480       0.1373       3.1095       2.6430    -999.2500
   3009.2861       9.1355    -999.2500      68.4611      52.0197    -999.2500    2247.6470    3809.4512     604.2095       0.1369       3.1080       2.6275    -999.2500
   3009.4385       9.2357    -999.2500      68.4006      49.1812    -999.2500    1101.9099    2437.9854     401.6337       0.1346       3.0696       2.6100    -999.2500
   3009.5911       9.3302    -999.2500      68.2786      46.1596    -999.2500     305.8340    1116.0714     193.2012       0.1322       3.0302       2.5925    -999.2500
   3009.7434       9.3296    -999.2500      68.2818      45.5560    -999.2500     156.3338     677.7896     184.4561       0.1321       2.9071       2.5823    -999.2500
   3009.8958       9.3261    -999.2500      68.2888      45.5651    -999.2500     163.1217     468.2092     181.7508       0.1347       2.7816       2.5723    -999.2500
