#------------------------------------------------------------------------------
#
#   Created by  : [OpenWorks] Log Export Utility (LEXP)
#   Created on  : 2016-05-24 12:10:46
#   Project     : CANT971
#   User        : R5K
#   Interpreter : PEP
#
#------------------------------------------------------------------------------
~VERSION INFORMATION
VERS. 2.0 : CWLS Log ASCII Standard - version 2.0
WRAP.  NO : One line per depth step
~WELL INFORMATION
#MNEMONIC   .UNIT                                           VALUE :DESCRIPTION
#------------------------------------------------------------------------------
STRT        .M                                           493.6194 :START DEPTH
STOP        .M                                          3276.7483 :STOP DEPTH
STEP        .M                                             0.1524 :STEP
NULL        .                                           -999.2500 :NULL VALUE
COMP        .                                   PEMEX EXPL & PROD :COMPANY
WELL        .                                                1013 :WELL
FLD         .                                           CANTARELL :FIELD
LOC         .                                             UNKNOWN :LOCATION
CNTY        .                                      CD. DEL CARMEN :COUNTY
STAT        .                                            CAMPECHE :STATE
CTRY        .                                              MEXICO :COUNTRY
SRVC        .                                             UNKNOWN :SERVICE COMPANY
DATE        .                                             UNKNOWN :LOG DATE
UWI         .                                          3060000208 :UNIQUE WELL ID
XCOORD      .                                       598525.520000 :SURFACE X
YCOORD      .                                      2152013.570000 :SURFACE Y
LAT         .                                           19.461323 :LATITUDE
LON         .                                          -92.061319 :LONGITUDE
ELEV        .M                                            27.9700 :SURFACE ELEV
ELEV_TYPE   .                                                  KB :ELEV TYPE
~CURVE INFORMATION
#MNEMONIC.UNIT        API CODE       : CURVE DESCRIPTION
#------------------------------------------------------------------------------
DEPTH    .M                          : Measured Depth
CALI     .UNKNOWN     UNKNOWN        : CALI:registros:rC:NONE:v0 (auto-composite)
DRHO     .UNKNOWN     UNKNOWN        : DRHO:registros:rC:NONE:v0 (auto-composite)
DT       .us/ft       UNKNOWN        : DT:registros:rC:NONE:v0 (auto-composite)
GR       .API         UNKNOWN        : GR:PETROWORKS:rC:NONE:v1 
ILD      .UNKNOWN     UNKNOWN        : ILD:registros:rC:NONE:v0 (auto-composite)
LLD      .ohm.m       UNKNOWN        : LLD:PETROWORKS:rC:NONE:v1 
LLS      .UNKNOWN     UNKNOWN        : LLS:PETROWORKS:rC:NONE:v1 
MSFL     .UNKNOWN     UNKNOWN        : MSFL:registros:rC:NONE:v0 (auto-composite)
NPHI     .UNKNOWN     UNKNOWN        : NPHI:registros:rC:NONE:v0 (auto-composite)
PEF      .UNKNOWN     UNKNOWN        : PEF:registros:rC:NONE:v0 (auto-composite)
RHOB     .UNKNOWN     UNKNOWN        : RHOB:miremvroc:rC:NONE:v0 (auto-composite)
SP       .UNKNOWN     UNKNOWN        : SP:PETROWORKS:rC:NONE:v1 
~A     DEPTH         CALI         DRHO           DT           GR          ILD          LLD          LLS         MSFL         NPHI          PEF         RHOB           SP
# ...
   2717.4402       8.0887       0.0155      76.0734      36.4349    -999.2500     258.6262     193.2593      57.0209       0.1247    -999.2500       2.5374     -56.3534
   2717.5925       8.0802       0.0150      72.2800      35.6978    -999.2500     237.1867     173.7110      33.6815       0.1254    -999.2500       2.5419     -54.3682
   2717.7449       8.0960       0.0169      72.2036      34.5981    -999.2500     213.1441     152.6158      22.4215       0.1264    -999.2500       2.5483     -52.1268
   2717.8975       8.1125       0.0189      72.2361      33.4021    -999.2500     194.6556     135.8999      11.5155       0.1272    -999.2500       2.5548     -49.8885
   2718.0498       8.1057       0.0331      74.3270      32.1435    -999.2500     206.6584     142.6711      16.4892       0.1274    -999.2500       2.5720     -47.9563
   2718.2021       8.0982       0.0476      76.4765      30.8399    -999.2500     233.7417     159.8084      21.9158       0.1255    -999.2500       2.5894     -46.2220
   2718.3545       8.0917       0.0645      80.0509      29.4277    -999.2500     289.9460     195.0116      41.3950       0.1200    -999.2500       2.6074     -44.9377
   2718.5071       8.0852       0.0815      83.6673      28.1353    -999.2500     348.8890     231.7930      61.2878       0.1155    -999.2500       2.6254     -43.8376
   2718.6594       8.0427       0.0670      87.4319      28.6578    -999.2500     330.5627     219.3941      53.7869       0.1169    -999.2500       2.5737     -43.1811
   2718.8118       7.9992       0.0515      91.2007      29.3589    -999.2500     296.3380     198.7062      45.5010       0.1263    -999.2500       2.5197     -42.6118
   2718.9641       7.9164       0.0573      94.9502      30.0024    -999.2500     239.8919     169.2543      31.6548       0.1463    -999.2500       2.4100     -42.1577
   2719.1167       7.8324       0.0638      98.6991      30.6151    -999.2500     176.3468     136.9142      17.6441       0.1654    -999.2500       2.2985     -41.7461
   2719.2690       7.8703       0.0625     100.8570      30.9386    -999.2500     174.5244     121.4537      19.9399       0.1716    -999.2500       2.3265     -41.3707
   2719.4214       7.9118       0.0610     102.9691      31.3197    -999.2500     178.3998     111.6442      22.7052       0.1691    -999.2500       2.3590     -41.0140
   2719.5737       8.0184       0.0494     103.5760      31.9129    -999.2500     192.0005     116.9628      37.5758       0.1620    -999.2500       2.4176     -40.7098
   2719.7261       8.1269       0.0374     104.1382      32.4341    -999.2500     206.3590     126.3964      52.8059       0.1512    -999.2500       2.4771     -40.4582
   2719.8787       8.1067       0.0225     100.7024      31.7883    -999.2500     199.8951     125.7735      73.1229       0.1372    -999.2500       2.5211     -40.4709
   2720.0310       8.0827       0.0075      97.1509      30.9440    -999.2500     187.1341     121.8895      93.5871       0.1222    -999.2500       2.5646     -40.5148
   2720.1833       8.0223       0.0002      90.6121      30.0706    -999.2500     162.9067     111.6671      80.8210       0.1086    -999.2500       2.5897     -40.5135
   2720.3357       7.9607      -0.0068      83.9841      29.3375    -999.2500     136.0361      99.4120      67.0635       0.0967    -999.2500       2.6142     -40.5134
   2720.4883       7.9609      -0.0070      78.4328      29.2261    -999.2500     111.5697      86.0588      56.8760       0.0870    -999.2500       2.6310     -40.5719
   2720.6406       7.9629      -0.0070      72.9128      29.3826    -999.2500      89.0831      72.9860      46.7923       0.0810    -999.2500       2.6475     -40.6503
   2720.7930       7.9844      -0.0060      73.7540      30.1620    -999.2500      75.1934      63.7162      41.9034       0.0806    -999.2500       2.6480     -40.7525
   2720.9453       8.0064      -0.0050      74.7750      31.1667    -999.2500      63.3657      55.2502      37.1615       0.0846    -999.2500       2.6480     -40.8483
   2721.0979       8.0298      -0.0011      76.9254      32.5474    -999.2500      53.4466      47.2941      41.9730       0.0923    -999.2500       2.6277     -40.9118
   2721.2502       8.0534       0.0029      79.1087      34.0919    -999.2500      44.2940      39.5755      47.0634       0.1042    -999.2500       2.6066     -40.9641
   2721.4026       8.0691       0.0137      80.4583      36.4139    -999.2500      37.9328      33.5363      38.6542       0.1213    -999.2500       2.5455     -41.0321
   2721.5549       8.0846       0.0247      81.7842      38.6938    -999.2500      34.4262      29.8345      29.8615       0.1351    -999.2500       2.4830     -41.1168
   2721.7073       8.2011       0.0323      79.9779      40.7153    -999.2500      38.7386      32.6366      51.6691       0.1361    -999.2500       2.4810     -41.2479
   2721.8599       8.3207       0.0398      78.0797      42.4274    -999.2500      47.3487      38.8639      74.3740       0.1284    -999.2500       2.4810     -41.4075
   2722.0122       8.2890       0.0318      73.9856      40.8738    -999.2500      76.7889      60.0992     128.8449       0.1150    -999.2500       2.5042     -41.7372
   2722.1646       8.2530       0.0233      69.8289      39.3618    -999.2500     113.8133      86.6384     184.2225       0.0986    -999.2500       2.5282     -42.1177
   2722.3169       8.1796       0.0123      66.3089      38.9966    -999.2500     169.8095     126.3167     208.1941       0.0816    -999.2500       2.5673     -42.6148
   2722.4695       8.1051       0.0013      62.8076      38.9726    -999.2500     230.4047     168.7392     231.2406       0.0687    -999.2500       2.6068     -43.1517
   2722.6218       8.0583       0.0025      60.8953      38.7198    -999.2500     281.7352     202.2588     231.0614       0.0654    -999.2500       2.6400     -43.6951
   2722.7742       8.0123       0.0040      59.0286      38.3702    -999.2500     323.4661     228.5631     230.2163       0.0665    -999.2500       2.6729     -44.2358
   2722.9265       7.9998       0.0035      58.1268      37.8104    -999.2500     329.6330     230.0950     227.5691       0.0669    -999.2500       2.6721     -44.7593
   2723.0791       7.9883       0.0030      57.2535      37.3426    -999.2500     329.0887     227.4631     224.8686       0.0664    -999.2500       2.6701     -45.2758
   2723.2314       7.9933       0.0025      56.9696      37.3840    -999.2500     334.4113     230.7550     227.1535       0.0650    -999.2500       2.6685     -45.7802
   2723.3838       7.9988       0.0020      56.7027      37.6038    -999.2500     342.3727     236.3792     229.5819       0.0636    -999.2500       2.6670     -46.2773
   2723.5361       7.9903       0.0015      56.8062      37.9667    -999.2500     357.0688     245.7732     219.2881       0.0636    -999.2500       2.6689     -46.7413
   2723.6885       7.9813       0.0010      56.9208      38.3535    -999.2500     368.7784     254.7942     208.6161       0.0646    -999.2500       2.6709     -47.1804
   2723.8411       7.9810       0.0015      57.3510      38.7611    -999.2500     369.2101     261.3503     195.9581       0.0665    -999.2500       2.6671     -47.5585
   2723.9934       7.9810       0.0020      57.7903      39.1763    -999.2500     365.3891     266.9716     183.2426       0.0682    -999.2500       2.6631     -47.9137
   2724.1458       7.9834       0.0044      57.5976      39.4476    -999.2500     372.0008     274.8998     191.9126       0.0683    -999.2500       2.6572     -48.2130
   2724.2981       7.9859       0.0069      57.3860      39.7374    -999.2500     381.0945     284.5306     201.2210       0.0673    -999.2500       2.6512     -48.5040
   2724.4507       7.9802       0.0060      56.6334      40.0931    -999.2500     396.9845     299.1075     260.2693       0.0656    -999.2500       2.6573     -48.7744
   2724.6030       7.9742       0.0050      55.8651      40.4644    -999.2500     415.7601     315.8985     320.7636       0.0636    -999.2500       2.6638     -49.0418
