#------------------------------------------------------------------------------
#
#   Created by  : [OpenWorks] Log Export Utility (LEXP)
#   Created on  : 2016-05-24 12:10:46
#   Project     : CANT971
#   User        : R5K
#   Interpreter : PEP
#
#------------------------------------------------------------------------------
~VERSION INFORMATION
VERS. 2.0 : CWLS Log ASCII Standard - version 2.0
WRAP.  NO : One line per depth step
~WELL INFORMATION
#MNEMONIC   .UNIT                                           VALUE :DESCRIPTION
#------------------------------------------------------------------------------
STRT        .M                                           493.6194 :START DEPTH
STOP        .M                                          3276.7483 :STOP DEPTH
STEP        .M                                             0.1524 :STEP
NULL        .                                           -999.2500 :NULL VALUE
COMP        .                                   PEMEX EXPL & PROD :COMPANY
WELL        .                                                1013 :WELL
FLD         .                                           CANTARELL :FIELD
LOC         .                                             UNKNOWN :LOCATION
CNTY        .                                      CD. DEL CARMEN :COUNTY
STAT        .                                            CAMPECHE :STATE
CTRY        .                                              MEXICO :COUNTRY
SRVC        .                                             UNKNOWN :SERVICE COMPANY
DATE        .                                             UNKNOWN :LOG DATE
UWI         .                                          3060000208 :UNIQUE WELL ID
XCOORD      .                                       598525.520000 :SURFACE X
YCOORD      .                                      2152013.570000 :SURFACE Y
LAT         .                                           19.461323 :LATITUDE
LON         .                                          -92.061319 :LONGITUDE
ELEV        .M                                            27.9700 :SURFACE ELEV
ELEV_TYPE   .                                                  KB :ELEV TYPE
~CURVE INFORMATION
#MNEMONIC.UNIT        API CODE       : CURVE DESCRIPTION
#------------------------------------------------------------------------------
DEPTH    .M                          : Measured Depth
CALI     .UNKNOWN     UNKNOWN        : CALI:registros:rC:NONE:v0 (auto-composite)
DRHO     .UNKNOWN     UNKNOWN        : DRHO:registros:rC:NONE:v0 (auto-composite)
DT       .us/ft       UNKNOWN        : DT:registros:rC:NONE:v0 (auto-composite)
GR       .API         UNKNOWN        : GR:PETROWORKS:rC:NONE:v1 
ILD      .UNKNOWN     UNKNOWN        : ILD:registros:rC:NONE:v0 (auto-composite)
LLD      .ohm.m       UNKNOWN        : LLD:PETROWORKS:rC:NONE:v1 
LLS      .UNKNOWN     UNKNOWN        : LLS:PETROWORKS:rC:NONE:v1 
MSFL     .UNKNOWN     UNKNOWN        : MSFL:registros:rC:NONE:v0 (auto-composite)
NPHI     .UNKNOWN     UNKNOWN        : NPHI:registros:rC:NONE:v0 (auto-composite)
PEF      .UNKNOWN     UNKNOWN        : PEF:registros:rC:NONE:v0 (auto-composite)
RHOB     .UNKNOWN     UNKNOWN        : RHOB:miremvroc:rC:NONE:v0 (auto-composite)
SP       .UNKNOWN     UNKNOWN        : SP:PETROWORKS:rC:NONE:v1 
~A     DEPTH         CALI         DRHO           DT           GR          ILD          LLD          LLS         MSFL         NPHI          PEF         RHOB           SP
# ...
   3141.7217       8.4757    -999.2500      64.0029      54.4189    -999.2500      93.4377      56.0316      40.8684       0.1344       2.8637       2.6548    -999.2500
   3141.8743       8.5497    -999.2500      63.4171      53.7758    -999.2500      90.4875      53.4050      38.9562       0.1304       2.9222       2.6608    -999.2500
   3142.0266       8.5127    -999.2500      63.9525      52.7584    -999.2500      86.4583      49.5086      40.8484       0.1264       2.9763       2.6460    -999.2500
   3142.1790       8.4722    -999.2500      64.5237      51.6926    -999.2500      82.5484      45.8867      42.8621       0.1229       3.0304       2.6305    -999.2500
   3142.3313       8.4041    -999.2500      65.1958      50.5447    -999.2500      79.1542      43.2605      40.2365       0.1203       2.8551       2.6198    -999.2500
   3142.4839       8.3351    -999.2500      65.8710      49.4639    -999.2500      75.9669      41.1471      37.4662       0.1195       2.6727       2.6093    -999.2500
   3142.6362       8.3330    -999.2500      65.4723      49.7506    -999.2500      72.9695      40.9457      35.3969       0.1212       2.6878       2.6318    -999.2500
   3142.7886       8.3330    -999.2500      65.0392      50.2753    -999.2500      70.0051      40.6519      33.3502       0.1248       2.7093       2.6553    -999.2500
   3142.9409       8.3902    -999.2500      64.4445      51.1354    -999.2500      67.0874      39.3974      28.8916       0.1295       2.7875       2.6521    -999.2500
   3143.0935       8.4492    -999.2500      63.8447      52.0472    -999.2500      64.4081      37.7495      24.3576       0.1343       2.8675       2.6481    -999.2500
   3143.2458       8.4951    -999.2500      63.6128      52.6502    -999.2500      62.9556      35.6773      25.6842       0.1381       2.8254       2.6436    -999.2500
   3143.3982       8.5406    -999.2500      63.3927      53.1157    -999.2500      61.7268      33.9367      27.1998       0.1413       2.7794       2.6391    -999.2500
   3143.5505       8.5488    -999.2500      63.8982      53.2604    -999.2500      60.2080      34.2840      31.6815       0.1441       2.7780       2.6206    -999.2500
   3143.7029       8.5558    -999.2500      64.4264      53.3190    -999.2500      59.3570      35.3782      36.2565       0.1467       2.7780       2.6016    -999.2500
   3143.8555       8.5226    -999.2500      65.4890      53.3328    -999.2500      61.0920      37.4390      39.8225       0.1497       2.8279       2.5865    -999.2500
   3144.0078       8.4881    -999.2500      66.5689      53.3330    -999.2500      63.6417      39.5229      43.3558       0.1516       2.8794       2.5715    -999.2500
   3144.1602       8.4502    -999.2500      68.0065      53.3330    -999.2500      65.8604      38.5082      40.7272       0.1508       2.9629       2.5909    -999.2500
   3144.3125       8.4122    -999.2500      69.4554      53.3330    -999.2500      66.3370      36.6508      37.9039       0.1477       3.0473       2.6114    -999.2500
   3144.4651       8.4769    -999.2500      68.3795      52.6722    -999.2500      61.7953      33.3490      33.6454       0.1426       3.0796       2.6382    -999.2500
   3144.6174       8.5449    -999.2500      67.2216      53.0110    -999.2500      55.3503      29.5064      29.3404       0.1372       3.1101       2.6652    -999.2500
   3144.7698       8.5145    -999.2500      65.3180      53.5736    -999.2500      47.4172      25.3482      26.4310       0.1333       3.0713       2.6563    -999.2500
   3144.9221       8.4810    -999.2500      63.3908      53.7382    -999.2500      40.4512      21.9911      23.5660       0.1308       3.0303       2.6463    -999.2500
   3145.0745       8.4504    -999.2500      63.5798      52.1184    -999.2500      36.4967      21.0749      21.8235       0.1300       2.9651       2.6310    -999.2500
   3145.2271       8.4199    -999.2500      63.8341      49.0189    -999.2500      34.0472      21.0500      20.1157       0.1302       2.8990       2.6155    -999.2500
   3145.3794       8.3773    -999.2500      64.6287      43.0798    -999.2500      34.9521      21.0500      18.3053       0.1308       2.8393       2.6223    -999.2500
   3145.5317       8.3343    -999.2500      65.4405      40.3721    -999.2500      36.3452      21.0970      16.4917       0.1314       2.7798       2.6298    -999.2500
   3145.6841       8.3606    -999.2500      66.1053      40.9070    -999.2500      37.6192      21.3250      16.8815       0.1314       2.7780       2.6441    -999.2500
   3145.8367       8.3891    -999.2500      66.7655      40.5303    -999.2500      38.5191      21.5971      17.3398       0.1308       2.7780       2.6586    -999.2500
   3145.9890       8.4123    -999.2500      66.9784      36.3274    -999.2500      37.9546      21.8364      17.6710       0.1297       2.7242       2.6493    -999.2500
   3146.1414       8.4353    -999.2500      67.1770      34.6504    -999.2500      37.1145      22.0751      17.9981       0.1280       2.6687       2.6393    -999.2500
   3146.2937       8.4820    -999.2500      67.4966      35.5970    -999.2500      37.1007      22.3718      20.0673       0.1257       2.6670       2.6216    -999.2500
   3146.4463       8.5295    -999.2500      67.8199      37.5359    -999.2500      37.4267      22.8927      22.1909       0.1238       2.6670       2.6036    -999.2500
   3146.5986       8.4879    -999.2500      68.2565      36.5847    -999.2500      38.3661      24.0917      24.9311       0.1236       2.6670       2.6049    -999.2500
   3146.7510       8.4434    -999.2500      68.6966      34.2243    -999.2500      39.5683      25.5500      27.6911       0.1244       2.6670       2.6069    -999.2500
   3146.9033       8.3892    -999.2500      67.9468      39.0443    -999.2500      41.8204      27.4131      30.4185       0.1258       2.6670       2.6244    -999.2500
   3147.0557       8.3347    -999.2500      67.1596      44.8617    -999.2500      44.1177      29.3150      33.1448       0.1273       2.6670       2.6424    -999.2500
   3147.2083       8.3800    -999.2500      65.6624      47.4144    -999.2500      46.3411      31.2479      38.7152       0.1286       2.7140       2.6667    -999.2500
   3147.3606       8.4285    -999.2500      64.1424      44.9747    -999.2500      48.5986      33.1352      44.3773       0.1294       2.7625       2.6913    -999.2500
   3147.5129       8.3956    -999.2500      64.7530      39.3165    -999.2500      51.9361      34.0801      33.8650       0.1298       2.7218       2.6804    -999.2500
   3147.6653       8.3601    -999.2500      65.4307      37.8024    -999.2500      55.0171      34.7965      22.8438       0.1298       2.6784       2.6684    -999.2500
   3147.8179       8.3096    -999.2500      64.9627      37.7576    -999.2500      56.9633      35.0343      27.0532       0.1293       2.7424       2.6438    -999.2500
   3147.9702       8.2586    -999.2500      64.4575      34.7574    -999.2500      58.3330      35.1028      31.7559       0.1283       2.8099       2.6188    -999.2500
   3148.1226       8.3190    -999.2500      63.5409      33.8907    -999.2500      58.5720      35.1140      28.3425       0.1269       2.9196       2.6330    -999.2500
   3148.2749       8.3830    -999.2500      62.6113      35.5435    -999.2500      58.5730      35.1140      24.6726       0.1258       3.0305       2.6485    -999.2500
   3148.4275       8.4678    -999.2500      61.0662      35.7121    -999.2500      58.5730      35.1140      12.7578       0.1260       3.0713       2.6679    -999.2500
   3148.5798       8.5534    -999.2500      59.5011      34.8586    -999.2500      58.5730      32.2237       0.5748       0.1263       3.1098       2.6874    -999.2500
   3148.7322       8.5036    -999.2500      59.7890      34.8863    -999.2500      73.3911      18.7822       0.2000       0.1251       3.1628       2.6938    -999.2500
   3148.8845       8.4496    -999.2500      60.1356      36.7997    -999.2500     105.2632       5.2490       0.2000       0.1237       3.2163       2.6998    -999.2500
