#------------------------------------------------------------------------------
#
#   Created by  : [OpenWorks] Log Export Utility (LEXP)
#   Created on  : 2016-05-24 12:10:46
#   Project     : CANT971
#   User        : R5K
#   Interpreter : PEP
#
#------------------------------------------------------------------------------
~VERSION INFORMATION
VERS. 2.0 : CWLS Log ASCII Standard - version 2.0
WRAP.  NO : One line per depth step
~WELL INFORMATION
#MNEMONIC   .UNIT                                           VALUE :DESCRIPTION
#------------------------------------------------------------------------------
STRT        .M                                           493.6194 :START DEPTH
STOP        .M                                          3276.7483 :STOP DEPTH
STEP        .M                                             0.1524 :STEP
NULL        .                                           -999.2500 :NULL VALUE
COMP        .                                   PEMEX EXPL & PROD :COMPANY
WELL        .                                                1013 :WELL
FLD         .                                           CANTARELL :FIELD
LOC         .                                             UNKNOWN :LOCATION
CNTY        .                                      CD. DEL CARMEN :COUNTY
STAT        .                                            CAMPECHE :STATE
CTRY        .                                              MEXICO :COUNTRY
SRVC        .                                             UNKNOWN :SERVICE COMPANY
DATE        .                                             UNKNOWN :LOG DATE
UWI         .                                          3060000208 :UNIQUE WELL ID
XCOORD      .                                       598525.520000 :SURFACE X
YCOORD      .                                      2152013.570000 :SURFACE Y
LAT         .                                           19.461323 :LATITUDE
LON         .                                          -92.061319 :LONGITUDE
ELEV        .M                                            27.9700 :SURFACE ELEV
ELEV_TYPE   .                                                  KB :ELEV TYPE
~CURVE INFORMATION
#MNEMONIC.UNIT        API CODE       : CURVE DESCRIPTION
#------------------------------------------------------------------------------
DEPTH    .M                          : Measured Depth
CALI     .UNKNOWN     UNKNOWN        : CALI:registros:rC:NONE:v0 (auto-composite)
DRHO     .UNKNOWN     UNKNOWN        : DRHO:registros:rC:NONE:v0 (auto-composite)
DT       .us/ft       UNKNOWN        : DT:registros:rC:NONE:v0 (auto-composite)
GR       .API         UNKNOWN        : GR:PETROWORKS:rC:NONE:v1 
ILD      .UNKNOWN     UNKNOWN        : ILD:registros:rC:NONE:v0 (auto-composite)
LLD      .ohm.m       UNKNOWN        : LLD:PETROWORKS:rC:NONE:v1 
LLS      .UNKNOWN     UNKNOWN        : LLS:PETROWORKS:rC:NONE:v1 
MSFL     .UNKNOWN     UNKNOWN        : MSFL:registros:rC:NONE:v0 (auto-composite)
NPHI     .UNKNOWN     UNKNOWN        : NPHI:registros:rC:NONE:v0 (auto-composite)
PEF      .UNKNOWN     UNKNOWN        : PEF:registros:rC:NONE:v0 (auto-composite)
RHOB     .UNKNOWN     UNKNOWN        : RHOB:miremvroc:rC:NONE:v0 (auto-composite)
SP       .UNKNOWN     UNKNOWN        : SP:PETROWORKS:rC:NONE:v1 
~A     DEPTH         CALI         DRHO           DT           GR          ILD          LLD          LLS         MSFL         NPHI          PEF         RHOB           SP
# ...
   2651.6033       7.0666       0.1780      88.9090      65.5245    -999.2500       3.4789       2.1931       3.0328       0.2002    -999.2500       2.5226       5.9802
   2651.7559       7.0826       0.1615      90.6361      64.5054    -999.2500       3.5125       2.2090       2.6652       0.2058    -999.2500       2.5026       5.7442
   2651.9082       7.1272       0.1499      89.9750      66.6394    -999.2500       3.6410       2.2689       3.0024       0.2163    -999.2500       2.4831       5.8334
   2652.0605       7.1727       0.1384      89.2458      68.5904    -999.2500       3.7457       2.3175       3.3598       0.2255    -999.2500       2.4636       5.9285
   2652.2129       7.1818       0.1089      89.3698      69.0826    -999.2500       3.7541       2.3206       2.9225       0.2257    -999.2500       2.4548       5.9467
   2652.3655       7.1898       0.0789      89.5189      68.9893    -999.2500       3.7232       2.3045       2.4618       0.2230    -999.2500       2.4463       5.9332
   2652.5178       7.1978       0.0785      89.9519      67.9153    -999.2500       3.5896       2.2154       2.6250       0.2223    -999.2500       2.4363       5.8337
   2652.6702       7.2058       0.0790      90.3930      67.1076    -999.2500       3.4791       2.1421       2.8061       0.2230    -999.2500       2.4263       5.6917
   2652.8225       7.2454       0.0882      90.5241      67.2722    -999.2500       3.4546       2.1283       2.6598       0.2253    -999.2500       2.4299       5.4310
   2652.9751       7.2859       0.0977      90.6466      67.9492    -999.2500       3.4651       2.1390       2.5043       0.2274    -999.2500       2.4339       5.1629
   2653.1274       7.4795       0.1426      90.8226      69.8501    -999.2500       3.5081       2.1739       2.6784       0.2272    -999.2500       2.4601       5.1491
   2653.2798       7.6776       0.1886      91.0002      71.9403    -999.2500       3.5671       2.2148       2.8620       0.2264    -999.2500       2.4871       5.1645
   2653.4321       7.6796       0.1881      91.6594      73.9456    -999.2500       3.6686       2.2636       2.6861       0.2264    -999.2500       2.4870       5.1212
   2653.5845       7.6761       0.1861      92.3321      75.6930    -999.2500       3.7632       2.3070       2.5002       0.2273    -999.2500       2.4860       5.0460
   2653.7371       7.6497       0.1710      92.1833      76.4876    -999.2500       3.7825       2.3193       2.8888       0.2293    -999.2500       2.4807       4.9051
   2653.8894       7.6227       0.1555      92.0107      77.0872    -999.2500       3.7672       2.3208       3.2939       0.2320    -999.2500       2.4752       4.7609
   2654.0417       7.7314       0.1560      92.0979      78.2551    -999.2500       3.6595       2.3074       3.2418       0.2355    -999.2500       2.4760       4.7258
   2654.1941       7.8438       0.1570      92.1923      79.6614    -999.2500       3.5602       2.2865       3.1768       0.2390    -999.2500       2.4770       4.6733
   2654.3467       7.8339       0.1628      92.4526      81.5232    -999.2500       3.5334       2.2501       3.2712       0.2414    -999.2500       2.4814       4.5124
   2654.4990       7.8204       0.1688      92.7177      83.4764    -999.2500       3.5342       2.2098       3.3703       0.2430    -999.2500       2.4859       4.3196
   2654.6514       7.7855       0.1801      93.0093      83.0596    -999.2500       3.5754       2.2203       3.2632       0.2438    -999.2500       2.4923       4.3780
   2654.8037       7.7500       0.1916      93.3017      82.7718    -999.2500       3.6017       2.2268       3.1502       0.2443    -999.2500       2.4988       4.3940
   2654.9563       7.7466       0.1949      93.2483      83.2212    -999.2500       3.5783       2.2139       3.1523       0.2446    -999.2500       2.5005       4.2484
   2655.1086       7.7441       0.1979      93.1848      83.8558    -999.2500       3.5324       2.1910       3.1578       0.2454    -999.2500       2.5020       4.0594
   2655.2610       7.7411       0.1995      92.8448      83.1662    -999.2500       3.4343       2.1327       2.8567       0.2476    -999.2500       2.5015       4.1154
   2655.4133       7.7381       0.2010      92.4969      82.0600    -999.2500       3.3586       2.0869       2.5468       0.2496    -999.2500       2.5010       4.1601
   2655.5657       7.6685       0.1995      91.7936      80.0073    -999.2500       3.3759       2.0952       2.5798       0.2494    -999.2500       2.4971       4.0824
   2655.7183       7.5970       0.1980      91.0798      77.6831    -999.2500       3.4513       2.1307       2.6228       0.2473    -999.2500       2.4931       3.9829
   2655.8706       7.6140       0.1859      90.3588      75.5450    -999.2500       3.6770       2.2181       2.7766       0.2427    -999.2500       2.4707       3.9809
   2656.0229       7.6334       0.1734      89.6376      72.9958    -999.2500       3.8997       2.3145       2.9335       0.2366    -999.2500       2.4477       4.0064
   2656.1753       7.6840       0.1764      89.1642      68.1821    -999.2500       3.9410       2.3980       3.2490       0.2292    -999.2500       2.4475       4.0566
   2656.3279       7.7356       0.1799      88.6980      63.9414    -999.2500       3.9295       2.4620       3.5691       0.2232    -999.2500       2.4480       4.1132
   2656.4802       7.8474       0.2042      88.1516      63.5196    -999.2500       3.8763       2.4672       2.9575       0.2222    -999.2500       2.4562       4.1732
   2656.6326       7.9609       0.2292      87.6029      64.4867    -999.2500       3.8195       2.4554       2.3193       0.2237    -999.2500       2.4647       4.2243
   2656.7849       7.9591       0.2300      87.8131      66.9133    -999.2500       3.8669       2.4657       2.3968       0.2268    -999.2500       2.4858       4.1670
   2656.9375       7.9541       0.2300      88.0445      69.2691    -999.2500       3.9084       2.4826       2.4943       0.2309    -999.2500       2.5073       4.1302
   2657.0898       7.9297       0.2247      88.0500      70.9324    -999.2500       3.8980       2.5111       2.9146       0.2360    -999.2500       2.5182       4.1899
   2657.2422       7.9047       0.2192      88.0490      72.2959    -999.2500       3.8691       2.5438       3.3443       0.2403    -999.2500       2.5287       4.2889
   2657.3945       7.7902       0.1846      88.2824      71.3372    -999.2500       3.9236       2.5629       3.3414       0.2412    -999.2500       2.5203       4.5776
   2657.5469       7.6733       0.1491      88.5223      70.7620    -999.2500       3.9696       2.5876       3.3264       0.2398    -999.2500       2.5113       4.8490
   2657.6995       7.6953       0.1485      88.4760      71.6080    -999.2500       3.9803       2.6307       3.5404       0.2364    -999.2500       2.5115       5.0482
   2657.8518       7.7213       0.1490      88.4215      72.8375    -999.2500       3.9742       2.6751       3.7610       0.2314    -999.2500       2.5120       5.2178
   2658.0042       7.7191       0.1538      88.1327      72.9698    -999.2500       3.9362       2.6751       3.5099       0.2242    -999.2500       2.5168       5.3614
   2658.1565       7.7161       0.1588      87.8373      72.8154    -999.2500       3.9030       2.6714       3.2455       0.2172    -999.2500       2.5218       5.4740
   2658.3091       7.6752       0.1798      87.3950      72.2279    -999.2500       3.9074       2.6802       3.6745       0.2127    -999.2500       2.5365       5.4831
   2658.4614       7.6332       0.2013      86.9483      71.4041    -999.2500       3.9403       2.7046       4.1236       0.2085    -999.2500       2.5515       5.5082
   2658.6138       7.6665       0.1986      86.7285      70.0955    -999.2500       4.0496       2.7803       4.0368       0.2022    -999.2500       2.5360       5.7277
   2658.7661       7.7020       0.1951      86.5151      68.7656    -999.2500       4.1630       2.8551       3.9349       0.1967    -999.2500       2.5195       5.9278
