#------------------------------------------------------------------------------
#
#   Created by  : [OpenWorks] Log Export Utility (LEXP)
#   Created on  : 2016-05-24 12:10:46
#   Project     : CANT971
#   User        : R5K
#   Interpreter : PEP
#
#------------------------------------------------------------------------------
~VERSION INFORMATION
VERS. 2.0 : CWLS Log ASCII Standard - version 2.0
WRAP.  NO : One line per depth step
~WELL INFORMATION
#MNEMONIC   .UNIT                                           VALUE :DESCRIPTION
#------------------------------------------------------------------------------
STRT        .M                                           493.6194 :START DEPTH
STOP        .M                                          3276.7483 :STOP DEPTH
STEP        .M                                             0.1524 :STEP
NULL        .                                           -999.2500 :NULL VALUE
COMP        .                                   PEMEX EXPL & PROD :COMPANY
WELL        .                                                1013 :WELL
FLD         .                                           CANTARELL :FIELD
LOC         .                                             UNKNOWN :LOCATION
CNTY        .                                      CD. DEL CARMEN :COUNTY
STAT        .                                            CAMPECHE :STATE
CTRY        .                                              MEXICO :COUNTRY
SRVC        .                                             UNKNOWN :SERVICE COMPANY
DATE        .                                             UNKNOWN :LOG DATE
UWI         .                                          3060000208 :UNIQUE WELL ID
XCOORD      .                                       598525.520000 :SURFACE X
YCOORD      .                                      2152013.570000 :SURFACE Y
LAT         .                                           19.461323 :LATITUDE
LON         .                                          -92.061319 :LONGITUDE
ELEV        .M                                            27.9700 :SURFACE ELEV
ELEV_TYPE   .                                                  KB :ELEV TYPE
~CURVE INFORMATION
#MNEMONIC.UNIT        API CODE       : CURVE DESCRIPTION
#------------------------------------------------------------------------------
DEPTH    .M                          : Measured Depth
CALI     .UNKNOWN     UNKNOWN        : CALI:registros:rC:NONE:v0 (auto-composite)
DRHO     .UNKNOWN     UNKNOWN        : DRHO:registros:rC:NONE:v0 (auto-composite)
DT       .us/ft       UNKNOWN        : DT:registros:rC:NONE:v0 (auto-composite)
GR       .API         UNKNOWN        : GR:PETROWORKS:rC:NONE:v1 
ILD      .UNKNOWN     UNKNOWN        : ILD:registros:rC:NONE:v0 (auto-composite)
LLD      .ohm.m       UNKNOWN        : LLD:PETROWORKS:rC:NONE:v1 
LLS      .UNKNOWN     UNKNOWN        : LLS:PETROWORKS:rC:NONE:v1 
MSFL     .UNKNOWN     UNKNOWN        : MSFL:registros:rC:NONE:v0 (auto-composite)
NPHI     .UNKNOWN     UNKNOWN        : NPHI:registros:rC:NONE:v0 (auto-composite)
PEF      .UNKNOWN     UNKNOWN        : PEF:registros:rC:NONE:v0 (auto-composite)
RHOB     .UNKNOWN     UNKNOWN        : RHOB:miremvroc:rC:NONE:v0 (auto-composite)
SP       .UNKNOWN     UNKNOWN        : SP:PETROWORKS:rC:NONE:v1 
~A     DEPTH         CALI         DRHO           DT           GR          ILD          LLD          LLS         MSFL         NPHI          PEF         RHOB           SP
# ...
   2893.0049       9.2220    -999.2500      55.5686      35.7640    -999.2500    2470.3574    1565.1671     832.3713       0.0688       3.1110       2.6381    -999.2500
   2893.1575       9.2220    -999.2500      55.0473      36.1698    -999.2500    2236.9163    1490.5389    1181.3396       0.0798       3.1110       2.6196    -999.2500
   2893.3098       9.2220    -999.2500      54.1091      37.3888    -999.2500    2011.6277    1367.1182    1060.2681       0.0795       3.1110       2.6229    -999.2500
   2893.4622       9.2220    -999.2500      53.1583      38.5911    -999.2500    1813.3069    1273.7407     924.9591       0.0723       3.1110       2.6269    -999.2500
   2893.6145       9.2220    -999.2500      52.0567      38.7002    -999.2500    1721.3352    1373.9769     805.4586       0.0592       3.1300       2.6483    -999.2500
   2893.7671       9.2220    -999.2500      50.9507      38.3719    -999.2500    1627.8672    1501.5299     686.4244       0.0475       3.1495       2.6703    -999.2500
   2893.9194       9.1972    -999.2500      51.2005      37.1855    -999.2500    1344.0988    1470.2850     714.7543       0.0455       3.1767       2.7175    -999.2500
   2894.0718       9.1717    -999.2500      51.4916      36.3693    -999.2500    1019.8380    1358.5950     747.5674       0.0492       3.2043       2.7655    -999.2500
   2894.2241       9.1385    -999.2500      52.6616      37.2339    -999.2500     676.7831    1082.5616     705.6083       0.0572       3.2133       2.7496    -999.2500
   2894.3765       9.1050    -999.2500      53.8575      38.7433    -999.2500     337.0077     751.2015     661.4328       0.0690       3.2218       2.7316    -999.2500
   2894.5291       8.9996    -999.2500      56.2047      41.1598    -999.2500     199.0295     473.8390     376.9399       0.0862       3.2220       2.6927    -999.2500
   2894.6814       8.8921    -999.2500      58.5871      42.9989    -999.2500     102.5152     241.9166      85.1037       0.1048       3.2220       2.6532    -999.2500
   2894.8337       8.8890    -999.2500      61.3661      42.9766    -999.2500      85.3316     130.7200      78.2390       0.1215       3.2220       2.5963    -999.2500
   2894.9861       8.8890    -999.2500      64.1569      42.4035    -999.2500      96.5908      68.7784      79.8588       0.1321       3.2220       2.5388    -999.2500
   2895.1387       8.8890    -999.2500      64.1104      44.6918    -999.2500      85.1875      73.4660     306.0517       0.1298       3.2220       2.5418    -999.2500
   2895.2910       8.8890    -999.2500      63.9769      46.5089    -999.2500      76.6162      87.6830     539.1367       0.1206       3.2220       2.5468    -999.2500
   2895.4434       8.9167    -999.2500      62.8709      46.0221    -999.2500      83.3984     115.5155     426.3574       0.1078       3.2220       2.5368    -999.2500
   2895.5957       8.9451    -999.2500      61.7359      44.5076    -999.2500     124.0793     149.6113     303.2346       0.0993       3.2220       2.5263    -999.2500
   2895.7483       9.0678    -999.2500      62.0300      41.4994    -999.2500     337.4832     194.5148     218.1215       0.1051       3.1680       2.4998    -999.2500
   2895.9006       9.1933    -999.2500      62.3681      38.3244    -999.2500     532.1284     231.8071     134.1800       0.1218       3.1125       2.4728    -999.2500
   2896.0530       9.3421    -999.2500      64.0025      35.7876    -999.2500     479.2185     224.4259     107.3959       0.1504       3.1110       2.4478    -999.2500
   2896.2053       9.4915    -999.2500      65.6758      33.9393    -999.2500     387.5834     205.0675      82.3287       0.1753       3.1110       2.4228    -999.2500
   2896.3577       9.6129    -999.2500      67.4872      34.0590    -999.2500     375.5739     181.5490      62.5570       0.1783       3.0750       2.4438    -999.2500
   2896.5103       9.7335    -999.2500      69.3028      34.8923    -999.2500     398.9536     159.4626      42.9493       0.1676       3.0380       2.4663    -999.2500
   2896.6626       9.6991    -999.2500      68.1213      36.6124    -999.2500     512.2388     161.1265      27.9804       0.1466       2.8274       2.5154    -999.2500
   2896.8149       9.6601    -999.2500      66.8493      38.6254    -999.2500     701.7244     173.5093      13.1514       0.1216       2.6118       2.5654    -999.2500
   2896.9673       9.5590    -999.2500      64.7607      41.1655    -999.2500    1084.4420     208.6617       7.7670       0.0976       2.6293       2.6120    -999.2500
   2897.1199       9.4560    -999.2500      62.6481      43.9050    -999.2500    1539.4054     252.2872       2.6602       0.0767       2.6533       2.6586    -999.2500
   2897.2722       9.3865    -999.2500      59.9052      47.1340    -999.2500    2485.4114     371.0377       7.8696       0.0621       2.7902       2.6900    -999.2500
   2897.4246       9.3180    -999.2500      57.1432      49.3947    -999.2500    4146.6211     505.1114      13.3916       0.0529       2.9302       2.7210    -999.2500
   2897.5769       9.2883    -999.2500      57.2771      48.7392    -999.2500    7903.4390     680.0733      44.2718       0.0501       3.0415       2.7167    -999.2500
   2897.7295       9.2598    -999.2500      57.4965      46.8549    -999.2500   11995.9756     962.6156      75.9007       0.0494       3.1519       2.7112    -999.2500
   2897.8818       9.2202    -999.2500      57.3030      43.5376    -999.2500   11854.1729    2137.2349     105.8765       0.0476       3.1667       2.7134    -999.2500
   2898.0342       9.1802    -999.2500      57.0969      40.0783    -999.2500   10662.9580    3070.6406     135.8021       0.0441       3.1787       2.7159    -999.2500
   2898.1865       9.1460    -999.2500      55.9397      36.8006    -999.2500    7736.8384    2682.4736     330.9241       0.0385       3.1931       2.7310    -999.2500
   2898.3389       9.1120    -999.2500      54.7542      34.2050    -999.2500    4584.0742    1908.5779     530.9452       0.0324       3.2076       2.7465    -999.2500
   2898.4915       9.1110    -999.2500      53.7566      34.5333    -999.2500    2795.0222    1191.3379     354.9494       0.0278       3.2148       2.7586    -999.2500
   2898.6438       9.1110    -999.2500      52.7647      35.7620    -999.2500    1506.6400     558.5665     167.4577       0.0248       3.2218       2.7706    -999.2500
   2898.7961       9.1110    -999.2500      52.2623      37.7970    -999.2500    1054.3585     311.5524     108.2254       0.0245       3.2220       2.7720    -999.2500
   2898.9485       9.1110    -999.2500      51.7745      39.8815    -999.2500     801.4412     173.3396      52.8138       0.0254       3.2220       2.7730    -999.2500
   2899.1011       9.0765    -999.2500      51.1272      41.6201    -999.2500     669.2686     145.8026      52.9799       0.0262       3.2220       2.7764    -999.2500
   2899.2534       9.0410    -999.2500      50.4750      43.3059    -999.2500     581.6610     158.5630      54.8526       0.0266       3.2220       2.7799    -999.2500
   2899.4058       8.9633    -999.2500      50.6899      46.1295    -999.2500     580.0374     223.2963      50.0578       0.0261       3.2220       2.7834    -999.2500
   2899.5581       8.8844    -999.2500      50.9308      48.2088    -999.2500     582.6868     270.3086      45.0634       0.0252       3.2220       2.7869    -999.2500
   2899.7107       8.8315    -999.2500      51.9647      47.8541    -999.2500     577.5018     253.7053      49.0190       0.0243       3.2235       2.7904    -999.2500
   2899.8630       8.7795    -999.2500      53.0231      46.5268    -999.2500     568.2003     211.4524      53.2505       0.0244       3.2250       2.7939    -999.2500
   2900.0154       8.7853    -999.2500      54.3412      44.2451    -999.2500     536.5477     137.2326     109.6932       0.0274       3.3447       2.7921    -999.2500
   2900.1677       8.7928    -999.2500      55.6672      42.1144    -999.2500     521.0151      78.1272     167.7052       0.0330       3.4677       2.7901    -999.2500
