#------------------------------------------------------------------------------
#
#   Created by  : [OpenWorks] Log Export Utility (LEXP)
#   Created on  : 2016-05-24 12:10:46
#   Project     : CANT971
#   User        : R5K
#   Interpreter : PEP
#
#------------------------------------------------------------------------------
~VERSION INFORMATION
VERS. 2.0 : CWLS Log ASCII Standard - version 2.0
WRAP.  NO : One line per depth step
~WELL INFORMATION
#MNEMONIC   .UNIT                                           VALUE :DESCRIPTION
#------------------------------------------------------------------------------
STRT        .M                                           493.6194 :START DEPTH
STOP        .M                                          3276.7483 :STOP DEPTH
STEP        .M                                             0.1524 :STEP
NULL        .                                           -999.2500 :NULL VALUE
COMP        .                                   PEMEX EXPL & PROD :COMPANY
WELL        .                                                1013 :WELL
FLD         .                                           CANTARELL :FIELD
LOC         .                                             UNKNOWN :LOCATION
CNTY        .                                      CD. DEL CARMEN :COUNTY
STAT        .                                            CAMPECHE :STATE
CTRY        .                                              MEXICO :COUNTRY
SRVC        .                                             UNKNOWN :SERVICE COMPANY
DATE        .                                             UNKNOWN :LOG DATE
UWI         .                                          3060000208 :UNIQUE WELL ID
XCOORD      .                                       598525.520000 :SURFACE X
YCOORD      .                                      2152013.570000 :SURFACE Y
LAT         .                                           19.461323 :LATITUDE
LON         .                                          -92.061319 :LONGITUDE
ELEV        .M                                            27.9700 :SURFACE ELEV
ELEV_TYPE   .                                                  KB :ELEV TYPE
~CURVE INFORMATION
#MNEMONIC.UNIT        API CODE       : CURVE DESCRIPTION
#------------------------------------------------------------------------------
DEPTH    .M                          : Measured Depth
CALI     .UNKNOWN     UNKNOWN        : CALI:registros:rC:NONE:v0 (auto-composite)
DRHO     .UNKNOWN     UNKNOWN        : DRHO:registros:rC:NONE:v0 (auto-composite)
DT       .us/ft       UNKNOWN        : DT:registros:rC:NONE:v0 (auto-composite)
GR       .API         UNKNOWN        : GR:PETROWORKS:rC:NONE:v1 
ILD      .UNKNOWN     UNKNOWN        : ILD:registros:rC:NONE:v0 (auto-composite)
LLD      .ohm.m       UNKNOWN        : LLD:PETROWORKS:rC:NONE:v1 
LLS      .UNKNOWN     UNKNOWN        : LLS:PETROWORKS:rC:NONE:v1 
MSFL     .UNKNOWN     UNKNOWN        : MSFL:registros:rC:NONE:v0 (auto-composite)
NPHI     .UNKNOWN     UNKNOWN        : NPHI:registros:rC:NONE:v0 (auto-composite)
PEF      .UNKNOWN     UNKNOWN        : PEF:registros:rC:NONE:v0 (auto-composite)
RHOB     .UNKNOWN     UNKNOWN        : RHOB:miremvroc:rC:NONE:v0 (auto-composite)
SP       .UNKNOWN     UNKNOWN        : SP:PETROWORKS:rC:NONE:v1 
~A     DEPTH         CALI         DRHO           DT           GR          ILD          LLD          LLS         MSFL         NPHI          PEF         RHOB           SP
# ...
   3068.5698       8.8688    -999.2500      61.0552     115.3973    -999.2500     623.5083     166.9519     195.6203       0.1241       2.6791       2.4277    -999.2500
   3068.7222       8.8253    -999.2500      62.5720     110.5688    -999.2500     486.0227     152.2142     186.5132       0.1335       2.6916       2.4367    -999.2500
   3068.8745       8.7479    -999.2500      67.4827      96.5495    -999.2500     430.2081     126.6314     118.2800       0.1703       2.7245       2.5354    -999.2500
   3069.0271       8.6693    -999.2500      72.4996      80.0308    -999.2500     405.1683     106.1123      48.1977       0.2063       2.7580       2.6368    -999.2500
   3069.1794       8.6699    -999.2500      71.5543      60.4024    -999.2500     445.4404     117.0956     261.0922       0.1961       2.8119       2.6376    -999.2500
   3069.3318       8.6729    -999.2500      70.4273      41.9461    -999.2500     595.3311     152.6571     482.6150       0.1784       2.8663       2.6351    -999.2500
   3069.4841       8.7457    -999.2500      64.5367      30.9623    -999.2500    1099.4042     251.2173     442.8701       0.1423       2.8476       2.6209    -999.2500
   3069.6365       8.8208    -999.2500      58.4965      23.1680    -999.2500    1651.3154     383.9880     394.9189       0.1072       2.8266       2.6065    -999.2500
   3069.7891       8.8123    -999.2500      58.3291      22.7068    -999.2500    1698.0240     641.6395     307.8412       0.1065       2.7489       2.5784    -999.2500
   3069.9414       8.8013    -999.2500      58.3416      23.1557    -999.2500    1642.6797     848.4072     219.5653       0.1113       2.6694       2.5499    -999.2500
   3070.0938       8.7360    -999.2500      58.7377      23.1892    -999.2500    1498.5131     847.9225     126.2319       0.1282       2.6670       2.5175    -999.2500
   3070.2461       8.6690    -999.2500      59.1458      23.0476    -999.2500    1322.8855     770.3628      32.7389       0.1452       2.6670       2.4850    -999.2500
   3070.3987       8.6670    -999.2500      60.3115      22.6446    -999.2500    1401.8320     769.0194      30.7020       0.1471       2.6680       2.4927    -999.2500
   3070.5510       8.6670    -999.2500      61.5005      22.3161    -999.2500    1543.5044     778.2623      31.4782       0.1469       2.6690       2.5017    -999.2500
   3070.7034       8.6670    -999.2500      61.1724      22.2244    -999.2500    1854.7751     814.1265      40.0679       0.1450       2.6870       2.5301    -999.2500
   3070.8557       8.6670    -999.2500      60.7963      22.2220    -999.2500    2246.2834     868.4953      48.9052       0.1424       2.7054       2.5591    -999.2500
   3071.0083       8.6840    -999.2500      59.7373      22.2220    -999.2500    2829.9343    1017.1230      87.7554       0.1353       2.7492       2.5828    -999.2500
   3071.1606       8.7015    -999.2500      58.6573      22.2659    -999.2500    3302.0515    1175.6119     127.5327       0.1273       2.7937       2.6063    -999.2500
   3071.3130       8.7927    -999.2500      57.7728      22.4658    -999.2500    3293.6040    1327.6089     111.4442       0.1173       2.8464       2.6167    -999.2500
   3071.4653       8.8862    -999.2500      56.8944      23.0023    -999.2500    3106.4097    1470.4027      93.5786       0.1073       2.8994       2.6267    -999.2500
   3071.6177       8.8391    -999.2500      55.9625      24.9349    -999.2500    2771.9211    1579.1672     162.1593       0.1000       3.0029       2.6323    -999.2500
   3071.7703       8.7876    -999.2500      55.0289      27.7841    -999.2500    2427.0974    1670.3337     233.4221       0.0938       3.1079       2.6378    -999.2500
   3071.9226       8.7923    -999.2500      54.3893      33.7385    -999.2500    2217.2251    1712.7371     170.2675       0.0931       3.1032       2.6438    -999.2500
   3072.0750       8.7988    -999.2500      53.7590      40.9851    -999.2500    2034.2263    1726.5055     102.8191       0.0932       3.0952       2.6498    -999.2500
   3072.2273       8.9503    -999.2500      53.2734      50.4114    -999.2500    1847.8397    1678.3206     110.3165       0.0938       3.0349       2.6578    -999.2500
   3072.3799       9.1064    -999.2500      52.7922      59.8582    -999.2500    1641.9440    1603.9250     120.1491       0.0942       2.9728       2.6658    -999.2500
   3072.5322       9.0809    -999.2500      53.0913      59.0734    -999.2500    1186.5835    1455.5366     147.5529       0.0922       2.8459       2.6825    -999.2500
   3072.6846       9.0499    -999.2500      53.4142      56.0524    -999.2500     809.7786    1317.4686     175.4903       0.0893       2.7169       2.6995    -999.2500
   3072.8369       8.9496    -999.2500      53.0787      49.3066    -999.2500     729.3073    1229.4362     435.9932       0.0815       2.7198       2.7533    -999.2500
   3072.9895       8.8470    -999.2500      52.7225      41.4670    -999.2500     763.8806    1158.5380     703.7735       0.0727       2.7268       2.8083    -999.2500
   3073.1418       8.7654    -999.2500      50.3191      43.0953    -999.2500     860.2219    1027.9547     626.4725       0.0617       2.8046       2.7993    -999.2500
   3073.2942       8.6845    -999.2500      47.8531      46.5954    -999.2500     892.8808     870.6456     538.6440       0.0517       2.8846       2.7883    -999.2500
   3073.4465       8.6209    -999.2500      47.9628      54.2095    -999.2500     716.1705     640.8138     354.6685       0.0525       2.8657       2.7395    -999.2500
   3073.5989       8.5579    -999.2500      48.1533      61.9817    -999.2500     471.0370     396.1432     167.6714       0.0564       2.8437       2.6896    -999.2500
   3073.7515       8.5560    -999.2500      49.4295      60.8778    -999.2500     263.0576     226.4962     104.3603       0.0748       2.7615       2.7156    -999.2500
   3073.9038       8.5560    -999.2500      50.7389      57.5256    -999.2500      96.8221      96.6278      44.8390       0.0933       2.6776       2.7441    -999.2500
   3074.0562       8.5560    -999.2500      54.3545      51.5665    -999.2500      74.2627      74.7365     183.3962       0.0948       2.5092       2.7440    -999.2500
   3074.2085       8.5560    -999.2500      58.0429      45.4796    -999.2500     106.7448      91.6534     328.2047       0.0933       2.3381       2.7430    -999.2500
   3074.3611       8.5560    -999.2500      57.5552      41.6281    -999.2500     206.5218     149.0031     266.3307       0.0873       2.3960       2.7333    -999.2500
   3074.5134       8.5560    -999.2500      56.9389      38.1781    -999.2500     344.3779     238.1370     198.0961       0.0816       2.4610       2.7233    -999.2500
   3074.6658       8.5560    -999.2500      57.0383      32.7314    -999.2500     623.1897     479.3318     477.4167       0.0844       2.7772       2.7080    -999.2500
   3074.8181       8.5560    -999.2500      57.1603      28.2225    -999.2500     847.5489     688.4976     767.7523       0.0879       3.1013       2.6925    -999.2500
   3074.9707       8.5618    -999.2500      56.9972      27.5458    -999.2500     838.0862     727.3145     659.2968       0.0862       3.0994       2.6968    -999.2500
   3075.1230       8.5678    -999.2500      56.8253      28.3471    -999.2500     740.7297     701.6232     538.5155       0.0831       3.0874       2.7018    -999.2500
   3075.2754       8.6160    -999.2500      55.7923      31.8880    -999.2500     554.4592     596.9352     397.1337       0.0745       3.0298       2.7185    -999.2500
   3075.4277       8.6655    -999.2500      54.7319      36.5503    -999.2500     380.8781     487.7440     255.0963       0.0661       2.9708       2.7355    -999.2500
   3075.5801       8.6534    -999.2500      54.7271      44.1318    -999.2500     255.6472     375.4526     183.1318       0.0658       2.8763       2.7341    -999.2500
   3075.7327       8.6394    -999.2500      54.7551      52.2069    -999.2500     156.6038     265.8011     113.3424       0.0674       2.7808       2.7321    -999.2500
