#------------------------------------------------------------------------------
#
#   Created by  : [OpenWorks] Log Export Utility (LEXP)
#   Created on  : 2016-05-24 12:10:46
#   Project     : CANT971
#   User        : R5K
#   Interpreter : PEP
#
#------------------------------------------------------------------------------
~VERSION INFORMATION
VERS. 2.0 : CWLS Log ASCII Standard - version 2.0
WRAP.  NO : One line per depth step
~WELL INFORMATION
#MNEMONIC   .UNIT                                           VALUE :DESCRIPTION
#------------------------------------------------------------------------------
STRT        .M                                           493.6194 :START DEPTH
STOP        .M                                          3276.7483 :STOP DEPTH
STEP        .M                                             0.1524 :STEP
NULL        .                                           -999.2500 :NULL VALUE
COMP        .                                   PEMEX EXPL & PROD :COMPANY
WELL        .                                                1013 :WELL
FLD         .                                           CANTARELL :FIELD
LOC         .                                             UNKNOWN :LOCATION
CNTY        .                                      CD. DEL CARMEN :COUNTY
STAT        .                                            CAMPECHE :STATE
CTRY        .                                              MEXICO :COUNTRY
SRVC        .                                             UNKNOWN :SERVICE COMPANY
DATE        .                                             UNKNOWN :LOG DATE
UWI         .                                          3060000208 :UNIQUE WELL ID
XCOORD      .                                       598525.520000 :SURFACE X
YCOORD      .                                      2152013.570000 :SURFACE Y
LAT         .                                           19.461323 :LATITUDE
LON         .                                          -92.061319 :LONGITUDE
ELEV        .M                                            27.9700 :SURFACE ELEV
ELEV_TYPE   .                                                  KB :ELEV TYPE
~CURVE INFORMATION
#MNEMONIC.UNIT        API CODE       : CURVE DESCRIPTION
#------------------------------------------------------------------------------
DEPTH    .M                          : Measured Depth
CALI     .UNKNOWN     UNKNOWN        : CALI:registros:rC:NONE:v0 (auto-composite)
DRHO     .UNKNOWN     UNKNOWN        : DRHO:registros:rC:NONE:v0 (auto-composite)
DT       .us/ft       UNKNOWN        : DT:registros:rC:NONE:v0 (auto-composite)
GR       .API         UNKNOWN        : GR:PETROWORKS:rC:NONE:v1 
ILD      .UNKNOWN     UNKNOWN        : ILD:registros:rC:NONE:v0 (auto-composite)
LLD      .ohm.m       UNKNOWN        : LLD:PETROWORKS:rC:NONE:v1 
LLS      .UNKNOWN     UNKNOWN        : LLS:PETROWORKS:rC:NONE:v1 
MSFL     .UNKNOWN     UNKNOWN        : MSFL:registros:rC:NONE:v0 (auto-composite)
NPHI     .UNKNOWN     UNKNOWN        : NPHI:registros:rC:NONE:v0 (auto-composite)
PEF      .UNKNOWN     UNKNOWN        : PEF:registros:rC:NONE:v0 (auto-composite)
RHOB     .UNKNOWN     UNKNOWN        : RHOB:miremvroc:rC:NONE:v0 (auto-composite)
SP       .UNKNOWN     UNKNOWN        : SP:PETROWORKS:rC:NONE:v1 
~A     DEPTH         CALI         DRHO           DT           GR          ILD          LLD          LLS         MSFL         NPHI          PEF         RHOB           SP
# ...
   2790.5923      10.4387    -999.2500      54.4440      41.4321    -999.2500     289.4428     222.7531      47.1265       0.0625       3.1206       2.7231    -999.2500
   2790.7446      10.2408    -999.2500      54.4440      40.0426    -999.2500     291.3483     188.2766      31.0240       0.0666       3.0995       2.7211    -999.2500
   2790.8970      10.0111    -999.2500      54.4440      40.0168    -999.2500     359.3557     187.4789      51.2928       0.0698       2.9768       2.7123    -999.2500
   2791.0493       9.7805    -999.2500      54.4440      40.0717    -999.2500     414.9641     192.8338      72.6527       0.0726       2.8514       2.7033    -999.2500
   2791.2019       9.6681    -999.2500      54.4353      40.2820    -999.2500     429.8121     214.5229      72.8890       0.0729       2.8514       2.6962    -999.2500
   2791.3542       9.5592    -999.2500      54.4263      40.6894    -999.2500     428.4944     239.7817      72.5081       0.0726       2.8549       2.6892    -999.2500
   2791.5066       9.5560    -999.2500      53.9487      42.4429    -999.2500     417.3005     242.2946      52.7165       0.0710       2.9183       2.6813    -999.2500
   2791.6589       9.5560    -999.2500      53.4570      44.0430    -999.2500     403.9958     239.6493      32.3400       0.0691       2.9834       2.6733    -999.2500
   2791.8113       9.5560    -999.2500      53.4726      44.3992    -999.2500     387.6301     229.5283      32.4766       0.0665       3.0995       2.6735    -999.2500
   2791.9639       9.5560    -999.2500      53.5031      44.2998    -999.2500     368.8704     215.6486      33.2153       0.0641       3.2169       2.6740    -999.2500
   2792.1162       9.5550    -999.2500      54.9119      43.8219    -999.2500     343.2558     194.6572      61.9145       0.0634       3.2166       2.6817    -999.2500
   2792.2686       9.5540    -999.2500      56.3625      43.2194    -999.2500     315.7842     174.2768      91.4599       0.0630       3.2131       2.6897    -999.2500
   2792.4209       9.5253    -999.2500      56.3481      42.4474    -999.2500     287.5492     167.9652      82.2001       0.0625       3.1141       2.6944    -999.2500
   2792.5735       9.4958    -999.2500      56.2906      41.8156    -999.2500     264.6788     163.1028      71.7963       0.0619       3.0127       2.6989    -999.2500
   2792.7258       9.4969    -999.2500      55.0341      41.7503    -999.2500     259.8117     154.0619      74.1461       0.0603       3.0110       2.6995    -999.2500
   2792.8782       9.4989    -999.2500      53.7431      41.9912    -999.2500     265.7576     143.5172      76.8619       0.0584       3.0120       2.7000    -999.2500
   2793.0305       9.5267    -999.2500      53.7274      44.0464    -999.2500     348.4625     132.6084      76.3051       0.0558       3.0393       2.7048    -999.2500
   2793.1831       9.5552    -999.2500      53.7494      46.7414    -999.2500     419.0150     131.8685      75.6513       0.0534       3.0673       2.7098    -999.2500
   2793.3354       9.5550    -999.2500      54.0594      50.8662    -999.2500     436.2229     160.8119      66.9672       0.0534       3.3363       2.7100    -999.2500
   2793.4878       9.5540    -999.2500      54.3778      55.3462    -999.2500     431.1229     199.2846      58.0516       0.0542       3.6119       2.7100    -999.2500
   2793.6401       9.4816    -999.2500      54.4205      55.6559    -999.2500     383.4316     198.7032      50.9719       0.0594       3.6063       2.7071    -999.2500
   2793.7925       9.4071    -999.2500      54.4550      55.4501    -999.2500     329.9667     188.6632      43.9468       0.0652       3.5933       2.7041    -999.2500
   2793.9451       9.4162    -999.2500      55.1588      54.5307    -999.2500     267.4743     157.0733      42.7062       0.0710       3.4104       2.7025    -999.2500
   2794.0974       9.4277    -999.2500      55.8820      53.5137    -999.2500     209.4886     120.2235      41.6331       0.0765       3.2228       2.7010    -999.2500
   2794.2498       9.5888    -999.2500      55.8156      53.4191    -999.2500     200.0670      96.9465      28.8789       0.0779       3.1834       2.6918    -999.2500
   2794.4021       9.7543    -999.2500      55.7255      53.7343    -999.2500     200.0550      79.5240      15.7755       0.0787       3.1479       2.6823    -999.2500
   2794.5547       9.9057    -999.2500      53.4958      55.0469    -999.2500     200.3489      76.1742      30.6588       0.0793       2.9688       2.6079    -999.2500
   2794.7070      10.0566    -999.2500      51.2038      56.3162    -999.2500     201.7584      77.3410      46.3566       0.0799       2.7857       2.5314    -999.2500
   2794.8594      10.0867    -999.2500      53.1178      56.4393    -999.2500     207.2065      82.0382      43.1025       0.0798       2.7864       2.5605    -999.2500
   2795.0117      10.1132    -999.2500      55.1581      55.8019    -999.2500     216.0959      87.2492      39.2796       0.0794       2.7919       2.5930    -999.2500
   2795.1643      10.0917    -999.2500      55.1990      51.7842    -999.2500     243.3944      88.3154      41.0017       0.0770       2.8665       2.5940    -999.2500
   2795.3167      10.0687    -999.2500      55.1815      48.1821    -999.2500     274.0885      89.5378      42.8859       0.0741       2.9430       2.5940    -999.2500
   2795.4690       9.6572    -999.2500      54.8062      47.3192    -999.2500     307.0170      93.0418      88.4542       0.0690       3.0258       2.5853    -999.2500
   2795.6213       9.2341    -999.2500      54.4200      47.4803    -999.2500     340.2407      97.3354     135.3395       0.0631       3.1088       2.5763    -999.2500
   2795.7737       9.4050    -999.2500      52.3751      50.0383    -999.2500     381.8779     104.5428     141.4905       0.0528       3.1008       2.5130    -999.2500
   2795.9263       9.5935    -999.2500      50.2815      53.2537    -999.2500     414.5948     111.6544     146.4454       0.0428       3.0903       2.4480    -999.2500
   2796.0786       9.5971    -999.2500      49.0519      58.2527    -999.2500     421.8683     118.4832     210.2262       0.0418       2.9483       2.4508    -999.2500
   2796.2310       9.5951    -999.2500      47.8485      63.4596    -999.2500     417.5185     124.6420     275.7884       0.0423       2.8027       2.4558    -999.2500
   2796.3833       9.5586    -999.2500      47.8519      63.7980    -999.2500     389.5232     124.7229     269.9721       0.0453       2.6178       2.5204    -999.2500
   2796.5359       9.5210    -999.2500      47.8909      62.4407    -999.2500     356.9208     122.7089     262.0501       0.0490       2.4319       2.5869    -999.2500
   2796.6882       9.3859    -999.2500      48.3812      57.2022    -999.2500     318.0551     115.8842     197.4499       0.0547       2.5979       2.6248    -999.2500
   2796.8406       9.2480    -999.2500      48.8845      51.6776    -999.2500     278.6042     107.1377     131.2220       0.0603       2.7735       2.6618    -999.2500
   2796.9929       9.0176    -999.2500      49.5130      50.6171    -999.2500     245.6125      96.2433     113.1212       0.0612       2.7761       2.6969    -999.2500
   2797.1453       8.7845    -999.2500      50.1453      50.7765    -999.2500     215.9788      84.8148      96.4466       0.0616       2.7741       2.7319    -999.2500
   2797.2979       8.7906    -999.2500      51.1253      51.4674    -999.2500     195.6669      73.2274      83.9581       0.0620       2.7414       2.7311    -999.2500
   2797.4502       8.8036    -999.2500      52.1154      51.8449    -999.2500     177.7192      61.3873      71.5905       0.0627       2.7079       2.7291    -999.2500
   2797.6025       8.9667    -999.2500      53.0115      50.8014    -999.2500     161.2001      48.7995      42.7281       0.0649       2.5580       2.7072    -999.2500
   2797.7549       9.1343    -999.2500      53.9048      49.4036    -999.2500     146.8406      37.3886      13.3748       0.0674       2.4051       2.6847    -999.2500
