#------------------------------------------------------------------------------
#
#   Created by  : [OpenWorks] Log Export Utility (LEXP)
#   Created on  : 2016-05-24 12:10:46
#   Project     : CANT971
#   User        : R5K
#   Interpreter : PEP
#
#------------------------------------------------------------------------------
~VERSION INFORMATION
VERS. 2.0 : CWLS Log ASCII Standard - version 2.0
WRAP.  NO : One line per depth step
~WELL INFORMATION
#MNEMONIC   .UNIT                                           VALUE :DESCRIPTION
#------------------------------------------------------------------------------
STRT        .M                                           493.6194 :START DEPTH
STOP        .M                                          3276.7483 :STOP DEPTH
STEP        .M                                             0.1524 :STEP
NULL        .                                           -999.2500 :NULL VALUE
COMP        .                                   PEMEX EXPL & PROD :COMPANY
WELL        .                                                1013 :WELL
FLD         .                                           CANTARELL :FIELD
LOC         .                                             UNKNOWN :LOCATION
CNTY        .                                      CD. DEL CARMEN :COUNTY
STAT        .                                            CAMPECHE :STATE
CTRY        .                                              MEXICO :COUNTRY
SRVC        .                                             UNKNOWN :SERVICE COMPANY
DATE        .                                             UNKNOWN :LOG DATE
UWI         .                                          3060000208 :UNIQUE WELL ID
XCOORD      .                                       598525.520000 :SURFACE X
YCOORD      .                                      2152013.570000 :SURFACE Y
LAT         .                                           19.461323 :LATITUDE
LON         .                                          -92.061319 :LONGITUDE
ELEV        .M                                            27.9700 :SURFACE ELEV
ELEV_TYPE   .                                                  KB :ELEV TYPE
~CURVE INFORMATION
#MNEMONIC.UNIT        API CODE       : CURVE DESCRIPTION
#------------------------------------------------------------------------------
DEPTH    .M                          : Measured Depth
CALI     .UNKNOWN     UNKNOWN        : CALI:registros:rC:NONE:v0 (auto-composite)
DRHO     .UNKNOWN     UNKNOWN        : DRHO:registros:rC:NONE:v0 (auto-composite)
DT       .us/ft       UNKNOWN        : DT:registros:rC:NONE:v0 (auto-composite)
GR       .API         UNKNOWN        : GR:PETROWORKS:rC:NONE:v1 
ILD      .UNKNOWN     UNKNOWN        : ILD:registros:rC:NONE:v0 (auto-composite)
LLD      .ohm.m       UNKNOWN        : LLD:PETROWORKS:rC:NONE:v1 
LLS      .UNKNOWN     UNKNOWN        : LLS:PETROWORKS:rC:NONE:v1 
MSFL     .UNKNOWN     UNKNOWN        : MSFL:registros:rC:NONE:v0 (auto-composite)
NPHI     .UNKNOWN     UNKNOWN        : NPHI:registros:rC:NONE:v0 (auto-composite)
PEF      .UNKNOWN     UNKNOWN        : PEF:registros:rC:NONE:v0 (auto-composite)
RHOB     .UNKNOWN     UNKNOWN        : RHOB:miremvroc:rC:NONE:v0 (auto-composite)
SP       .UNKNOWN     UNKNOWN        : SP:PETROWORKS:rC:NONE:v1 
~A     DEPTH         CALI         DRHO           DT           GR          ILD          LLD          LLS         MSFL         NPHI          PEF         RHOB           SP
# ...
   2863.7441       9.0571    -999.2500      58.1165      31.5319    -999.2500    1508.6559    1687.4907     421.8960       0.0931       3.2220       2.6440    -999.2500
   2863.8965       9.0017    -999.2500      57.6382      30.1539    -999.2500    1193.7012    1593.8270     616.1076       0.0880       3.2220       2.6615    -999.2500
   2864.0491       9.0354    -999.2500      56.4346      27.1320    -999.2500     867.6409    1298.9580     602.1722       0.0782       3.2220       2.6707    -999.2500
   2864.2014       9.0719    -999.2500      55.2086      24.4000    -999.2500     587.0772     964.5422     581.8482       0.0693       3.2220       2.6797    -999.2500
   2864.3538       9.1900    -999.2500      53.7962      23.8807    -999.2500     469.9925     643.3857     539.7181       0.0685       3.2220       2.6781    -999.2500
   2864.5061       9.3106    -999.2500      52.3781      24.1961    -999.2500     413.4204     350.1389     496.9359       0.0706       3.2220       2.6761    -999.2500
   2864.6587       9.4174    -999.2500      52.5274      25.6545    -999.2500     436.0918     345.2476     326.4992       0.0753       3.2220       2.6649    -999.2500
   2864.8110       9.5239    -999.2500      52.7223      27.4039    -999.2500     494.5166     383.6316     152.3444       0.0807       3.2220       2.6534    -999.2500
   2864.9634       9.5411    -999.2500      53.4107      29.6582    -999.2500     633.7221     461.5538     173.0201       0.0868       3.2517       2.6167    -999.2500
   2865.1157       9.5556    -999.2500      54.1140      32.0778    -999.2500     798.0829     551.5743     199.5488       0.0929       3.2822       2.5792    -999.2500
   2865.2681       9.5560    -999.2500      55.4834      33.5804    -999.2500     743.2888     551.5416     363.4411       0.0980       3.2314       2.5891    -999.2500
   2865.4207       9.5560    -999.2500      56.8723      34.9828    -999.2500     670.7864     541.9106     531.3526       0.1019       3.1785       2.6006    -999.2500
   2865.5730       9.5278    -999.2500      56.3498      36.2131    -999.2500     575.4611     515.7701     407.3347       0.1017       3.0014       2.6238    -999.2500
   2865.7253       9.4988    -999.2500      55.7696      37.1747    -999.2500     479.4763     481.3999     274.5077       0.1002       2.8209       2.6473    -999.2500
   2865.8777       9.4028    -999.2500      55.8885      36.5800    -999.2500     436.7769     427.9728     153.4513       0.0973       2.8646       2.6562    -999.2500
   2866.0303       9.3049    -999.2500      56.0279      36.0417    -999.2500     406.5878     372.4053      32.7410       0.0940       2.9146       2.6647    -999.2500
   2866.1826       9.2093    -999.2500      56.6097      36.7959    -999.2500     390.3861     321.0495     196.1079       0.0902       3.0201       2.6752    -999.2500
   2866.3350       9.1137    -999.2500      57.2049      38.0806    -999.2500     385.3211     279.2694     368.0848       0.0862       3.1271       2.6857    -999.2500
   2866.4873       9.1110    -999.2500      57.1220      40.0760    -999.2500     410.6046     272.2257     258.8001       0.0817       3.1748       2.7097    -999.2500
   2866.6399       9.1110    -999.2500      57.0190      42.1304    -999.2500     469.2021     278.1788     141.2109       0.0765       3.2208       2.7342    -999.2500
   2866.7922       9.1396    -999.2500      56.5859      43.1765    -999.2500     700.2826     305.8369     515.5084       0.0694       3.2108       2.7335    -999.2500
   2866.9446       9.1692    -999.2500      56.1428      44.1397    -999.2500     900.7874     343.2985     904.7801       0.0630       3.1993       2.7320    -999.2500
   2867.0969       9.1642    -999.2500      55.4971      45.3680    -999.2500     917.7489     400.0886     868.7565       0.0616       3.1552       2.7247    -999.2500
   2867.2493       9.1582    -999.2500      54.8453      46.7033    -999.2500     866.0887     460.9059     820.1190       0.0618       3.1102       2.7172    -999.2500
   2867.4019       9.1352    -999.2500      54.3489      48.3363    -999.2500     746.9326     434.3101     452.2892       0.0624       3.0433       2.7243    -999.2500
   2867.5542       9.1117    -999.2500      53.8572      49.6052    -999.2500     632.3888     395.1323      74.6998       0.0621       2.9758       2.7318    -999.2500
   2867.7065       9.1149    -999.2500      53.4538      49.7652    -999.2500     541.8475     333.2702      70.9059       0.0581       2.8344       2.7281    -999.2500
   2867.8589       9.1189    -999.2500      53.0529      49.4760    -999.2500     465.9797     267.6073      78.2482       0.0541       2.6908       2.7241    -999.2500
   2868.0115       9.1428    -999.2500      52.0496      48.7522    -999.2500     469.9551     267.7476     107.5703       0.0538       2.7395       2.7041    -999.2500
   2868.1638       9.1673    -999.2500      51.0277      47.7813    -999.2500     490.8081     277.6278     137.5674       0.0554       2.7935       2.6836    -999.2500
   2868.3162       9.2078    -999.2500      51.0043      46.1232    -999.2500     541.9573     298.3690     178.8520       0.0599       3.1034       2.6898    -999.2500
   2868.4685       9.2488    -999.2500      51.0108      44.4878    -999.2500     589.7704     317.2544     220.4743       0.0642       3.4205       2.6968    -999.2500
   2868.6211       9.2961    -999.2500      52.4577      44.1960    -999.2500     566.0245     307.1030     187.6700       0.0646       3.3808       2.6960    -999.2500
   2868.7734       9.3436    -999.2500      53.9466      44.3181    -999.2500     520.6902     288.1869     152.6966       0.0640       3.3314       2.6950    -999.2500
   2868.9258       9.4135    -999.2500      53.5034      44.9564    -999.2500     448.9011     258.4926     108.3256       0.0646       3.2264       2.6882    -999.2500
   2869.0781       9.4840    -999.2500      53.0023      45.9279    -999.2500     373.9573     227.1887      63.6721       0.0666       3.1199       2.6812    -999.2500
   2869.2305       9.6817    -999.2500      53.8649      47.6577    -999.2500     308.9620     198.7858      44.1257       0.0724       3.1379       2.6708    -999.2500
   2869.3831       9.8831    -999.2500      54.7675      49.4312    -999.2500     252.2608     171.2831      25.3143       0.0796       3.1594       2.6603    -999.2500
   2869.5354       9.8570    -999.2500      57.0517      49.0284    -999.2500     248.8246     143.0734      25.5661       0.0878       3.1902       2.6527    -999.2500
   2869.6877       9.8239    -999.2500      59.3776      48.5092    -999.2500     250.7622     120.5259      26.3934       0.0937       3.2212       2.6452    -999.2500
   2869.8401       9.7419    -999.2500      58.5070      48.3924    -999.2500     250.4852     114.8756     255.4214       0.0899       3.2064       2.6397    -999.2500
   2869.9927       9.6585    -999.2500      57.5424      48.4336    -999.2500     249.2421     115.6038     491.1606       0.0846       3.1904       2.6342    -999.2500
   2870.1450       9.5570    -999.2500      55.7134      49.1549    -999.2500     250.8207     120.6931     423.3062       0.0848       3.1608       2.6233    -999.2500
   2870.2974       9.4549    -999.2500      53.8582      49.6952    -999.2500     254.3679     126.1170     346.2452       0.0880       3.1308       2.6124    -999.2500
   2870.4497       9.4539    -999.2500      54.4103      49.6418    -999.2500     263.6837     132.2784     232.3394       0.0963       3.0128       2.6246    -999.2500
   2870.6023       9.4559    -999.2500      55.0336      49.2704    -999.2500     275.8258     138.3612     117.3450       0.1041       2.8924       2.6376    -999.2500
   2870.7546       9.4774    -999.2500      56.1840      48.0544    -999.2500     294.0932     141.5635      76.6969       0.1047       2.9279       2.6743    -999.2500
   2870.9070       9.4994    -999.2500      57.3504      46.9780    -999.2500     313.9940     145.8088      38.3132       0.1024       2.9679       2.7118    -999.2500
