#------------------------------------------------------------------------------
#
#   Created by  : [OpenWorks] Log Export Utility (LEXP)
#   Created on  : 2016-05-24 12:10:46
#   Project     : CANT971
#   User        : R5K
#   Interpreter : PEP
#
#------------------------------------------------------------------------------
~VERSION INFORMATION
VERS. 2.0 : CWLS Log ASCII Standard - version 2.0
WRAP.  NO : One line per depth step
~WELL INFORMATION
#MNEMONIC   .UNIT                                           VALUE :DESCRIPTION
#------------------------------------------------------------------------------
STRT        .M                                           493.6194 :START DEPTH
STOP        .M                                          3276.7483 :STOP DEPTH
STEP        .M                                             0.1524 :STEP
NULL        .                                           -999.2500 :NULL VALUE
COMP        .                                   PEMEX EXPL & PROD :COMPANY
WELL        .                                                1013 :WELL
FLD         .                                           CANTARELL :FIELD
LOC         .                                             UNKNOWN :LOCATION
CNTY        .                                      CD. DEL CARMEN :COUNTY
STAT        .                                            CAMPECHE :STATE
CTRY        .                                              MEXICO :COUNTRY
SRVC        .                                             UNKNOWN :SERVICE COMPANY
DATE        .                                             UNKNOWN :LOG DATE
UWI         .                                          3060000208 :UNIQUE WELL ID
XCOORD      .                                       598525.520000 :SURFACE X
YCOORD      .                                      2152013.570000 :SURFACE Y
LAT         .                                           19.461323 :LATITUDE
LON         .                                          -92.061319 :LONGITUDE
ELEV        .M                                            27.9700 :SURFACE ELEV
ELEV_TYPE   .                                                  KB :ELEV TYPE
~CURVE INFORMATION
#MNEMONIC.UNIT        API CODE       : CURVE DESCRIPTION
#------------------------------------------------------------------------------
DEPTH    .M                          : Measured Depth
CALI     .UNKNOWN     UNKNOWN        : CALI:registros:rC:NONE:v0 (auto-composite)
DRHO     .UNKNOWN     UNKNOWN        : DRHO:registros:rC:NONE:v0 (auto-composite)
DT       .us/ft       UNKNOWN        : DT:registros:rC:NONE:v0 (auto-composite)
GR       .API         UNKNOWN        : GR:PETROWORKS:rC:NONE:v1 
ILD      .UNKNOWN     UNKNOWN        : ILD:registros:rC:NONE:v0 (auto-composite)
LLD      .ohm.m       UNKNOWN        : LLD:PETROWORKS:rC:NONE:v1 
LLS      .UNKNOWN     UNKNOWN        : LLS:PETROWORKS:rC:NONE:v1 
MSFL     .UNKNOWN     UNKNOWN        : MSFL:registros:rC:NONE:v0 (auto-composite)
NPHI     .UNKNOWN     UNKNOWN        : NPHI:registros:rC:NONE:v0 (auto-composite)
PEF      .UNKNOWN     UNKNOWN        : PEF:registros:rC:NONE:v0 (auto-composite)
RHOB     .UNKNOWN     UNKNOWN        : RHOB:miremvroc:rC:NONE:v0 (auto-composite)
SP       .UNKNOWN     UNKNOWN        : SP:PETROWORKS:rC:NONE:v1 
~A     DEPTH         CALI         DRHO           DT           GR          ILD          LLD          LLS         MSFL         NPHI          PEF         RHOB           SP
# ...
   3039.3091       8.8363    -999.2500      58.8890      20.8810    -999.2500     712.2780     131.0128     389.6273       0.1104       2.9290       2.6334    -999.2500
   3039.4614       8.7943    -999.2500      58.8890      18.3820    -999.2500     734.7480     136.7301     619.1996       0.1102       2.8279       2.6359    -999.2500
   3039.6138       8.7368    -999.2500      58.7440      18.0431    -999.2500     757.5661     138.8055     375.8448       0.1069       2.7042       2.6530    -999.2500
   3039.7661       8.6787    -999.2500      58.5945      18.5606    -999.2500     794.0228     139.9932     117.5079       0.1029       2.5797       2.6704    -999.2500
   3039.9187       8.7260    -999.2500      57.8022      20.7222    -999.2500     918.7821     141.9909     256.8708       0.0849       2.6017       2.7064    -999.2500
   3040.0710       8.7764    -999.2500      56.9900      24.0089    -999.2500    1021.3090     150.0519     408.5203       0.0666       2.6282       2.7429    -999.2500
   3040.2234       8.7732    -999.2500      56.3067      29.9306    -999.2500    1004.2312     176.8195     386.1176       0.0678       2.8066       2.7372    -999.2500
   3040.3757       8.7682    -999.2500      55.6274      36.9482    -999.2500     937.5863     208.5714     358.1778       0.0710       2.9895       2.7302    -999.2500
   3040.5281       8.7190    -999.2500      55.7341      47.7164    -999.2500     714.3926     202.0978     233.5779       0.0852       2.9038       2.6908    -999.2500
   3040.6807       8.6685    -999.2500      55.8652      56.5317    -999.2500     496.7961     186.7217     105.9788       0.1002       2.8098       2.6503    -999.2500
   3040.8330       8.6854    -999.2500      56.5142      58.9328    -999.2500     325.0435     152.7246     122.7261       0.1125       2.9477       2.5962    -999.2500
   3040.9854       8.7044    -999.2500      57.1789      58.7543    -999.2500     179.3838     112.4163     143.8390       0.1248       3.0926       2.5416    -999.2500
   3041.1377       8.8481    -999.2500      57.5196      56.3729    -999.2500     169.6542      83.1074     132.4250       0.1400       2.9515       2.5429    -999.2500
   3041.2903       8.9957    -999.2500      57.8503      52.3086    -999.2500     176.3313      57.7960     119.9974       0.1548       2.8014       2.5459    -999.2500
   3041.4426       8.9961    -999.2500      58.0894      43.3505    -999.2500     197.8025      42.5197      68.8279       0.1549       2.8130       2.5416    -999.2500
   3041.5950       8.9921    -999.2500      58.3258      33.3575    -999.2500     231.7277      32.4605      16.4815       0.1538       2.8295       2.5371    -999.2500
   3041.7473       8.9687    -999.2500      58.3631      26.8087    -999.2500     309.8659      33.2045      16.8243       0.1472       2.9664       2.5404    -999.2500
   3041.8999       8.9447    -999.2500      58.3941      21.3871    -999.2500     394.1297      49.3673      18.8160       0.1404       3.1068       2.5439    -999.2500
   3042.0522       8.9091    -999.2500      59.3044      17.7507    -999.2500     462.3937     126.8175      81.8215       0.1400       3.0945       2.5610    -999.2500
   3042.2046       8.8731    -999.2500      60.2414      15.1328    -999.2500     509.8384     198.0203     146.6884       0.1400       3.0775       2.5785    -999.2500
   3042.3569       8.7726    -999.2500      60.1429      14.6616    -999.2500     495.5740     193.4602     140.9001       0.1393       3.0003       2.5848    -999.2500
   3042.5093       8.6700    -999.2500      60.0119      14.9570    -999.2500     470.1645     168.0031     132.8911       0.1385       2.9213       2.5908    -999.2500
   3042.6619       8.6670    -999.2500      59.4048      16.0970    -999.2500     525.4285     174.2522      93.8814       0.1341       2.8506       2.5934    -999.2500
   3042.8142       8.6670    -999.2500      58.7830      17.4714    -999.2500    1476.5883     206.4331      53.9216       0.1292       2.7800       2.5959    -999.2500
   3042.9666       8.6718    -999.2500      58.4086      19.2255    -999.2500    5055.2778     303.5790      66.0216       0.1200       2.7780       2.5994    -999.2500
   3043.1189       8.6769    -999.2500      58.0419      21.1203    -999.2500    9618.6123     424.9934      79.7647       0.1100       2.7780       2.6029    -999.2500
   3043.2715       8.7032    -999.2500      57.2402      26.0528    -999.2500    9399.0352    1069.9576     447.6229       0.0839       2.7994       2.6117    -999.2500
   3043.4238       8.7302    -999.2500      56.4250      30.0422    -999.2500    8700.2617    1560.2667     826.3798       0.0576       2.8214       2.6207    -999.2500
   3043.5762       8.7630    -999.2500      55.2277      30.9969    -999.2500    6866.8726    1553.6910     550.2804       0.0589       2.9622       2.6617    -999.2500
   3043.7285       8.7960    -999.2500      54.0183      30.6928    -999.2500    4651.3506    1330.5387     253.4249       0.0617       3.1067       2.7037    -999.2500
   3043.8811       8.8392    -999.2500      54.0324      29.0955    -999.2500    2661.5952     798.6154     503.2024       0.0610       3.1066       2.7491    -999.2500
   3044.0334       8.8827    -999.2500      54.0844      28.0478    -999.2500    1040.0637     322.0888     769.8768       0.0601       3.1021       2.7946    -999.2500
   3044.1858       8.9213    -999.2500      54.3958      29.7190    -999.2500     662.7819     212.1020     712.8138       0.0558       2.9448       2.7926    -999.2500
   3044.3381       8.9598    -999.2500      54.7154      31.8136    -999.2500     664.2277     218.2157     645.4464       0.0514       2.7829       2.7891    -999.2500
   3044.4905       8.9479    -999.2500      55.6671      32.1842    -999.2500     713.1558     257.6076     455.1631       0.0471       2.7780       2.7672    -999.2500
   3044.6431       8.9344    -999.2500      56.6385      31.9807    -999.2500     790.5994     294.4042     261.0639       0.0427       2.7780       2.7447    -999.2500
   3044.7954       8.8685    -999.2500      56.4996      31.1300    -999.2500     983.7089     268.5262     186.3661       0.0351       2.7862       2.7450    -999.2500
   3044.9478       8.8010    -999.2500      56.3272      29.8100    -999.2500    1229.1581     239.1614     115.2812       0.0274       2.7947       2.7460    -999.2500
   3045.1001       8.7350    -999.2500      55.5954      27.3695    -999.2500    1572.7469     237.0062      72.7210       0.0276       2.9478       2.7615    -999.2500
   3045.2527       8.6689    -999.2500      54.8461      24.6750    -999.2500    1967.5381     247.1933      31.0502       0.0282       3.1054       2.7775    -999.2500
   3045.4050       8.6670    -999.2500      54.4166      24.5065    -999.2500    2665.8608     305.3268      39.7052       0.0310       3.0862       2.7770    -999.2500
   3045.5574       8.6670    -999.2500      53.9967      24.6140    -999.2500    3475.3987     394.3895      49.8898       0.0338       3.0617       2.7760    -999.2500
   3045.7097       8.6670    -999.2500      52.8898      24.9503    -999.2500    4539.4907     562.4470     322.7159       0.0362       2.9236       2.7808    -999.2500
   3045.8623       8.6670    -999.2500      51.7614      25.4004    -999.2500    5641.0767     765.2733     603.7656       0.0386       2.7822       2.7858    -999.2500
   3046.0146       8.6743    -999.2500      50.8541      26.5185    -999.2500    5497.7617    1066.4617     530.9423       0.0379       2.9192       2.7845    -999.2500
   3046.1670       8.6818    -999.2500      49.9535      27.7738    -999.2500    5123.4380    1392.3280     447.3164       0.0370       3.0648       2.7830    -999.2500
   3046.3193       8.7329    -999.2500      49.6923      29.3081    -999.2500    4302.5029    1774.3862     471.5505       0.0370       3.0554       2.7704    -999.2500
   3046.4717       8.7854    -999.2500      49.4512      31.0570    -999.2500    3341.9114    2120.3164     499.1762       0.0370       3.0414       2.7574    -999.2500
