#------------------------------------------------------------------------------
#
#   Created by  : [OpenWorks] Log Export Utility (LEXP)
#   Created on  : 2016-05-24 12:10:46
#   Project     : CANT971
#   User        : R5K
#   Interpreter : PEP
#
#------------------------------------------------------------------------------
~VERSION INFORMATION
VERS. 2.0 : CWLS Log ASCII Standard - version 2.0
WRAP.  NO : One line per depth step
~WELL INFORMATION
#MNEMONIC   .UNIT                                           VALUE :DESCRIPTION
#------------------------------------------------------------------------------
STRT        .M                                           493.6194 :START DEPTH
STOP        .M                                          3276.7483 :STOP DEPTH
STEP        .M                                             0.1524 :STEP
NULL        .                                           -999.2500 :NULL VALUE
COMP        .                                   PEMEX EXPL & PROD :COMPANY
WELL        .                                                1013 :WELL
FLD         .                                           CANTARELL :FIELD
LOC         .                                             UNKNOWN :LOCATION
CNTY        .                                      CD. DEL CARMEN :COUNTY
STAT        .                                            CAMPECHE :STATE
CTRY        .                                              MEXICO :COUNTRY
SRVC        .                                             UNKNOWN :SERVICE COMPANY
DATE        .                                             UNKNOWN :LOG DATE
UWI         .                                          3060000208 :UNIQUE WELL ID
XCOORD      .                                       598525.520000 :SURFACE X
YCOORD      .                                      2152013.570000 :SURFACE Y
LAT         .                                           19.461323 :LATITUDE
LON         .                                          -92.061319 :LONGITUDE
ELEV        .M                                            27.9700 :SURFACE ELEV
ELEV_TYPE   .                                                  KB :ELEV TYPE
~CURVE INFORMATION
#MNEMONIC.UNIT        API CODE       : CURVE DESCRIPTION
#------------------------------------------------------------------------------
DEPTH    .M                          : Measured Depth
CALI     .UNKNOWN     UNKNOWN        : CALI:registros:rC:NONE:v0 (auto-composite)
DRHO     .UNKNOWN     UNKNOWN        : DRHO:registros:rC:NONE:v0 (auto-composite)
DT       .us/ft       UNKNOWN        : DT:registros:rC:NONE:v0 (auto-composite)
GR       .API         UNKNOWN        : GR:PETROWORKS:rC:NONE:v1 
ILD      .UNKNOWN     UNKNOWN        : ILD:registros:rC:NONE:v0 (auto-composite)
LLD      .ohm.m       UNKNOWN        : LLD:PETROWORKS:rC:NONE:v1 
LLS      .UNKNOWN     UNKNOWN        : LLS:PETROWORKS:rC:NONE:v1 
MSFL     .UNKNOWN     UNKNOWN        : MSFL:registros:rC:NONE:v0 (auto-composite)
NPHI     .UNKNOWN     UNKNOWN        : NPHI:registros:rC:NONE:v0 (auto-composite)
PEF      .UNKNOWN     UNKNOWN        : PEF:registros:rC:NONE:v0 (auto-composite)
RHOB     .UNKNOWN     UNKNOWN        : RHOB:miremvroc:rC:NONE:v0 (auto-composite)
SP       .UNKNOWN     UNKNOWN        : SP:PETROWORKS:rC:NONE:v1 
~A     DEPTH         CALI         DRHO           DT           GR          ILD          LLD          LLS         MSFL         NPHI          PEF         RHOB           SP
# ...
   2754.0161       8.0434       0.0061      63.2147      46.2701    -999.2500     323.0181     274.5898     419.6199       0.0647    -999.2500       2.6981     -65.0552
   2754.1687       8.0479       0.0041      66.4339      47.4331    -999.2500     281.9199     238.6812     376.2259       0.0656    -999.2500       2.6786     -65.2487
   2754.3210       8.0417       0.0045      71.9241      46.8767    -999.2500     289.9158     242.6729     270.0528       0.0649    -999.2500       2.6838     -65.3705
   2754.4734       8.0352       0.0050      77.4797      45.6689    -999.2500     319.0835     265.8384     162.0715       0.0633    -999.2500       2.6898     -65.4679
   2754.6257       8.0277       0.0084      79.6107      44.1333    -999.2500     375.4128     324.3103     130.5470       0.0607    -999.2500       2.7113     -65.5690
   2754.7781       8.0202       0.0119      81.6399      42.7241    -999.2500     430.9546     379.0991     101.2947       0.0585    -999.2500       2.7333     -65.6538
   2754.9307       8.0317       0.0169      78.4120      42.0825    -999.2500     462.1111     390.8737     136.0477       0.0583    -999.2500       2.7524     -65.6660
   2755.0830       8.0437       0.0219      75.0320      41.6903    -999.2500     476.8120     384.8821     172.6529       0.0592    -999.2500       2.7714     -65.6419
   2755.2354       8.0591       0.0259      71.7790      41.4827    -999.2500     452.1306     353.5350     138.2458       0.0610    -999.2500       2.7667     -65.5491
   2755.3877       8.0746       0.0299      68.5298      41.1698    -999.2500     418.1454     318.7136     101.7188       0.0631    -999.2500       2.7612     -65.4493
   2755.5403       8.0522       0.0271      66.6935      39.6263    -999.2500     402.0803     314.5797     115.7592       0.0648    -999.2500       2.7518     -65.4483
   2755.6926       8.0287       0.0241      64.8983      38.0366    -999.2500     396.1490     319.3811     131.2695       0.0660    -999.2500       2.7423     -65.4920
   2755.8450       8.0309       0.0191      62.7811      36.8785    -999.2500     412.7840     337.2282     208.7102       0.0661    -999.2500       2.7299     -65.6261
   2755.9973       8.0339       0.0141      60.6543      35.9349    -999.2500     436.8102     359.0899     288.0080       0.0657    -999.2500       2.7174     -65.7936
   2756.1499       8.0573       0.0101      59.0456      37.5786    -999.2500     418.8963     345.9818     263.5231       0.0646    -999.2500       2.7010     -66.0043
   2756.3022       8.0813       0.0061      57.4520      38.9464    -999.2500     394.3130     328.3803     236.0074       0.0627    -999.2500       2.6845     -66.2084
   2756.4546       8.0446       0.0060      56.9424      39.1791    -999.2500     355.1934     301.7837     184.1859       0.0585    -999.2500       2.6729     -66.3882
   2756.6069       8.0061       0.0060      56.4636      38.9602    -999.2500     313.9425     273.3696     131.6736       0.0546    -999.2500       2.6614     -66.5450
   2756.7593       7.9865       0.0109      56.1405      38.4941    -999.2500     310.4942     262.2161     188.1761       0.0542    -999.2500       2.6528     -66.5397
   2756.9119       7.9675       0.0159      55.8218      38.1544    -999.2500     314.8056     257.2404     247.8766       0.0566    -999.2500       2.6443     -66.5076
   2757.0642       7.9947       0.0344      55.3115      38.3524    -999.2500     331.1683     266.9135     230.3202       0.0638    -999.2500       2.6241     -66.4468
   2757.2166       8.0232       0.0534      54.7958      38.7079    -999.2500     351.8827     281.9924     210.5577       0.0727    -999.2500       2.6037     -66.3900
   2757.3689       8.0342       0.0603      55.0871      38.9991    -999.2500     375.7196     301.2710     146.9882       0.0815    -999.2500       2.6040     -66.3978
   2757.5215       8.0447       0.0668      55.4022      39.2729    -999.2500     394.5044     317.0895      82.1278       0.0881    -999.2500       2.6050     -66.4255
   2757.6738       8.0363       0.0500      56.3307      39.5446    -999.2500     383.3296     309.9220      93.4616       0.0874    -999.2500       2.6195     -66.4751
   2757.8262       8.0273       0.0325      57.2768      39.8622    -999.2500     363.8282     296.0607     106.9813       0.0845    -999.2500       2.6345     -66.5499
   2757.9785       7.9896       0.0213      57.1136      40.3379    -999.2500     337.7312     276.0971      97.2075       0.0819    -999.2500       2.6466     -66.6947
   2758.1311       7.9511       0.0103      56.9175      40.8216    -999.2500     310.6581     255.0611      86.7441       0.0800    -999.2500       2.6586     -66.8699
   2758.2834       7.9004       0.0129      56.1012      40.7349    -999.2500     297.8199     245.2327      80.0003       0.0796    -999.2500       2.6634     -67.1334
   2758.4358       7.8495       0.0159      55.2671      40.4127    -999.2500     290.4740     239.6970      73.3636       0.0794    -999.2500       2.6679     -67.4166
   2758.5881       7.8689       0.0136      54.3220      39.5734    -999.2500     294.9480     243.3746      69.7431       0.0781    -999.2500       2.6675     -67.7312
   2758.7405       7.8904       0.0111      53.3737      38.5654    -999.2500     303.5585     250.2557      66.2123       0.0763    -999.2500       2.6670     -68.0592
   2758.8931       7.9124       0.0066      53.9610      38.5782    -999.2500     299.9975     246.8033      64.6957       0.0740    -999.2500       2.6680     -68.4787
   2759.0454       7.9344       0.0021      54.5927      38.7877    -999.2500     294.5682     241.6940      63.2373       0.0714    -999.2500       2.6690     -68.9070
   2759.1978       7.9000      -0.0019      57.5984      39.4473    -999.2500     285.1970     233.0196      59.0866       0.0685    -999.2500       2.6743     -69.3489
   2759.3501       7.8640      -0.0059      60.6750      40.2433    -999.2500     276.6799     224.8386      54.8556       0.0654    -999.2500       2.6798     -69.7898
   2759.5027       7.8489      -0.0055      65.0008      40.8794    -999.2500     284.8867     229.7116      53.2067       0.0620    -999.2500       2.6863     -70.1901
   2759.6550       7.8344      -0.0050      69.3629      41.3280    -999.2500     299.7939     239.7280      51.6328       0.0588    -999.2500       2.6928     -70.5785
   2759.8074       7.8583      -0.0035      72.9573      41.1361    -999.2500     330.2089     261.4981      78.7727       0.0563    -999.2500       2.6978     -70.9471
   2759.9597       7.8833      -0.0020      76.5286      40.6814    -999.2500     366.3709     287.8935     106.7741       0.0542    -999.2500       2.7028     -71.3078
   2760.1123       7.8961       0.0009      78.8689      39.8662    -999.2500     408.6908     320.0731     170.3082       0.0532    -999.2500       2.7054     -71.6584
   2760.2646       7.9087       0.0039      81.1733      38.9975    -999.2500     446.6851     349.4068     234.8805       0.0530    -999.2500       2.7079     -72.0023
   2760.4170       7.9124       0.0127      82.1249      38.4727    -999.2500     442.1672     347.3355     235.3806       0.0538    -999.2500       2.7095     -72.3156
   2760.5693       7.9159       0.0217      83.0380      38.2428    -999.2500     427.6324     337.7782     234.0587       0.0554    -999.2500       2.7110     -72.6045
   2760.7217       7.9126       0.0278      82.5188      38.7503    -999.2500     403.5352     320.8930     317.5281       0.0586    -999.2500       2.7062     -72.8333
   2760.8743       7.9091       0.0338      81.9576      39.5436    -999.2500     376.4131     301.6456     403.4863       0.0625    -999.2500       2.7012     -73.0347
   2761.0266       7.8944       0.0257      80.0606      40.9114    -999.2500     358.7237     288.3441     380.3812       0.0675    -999.2500       2.6899     -73.0460
   2761.1790       7.8794       0.0172      78.1254      42.1918    -999.2500     343.0027     276.4429     354.1600       0.0717    -999.2500       2.6784     -73.0470
