#------------------------------------------------------------------------------
#
#   Created by  : [OpenWorks] Log Export Utility (LEXP)
#   Created on  : 2016-05-24 12:10:46
#   Project     : CANT971
#   User        : R5K
#   Interpreter : PEP
#
#------------------------------------------------------------------------------
~VERSION INFORMATION
VERS. 2.0 : CWLS Log ASCII Standard - version 2.0
WRAP.  NO : One line per depth step
~WELL INFORMATION
#MNEMONIC   .UNIT                                           VALUE :DESCRIPTION
#------------------------------------------------------------------------------
STRT        .M                                           493.6194 :START DEPTH
STOP        .M                                          3276.7483 :STOP DEPTH
STEP        .M                                             0.1524 :STEP
NULL        .                                           -999.2500 :NULL VALUE
COMP        .                                   PEMEX EXPL & PROD :COMPANY
WELL        .                                                1013 :WELL
FLD         .                                           CANTARELL :FIELD
LOC         .                                             UNKNOWN :LOCATION
CNTY        .                                      CD. DEL CARMEN :COUNTY
STAT        .                                            CAMPECHE :STATE
CTRY        .                                              MEXICO :COUNTRY
SRVC        .                                             UNKNOWN :SERVICE COMPANY
DATE        .                                             UNKNOWN :LOG DATE
UWI         .                                          3060000208 :UNIQUE WELL ID
XCOORD      .                                       598525.520000 :SURFACE X
YCOORD      .                                      2152013.570000 :SURFACE Y
LAT         .                                           19.461323 :LATITUDE
LON         .                                          -92.061319 :LONGITUDE
ELEV        .M                                            27.9700 :SURFACE ELEV
ELEV_TYPE   .                                                  KB :ELEV TYPE
~CURVE INFORMATION
#MNEMONIC.UNIT        API CODE       : CURVE DESCRIPTION
#------------------------------------------------------------------------------
DEPTH    .M                          : Measured Depth
CALI     .UNKNOWN     UNKNOWN        : CALI:registros:rC:NONE:v0 (auto-composite)
DRHO     .UNKNOWN     UNKNOWN        : DRHO:registros:rC:NONE:v0 (auto-composite)
DT       .us/ft       UNKNOWN        : DT:registros:rC:NONE:v0 (auto-composite)
GR       .API         UNKNOWN        : GR:PETROWORKS:rC:NONE:v1 
ILD      .UNKNOWN     UNKNOWN        : ILD:registros:rC:NONE:v0 (auto-composite)
LLD      .ohm.m       UNKNOWN        : LLD:PETROWORKS:rC:NONE:v1 
LLS      .UNKNOWN     UNKNOWN        : LLS:PETROWORKS:rC:NONE:v1 
MSFL     .UNKNOWN     UNKNOWN        : MSFL:registros:rC:NONE:v0 (auto-composite)
NPHI     .UNKNOWN     UNKNOWN        : NPHI:registros:rC:NONE:v0 (auto-composite)
PEF      .UNKNOWN     UNKNOWN        : PEF:registros:rC:NONE:v0 (auto-composite)
RHOB     .UNKNOWN     UNKNOWN        : RHOB:miremvroc:rC:NONE:v0 (auto-composite)
SP       .UNKNOWN     UNKNOWN        : SP:PETROWORKS:rC:NONE:v1 
~A     DEPTH         CALI         DRHO           DT           GR          ILD          LLD          LLS         MSFL         NPHI          PEF         RHOB           SP
# ...
   2929.5811       9.0930    -999.2500      56.0283      60.6806    -999.2500     654.5118     408.9857     196.8841       0.0779       3.2552       2.7001    -999.2500
   2929.7334       9.0075    -999.2500      57.1962      65.8545    -999.2500     738.8424     434.6619     176.7407       0.0824       3.1752       2.6981    -999.2500
   2929.8857       8.9788    -999.2500      57.7546      69.6548    -999.2500     905.0637     516.2315     152.3638       0.0874       3.0811       2.7014    -999.2500
   2930.0381       8.9518    -999.2500      58.2949      72.0640    -999.2500    1098.8818     620.5197     127.8609       0.0907       2.9867       2.7049    -999.2500
   2930.1907       8.9956    -999.2500      57.2977      70.2541    -999.2500    1357.0774     782.1139     193.4073       0.0896       2.8839       2.7142    -999.2500
   2930.3430       9.0417    -999.2500      56.2533      66.8681    -999.2500    1575.1218     926.6735     261.7185       0.0860       2.7808       2.7237    -999.2500
   2930.4954       9.0721    -999.2500      54.9356      62.3762    -999.2500    1469.0085     882.1801     249.5017       0.0817       2.7780       2.7182    -999.2500
   2930.6477       9.1021    -999.2500      53.6097      57.8381    -999.2500    1287.7793     793.1208     234.8755       0.0785       2.7780       2.7122    -999.2500
   2930.8003       9.1069    -999.2500      52.3366      54.2678    -999.2500    1105.8896     700.2262     196.6024       0.0782       2.8305       2.6970    -999.2500
   2930.9526       9.1109    -999.2500      51.0651      51.2261    -999.2500     959.0628     615.8730     157.6000       0.0783       2.8845       2.6815    -999.2500
   2931.1050       9.0950    -999.2500      51.8485      49.2676    -999.2500     935.3525     564.4086     214.1472       0.0765       3.0187       2.6810    -999.2500
   2931.2573       9.0785    -999.2500      52.6936      47.8476    -999.2500     957.7574     527.8536     273.5661       0.0729       3.1551       2.6810    -999.2500
   2931.4097       9.0402    -999.2500      53.5316      48.4861    -999.2500    1047.8861     537.5470     168.9493       0.0675       3.1080       2.6892    -999.2500
   2931.5623       9.0011    -999.2500      54.3695      50.1305    -999.2500    1138.3690     574.6785      59.2523       0.0622       3.0555       2.6977    -999.2500
   2931.7146       9.0000    -999.2500      54.6880      54.0475    -999.2500    1207.7380     677.2059      81.3555       0.0589       2.8805       2.7082    -999.2500
   2931.8669       9.0000    -999.2500      54.9909      58.8168    -999.2500    1266.8433     801.2199     107.4372       0.0571       2.7021       2.7187    -999.2500
   2932.0193       9.0374    -999.2500      54.1913      63.4582    -999.2500    1182.2479     726.0132     107.1180       0.0566       2.7242       2.7360    -999.2500
   2932.1719       9.0759    -999.2500      53.3575      66.5699    -999.2500    1088.2465     643.3946     105.9776       0.0562       2.7522       2.7535    -999.2500
   2932.3242       9.1158    -999.2500      53.4447      65.0311    -999.2500     982.2442     561.3325      93.4855       0.0548       2.7987       2.7627    -999.2500
   2932.4766       9.1559    -999.2500      53.5597      61.6827    -999.2500     887.9670     491.1768      80.6493       0.0524       2.8457       2.7717    -999.2500
   2932.6289       9.2148    -999.2500      53.9717      57.3034    -999.2500     920.1517     512.1417     107.6281       0.0489       3.0030       2.7681    -999.2500
   2932.7815       9.2742    -999.2500      54.3926      53.0192    -999.2500     994.5168     580.6470     135.7829       0.0449       3.1635       2.7641    -999.2500
   2932.9338       9.2498    -999.2500      55.0666      49.7455    -999.2500    1154.5295     777.6442     188.4774       0.0410       3.1588       2.7422    -999.2500
   2933.0862       9.2228    -999.2500      55.7484      47.7921    -999.2500    1384.1060     965.6091     241.9191       0.0391       3.1493       2.7197    -999.2500
   2933.2385       9.2579    -999.2500      56.2044      50.2340    -999.2500    1807.0186     960.5902     364.5198       0.0412       3.1305       2.6865    -999.2500
   2933.3909       9.2949    -999.2500      56.6537      53.6931    -999.2500    2158.6675     879.4527     489.1725       0.0476       3.1115       2.6530    -999.2500
   2933.5435       9.3678    -999.2500      56.3831      55.7404    -999.2500    1684.8472     652.3135     392.2426       0.0584       3.1557       2.6568    -999.2500
   2933.6958       9.4419    -999.2500      56.0905      56.9666    -999.2500    1130.6399     424.0865     288.5353       0.0706       3.2017       2.6618    -999.2500
   2933.8481       9.4294    -999.2500      55.2710      56.3927    -999.2500     777.5554     272.5665     211.1864       0.0812       3.1719       2.6838    -999.2500
   2934.0005       9.4144    -999.2500      54.4359      55.0924    -999.2500     506.6003     153.3808     134.6229       0.0871       3.1399       2.7063    -999.2500
   2934.1531       9.3616    -999.2500      53.7675      51.6405    -999.2500     437.4586     147.1771     112.0933       0.0855       3.0569       2.7225    -999.2500
   2934.3054       9.3076    -999.2500      53.1043      47.7784    -999.2500     416.2372     161.1946      91.2236       0.0776       2.9723       2.7385    -999.2500
   2934.4578       9.2405    -999.2500      52.7807      43.1262    -999.2500     497.3687     213.2656     135.3446       0.0649       2.8767       2.7579    -999.2500
   2934.6101       9.1730    -999.2500      52.4674      38.2497    -999.2500     618.1196     284.8804     181.4112       0.0505       2.7807       2.7774    -999.2500
   2934.7627       9.1419    -999.2500      52.1382      34.4421    -999.2500     761.0032     444.5286     176.8680       0.0377       2.8932       2.7935    -999.2500
   2934.9150       9.1119    -999.2500      51.8086      31.0728    -999.2500     888.6217     619.0552     170.7632       0.0273       3.0117       2.8095    -999.2500
   2935.0674       9.0033    -999.2500      50.8655      28.8264    -999.2500     959.6971     816.7678     255.6066       0.0203       3.1015       2.8197    -999.2500
   2935.2197       8.8923    -999.2500      49.9039      27.0675    -999.2500    1008.6635     993.2053     343.1848       0.0160       3.1905       2.8297    -999.2500
   2935.3721       8.8890    -999.2500      49.1545      25.9659    -999.2500    1038.5483    1004.2017     458.6768       0.0136       3.1109       2.8397    -999.2500
   2935.5247       8.8890    -999.2500      48.4118      25.2416    -999.2500    1103.2206     977.6939     575.0338       0.0122       3.0263       2.8497    -999.2500
   2935.6770       8.9419    -999.2500      48.0931      25.6385    -999.2500    1349.9161     942.4039     661.8945       0.0110       2.9045       2.8466    -999.2500
   2935.8293       8.9964    -999.2500      47.7872      26.1297    -999.2500    1880.3953     887.0688     747.8643       0.0105       2.7815       2.8431    -999.2500
   2935.9817       9.0431    -999.2500      47.9517      25.9989    -999.2500    3287.2322     766.1648     533.1035       0.0110       2.8130       2.8256    -999.2500
   2936.1343       9.0896    -999.2500      48.1307      25.7399    -999.2500    4683.7109     623.7599     308.9838       0.0122       2.8490       2.8076    -999.2500
   2936.2866       9.1007    -999.2500      49.2540      26.2029    -999.2500    3269.7783     474.6283     414.4437       0.0141       2.9438       2.7804    -999.2500
   2936.4390       9.1107    -999.2500      50.4059      27.2301    -999.2500    1756.0135     339.9321     529.9018       0.0171       3.0402       2.7529    -999.2500
   2936.5913       9.1110    -999.2500      51.6351      29.6612    -999.2500     980.3821     250.3513     633.9526       0.0220       3.0892       2.7321    -999.2500
   2936.7439       9.1110    -999.2500      52.8666      32.6244    -999.2500     487.4864     177.5596     737.6663       0.0305       3.1367       2.7116    -999.2500
