#------------------------------------------------------------------------------
#
#   Created by  : [OpenWorks] Log Export Utility (LEXP)
#   Created on  : 2016-05-24 12:10:46
#   Project     : CANT971
#   User        : R5K
#   Interpreter : PEP
#
#------------------------------------------------------------------------------
~VERSION INFORMATION
VERS. 2.0 : CWLS Log ASCII Standard - version 2.0
WRAP.  NO : One line per depth step
~WELL INFORMATION
#MNEMONIC   .UNIT                                           VALUE :DESCRIPTION
#------------------------------------------------------------------------------
STRT        .M                                           493.6194 :START DEPTH
STOP        .M                                          3276.7483 :STOP DEPTH
STEP        .M                                             0.1524 :STEP
NULL        .                                           -999.2500 :NULL VALUE
COMP        .                                   PEMEX EXPL & PROD :COMPANY
WELL        .                                                1013 :WELL
FLD         .                                           CANTARELL :FIELD
LOC         .                                             UNKNOWN :LOCATION
CNTY        .                                      CD. DEL CARMEN :COUNTY
STAT        .                                            CAMPECHE :STATE
CTRY        .                                              MEXICO :COUNTRY
SRVC        .                                             UNKNOWN :SERVICE COMPANY
DATE        .                                             UNKNOWN :LOG DATE
UWI         .                                          3060000208 :UNIQUE WELL ID
XCOORD      .                                       598525.520000 :SURFACE X
YCOORD      .                                      2152013.570000 :SURFACE Y
LAT         .                                           19.461323 :LATITUDE
LON         .                                          -92.061319 :LONGITUDE
ELEV        .M                                            27.9700 :SURFACE ELEV
ELEV_TYPE   .                                                  KB :ELEV TYPE
~CURVE INFORMATION
#MNEMONIC.UNIT        API CODE       : CURVE DESCRIPTION
#------------------------------------------------------------------------------
DEPTH    .M                          : Measured Depth
CALI     .UNKNOWN     UNKNOWN        : CALI:registros:rC:NONE:v0 (auto-composite)
DRHO     .UNKNOWN     UNKNOWN        : DRHO:registros:rC:NONE:v0 (auto-composite)
DT       .us/ft       UNKNOWN        : DT:registros:rC:NONE:v0 (auto-composite)
GR       .API         UNKNOWN        : GR:PETROWORKS:rC:NONE:v1 
ILD      .UNKNOWN     UNKNOWN        : ILD:registros:rC:NONE:v0 (auto-composite)
LLD      .ohm.m       UNKNOWN        : LLD:PETROWORKS:rC:NONE:v1 
LLS      .UNKNOWN     UNKNOWN        : LLS:PETROWORKS:rC:NONE:v1 
MSFL     .UNKNOWN     UNKNOWN        : MSFL:registros:rC:NONE:v0 (auto-composite)
NPHI     .UNKNOWN     UNKNOWN        : NPHI:registros:rC:NONE:v0 (auto-composite)
PEF      .UNKNOWN     UNKNOWN        : PEF:registros:rC:NONE:v0 (auto-composite)
RHOB     .UNKNOWN     UNKNOWN        : RHOB:miremvroc:rC:NONE:v0 (auto-composite)
SP       .UNKNOWN     UNKNOWN        : SP:PETROWORKS:rC:NONE:v1 
~A     DEPTH         CALI         DRHO           DT           GR          ILD          LLD          LLS         MSFL         NPHI          PEF         RHOB           SP
# ...
   3105.1458       8.5560    -999.2500      62.6387      48.5198    -999.2500    1046.5641     685.4713     184.8332       0.0953       2.9910       2.6755    -999.2500
   3105.2981       8.5560    -999.2500      64.4684      43.1911    -999.2500    1277.0906     770.4090     139.2323       0.0994       3.1075       2.6440    -999.2500
   3105.4507       8.5560    -999.2500      63.8238      39.1858    -999.2500    1546.7563     865.8990     175.4974       0.1082       3.0567       2.6464    -999.2500
   3105.6030       8.5560    -999.2500      63.1031      36.0897    -999.2500    1784.4784     974.3940     214.2817       0.1149       3.0007       2.6499    -999.2500
   3105.7554       8.5560    -999.2500      62.0706      36.6762    -999.2500    1619.1299    1163.2218     175.9650       0.1092       2.8380       2.6563    -999.2500
   3105.9077       8.5560    -999.2500      61.0283      38.6020    -999.2500    1375.1168    1329.5669     135.2049       0.1017       2.6720       2.6628    -999.2500
   3106.0603       8.5560    -999.2500      64.1623      43.5155    -999.2500    1058.1964    1367.4769     145.7438       0.1015       2.7189       2.6402    -999.2500
   3106.2126       8.5560    -999.2500      67.4254      49.9088    -999.2500     788.4882    1357.1289     157.8681       0.1075       2.7724       2.6167    -999.2500
   3106.3650       8.5560    -999.2500      67.3748      58.9883    -999.2500     822.0202    1299.6323     332.9642       0.1268       2.8821       2.5670    -999.2500
   3106.5173       8.5560    -999.2500      67.2187      67.2225    -999.2500     959.6440    1206.8765     513.2468       0.1454       2.9936       2.5165    -999.2500
   3106.6697       8.5560    -999.2500      66.1708      65.8304    -999.2500    1236.2507     972.0022     502.3737       0.1474       3.0523       2.5460    -999.2500
   3106.8223       8.5560    -999.2500      65.0953      61.4488    -999.2500    1419.8109     765.6359     485.5674       0.1451       3.1092       2.5780    -999.2500
   3106.9746       8.5017    -999.2500      65.6238      53.1953    -999.2500    1221.7882     735.6285     655.3058       0.1464       3.0301       2.5659    -999.2500
   3107.1270       8.4457    -999.2500      66.2035      44.1435    -999.2500     891.3114     777.0865     831.0056       0.1507       2.9465       2.5524    -999.2500
   3107.2793       8.4440    -999.2500      67.8209      45.5382    -999.2500     606.9678     992.3376     468.2756       0.1613       2.8097       2.5278    -999.2500
   3107.4319       8.4440    -999.2500      69.4707      47.7850    -999.2500     397.4426    1092.3943      88.7615       0.1711       2.6713       2.5028    -999.2500
   3107.5842       8.4440    -999.2500      69.3766      50.2766    -999.2500     396.1357     820.6835      92.1542       0.1714       2.6825       2.5035    -999.2500
   3107.7366       8.4440    -999.2500      69.2266      52.6665    -999.2500     499.7419     431.1794     107.8350       0.1683       2.6985       2.5050    -999.2500
   3107.8889       8.4653    -999.2500      66.9870      51.8324    -999.2500    1089.3357     496.6735     347.4568       0.1641       2.7470       2.5147    -999.2500
   3108.0415       8.4873    -999.2500      64.6820      51.1865    -999.2500    1595.1354     681.8655     594.0893       0.1609       2.7965       2.5247    -999.2500
   3108.1938       8.5156    -999.2500      66.1107      51.9888    -999.2500    1704.3660    1137.0975     544.1427       0.1621       2.8402       2.5134    -999.2500
   3108.3462       8.5441    -999.2500      67.6598      53.1161    -999.2500    1658.0803    1600.6276     484.6388       0.1653       2.8837       2.5014    -999.2500
   3108.4985       8.5503    -999.2500      67.0722      53.1976    -999.2500    1490.6691    1560.0740     525.1742       0.1708       2.8331       2.5088    -999.2500
   3108.6509       8.5558    -999.2500      66.4175      53.0886    -999.2500    1296.7670    1402.7040     568.8548       0.1748       2.7796       2.5167    -999.2500
   3108.8035       8.5560    -999.2500      65.1445      53.1051    -999.2500    1092.3374    1185.5520     548.2134       0.1713       2.7780       2.5412    -999.2500
   3108.9558       8.5560    -999.2500      63.8525      53.4537    -999.2500     895.5613     960.1669     525.6002       0.1644       2.7780       2.5662    -999.2500
   3109.1082       8.5560    -999.2500      62.7725      54.9230    -999.2500     736.9377     758.9128     455.8021       0.1550       2.7601       2.5844    -999.2500
   3109.2605       8.5560    -999.2500      61.6991      56.9583    -999.2500     611.0230     588.4662     384.5143       0.1455       2.7416       2.6024    -999.2500
   3109.4131       8.5560    -999.2500      62.0229      60.9380    -999.2500     668.4352     621.2369     235.0522       0.1389       2.7051       2.5865    -999.2500
   3109.5654       8.5560    -999.2500      62.3897      65.0671    -999.2500     760.6000     690.4214      83.1833       0.1355       2.6681       2.5695    -999.2500
   3109.7178       8.5560    -999.2500      63.4031      68.8507    -999.2500     882.0239     785.7101     148.0784       0.1396       2.8018       2.5719    -999.2500
   3109.8701       8.5560    -999.2500      64.4370      72.4998    -999.2500    1013.8602     890.1777     219.8464       0.1447       2.9408       2.5749    -999.2500
   3110.0227       8.5560    -999.2500      65.6354      75.1299    -999.2500    1073.6711     968.3730     188.8081       0.1448       3.0967       2.5711    -999.2500
   3110.1750       8.5560    -999.2500      66.8389      77.8139    -999.2500    1097.1686    1058.3068     154.5909       0.1435       3.2532       2.5671    -999.2500
   3110.3274       8.5861    -999.2500      67.8809      80.7142    -999.2500    1017.0554    1184.4156     184.0772       0.1435       3.1935       2.5820    -999.2500
   3110.4797       8.6171    -999.2500      68.9178      83.5845    -999.2500     892.3660    1309.4236     215.5918       0.1449       3.1270       2.5975    -999.2500
   3110.6321       8.6093    -999.2500      68.7595      85.3594    -999.2500     705.4916    1291.8057     146.1479       0.1488       3.0145       2.6237    -999.2500
   3110.7847       8.6003    -999.2500      68.5641      86.8382    -999.2500     520.0106    1217.1074      73.5687       0.1581       2.9005       2.6502    -999.2500
   3110.9370       8.5583    -999.2500      67.1141      87.7681    -999.2500     369.9102    1004.1909      82.4033       0.1820       2.8456       2.6166    -999.2500
   3111.0894       8.5153    -999.2500      65.6241      89.8265    -999.2500     241.7009     745.6867      93.8411       0.2146       2.7926       2.5811    -999.2500
   3111.2417       8.4747    -999.2500      67.5390      97.9454    -999.2500     165.4091     469.6359     131.2583       0.2591       2.7420       2.5107    -999.2500
   3111.3943       8.4343    -999.2500      69.5601     108.9453    -999.2500     113.5594     231.2552     169.4858       0.2982       2.6916       2.4392    -999.2500
   3111.5466       8.4073    -999.2500      74.8405     127.3643    -999.2500     126.5272     234.4825     390.2147       0.3075       2.7326       2.3905    -999.2500
   3111.6990       8.3808    -999.2500      80.2255     142.2502    -999.2500     172.9234     340.6961     616.8033       0.3024       2.7767       2.3425    -999.2500
   3111.8513       8.4130    -999.2500      79.5749     140.6645    -999.2500     286.8340     627.3802     538.9838       0.2847       2.7086       2.3967    -999.2500
   3112.0039       8.4469    -999.2500      78.7352     132.8013    -999.2500     445.8867    1018.5953     451.6295       0.2599       2.6371       2.4542    -999.2500
   3112.1562       8.5464    -999.2500      76.3410     116.3599    -999.2500     948.0342    2078.1907     293.6019       0.2263       2.4885       2.5408    -999.2500
   3112.3086       8.6479    -999.2500      73.8965      99.2758    -999.2500    1727.7158    3339.8984     133.2958       0.1922       2.3376       2.6283    -999.2500
