#------------------------------------------------------------------------------
#
#   Created by  : [OpenWorks] Log Export Utility (LEXP)
#   Created on  : 2016-05-24 12:10:46
#   Project     : CANT971
#   User        : R5K
#   Interpreter : PEP
#
#------------------------------------------------------------------------------
~VERSION INFORMATION
VERS. 2.0 : CWLS Log ASCII Standard - version 2.0
WRAP.  NO : One line per depth step
~WELL INFORMATION
#MNEMONIC   .UNIT                                           VALUE :DESCRIPTION
#------------------------------------------------------------------------------
STRT        .M                                           493.6194 :START DEPTH
STOP        .M                                          3276.7483 :STOP DEPTH
STEP        .M                                             0.1524 :STEP
NULL        .                                           -999.2500 :NULL VALUE
COMP        .                                   PEMEX EXPL & PROD :COMPANY
WELL        .                                                1013 :WELL
FLD         .                                           CANTARELL :FIELD
LOC         .                                             UNKNOWN :LOCATION
CNTY        .                                      CD. DEL CARMEN :COUNTY
STAT        .                                            CAMPECHE :STATE
CTRY        .                                              MEXICO :COUNTRY
SRVC        .                                             UNKNOWN :SERVICE COMPANY
DATE        .                                             UNKNOWN :LOG DATE
UWI         .                                          3060000208 :UNIQUE WELL ID
XCOORD      .                                       598525.520000 :SURFACE X
YCOORD      .                                      2152013.570000 :SURFACE Y
LAT         .                                           19.461323 :LATITUDE
LON         .                                          -92.061319 :LONGITUDE
ELEV        .M                                            27.9700 :SURFACE ELEV
ELEV_TYPE   .                                                  KB :ELEV TYPE
~CURVE INFORMATION
#MNEMONIC.UNIT        API CODE       : CURVE DESCRIPTION
#------------------------------------------------------------------------------
DEPTH    .M                          : Measured Depth
CALI     .UNKNOWN     UNKNOWN        : CALI:registros:rC:NONE:v0 (auto-composite)
DRHO     .UNKNOWN     UNKNOWN        : DRHO:registros:rC:NONE:v0 (auto-composite)
DT       .us/ft       UNKNOWN        : DT:registros:rC:NONE:v0 (auto-composite)
GR       .API         UNKNOWN        : GR:PETROWORKS:rC:NONE:v1 
ILD      .UNKNOWN     UNKNOWN        : ILD:registros:rC:NONE:v0 (auto-composite)
LLD      .ohm.m       UNKNOWN        : LLD:PETROWORKS:rC:NONE:v1 
LLS      .UNKNOWN     UNKNOWN        : LLS:PETROWORKS:rC:NONE:v1 
MSFL     .UNKNOWN     UNKNOWN        : MSFL:registros:rC:NONE:v0 (auto-composite)
NPHI     .UNKNOWN     UNKNOWN        : NPHI:registros:rC:NONE:v0 (auto-composite)
PEF      .UNKNOWN     UNKNOWN        : PEF:registros:rC:NONE:v0 (auto-composite)
RHOB     .UNKNOWN     UNKNOWN        : RHOB:miremvroc:rC:NONE:v0 (auto-composite)
SP       .UNKNOWN     UNKNOWN        : SP:PETROWORKS:rC:NONE:v1 
~A     DEPTH         CALI         DRHO           DT           GR          ILD          LLD          LLS         MSFL         NPHI          PEF         RHOB           SP
# ...
   2615.0273       8.6577      -0.4930     119.9981      25.2422    -999.2500      51.6286      95.6586       0.1235       0.3578    -999.2500       2.4040    -126.6810
   2615.1797       8.6677      -0.4930     119.0750      25.3602    -999.2500      72.5959     126.7406       0.1220       0.3545    -999.2500       2.4040    -127.2340
   2615.3323       8.6680      -0.4945     110.6184      25.7127    -999.2500     122.4473     132.8270       0.1220       0.3549    -999.2500       2.4040    -127.3536
   2615.4846       8.6680      -0.4960     101.9432      26.1778    -999.2500     190.7571     128.1399       0.1220       0.3573    -999.2500       2.4040    -127.2850
   2615.6370       8.6670      -0.4979      95.2744      27.0260    -999.2500     373.0326     104.0642       0.1220       0.3700    -999.2500       2.4016    -126.8463
   2615.7893       8.6660      -0.4999      88.6623      27.7404    -999.2500     530.6545      79.9474       0.1220       0.3829    -999.2500       2.3991    -126.3263
   2615.9419       8.6616      -0.5024      83.4097      27.8927    -999.2500     570.2203      61.7393       0.1235       0.3846    -999.2500       2.3913    -125.6472
   2616.0942       8.6571      -0.5049      78.1968      27.8114    -999.2500     569.9224      49.8791       0.1250       0.3837    -999.2500       2.3833    -124.8289
   2616.2466       8.6337      -0.5084      78.4742      27.4627    -999.2500     564.3140      62.5341       0.1235       0.3788    -999.2500       2.3699    -123.5240
   2616.3989       8.6096      -0.5119      78.9074      26.7646    -999.2500     552.4840      75.3188       0.1220       0.3707    -999.2500       2.3564    -122.0104
   2616.5513       8.6114      -0.5115      78.7629      24.6706    -999.2500     515.3053      62.9570       0.1274       0.3466    -999.2500       2.3666    -120.0053
   2616.7039       8.6139      -0.5110      78.6024      22.6768    -999.2500     452.6178      47.9765       0.1328       0.3182    -999.2500       2.3776    -117.3887
   2616.8562       8.6339      -0.5023      74.0591      22.2070    -999.2500     319.7505      44.5683       0.2215       0.2810    -999.2500       2.3765    -112.9967
   2617.0085       8.6544      -0.4933      69.3909      22.8388    -999.2500     174.7775      45.4250       0.3125       0.2474    -999.2500       2.3750    -107.5437
   2617.1609       8.6642      -0.4368      70.6383      29.6521    -999.2500     130.4979      51.6369       1.9062       0.2464    -999.2500       2.3600     -97.0485
   2617.3135       8.6737      -0.3788      72.0497      35.7034    -999.2500      95.3995      53.4958       3.5415       0.2510    -999.2500       2.3445     -85.2935
   2617.4658       8.6978      -0.1702      71.9893      37.3032    -999.2500      51.6598      40.6084       3.5286       0.2508    -999.2500       2.2941     -71.6009
   2617.6182       8.7223       0.0432      71.8868      37.2079    -999.2500       4.4326      22.1951       3.4686       0.2467    -999.2500       2.2426     -57.1967
   2617.7705       8.7493       0.0490      67.8487      35.4403    -999.2500       3.3766      44.8973       3.5001       0.2246    -999.2500       2.2144     -46.2169
   2617.9231       8.7762       0.0480      63.7010      33.9906    -999.2500       3.5532      62.3441       3.5340       0.2022    -999.2500       2.1869     -36.7182
   2618.0754       8.8776       0.0311      63.7600      33.6080    -999.2500       4.6512      61.3904       3.4261       0.1996    -999.2500       2.1565     -31.5022
   2618.2278       8.9812       0.0136      63.9401      33.6664    -999.2500       5.8670      52.3090       3.3141       0.2028    -999.2500       2.1260     -27.5916
   2618.3801       9.0754       0.0140      66.0813      34.1411    -999.2500       5.7914      30.9289       2.5389       0.2172    -999.2500       2.0630     -21.5402
   2618.5325       9.1694       0.0150      68.2773      35.1186    -999.2500       5.3008      11.3096       1.7453       0.2416    -999.2500       1.9990     -15.3726
   2618.6851       9.4360       0.0310      75.3044      37.7739    -999.2500       3.9631       5.1144       1.7269       0.3125    -999.2500       1.8576      -9.9495
   2618.8374       9.7076       0.0475      82.4710      41.3346    -999.2500       2.6207       3.1690       1.7309       0.3829    -999.2500       1.7136      -5.2082
   2618.9897      10.6586       0.0422      91.9703      46.7273    -999.2500       2.3353       2.7847       1.7650       0.3944    -999.2500       1.7163      -2.5122
   2619.1421      11.6286       0.0362     101.5351      51.8530    -999.2500       2.3403       2.7945       1.8000       0.3930    -999.2500       1.7238      -0.5369
   2619.2947      12.5465       0.0370     100.9806      52.3165    -999.2500       2.3799       2.8592       1.9157       0.3852    -999.2500       1.7971       0.3656
   2619.4470      13.4628       0.0380     100.1323      51.3181    -999.2500       2.4907       3.0120       2.0338       0.3732    -999.2500       1.8726       1.0174
   2619.5994      13.4880       0.0477      87.8342      48.4033    -999.2500       2.8098       3.4155       7.8682       0.3440    -999.2500       2.0294       1.4967
   2619.7517      13.4880       0.0577      75.2127      44.8555    -999.2500       3.2051       3.9115      13.8641       0.3136    -999.2500       2.1890       1.9191
   2619.9043      13.4856       0.0948      75.2846      41.8001    -999.2500       3.6558       4.4902       9.4636       0.2952    -999.2500       2.2990       2.3646
   2620.0566      13.4831       0.1328      75.7268      38.8992    -999.2500       4.0513       5.0040       4.7598       0.2802    -999.2500       2.4075       2.7666
   2620.2090      13.4499       0.1306      75.3154      36.3418    -999.2500       4.2748       5.3129       5.2419       0.2700    -999.2500       2.4362       3.0379
   2620.3613      13.4159       0.1271      74.8797      33.8560    -999.2500       4.5149       5.6451       5.8711       0.2573    -999.2500       2.4622       3.2655
   2620.5137      13.2720       0.0800      68.6791      30.3115    -999.2500       6.2932       7.8804      44.7199       0.2250    -999.2500       2.5148       3.6019
   2620.6663      13.1251       0.0315      62.3193      27.4228    -999.2500       7.8072       9.7827      84.6236       0.1937    -999.2500       2.5683       3.9644
   2620.8186      12.7096       0.0319      64.3582      26.9486    -999.2500       8.0739      10.1226      75.0271       0.1906    -999.2500       2.5637       4.3818
   2620.9709      12.2864       0.0339      66.6365      27.7687    -999.2500       7.8052       9.7211      64.0191       0.1966    -999.2500       2.5572       4.8523
   2621.1233      12.4204       0.0519      66.6693      31.4430    -999.2500       6.8396       8.0166      34.6702       0.2195    -999.2500       2.4592       5.5320
   2621.2759      12.5698       0.0704      66.6398      35.0119    -999.2500       5.9175       6.3554       4.8126       0.2419    -999.2500       2.3581       6.1444
   2621.4282      12.5385       0.1281      66.2592      35.4466    -999.2500       5.8221       6.0736       6.6457       0.2421    -999.2500       2.3560       6.2555
   2621.5806      12.5020       0.1871      65.8686      34.6788    -999.2500       6.0917       6.2340       9.3867       0.2334    -999.2500       2.3570       6.2165
   2621.7329      12.1913       0.1861      64.3944      32.3190    -999.2500       6.9700       6.7873       8.5080       0.2021    -999.2500       2.3657       6.0764
   2621.8855      11.8729       0.1831      62.8901      29.4603    -999.2500       8.1050       7.5538       7.5284       0.1656    -999.2500       2.3747       5.8803
   2622.0378      11.2820       0.1583      60.8021      26.5170    -999.2500       9.8751       9.1754       8.1719       0.1273    -999.2500       2.4065       5.4521
   2622.1902      10.6833       0.1328      58.6973      23.7329    -999.2500      12.4404      11.5548       8.8622       0.0912    -999.2500       2.4390       4.9295
