#------------------------------------------------------------------------------
#
#   Created by  : [OpenWorks] Log Export Utility (LEXP)
#   Created on  : 2016-05-24 12:10:46
#   Project     : CANT971
#   User        : R5K
#   Interpreter : PEP
#
#------------------------------------------------------------------------------
~VERSION INFORMATION
VERS. 2.0 : CWLS Log ASCII Standard - version 2.0
WRAP.  NO : One line per depth step
~WELL INFORMATION
#MNEMONIC   .UNIT                                           VALUE :DESCRIPTION
#------------------------------------------------------------------------------
STRT        .M                                           493.6194 :START DEPTH
STOP        .M                                          3276.7483 :STOP DEPTH
STEP        .M                                             0.1524 :STEP
NULL        .                                           -999.2500 :NULL VALUE
COMP        .                                   PEMEX EXPL & PROD :COMPANY
WELL        .                                                1013 :WELL
FLD         .                                           CANTARELL :FIELD
LOC         .                                             UNKNOWN :LOCATION
CNTY        .                                      CD. DEL CARMEN :COUNTY
STAT        .                                            CAMPECHE :STATE
CTRY        .                                              MEXICO :COUNTRY
SRVC        .                                             UNKNOWN :SERVICE COMPANY
DATE        .                                             UNKNOWN :LOG DATE
UWI         .                                          3060000208 :UNIQUE WELL ID
XCOORD      .                                       598525.520000 :SURFACE X
YCOORD      .                                      2152013.570000 :SURFACE Y
LAT         .                                           19.461323 :LATITUDE
LON         .                                          -92.061319 :LONGITUDE
ELEV        .M                                            27.9700 :SURFACE ELEV
ELEV_TYPE   .                                                  KB :ELEV TYPE
~CURVE INFORMATION
#MNEMONIC.UNIT        API CODE       : CURVE DESCRIPTION
#------------------------------------------------------------------------------
DEPTH    .M                          : Measured Depth
CALI     .UNKNOWN     UNKNOWN        : CALI:registros:rC:NONE:v0 (auto-composite)
DRHO     .UNKNOWN     UNKNOWN        : DRHO:registros:rC:NONE:v0 (auto-composite)
DT       .us/ft       UNKNOWN        : DT:registros:rC:NONE:v0 (auto-composite)
GR       .API         UNKNOWN        : GR:PETROWORKS:rC:NONE:v1 
ILD      .UNKNOWN     UNKNOWN        : ILD:registros:rC:NONE:v0 (auto-composite)
LLD      .ohm.m       UNKNOWN        : LLD:PETROWORKS:rC:NONE:v1 
LLS      .UNKNOWN     UNKNOWN        : LLS:PETROWORKS:rC:NONE:v1 
MSFL     .UNKNOWN     UNKNOWN        : MSFL:registros:rC:NONE:v0 (auto-composite)
NPHI     .UNKNOWN     UNKNOWN        : NPHI:registros:rC:NONE:v0 (auto-composite)
PEF      .UNKNOWN     UNKNOWN        : PEF:registros:rC:NONE:v0 (auto-composite)
RHOB     .UNKNOWN     UNKNOWN        : RHOB:miremvroc:rC:NONE:v0 (auto-composite)
SP       .UNKNOWN     UNKNOWN        : SP:PETROWORKS:rC:NONE:v1 
~A     DEPTH         CALI         DRHO           DT           GR          ILD          LLD          LLS         MSFL         NPHI          PEF         RHOB           SP
# ...
   2688.1794       8.0416       0.0254      69.3215      56.7271    -999.2500       9.7548       9.3071      12.5716       0.1512    -999.2500       2.5296     -15.5692
   2688.3318       8.0566       0.0289      67.8910      56.9657    -999.2500      10.4018       9.9425      13.2563       0.1449    -999.2500       2.5436     -14.9488
   2688.4841       8.0755       0.0329      67.1150      57.3551    -999.2500      11.1777      10.7123      14.2488       0.1404    -999.2500       2.5600     -14.3232
   2688.6365       8.0945       0.0369      66.3573      57.7874    -999.2500      12.0263      11.5577      15.2499       0.1371    -999.2500       2.5765     -13.7272
   2688.7891       8.0804       0.0389      65.9748      58.2068    -999.2500      13.1501      12.6888      17.3129       0.1347    -999.2500       2.5765     -13.3814
   2688.9414       8.0654       0.0409      65.6032      58.8291    -999.2500      14.0707      13.6227      19.4067       0.1333    -999.2500       2.5760     -13.1389
   2689.0938       8.0883       0.0420      65.7067      60.0686    -999.2500      14.2626      13.8408      18.9147       0.1337    -999.2500       2.5726     -13.0997
   2689.2461       8.1123       0.0430      65.8237      61.5367    -999.2500      14.1853      13.7944      18.3499       0.1354    -999.2500       2.5691     -13.1349
   2689.3987       8.1067       0.0415      66.2615      60.6840    -999.2500      13.7027      13.3726      16.9351       0.1381    -999.2500       2.5617     -13.2026
   2689.5510       8.1002       0.0400      66.7087      59.6373    -999.2500      13.1181      12.8409      15.4956       0.1414    -999.2500       2.5542     -13.2539
   2689.7034       8.0752       0.0381      67.2804      58.1666    -999.2500      12.2565      12.0072      14.2074       0.1447    -999.2500       2.5477     -13.2551
   2689.8557       8.0497       0.0361      67.8557      56.6953    -999.2500      11.3704      11.1367      12.9234       0.1478    -999.2500       2.5412     -13.2345
   2690.0083       8.0495       0.0331      68.1986      56.8552    -999.2500      11.3304      11.0775      13.6374       0.1504    -999.2500       2.5366     -13.1806
   2690.1606       8.0500       0.0301      68.5347      57.2851    -999.2500      11.4129      11.1250      14.4097       0.1527    -999.2500       2.5321     -13.1357
   2690.3130       8.0690       0.0310      68.8215      57.9430    -999.2500      11.5617      11.1974      14.1671       0.1550    -999.2500       2.5325     -13.1369
   2690.4653       8.0884       0.0320      69.1069      58.7252    -999.2500      11.6395      11.2013      13.8957       0.1577    -999.2500       2.5330     -13.1451
   2690.6177       8.0720       0.0315      69.4984      59.7759    -999.2500      11.2757      10.8376      13.0755       0.1611    -999.2500       2.5345     -13.1176
   2690.7703       8.0545       0.0310      69.8931      60.9522    -999.2500      10.7506      10.3321      12.2392       0.1634    -999.2500       2.5360     -13.0523
   2690.9226       8.0574       0.0281      70.1392      62.4555    -999.2500       9.9369       9.5442      11.3448       0.1624    -999.2500       2.5375     -12.8287
   2691.0750       8.0609       0.0251      70.3811      63.9191    -999.2500       9.1376       8.7633      10.4486       0.1583    -999.2500       2.5390     -12.5217
   2691.2273       8.0697       0.0206      70.3472      65.0262    -999.2500       8.5823       8.1978      10.0217       0.1512    -999.2500       2.5385     -12.0443
   2691.3799       8.0787       0.0161      70.3052      65.9217    -999.2500       8.1291       7.7230       9.6085       0.1448    -999.2500       2.5380     -11.5010
   2691.5322       8.0848       0.0131      70.2146      65.5340    -999.2500       7.9433       7.4907       9.4056       0.1429    -999.2500       2.5361     -10.8420
   2691.6846       8.0908       0.0101      70.1226      64.9813    -999.2500       7.7837       7.2863       9.2087       0.1439    -999.2500       2.5341     -10.1873
   2691.8369       8.0959       0.0105      70.1593      64.2971    -999.2500       7.6281       7.0980       8.9596       0.1458    -999.2500       2.5316      -9.5758
   2691.9895       8.1009       0.0110      70.1999      63.5760    -999.2500       7.4702       6.9125       8.7090       0.1486    -999.2500       2.5291      -8.9890
   2692.1418       8.0918       0.0139      70.3269      63.1752    -999.2500       7.2146       6.6426       8.3690       0.1524    -999.2500       2.5275      -8.6763
   2692.2942       8.0823       0.0169      70.4565      62.5920    -999.2500       7.0086       6.4217       8.0263       0.1571    -999.2500       2.5260      -8.4593
   2692.4465       8.0514       0.0160      70.7580      61.3821    -999.2500       6.9738       6.3679       8.0248       0.1626    -999.2500       2.5197      -8.4922
   2692.5989       8.0199       0.0150      71.0644      59.8999    -999.2500       7.0129       6.3800       8.0328       0.1696    -999.2500       2.5132      -8.6514
   2692.7515       8.0195       0.0121      71.7652      58.0453    -999.2500       7.1492       6.4439       8.2265       0.1784    -999.2500       2.4980      -9.0865
   2692.9038       8.0200       0.0091      72.4775      56.5225    -999.2500       7.2770       6.5040       8.4255       0.1896    -999.2500       2.4825      -9.6816
   2693.0562       8.0234       0.0051      73.4765      56.6534    -999.2500       7.2988       6.5107       8.6711       0.2041    -999.2500       2.4568     -10.7367
   2693.2085       8.0269       0.0011      74.4836      57.2606    -999.2500       7.2890       6.4966       8.9180       0.2163    -999.2500       2.4308     -12.0556
   2693.3611       8.0251      -0.0014      75.4933      58.0147    -999.2500       7.2653       6.4559       9.1923       0.2204    -999.2500       2.4300     -13.9458
   2693.5134       8.0231      -0.0039      76.5032      58.7104    -999.2500       7.2463       6.4158       9.4674       0.2193    -999.2500       2.4300     -15.9955
   2693.6658       8.0196      -0.0035      76.2715      58.6773    -999.2500       7.2908       6.4389       9.4021       0.2160    -999.2500       2.4387     -17.9940
   2693.8181       8.0161      -0.0030      76.0046      58.5177    -999.2500       7.3738       6.4955       9.3271       0.2095    -999.2500       2.4477     -19.8171
   2693.9707       8.0019      -0.0015      75.2320      58.3176    -999.2500       7.5446       6.6248       9.3755       0.1987    -999.2500       2.4635     -21.1288
   2694.1230       7.9874      -0.0000      74.4448      58.0959    -999.2500       7.7493       6.7827       9.4276       0.1890    -999.2500       2.4795     -22.2265
   2694.2754       7.9899       0.0000      73.6343      57.5067    -999.2500       8.0486       7.0403      10.2863       0.1861    -999.2500       2.4902     -22.1041
   2694.4277       7.9929       0.0000      72.8231      56.5812    -999.2500       8.3457       7.3001      11.1679       0.1871    -999.2500       2.5007     -21.9160
   2694.5801       7.9886       0.0015      72.2912      54.7211    -999.2500       8.6252       7.5544      11.1225       0.1890    -999.2500       2.5092     -21.6943
   2694.7327       7.9841       0.0030      71.7675      52.6676    -999.2500       8.8974       7.8062      11.0500       0.1900    -999.2500       2.5177     -21.4820
   2694.8850       7.9738       0.0045      71.1077      52.5710    -999.2500       9.1642       8.0542      11.3206       0.1887    -999.2500       2.5267     -21.5175
   2695.0374       7.9633       0.0060      70.4440      52.8298    -999.2500       9.4336       8.3030      11.6010       0.1857    -999.2500       2.5357     -21.5419
   2695.1897       7.9411       0.0075      69.2405      53.5613    -999.2500       9.7150       8.5569      12.2785       0.1814    -999.2500       2.5413     -21.4353
   2695.3423       7.9186       0.0090      68.0210      54.7695    -999.2500       9.9894       8.8005      12.9678       0.1771    -999.2500       2.5468     -21.2451
