#------------------------------------------------------------------------------
#
#   Created by  : [OpenWorks] Log Export Utility (LEXP)
#   Created on  : 2016-05-24 12:10:46
#   Project     : CANT971
#   User        : R5K
#   Interpreter : PEP
#
#------------------------------------------------------------------------------
~VERSION INFORMATION
VERS. 2.0 : CWLS Log ASCII Standard - version 2.0
WRAP.  NO : One line per depth step
~WELL INFORMATION
#MNEMONIC   .UNIT                                           VALUE :DESCRIPTION
#------------------------------------------------------------------------------
STRT        .M                                           493.6194 :START DEPTH
STOP        .M                                          3276.7483 :STOP DEPTH
STEP        .M                                             0.1524 :STEP
NULL        .                                           -999.2500 :NULL VALUE
COMP        .                                   PEMEX EXPL & PROD :COMPANY
WELL        .                                                1013 :WELL
FLD         .                                           CANTARELL :FIELD
LOC         .                                             UNKNOWN :LOCATION
CNTY        .                                      CD. DEL CARMEN :COUNTY
STAT        .                                            CAMPECHE :STATE
CTRY        .                                              MEXICO :COUNTRY
SRVC        .                                             UNKNOWN :SERVICE COMPANY
DATE        .                                             UNKNOWN :LOG DATE
UWI         .                                          3060000208 :UNIQUE WELL ID
XCOORD      .                                       598525.520000 :SURFACE X
YCOORD      .                                      2152013.570000 :SURFACE Y
LAT         .                                           19.461323 :LATITUDE
LON         .                                          -92.061319 :LONGITUDE
ELEV        .M                                            27.9700 :SURFACE ELEV
ELEV_TYPE   .                                                  KB :ELEV TYPE
~CURVE INFORMATION
#MNEMONIC.UNIT        API CODE       : CURVE DESCRIPTION
#------------------------------------------------------------------------------
DEPTH    .M                          : Measured Depth
CALI     .UNKNOWN     UNKNOWN        : CALI:registros:rC:NONE:v0 (auto-composite)
DRHO     .UNKNOWN     UNKNOWN        : DRHO:registros:rC:NONE:v0 (auto-composite)
DT       .us/ft       UNKNOWN        : DT:registros:rC:NONE:v0 (auto-composite)
GR       .API         UNKNOWN        : GR:PETROWORKS:rC:NONE:v1 
ILD      .UNKNOWN     UNKNOWN        : ILD:registros:rC:NONE:v0 (auto-composite)
LLD      .ohm.m       UNKNOWN        : LLD:PETROWORKS:rC:NONE:v1 
LLS      .UNKNOWN     UNKNOWN        : LLS:PETROWORKS:rC:NONE:v1 
MSFL     .UNKNOWN     UNKNOWN        : MSFL:registros:rC:NONE:v0 (auto-composite)
NPHI     .UNKNOWN     UNKNOWN        : NPHI:registros:rC:NONE:v0 (auto-composite)
PEF      .UNKNOWN     UNKNOWN        : PEF:registros:rC:NONE:v0 (auto-composite)
RHOB     .UNKNOWN     UNKNOWN        : RHOB:miremvroc:rC:NONE:v0 (auto-composite)
SP       .UNKNOWN     UNKNOWN        : SP:PETROWORKS:rC:NONE:v1 
~A     DEPTH         CALI         DRHO           DT           GR          ILD          LLD          LLS         MSFL         NPHI          PEF         RHOB           SP
# ...
   2827.1682       9.8053    -999.2500      63.6922      58.0027    -999.2500     224.9251      59.0618      80.6614       0.0881       2.6880       2.7063    -999.2500
   2827.3206       9.8293    -999.2500      63.5297      57.7570    -999.2500     190.4255      58.2171     136.2309       0.0993       2.7055       2.6973    -999.2500
   2827.4729       9.9596    -999.2500      62.6065      59.0522    -999.2500     151.3848      56.2618     108.8364       0.1268       2.7751       2.6399    -999.2500
   2827.6255      10.0931    -999.2500      61.6609      60.8321    -999.2500     111.7422      53.5972      78.9948       0.1560       2.8461       2.5808    -999.2500
   2827.7778      10.2994    -999.2500      62.4752      60.4831    -999.2500      95.9470      43.3038      44.9738       0.1935       2.8830       2.3170    -999.2500
   2827.9302      10.5080    -999.2500      63.3430      59.5439    -999.2500      84.6197      34.7026      10.8257       0.2312       2.9190       2.0466    -999.2500
   2828.0825      10.7938    -999.2500      61.4224      57.2783    -999.2500      82.0103      32.3763       8.1209       0.2559       3.0616       2.0501    -999.2500
   2828.2349      11.0819    -999.2500      59.4192      54.4594    -999.2500      82.8051      32.4720       6.3477       0.2783       3.2072       2.0626    -999.2500
   2828.3875      11.0652    -999.2500      60.0926      50.7957    -999.2500      86.2727      33.2731       7.4653       0.2771       3.1959       2.1405    -999.2500
   2828.5398      11.0397    -999.2500      60.8433      47.8179    -999.2500      91.0691      34.4998       8.6663       0.2733       3.1804       2.2204    -999.2500
   2828.6921      10.9195    -999.2500      64.8431      47.3601    -999.2500      99.4798      36.9380       7.9093       0.2579       2.9659       2.3615    -999.2500
   2828.8445      10.7965    -999.2500      68.9396      47.6420    -999.2500     111.8190      40.2231       7.0940       0.2411       2.7458       2.5045    -999.2500
   2828.9971      10.6322    -999.2500      68.4809      47.3793    -999.2500     139.7481      46.0522      13.2099       0.2151       2.8252       2.5836    -999.2500
   2829.1494      10.4668    -999.2500      67.8902      46.8248    -999.2500     172.6917      53.1800      19.5266       0.1878       2.9127       2.6606    -999.2500
   2829.3018      10.2454    -999.2500      65.2237      45.4799    -999.2500     213.4442      63.8594      19.2136       0.1516       2.9082       2.7022    -999.2500
   2829.4541      10.0223    -999.2500      62.4952      44.0856    -999.2500     258.7489      75.6868      18.7025       0.1154       2.9012       2.7427    -999.2500
   2829.6067       9.7606    -999.2500      59.6251      43.1820    -999.2500     313.7820      88.6218      15.7406       0.0925       2.8202       2.7396    -999.2500
   2829.7590       9.4977    -999.2500      56.7508      42.4190    -999.2500     372.0502     101.7165      12.7074       0.0721       2.7372       2.7351    -999.2500
   2829.9114       9.3331    -999.2500      56.7549      41.4703    -999.2500     431.9279     113.0094      15.8687       0.0749       2.4853       2.7122    -999.2500
   2830.0637       9.1716    -999.2500      56.8454      40.7720    -999.2500     487.5600     124.4544      19.2159       0.0796       2.2289       2.6887    -999.2500
   2830.2161       9.0320    -999.2500      57.6847      40.8837    -999.2500     530.1725     137.0345      55.1242       0.0797       2.2488       2.6914    -999.2500
   2830.3687       8.8931    -999.2500      58.5458      41.3019    -999.2500     567.9117     150.0519      91.9848       0.0792       2.2763       2.6949    -999.2500
   2830.5210       8.9050    -999.2500      58.5661      43.5679    -999.2500     566.5585     149.7719      90.9257       0.0773       2.4347       2.7120    -999.2500
   2830.6733       8.9215    -999.2500      58.5611      45.3869    -999.2500     561.7806     148.1128      88.7229       0.0751       2.5966       2.7294    -999.2500
   2830.8257       9.0283    -999.2500      58.2512      45.7444    -999.2500     549.0966     143.1241      72.8991       0.0713       2.9032       2.7552    -999.2500
   2830.9783       9.1378    -999.2500      57.9324      45.5933    -999.2500     527.8729     136.3274      56.6751       0.0672       3.2139       2.7812    -999.2500
   2831.1306       9.4502    -999.2500      56.8263      45.7034    -999.2500     456.0034     124.1268      34.4889       0.0613       3.1680       2.8086    -999.2500
   2831.2830       9.7689    -999.2500      55.6964      46.0571    -999.2500     396.9170     115.8246      12.1222       0.0557       3.1125       2.8361    -999.2500
   2831.4353       9.7741    -999.2500      54.3950      47.1728    -999.2500     412.8692     125.0046      11.7985       0.0587       3.1110       2.8312    -999.2500
   2831.5879       9.7701    -999.2500      53.0886      48.2685    -999.2500     444.3516     136.7125      12.1253       0.0634       3.1110       2.8252    -999.2500
   2831.7402       9.7423    -999.2500      53.5073      48.2684    -999.2500     446.6954     136.7715      21.0851       0.0800       3.1178       2.7901    -999.2500
   2831.8926       9.7138    -999.2500      53.9784      47.8455    -999.2500     436.6302     132.2398      30.3075       0.0979       3.1248       2.7542    -999.2500
   2832.0449       9.6378    -999.2500      55.9108      46.6475    -999.2500     399.1815     118.8370      29.5056       0.1184       3.1522       2.6184    -999.2500
   2832.1973       9.5603    -999.2500      57.8864      45.6313    -999.2500     346.8036     101.7063      28.4066       0.1394       3.1803       2.4793    -999.2500
   2832.3499       9.4459    -999.2500      59.6015      45.6689    -999.2500     262.7056      77.8745      17.1672       0.1637       3.2525       2.4774    -999.2500
   2832.5022       9.3303    -999.2500      61.3086      46.1474    -999.2500     172.5013      53.0339       5.6180       0.1864       3.3260       2.4799    -999.2500
   2832.6545       9.2221    -999.2500      62.8118      47.9028    -999.2500     175.4325      53.0239       5.7755       0.1838       3.3129       2.5013    -999.2500
   2832.8069       9.1140    -999.2500      64.3088      49.3316    -999.2500     195.2298      57.0529       6.2817       0.1775       3.2974       2.5233    -999.2500
   2832.9595       9.1159    -999.2500      64.1441      49.5414    -999.2500     244.2812      67.5550      10.3613       0.1566       3.2352       2.5889    -999.2500
   2833.1118       9.1209    -999.2500      63.9312      49.1962    -999.2500     305.7852      81.6237      14.5445       0.1340       3.1717       2.6559    -999.2500
   2833.2642       9.1701    -999.2500      61.6376      47.1418    -999.2500     397.4155     118.3571      47.4523       0.1105       3.1043       2.6551    -999.2500
   2833.4165       9.2206    -999.2500      59.2817      45.3965    -999.2500     471.1260     149.1601      81.2192       0.0884       3.0368       2.6521    -999.2500
   2833.5691       9.2113    -999.2500      59.2733      45.0648    -999.2500     479.3626     155.1482      75.1959       0.0875       2.9196       2.6365    -999.2500
   2833.7214       9.2003    -999.2500      59.3332      45.5533    -999.2500     460.7917     151.5409      68.0135       0.0893       2.8011       2.6205    -999.2500
   2833.8738       9.1568    -999.2500      60.1561      48.0996    -999.2500     414.6954     141.0572      41.0977       0.0945       2.8107       2.5914    -999.2500
   2834.0261       9.1123    -999.2500      61.0020      50.5965    -999.2500     365.6940     129.0700      13.5891       0.1001       2.8237       2.5619    -999.2500
   2834.1785       9.1178    -999.2500      60.6982      51.0222    -999.2500     327.4752     116.2300      20.8870       0.1042       3.0314       2.5644    -999.2500
   2834.3311       9.1248    -999.2500      60.3609      50.7440    -999.2500     294.9730     103.9977      29.2034       0.1075       3.2444       2.5679    -999.2500
