#------------------------------------------------------------------------------
#
#   Created by  : [OpenWorks] Log Export Utility (LEXP)
#   Created on  : 2016-05-24 12:10:46
#   Project     : CANT971
#   User        : R5K
#   Interpreter : PEP
#
#------------------------------------------------------------------------------
~VERSION INFORMATION
VERS. 2.0 : CWLS Log ASCII Standard - version 2.0
WRAP.  NO : One line per depth step
~WELL INFORMATION
#MNEMONIC   .UNIT                                           VALUE :DESCRIPTION
#------------------------------------------------------------------------------
STRT        .M                                           493.6194 :START DEPTH
STOP        .M                                          3276.7483 :STOP DEPTH
STEP        .M                                             0.1524 :STEP
NULL        .                                           -999.2500 :NULL VALUE
COMP        .                                   PEMEX EXPL & PROD :COMPANY
WELL        .                                                1013 :WELL
FLD         .                                           CANTARELL :FIELD
LOC         .                                             UNKNOWN :LOCATION
CNTY        .                                      CD. DEL CARMEN :COUNTY
STAT        .                                            CAMPECHE :STATE
CTRY        .                                              MEXICO :COUNTRY
SRVC        .                                             UNKNOWN :SERVICE COMPANY
DATE        .                                             UNKNOWN :LOG DATE
UWI         .                                          3060000208 :UNIQUE WELL ID
XCOORD      .                                       598525.520000 :SURFACE X
YCOORD      .                                      2152013.570000 :SURFACE Y
LAT         .                                           19.461323 :LATITUDE
LON         .                                          -92.061319 :LONGITUDE
ELEV        .M                                            27.9700 :SURFACE ELEV
ELEV_TYPE   .                                                  KB :ELEV TYPE
~CURVE INFORMATION
#MNEMONIC.UNIT        API CODE       : CURVE DESCRIPTION
#------------------------------------------------------------------------------
DEPTH    .M                          : Measured Depth
CALI     .UNKNOWN     UNKNOWN        : CALI:registros:rC:NONE:v0 (auto-composite)
DRHO     .UNKNOWN     UNKNOWN        : DRHO:registros:rC:NONE:v0 (auto-composite)
DT       .us/ft       UNKNOWN        : DT:registros:rC:NONE:v0 (auto-composite)
GR       .API         UNKNOWN        : GR:PETROWORKS:rC:NONE:v1 
ILD      .UNKNOWN     UNKNOWN        : ILD:registros:rC:NONE:v0 (auto-composite)
LLD      .ohm.m       UNKNOWN        : LLD:PETROWORKS:rC:NONE:v1 
LLS      .UNKNOWN     UNKNOWN        : LLS:PETROWORKS:rC:NONE:v1 
MSFL     .UNKNOWN     UNKNOWN        : MSFL:registros:rC:NONE:v0 (auto-composite)
NPHI     .UNKNOWN     UNKNOWN        : NPHI:registros:rC:NONE:v0 (auto-composite)
PEF      .UNKNOWN     UNKNOWN        : PEF:registros:rC:NONE:v0 (auto-composite)
RHOB     .UNKNOWN     UNKNOWN        : RHOB:miremvroc:rC:NONE:v0 (auto-composite)
SP       .UNKNOWN     UNKNOWN        : SP:PETROWORKS:rC:NONE:v1 
~A     DEPTH         CALI         DRHO           DT           GR          ILD          LLD          LLS         MSFL         NPHI          PEF         RHOB           SP
# ...
   2966.1570       9.1110    -999.2500      58.1152      32.1919    -999.2500    1880.4456     913.3177     155.4272       0.0507       3.2016       2.7110    -999.2500
   2966.3093       9.1110    -999.2500      58.6839      36.5664    -999.2500    1600.1167     720.2100     173.1261       0.0525       3.1806       2.7110    -999.2500
   2966.4617       9.0508    -999.2500      57.4168      43.7509    -999.2500    1442.3695     600.8068     390.0797       0.0541       3.1465       2.7110    -999.2500
   2966.6143       8.9888    -999.2500      56.0928      52.0119    -999.2500    1324.4827     511.4646     613.2070       0.0551       3.1120       2.7110    -999.2500
   2966.7666       8.9395    -999.2500      53.6114      60.4072    -999.2500    1083.1842     460.1393     481.9324       0.0547       3.1110       2.7071    -999.2500
   2966.9189       8.8905    -999.2500      51.0949      67.1460    -999.2500     853.3787     412.0379     339.9547       0.0536       3.1110       2.7031    -999.2500
   2967.0713       8.8934    -999.2500      52.4946      68.6881    -999.2500     681.2980     367.0558     217.3120       0.0520       3.0974       2.6991    -999.2500
   2967.2239       8.8979    -999.2500      54.0162      67.0968    -999.2500     538.6933     323.2370      95.2709       0.0511       3.0834       2.6951    -999.2500
   2967.3762       8.9475    -999.2500      54.8851      56.4612    -999.2500     458.5444     280.2511      69.1751       0.0526       2.9858       2.7003    -999.2500
   2967.5286       8.9985    -999.2500      55.7343      45.2463    -999.2500     395.5424     239.9361      45.9896       0.0565       2.8859       2.7058    -999.2500
   2967.6809       8.9757    -999.2500      55.2017      38.4800    -999.2500     357.3407     210.1511     101.6597       0.0633       3.0224       2.7031    -999.2500
   2967.8335       8.9507    -999.2500      54.6260      33.4850    -999.2500     331.1339     186.1262     159.7942       0.0681       3.1660       2.7001    -999.2500
   2967.9858       8.9204    -999.2500      54.4620      30.8370    -999.2500     326.7468     174.0128     149.3078       0.0649       3.1569       2.7073    -999.2500
   2968.1382       8.8899    -999.2500      54.3106      28.8824    -999.2500     331.0124     167.6902     136.7307       0.0601       3.1434       2.7148    -999.2500
   2968.2905       8.8890    -999.2500      54.8952      27.0157    -999.2500     352.8344     178.9938      88.2837       0.0600       3.1275       2.7135    -999.2500
   2968.4429       8.8890    -999.2500      55.5030      25.2422    -999.2500     384.0282     200.8010      38.7109       0.0631       3.1114       2.7120    -999.2500
   2968.5955       8.8803    -999.2500      54.9454      23.7110    -999.2500     435.6402     246.4787     169.4118       0.0689       3.1197       2.7033    -999.2500
   2968.7478       8.8713    -999.2500      54.3522      22.3028    -999.2500     496.5894     303.4644     305.6290       0.0739       3.1287       2.6943    -999.2500
   2968.9001       8.8695    -999.2500      54.1234      22.4159    -999.2500     643.0712     477.3999     604.1938       0.0738       3.2179       2.6829    -999.2500
   2969.0525       8.8680    -999.2500      53.9055      22.9163    -999.2500     925.2845     704.9478     907.5993       0.0713       3.3094       2.6714    -999.2500
   2969.2051       8.9515    -999.2500      54.8754      24.3536    -999.2500    1594.1576    1074.1992     779.3926       0.0685       3.3096       2.6715    -999.2500
   2969.3574       9.0375    -999.2500      55.8817      26.2102    -999.2500    2586.5920    1541.0162     637.9208       0.0659       3.3071       2.6720    -999.2500
   2969.5098       9.1196    -999.2500      56.5040      28.9087    -999.2500    5745.8237    2549.1870     563.9192       0.0642       3.2327       2.6812    -999.2500
   2969.6621       9.2015    -999.2500      57.1147      31.5988    -999.2500   10093.4971    3824.1055     491.9383       0.0633       3.1562       2.6907    -999.2500
   2969.8147       9.1652    -999.2500      56.9069      33.9496    -999.2500   17723.2422    5815.9185     414.9989       0.0630       3.1346       2.6876    -999.2500
   2969.9670       9.1252    -999.2500      56.6738      36.0991    -999.2500   24498.4648    7413.1450     337.9065       0.0633       3.1146       2.6841    -999.2500
   2970.1194       9.1051    -999.2500      56.6670      37.7771    -999.2500   21531.5254    5814.8843     512.7419       0.0642       3.0873       2.6816    -999.2500
   2970.2717       9.0856    -999.2500      56.6670      38.9393    -999.2500   16245.5742    3626.7087     695.1561       0.0660       3.0598       2.6791    -999.2500
   2970.4241       9.0263    -999.2500      56.5525      38.0147    -999.2500   11024.8867    2333.6375     669.7645       0.0694       2.9497       2.6683    -999.2500
   2970.5767       8.9658    -999.2500      56.4345      36.5280    -999.2500    6477.3428    1378.9482     637.9307       0.0741       2.8371       2.6573    -999.2500
   2970.7290       8.9276    -999.2500      55.8935      34.6711    -999.2500    4193.7017     916.3806     545.2326       0.0799       2.8437       2.6246    -999.2500
   2970.8813       8.8901    -999.2500      55.3397      32.6747    -999.2500    2724.9744     628.6621     450.6955       0.0876       2.8537       2.5911    -999.2500
   2971.0337       8.9753    -999.2500      56.0516      30.4012    -999.2500    2038.9036     514.3650     310.8199       0.0987       3.0207       2.5484    -999.2500
   2971.1863       9.0644    -999.2500      56.8029      28.7892    -999.2500    1513.1329     428.0231     169.5327       0.1130       3.1922       2.5053    -999.2500
   2971.3386       9.0874    -999.2500      57.8140      29.2049    -999.2500    1218.6783     370.7711     106.4669       0.1319       3.1008       2.5064    -999.2500
   2971.4910       9.1084    -999.2500      58.8331      30.4212    -999.2500    1012.4393     324.6367      45.7752       0.1504       3.0018       2.5089    -999.2500
   2971.6433       9.1100    -999.2500      64.9064      32.9503    -999.2500     924.8863     302.4080      36.0035       0.1628       2.9305       2.5182    -999.2500
   2971.7959       9.1110    -999.2500      71.1377      35.1283    -999.2500     842.9094     283.1662      27.8240       0.1703       2.8600       2.5277    -999.2500
   2971.9482       9.0838    -999.2500      75.6526      36.0332    -999.2500     762.0261     269.8619      28.1752       0.1715       2.8959       2.5227    -999.2500
   2972.1006       9.0559    -999.2500      80.1151      36.2365    -999.2500     684.5258     261.2800      28.7864       0.1703       2.9349       2.5172    -999.2500
   2972.2529       8.9857    -999.2500      82.0410      34.5998    -999.2500     630.9054     272.6352      31.5334       0.1697       2.8704       2.5044    -999.2500
   2972.4053       8.9141    -999.2500      83.8872      32.7617    -999.2500     579.9677     285.8730      34.3474       0.1720       2.8029       2.4914    -999.2500
   2972.5579       8.9964    -999.2500      85.7091      31.3425    -999.2500     524.0975     293.2818      33.8258       0.1808       2.9331       2.4634    -999.2500
   2972.7102       9.0835    -999.2500      87.5302      30.2640    -999.2500     468.0733     287.3995      33.2021       0.1860       3.0691       2.4349    -999.2500
   2972.8625       9.0981    -999.2500      80.7431      30.1108    -999.2500     417.1198     233.1563      21.3289       0.1753       3.1080       2.4887    -999.2500
   2973.0149       9.1106    -999.2500      73.6991      30.2575    -999.2500     390.5799     187.6687       9.1202       0.1537       3.1440       2.5452    -999.2500
   2973.1675       9.0896    -999.2500      67.6760      30.6560    -999.2500     523.3163     298.2488      11.0668       0.1214       3.0207       2.6507    -999.2500
   2973.3198       9.0676    -999.2500      61.6843      30.7664    -999.2500     796.7309     502.2821      13.4487       0.0878       2.8927       2.7577    -999.2500
