#------------------------------------------------------------------------------
#
#   Created by  : [OpenWorks] Log Export Utility (LEXP)
#   Created on  : 2016-05-24 12:10:47
#   Project     : CANT971
#   User        : R5K
#   Interpreter : PEP
#
#------------------------------------------------------------------------------
~VERSION INFORMATION
VERS. 2.0 : CWLS Log ASCII Standard - version 2.0
WRAP.  NO : One line per depth step
~WELL INFORMATION
#MNEMONIC   .UNIT                                           VALUE :DESCRIPTION
#------------------------------------------------------------------------------
STRT        .M                                           551.3831 :START DEPTH
STOP        .M                                          2723.0830 :STOP DEPTH
STEP        .M                                             0.1524 :STEP
NULL        .                                           -999.2500 :NULL VALUE
COMP        .                                   PEMEX EXPL & PROD :COMPANY
WELL        .                                                1017 :WELL
FLD         .                                           CANTARELL :FIELD
LOC         .                                             UNKNOWN :LOCATION
CNTY        .                                      CD. DEL CARMEN :COUNTY
STAT        .                                            CAMPECHE :STATE
CTRY        .                                              MEXICO :COUNTRY
SRVC        .                                             UNKNOWN :SERVICE COMPANY
DATE        .                                             UNKNOWN :LOG DATE
UWI         .                                          3060000487 :UNIQUE WELL ID
XCOORD      .                                       598533.080000 :SURFACE X
YCOORD      .                                      2152013.220000 :SURFACE Y
LAT         .                                           19.461320 :LATITUDE
LON         .                                          -92.061247 :LONGITUDE
ELEV        .M                                            27.9700 :SURFACE ELEV
ELEV_TYPE   .                                                  KB :ELEV TYPE
~CURVE INFORMATION
#MNEMONIC.UNIT        API CODE       : CURVE DESCRIPTION
#------------------------------------------------------------------------------
DEPTH    .M                          : Measured Depth
CALI     .inches      UNKNOWN        : CALI:registros:rC:NONE:v0 (auto-composite)
DRHO     .g/cm3       UNKNOWN        : DRHO:registros:rC:NONE:v0 (auto-composite)
DT       .us/ft       UNKNOWN        : DT:registros:rC:NONE:v0 (auto-composite)
GR       .API         UNKNOWN        : GR:registros:rC:NONE:v0 (auto-composite)
ILD      .ohm.m       UNKNOWN        : ILD:registros:rC:NONE:v0 (auto-composite)
ILM      .ohm.m       UNKNOWN        : ILM:registros:rC:NONE:v0 (auto-composite)
LLD      .ohm.m       UNKNOWN        : LLD:registros:rC:NONE:v0 (auto-composite)
LLS      .ohm.m       UNKNOWN        : LLS:registros:rC:NONE:v0 (auto-composite)
MSFL     .ohm.m       UNKNOWN        : MSFL:registros:rC:NONE:v0 (auto-composite)
NPHI     .UNKNOWN     UNKNOWN        : NPHI:registros:rC:NONE:v0 (auto-composite)
PEF      .UNKNOWN     UNKNOWN        : PEF:registros:rC:NONE:v0 (auto-composite)
RHOB     .g/cm3       UNKNOWN        : RHOB:registros:rC:NONE:v0 (auto-composite)
SP       .mV          UNKNOWN        : SP:registros:rC:NONE:v0 (auto-composite)
~A     DEPTH         CALI         DRHO           DT           GR          ILD          ILM          LLD          LLS         MSFL         NPHI          PEF         RHOB           SP
# ...
   2301.5447       6.1640      -0.9620    -999.2500      25.2930       0.9480       1.0440    -999.2500    -999.2500    -999.2500       0.5466       8.8520       2.6720    -193.7100
   2301.6970       6.1640      -0.9445    -999.2500      26.9956       0.9400       1.0400    -999.2500    -999.2500    -999.2500       0.5525       9.8948       2.7481    -190.7581
   2301.8496       6.1640      -0.9270    -999.2500      28.6950       0.9320       1.0360    -999.2500    -999.2500    -999.2500       0.5556      10.9340       2.8240    -187.8120
   2302.0020       6.1640      -0.9195    -999.2500      26.2654       0.9370       1.0516    -999.2500    -999.2500    -999.2500       0.5218      73.2217       2.8601    -196.4323
   2302.1543       6.1640      -0.9120    -999.2500      23.8440       0.9420       1.0670    -999.2500    -999.2500    -999.2500       0.4874     135.2970       2.8960    -205.0370
   2302.3066       6.1640      -0.9135    -999.2500      23.8685       0.9430       1.0665    -999.2500    -999.2500    -999.2500       0.4851     568.3591       2.8910    -208.9728
   2302.4592       6.1640      -0.9150    -999.2500      23.8930       0.9440       1.0660    -999.2500    -999.2500    -999.2500       0.4876    1000.0000       2.8860    -212.9020
   2302.6116       6.1640      -0.9415    -999.2500      24.4198       0.9455       1.0610    -999.2500    -999.2500    -999.2500       0.5061    1000.0000       2.7828    -217.2354
   2302.7639       6.1640      -0.9680    -999.2500      24.9450       0.9470       1.0560    -999.2500    -999.2500    -999.2500       0.5234    1000.0000       2.6800    -221.5620
   2302.9163       6.1640      -0.9720    -999.2500      27.0852       0.9520       1.0550    -999.2500    -999.2500    -999.2500       0.5143     547.1446       2.6715    -217.8408
   2303.0686       6.1640      -0.9760    -999.2500      29.2190       0.9570       1.0540    -999.2500    -999.2500    -999.2500       0.5050      95.6620       2.6630    -214.1250
   2303.2212       6.1640      -0.9695    -999.2500      28.5195       0.9746       1.0731    -999.2500    -999.2500    -999.2500       0.5216      73.7992       2.6900    -223.3495
   2303.3735       6.1640      -0.9630    -999.2500      27.8220       0.9920       1.0920    -999.2500    -999.2500    -999.2500       0.5384      52.0000       2.7170    -232.5620
   2303.5259       6.1640      -0.9640    -999.2500      27.2267       1.0076       1.1186    -999.2500    -999.2500    -999.2500       0.5321     349.1006       2.6885    -221.1217
   2303.6782       6.1640      -0.9650    -999.2500      26.6330       1.0230       1.1450    -999.2500    -999.2500    -999.2500       0.5226     645.3750       2.6600    -209.6950
   2303.8308       6.1640      -0.9510    -999.2500      28.2642       1.0346       1.1570    -999.2500    -999.2500    -999.2500       0.5031     361.1848       2.6795    -176.3143
   2303.9832       6.1640      -0.9370    -999.2500      29.8910       1.0460       1.1690    -999.2500    -999.2500    -999.2500       0.4863      77.7500       2.6990    -142.9690
   2304.1355       6.1640      -0.9030    -999.2500      29.3743       1.0174       1.1294    -999.2500    -999.2500    -999.2500       0.5099     345.9288       2.7526    -126.9615
   2304.2878       6.1640      -0.8690    -999.2500      28.8590       0.9890       1.0900    -999.2500    -999.2500    -999.2500       0.5349     613.0000       2.8060    -110.9690
   2304.4404       6.1640      -0.8490    -999.2500      28.9521       0.9935       1.0945    -999.2500    -999.2500    -999.2500       0.5354     546.7424       2.7784    -113.3224
   2304.5928       6.1640      -0.8290    -999.2500      29.0450       0.9980       1.0990    -999.2500    -999.2500    -999.2500       0.5330     480.7500       2.7510    -115.6740
   2304.7451       6.1640      -0.7830    -999.2500      29.0850       1.0251       1.1281    -999.2500    -999.2500    -999.2500       0.5230     290.0360       2.8422    -129.9669
   2304.8975       6.1640      -0.7370    -999.2500      29.1250       1.0520       1.1570    -999.2500    -999.2500    -999.2500       0.5142     100.0620       2.9330    -144.2500
   2305.0498       6.1640      -0.7145    -999.2500      28.0654       1.0651       1.1916    -999.2500    -999.2500    -999.2500       0.5261     550.8766       2.9626    -164.3342
   2305.2024       6.1640      -0.6920    -999.2500      27.0080       1.0780       1.2260    -999.2500    -999.2500    -999.2500       0.5373    1000.0000       2.9920    -184.3750
   2305.3547       6.1640      -0.6860    -999.2500      27.9740       1.1011       1.2285    -999.2500    -999.2500    -999.2500       0.5208     762.2170       2.9925    -170.7667
   2305.5071       6.1640      -0.6800    -999.2500      28.9380       1.1240       1.2310    -999.2500    -999.2500    -999.2500       0.5038     525.2970       2.9930    -157.1860
   2305.6594       6.1640      -0.6635    -999.2500      30.2252       1.0949       1.1849    -999.2500    -999.2500    -999.2500       0.5100     763.0648       3.0356    -140.5732
   2305.8120       6.1640      -0.6470    -999.2500      31.5100       1.0660       1.1390    -999.2500    -999.2500    -999.2500       0.5184    1000.0000       3.0780    -123.9920
   2305.9644       6.1640      -0.6575    -999.2500      32.3109       1.0424       1.1119    -999.2500    -999.2500    -999.2500       0.5310     796.7822       3.0289    -116.9427
   2306.1167       6.1640      -0.6680    -999.2500      33.1090       1.0190       1.0850    -999.2500    -999.2500    -999.2500       0.5449     594.2510       2.9800    -109.9060
   2306.2690       6.1640      -0.6705    -999.2500      30.5854       1.0090       1.1061    -999.2500    -999.2500    -999.2500       0.5689     304.3983       2.9444    -149.2981
   2306.4216       6.1640      -0.6730    -999.2500      28.0700       0.9990       1.1270    -999.2500    -999.2500    -999.2500       0.5917      15.4880       2.9090    -188.6250
   2306.5740       6.1640      -0.6490    -999.2500      28.1446       1.0326       1.1260    -999.2500    -999.2500    -999.2500       0.5907      34.1637       3.0252    -187.5487
   2306.7263       6.1640      -0.6250    -999.2500      28.2190       1.0660       1.1250    -999.2500    -999.2500    -999.2500       0.5856      52.7810       3.1410    -186.4740
   2306.8787       6.1640      -0.6075    -999.2500      28.2020       1.0630       1.1310    -999.2500    -999.2500    -999.2500       0.5522      50.0504       3.1405    -181.1328
   2307.0310       6.1640      -0.5900    -999.2500      28.1850       1.0600       1.1370    -999.2500    -999.2500    -999.2500       0.5190      47.3280       3.1400    -175.7990
   2307.1836       6.1640      -0.5820    -999.2500      27.0559       1.0223       1.1365    -999.2500    -999.2500    -999.2500       0.5168      55.4627       3.1350    -170.9374
   2307.3359       6.1640      -0.5740    -999.2500      25.9300       0.9850       1.1360    -999.2500    -999.2500    -999.2500       0.5174      63.5740       3.1300    -166.0820
   2307.4883       6.1640      -0.5675    -999.2500      25.9605       0.9850       1.1154    -999.2500    -999.2500    -999.2500       0.5231     309.5182       3.1050    -163.5195
   2307.6406       6.1640      -0.5610    -999.2500      25.9910       0.9850       1.0950    -999.2500    -999.2500    -999.2500       0.5299     554.7860       3.0800    -160.9600
   2307.7932       6.1640      -0.5585    -999.2500      27.0829       0.9850       1.0790    -999.2500    -999.2500    -999.2500       0.5469     777.6858       3.0720    -158.0410
   2307.9456       6.1640      -0.5560    -999.2500      28.1720       0.9850       1.0630    -999.2500    -999.2500    -999.2500       0.5620    1000.0000       3.0640    -155.1250
   2308.0979       6.1640      -0.5570    -999.2500      26.2947       0.9880       1.0770    -999.2500    -999.2500    -999.2500       0.5398    1000.0000       3.0585    -167.7597
