#------------------------------------------------------------------------------
#
#   Created by  : [OpenWorks] Log Export Utility (LEXP)
#   Created on  : 2016-05-24 12:10:47
#   Project     : CANT971
#   User        : R5K
#   Interpreter : PEP
#
#------------------------------------------------------------------------------
~VERSION INFORMATION
VERS. 2.0 : CWLS Log ASCII Standard - version 2.0
WRAP.  NO : One line per depth step
~WELL INFORMATION
#MNEMONIC   .UNIT                                           VALUE :DESCRIPTION
#------------------------------------------------------------------------------
STRT        .M                                           551.3831 :START DEPTH
STOP        .M                                          2723.0830 :STOP DEPTH
STEP        .M                                             0.1524 :STEP
NULL        .                                           -999.2500 :NULL VALUE
COMP        .                                   PEMEX EXPL & PROD :COMPANY
WELL        .                                                1017 :WELL
FLD         .                                           CANTARELL :FIELD
LOC         .                                             UNKNOWN :LOCATION
CNTY        .                                      CD. DEL CARMEN :COUNTY
STAT        .                                            CAMPECHE :STATE
CTRY        .                                              MEXICO :COUNTRY
SRVC        .                                             UNKNOWN :SERVICE COMPANY
DATE        .                                             UNKNOWN :LOG DATE
UWI         .                                          3060000487 :UNIQUE WELL ID
XCOORD      .                                       598533.080000 :SURFACE X
YCOORD      .                                      2152013.220000 :SURFACE Y
LAT         .                                           19.461320 :LATITUDE
LON         .                                          -92.061247 :LONGITUDE
ELEV        .M                                            27.9700 :SURFACE ELEV
ELEV_TYPE   .                                                  KB :ELEV TYPE
~CURVE INFORMATION
#MNEMONIC.UNIT        API CODE       : CURVE DESCRIPTION
#------------------------------------------------------------------------------
DEPTH    .M                          : Measured Depth
CALI     .inches      UNKNOWN        : CALI:registros:rC:NONE:v0 (auto-composite)
DRHO     .g/cm3       UNKNOWN        : DRHO:registros:rC:NONE:v0 (auto-composite)
DT       .us/ft       UNKNOWN        : DT:registros:rC:NONE:v0 (auto-composite)
GR       .API         UNKNOWN        : GR:registros:rC:NONE:v0 (auto-composite)
ILD      .ohm.m       UNKNOWN        : ILD:registros:rC:NONE:v0 (auto-composite)
ILM      .ohm.m       UNKNOWN        : ILM:registros:rC:NONE:v0 (auto-composite)
LLD      .ohm.m       UNKNOWN        : LLD:registros:rC:NONE:v0 (auto-composite)
LLS      .ohm.m       UNKNOWN        : LLS:registros:rC:NONE:v0 (auto-composite)
MSFL     .ohm.m       UNKNOWN        : MSFL:registros:rC:NONE:v0 (auto-composite)
NPHI     .UNKNOWN     UNKNOWN        : NPHI:registros:rC:NONE:v0 (auto-composite)
PEF      .UNKNOWN     UNKNOWN        : PEF:registros:rC:NONE:v0 (auto-composite)
RHOB     .g/cm3       UNKNOWN        : RHOB:registros:rC:NONE:v0 (auto-composite)
SP       .mV          UNKNOWN        : SP:registros:rC:NONE:v0 (auto-composite)
~A     DEPTH         CALI         DRHO           DT           GR          ILD          ILM          LLD          LLS         MSFL         NPHI          PEF         RHOB           SP
# ...
   2717.2920       5.9550       0.1180      59.0620      33.8120    -999.2500    -999.2500     186.1650     121.3250    1903.0000       0.0680       2.9980       2.4890     -78.7500
   2717.4443       5.8599       0.1210      58.8057      33.8120    -999.2500    -999.2500     186.4178     121.0567    1903.0000       0.0684       2.8869       2.5881     -78.7500
   2717.5967       5.7650       0.1240      58.5500      33.8120    -999.2500    -999.2500     186.6700     120.7890    1903.0000       0.0690       2.7760       2.6870     -78.7500
   2717.7490       5.7555       0.1255      58.4779      33.8120    -999.2500    -999.2500     186.9323     120.7299    1903.0000       0.0692       2.7700       2.6850     -78.7655
   2717.9016       5.7460       0.1270      58.4060      33.8120    -999.2500    -999.2500     187.1940     120.6710    1903.0000       0.0693       2.7640       2.6830     -78.7810
   2718.0540       5.7460       0.1475      58.4435      33.8120    -999.2500    -999.2500     187.4037     121.0468    1903.0000       0.0693       2.7885       2.6995     -78.7685
   2718.2063       5.7460       0.1680      58.4810      33.8120    -999.2500    -999.2500     187.6130     121.4220    1903.0000       0.0693       2.8130       2.7160     -78.7560
   2718.3586       5.7460       0.1775      58.5531      33.8120    -999.2500    -999.2500     187.6560     121.2539    1903.0000       0.0693       2.8005       2.7255     -78.7530
   2718.5112       5.7460       0.1870      58.6250      33.8120    -999.2500    -999.2500     187.6990     121.0860    1903.0000       0.0693       2.7880       2.7350     -78.7500
   2718.6636       5.7460       0.1835      58.5314      33.8120    -999.2500    -999.2500      93.8776    -999.2500     950.8699       0.0693       2.8190       2.7300     -39.3448
   2718.8159       5.7460       0.1800      58.4380      33.8120    -999.2500    -999.2500       0.2000    -999.2500       0.2000       0.0693       2.8500       2.7250       0.0000
   2718.9683       5.7460       0.1755      58.4420      33.8120    -999.2500    -999.2500       0.2000    -999.2500       0.2000       0.0693       2.9586       2.7140       0.0000
   2719.1206       5.7460       0.1710      58.4460      33.8120    -999.2500    -999.2500       0.2000    -999.2500       0.2000       0.0693       3.0670       2.7030       0.0000
   2719.2732       5.7460       0.1680      58.4730      33.8120    -999.2500    -999.2500       0.2000    -999.2500       0.2000       0.0693       3.1416       2.6950       0.0000
   2719.4255       5.7460       0.1650      58.5000      33.8120    -999.2500    -999.2500       0.2000    -999.2500       0.2000       0.0693       3.2160       2.6870       0.0000
   2719.5779       5.7460       0.1670      58.5626      33.8120    -999.2500    -999.2500       0.2000    -999.2500       0.2000       0.0693       3.1033       2.6875       0.0000
   2719.7302       5.7460       0.1690      58.6250      33.8120    -999.2500    -999.2500       0.2000    -999.2500       0.2000       0.0693       2.9910       2.6880       0.0000
   2719.8828       5.7460       0.1685      58.5960      33.8120    -999.2500    -999.2500       0.2000    -999.2500       0.2000       0.0693       2.9600       2.6915       0.0000
   2720.0352       5.7460       0.1680      58.5670      33.8120    -999.2500    -999.2500       0.2000    -999.2500       0.2000       0.0693       2.9290       2.6950       0.0000
   2720.1875       5.7460       0.1670      58.5335      33.8120    -999.2500    -999.2500       0.2000    -999.2500       0.2000       0.0693       2.9610       2.6935       0.0000
   2720.3398       5.7460       0.1660      58.5000      33.8120    -999.2500    -999.2500       0.2000    -999.2500       0.2000       0.0693       2.9930       2.6920       0.0000
   2720.4924       5.7460       0.1690      58.5000      33.8120    -999.2500    -999.2500       0.2000    -999.2500       0.2000       0.0693       2.9730       2.6960       0.0000
   2720.6448       5.7460       0.1720      58.5000      33.8120    -999.2500    -999.2500       0.2000    -999.2500       0.2000       0.0693       2.9530       2.7000       0.0000
   2720.7971       5.7460       0.1820      58.4845      33.8120    -999.2500    -999.2500       0.2000    -999.2500       0.2000       0.0693       2.8999       2.7140       0.0000
   2720.9495       5.7460       0.1920      58.4690      33.8120    -999.2500    -999.2500       0.2000    -999.2500       0.2000       0.0693       2.8470       2.7280       0.0000
   2721.1018       5.7460       0.1915      58.5471      33.8120    -999.2500    -999.2500       0.2000    -999.2500       0.2000       0.0693       2.8545       2.7270       0.0000
   2721.2544       5.7460       0.1910      58.6250      33.8120    -999.2500    -999.2500       0.2000    -999.2500       0.2000       0.0693       2.8620       2.7260       0.0000
   2721.4067       5.7460       0.1875      58.6185      33.8120    -999.2500    -999.2500       0.2000    -999.2500       0.2000       0.0693       2.9005       2.7210       0.0000
   2721.5591       5.7460       0.1840      58.6120      33.8120    -999.2500    -999.2500       0.2000    -999.2500       0.2000       0.0693       2.9390       2.7160       0.0000
   2721.7114       5.7460       0.1790      58.5249      33.8120    -999.2500    -999.2500       0.2000    -999.2500       0.2000       0.0693       2.9390       2.7060       0.0000
   2721.8640       5.7460       0.1740      58.4380      33.8120    -999.2500    -999.2500       0.2000    -999.2500       0.2000       0.0693       2.9390       2.6960       0.0000
   2722.0164       5.7460       0.1740      58.4390      33.8120    -999.2500    -999.2500       0.2000    -999.2500       0.2000       0.0693       2.9380       2.6960       0.0000
   2722.1687       5.7460       0.1740      58.4400      33.8120    -999.2500    -999.2500       0.2000    -999.2500       0.2000       0.0693       2.9370       2.6960       0.0000
   2722.3210       5.7460       0.1785      58.4855      33.8120    -999.2500    -999.2500       0.2000    -999.2500       0.2000       0.0693       2.9285       2.7020       0.0000
   2722.4736       5.7460       0.1830      58.5310      33.8120    -999.2500    -999.2500       0.2000    -999.2500       0.2000       0.0693       2.9200       2.7080       0.0000
   2722.6260       5.7460       0.1835      58.5850      33.8120    -999.2500    -999.2500       0.2000    -999.2500       0.2000       0.0693       2.8990       2.7130       0.0000
   2722.7783       5.7460       0.1840      58.6390      33.8120    -999.2500    -999.2500       0.2000    -999.2500       0.2000       0.0693       2.8780       2.7180       0.0000
   2722.9307       5.7460       0.1840      58.6475      33.8120    -999.2500    -999.2500       0.2000    -999.2500       0.2000       0.0693       2.8745       2.7190       0.0000
   2723.0830       5.7460       0.1840      58.6560      33.8120    -999.2500    -999.2500       0.2000    -999.2500       0.2000    -999.2500       2.8710       2.7200       0.0000
