#------------------------------------------------------------------------------
#
#   Created by  : [OpenWorks] Log Export Utility (LEXP)
#   Created on  : 2016-05-24 12:10:47
#   Project     : CANT971
#   User        : R5K
#   Interpreter : PEP
#
#------------------------------------------------------------------------------
~VERSION INFORMATION
VERS. 2.0 : CWLS Log ASCII Standard - version 2.0
WRAP.  NO : One line per depth step
~WELL INFORMATION
#MNEMONIC   .UNIT                                           VALUE :DESCRIPTION
#------------------------------------------------------------------------------
STRT        .M                                           551.3831 :START DEPTH
STOP        .M                                          2723.0830 :STOP DEPTH
STEP        .M                                             0.1524 :STEP
NULL        .                                           -999.2500 :NULL VALUE
COMP        .                                   PEMEX EXPL & PROD :COMPANY
WELL        .                                                1017 :WELL
FLD         .                                           CANTARELL :FIELD
LOC         .                                             UNKNOWN :LOCATION
CNTY        .                                      CD. DEL CARMEN :COUNTY
STAT        .                                            CAMPECHE :STATE
CTRY        .                                              MEXICO :COUNTRY
SRVC        .                                             UNKNOWN :SERVICE COMPANY
DATE        .                                             UNKNOWN :LOG DATE
UWI         .                                          3060000487 :UNIQUE WELL ID
XCOORD      .                                       598533.080000 :SURFACE X
YCOORD      .                                      2152013.220000 :SURFACE Y
LAT         .                                           19.461320 :LATITUDE
LON         .                                          -92.061247 :LONGITUDE
ELEV        .M                                            27.9700 :SURFACE ELEV
ELEV_TYPE   .                                                  KB :ELEV TYPE
~CURVE INFORMATION
#MNEMONIC.UNIT        API CODE       : CURVE DESCRIPTION
#------------------------------------------------------------------------------
DEPTH    .M                          : Measured Depth
CALI     .inches      UNKNOWN        : CALI:registros:rC:NONE:v0 (auto-composite)
DRHO     .g/cm3       UNKNOWN        : DRHO:registros:rC:NONE:v0 (auto-composite)
DT       .us/ft       UNKNOWN        : DT:registros:rC:NONE:v0 (auto-composite)
GR       .API         UNKNOWN        : GR:registros:rC:NONE:v0 (auto-composite)
ILD      .ohm.m       UNKNOWN        : ILD:registros:rC:NONE:v0 (auto-composite)
ILM      .ohm.m       UNKNOWN        : ILM:registros:rC:NONE:v0 (auto-composite)
LLD      .ohm.m       UNKNOWN        : LLD:registros:rC:NONE:v0 (auto-composite)
LLS      .ohm.m       UNKNOWN        : LLS:registros:rC:NONE:v0 (auto-composite)
MSFL     .ohm.m       UNKNOWN        : MSFL:registros:rC:NONE:v0 (auto-composite)
NPHI     .UNKNOWN     UNKNOWN        : NPHI:registros:rC:NONE:v0 (auto-composite)
PEF      .UNKNOWN     UNKNOWN        : PEF:registros:rC:NONE:v0 (auto-composite)
RHOB     .g/cm3       UNKNOWN        : RHOB:registros:rC:NONE:v0 (auto-composite)
SP       .mV          UNKNOWN        : SP:registros:rC:NONE:v0 (auto-composite)
~A     DEPTH         CALI         DRHO           DT           GR          ILD          ILM          LLD          LLS         MSFL         NPHI          PEF         RHOB           SP
# ...
   2589.8855       8.5000       0.0720      61.8120      34.7190    -999.2500    -999.2500     208.0410     185.0390      25.5310       0.3226       2.4220       2.3780     191.1730
   2590.0378       8.4354       0.0600      61.8160      34.8096    -999.2500    -999.2500     207.4691     184.3539      32.6578       0.3302       2.5216       2.4120     190.5725
   2590.1904       8.3710       0.0480      61.8200      34.9000    -999.2500    -999.2500     206.9000     183.6700      39.7500       0.3265       2.6210       2.4460     189.9730
   2590.3428       7.3599       0.0305      61.8791      36.3261    -999.2500    -999.2500     198.3297     173.5536      39.4210       0.3085       2.7737       2.4625     189.2670
   2590.4951       6.3520       0.0130      61.9380      37.7500    -999.2500    -999.2500     189.8000     163.4690      39.0940       0.2832       2.9260       2.4790     188.5620
   2590.6475       6.3340       0.0130      61.1006      40.4279    -999.2500    -999.2500     189.7188     155.7774      34.0353       0.2279       2.9530       2.4960     188.3073
   2590.7998       6.3160       0.0130      60.2670      43.1020    -999.2500    -999.2500     189.6380     148.1090      29.0080       0.1740       2.9800       2.5130     188.0530
   2590.9524       6.3080       0.0100      59.6627      43.4851    -999.2500    -999.2500     227.2644     184.0705      45.7981       0.1579       3.0070       2.5115     186.3679
   2591.1047       6.3000       0.0070      59.0620      43.8670    -999.2500    -999.2500     264.7220     219.9280      62.4860       0.1505       3.0340       2.5100     184.6850
   2591.2571       6.2730       0.0120      59.4607      44.4273    -999.2500    -999.2500     298.1134     251.4921     134.1122       0.1568       3.0195       2.5075     184.1617
   2591.4094       6.2460       0.0170      59.8570      44.9860    -999.2500    -999.2500     331.3590     282.9690     205.3120       0.1641       3.0050       2.5050     183.6390
   2591.5620       6.2755       0.0290      60.4578      46.0659    -999.2500    -999.2500     298.3075     245.1936     169.9433       0.1643       3.0130       2.5090     182.7358
   2591.7144       6.3050       0.0410      61.0550      47.1430    -999.2500    -999.2500     265.3960     207.5180     134.7810       0.1635       3.0210       2.5130     181.8350
   2591.8667       6.2574       0.0555      63.2954      47.9480    -999.2500    -999.2500     231.0393     184.8790     152.5036       0.1635       3.0265       2.5295     181.3739
   2592.0190       6.2100       0.0700      65.5230      48.7510    -999.2500    -999.2500     196.8240     162.2970     170.1250       0.1623       3.0320       2.5460     180.9140
   2592.1716       6.1870       0.0440      67.1410      49.7127    -999.2500    -999.2500     171.6258     143.8845     112.1742       0.1530       3.1256       2.5605     179.5178
   2592.3240       6.1640       0.0180      68.7500      50.6720    -999.2500    -999.2500     146.5280     125.5160      54.5470       0.1439       3.2190       2.5750     178.1250
   2592.4763       6.2181       0.0185      68.6798      49.4226    -999.2500    -999.2500     146.8100     125.9305      55.8345       0.1430       3.2100       2.5415     178.0534
   2592.6287       6.2720       0.0190      68.6100      48.1760    -999.2500    -999.2500     147.0910     126.3440      57.1150       0.1443       3.2010       2.5080     177.9820
   2592.7810       6.2885       0.0240      67.8500      46.5002    -999.2500    -999.2500     150.2218     131.0200      75.6384       0.1495       3.1044       2.4499     176.8648
   2592.9336       6.3050       0.0290      67.0940      44.8280    -999.2500    -999.2500     153.3360     135.6860      94.0630       0.1558       3.0080       2.3920     175.7500
   2593.0859       6.2965       0.0440      65.9260      45.9231    -999.2500    -999.2500     158.2217     140.9318     124.4546       0.1635       3.0170       2.4320     174.7590
   2593.2383       6.2880       0.0590      64.7640      47.0160    -999.2500    -999.2500     163.0820     146.1670     154.6880       0.1690       3.0260       2.4720     173.7700
   2593.3906       6.2365       0.0585      62.1473      46.4850    -999.2500    -999.2500     165.0896     148.0738     105.0328       0.1610       3.0780       2.5376     173.2670
   2593.5432       6.1850       0.0580      59.5440      45.9550    -999.2500    -999.2500     167.0870     149.9770      55.6300       0.1504       3.1300       2.6030     172.7650
   2593.6956       6.1745       0.0425      57.1100      44.2450    -999.2500    -999.2500     171.2082     149.0452      45.4032       0.1392       3.2367       2.5950     172.3767
   2593.8479       6.1640       0.0270      54.6880      42.5380    -999.2500    -999.2500     175.3090     148.1150      35.2270       0.1301       3.3430       2.5870     171.9890
   2594.0002       6.1640       0.0160      55.5506      40.8536    -999.2500    -999.2500     180.7216     152.0197      64.5699       0.1324       3.3776       2.5870     170.7995
   2594.1528       6.1640       0.0050      56.4090      39.1720    -999.2500    -999.2500     186.1080     155.9180      93.7710       0.1370       3.4120       2.5870     169.6120
   2594.3052       6.2071       0.0020      58.9605      41.2532    -999.2500    -999.2500     275.7925     229.7625     142.8527       0.1434       3.2127       2.5204     168.7273
   2594.4575       6.2500      -0.0010      61.5000      43.3280    -999.2500    -999.2500     365.0550     303.3770     191.6250       0.1505       3.0140       2.4540     167.8440
   2594.6099       6.2475       0.0245      61.4158      43.2594    -999.2500    -999.2500     362.0155     301.4441     495.7748       0.1594       3.0200       2.4600     166.9174
   2594.7622       6.2450       0.0500      61.3320      43.1910    -999.2500    -999.2500     358.9900     299.5170     798.0470       0.1673       3.0260       2.4660     165.9920
   2594.9148       6.2235       0.0495      60.6800      42.6933    -999.2500    -999.2500     336.9945     284.9682     758.6317       0.1684       3.0716       2.5091     165.9180
   2595.0671       6.2020       0.0490      60.0320      42.1970    -999.2500    -999.2500     315.0970     270.4610     719.4550       0.1676       3.1170       2.5520     165.8440
   2595.2195       6.1499       0.0455      59.0441      42.1374    -999.2500    -999.2500     285.5470     245.0122     398.8715       0.1637       3.1275       2.5931     164.8589
   2595.3718       6.0980       0.0420      58.0620      42.0780    -999.2500    -999.2500     256.1250     219.6330      80.1870       0.1593       3.1380       2.6340     163.8750
   2595.5244       6.0645       0.0370      57.9562      42.4455    -999.2500    -999.2500     241.3765     207.3495      65.1278       0.1547       3.1640       2.6105     163.5125
   2595.6768       6.0310       0.0320      57.8510      42.8120    -999.2500    -999.2500     226.6900     195.0980      50.1560       0.1515       3.1900       2.5870     163.1510
   2595.8291       6.0335       0.0505      57.7307      42.6052    -999.2500    -999.2500     237.7516     203.0854      60.2847       0.1559       3.1700       2.5685     162.3615
   2595.9814       6.0360       0.0690      57.6110      42.3990    -999.2500    -999.2500     248.7680     211.0530      70.3560       0.1613       3.1500       2.5500     161.5740
   2596.1340       6.0425       0.0900      57.3989      42.0251    -999.2500    -999.2500     275.5364     244.5556     101.4910       0.1645       3.1875       2.5450     161.2872
   2596.2864       6.0490       0.1110      57.1880      41.6520    -999.2500    -999.2500     302.1990     277.9790     132.4530       0.1656       3.2250       2.5400     161.0010
   2596.4387       6.0430       0.0975      56.4670      41.5224    -999.2500    -999.2500     313.7141     277.4904     148.0969       0.1590       3.1079       2.5280     160.6021
