#------------------------------------------------------------------------------
#
#   Created by  : [OpenWorks] Log Export Utility (LEXP)
#   Created on  : 2016-05-24 12:10:47
#   Project     : CANT971
#   User        : R5K
#   Interpreter : PEP
#
#------------------------------------------------------------------------------
~VERSION INFORMATION
VERS. 2.0 : CWLS Log ASCII Standard - version 2.0
WRAP.  NO : One line per depth step
~WELL INFORMATION
#MNEMONIC   .UNIT                                           VALUE :DESCRIPTION
#------------------------------------------------------------------------------
STRT        .M                                           551.3831 :START DEPTH
STOP        .M                                          2723.0830 :STOP DEPTH
STEP        .M                                             0.1524 :STEP
NULL        .                                           -999.2500 :NULL VALUE
COMP        .                                   PEMEX EXPL & PROD :COMPANY
WELL        .                                                1017 :WELL
FLD         .                                           CANTARELL :FIELD
LOC         .                                             UNKNOWN :LOCATION
CNTY        .                                      CD. DEL CARMEN :COUNTY
STAT        .                                            CAMPECHE :STATE
CTRY        .                                              MEXICO :COUNTRY
SRVC        .                                             UNKNOWN :SERVICE COMPANY
DATE        .                                             UNKNOWN :LOG DATE
UWI         .                                          3060000487 :UNIQUE WELL ID
XCOORD      .                                       598533.080000 :SURFACE X
YCOORD      .                                      2152013.220000 :SURFACE Y
LAT         .                                           19.461320 :LATITUDE
LON         .                                          -92.061247 :LONGITUDE
ELEV        .M                                            27.9700 :SURFACE ELEV
ELEV_TYPE   .                                                  KB :ELEV TYPE
~CURVE INFORMATION
#MNEMONIC.UNIT        API CODE       : CURVE DESCRIPTION
#------------------------------------------------------------------------------
DEPTH    .M                          : Measured Depth
CALI     .inches      UNKNOWN        : CALI:registros:rC:NONE:v0 (auto-composite)
DRHO     .g/cm3       UNKNOWN        : DRHO:registros:rC:NONE:v0 (auto-composite)
DT       .us/ft       UNKNOWN        : DT:registros:rC:NONE:v0 (auto-composite)
GR       .API         UNKNOWN        : GR:registros:rC:NONE:v0 (auto-composite)
ILD      .ohm.m       UNKNOWN        : ILD:registros:rC:NONE:v0 (auto-composite)
ILM      .ohm.m       UNKNOWN        : ILM:registros:rC:NONE:v0 (auto-composite)
LLD      .ohm.m       UNKNOWN        : LLD:registros:rC:NONE:v0 (auto-composite)
LLS      .ohm.m       UNKNOWN        : LLS:registros:rC:NONE:v0 (auto-composite)
MSFL     .ohm.m       UNKNOWN        : MSFL:registros:rC:NONE:v0 (auto-composite)
NPHI     .UNKNOWN     UNKNOWN        : NPHI:registros:rC:NONE:v0 (auto-composite)
PEF      .UNKNOWN     UNKNOWN        : PEF:registros:rC:NONE:v0 (auto-composite)
RHOB     .g/cm3       UNKNOWN        : RHOB:registros:rC:NONE:v0 (auto-composite)
SP       .mV          UNKNOWN        : SP:registros:rC:NONE:v0 (auto-composite)
~A     DEPTH         CALI         DRHO           DT           GR          ILD          ILM          LLD          LLS         MSFL         NPHI          PEF         RHOB           SP
# ...
   2261.3110       6.1640      -0.5330    -999.2500      18.0230       1.1280       1.2620    -999.2500    -999.2500    -999.2500       0.4446      49.8910       3.0890    -162.6880
   2261.4636       6.1640      -0.5500    -999.2500      18.8355       1.1596       1.2916    -999.2500    -999.2500    -999.2500       0.4392      55.9389       3.0690    -155.7134
   2261.6160       6.1640      -0.5670    -999.2500      19.6460       1.1910       1.3210    -999.2500    -999.2500    -999.2500       0.4341      61.9620       3.0490    -148.7450
   2261.7683       6.1640      -0.5695    -999.2500      20.1676       1.2191       1.3431    -999.2500    -999.2500    -999.2500       0.4304     531.9130       3.0535    -129.6331
   2261.9207       6.1640      -0.5720    -999.2500      20.6880       1.2470       1.3650    -999.2500    -999.2500    -999.2500       0.4291    1000.0000       3.0580    -110.5360
   2262.0730       6.1640      -0.5810    -999.2500      20.4923       1.2505       1.3846    -999.2500    -999.2500    -999.2500       0.4331     811.5774       3.0475     -98.8412
   2262.2256       6.1640      -0.5900    -999.2500      20.2970       1.2540       1.4040    -999.2500    -999.2500    -999.2500       0.4397     623.8780       3.0370     -87.1540
   2262.3779       6.1640      -0.5890    -999.2500      21.3136       1.2460       1.3824    -999.2500    -999.2500    -999.2500       0.4489     321.1029       3.0635     -77.9716
   2262.5303       6.1640      -0.5880    -999.2500      22.3280       1.2380       1.3610    -999.2500    -999.2500    -999.2500       0.4578      19.4530       3.0900     -68.7940
   2262.6826       6.1640      -0.6035    -999.2500      21.2279       1.2445       1.3635    -999.2500    -999.2500    -999.2500       0.4632     459.5160       3.0735     -61.8821
   2262.8352       6.1640      -0.6190    -999.2500      20.1300       1.2510       1.3660    -999.2500    -999.2500    -999.2500       0.4660     898.0000       3.0570     -54.9840
   2262.9875       6.1640      -0.6480    -999.2500      19.8590       1.2636       1.3906    -999.2500    -999.2500    -999.2500       0.4641     949.0885       2.9954     -65.2986
   2263.1399       6.1640      -0.6770    -999.2500      19.5890       1.2760       1.4150    -999.2500    -999.2500    -999.2500       0.4587    1000.0000       2.9340     -75.5940
   2263.2922       6.1640      -0.6880    -999.2500      19.3927       1.3212       1.4581    -999.2500    -999.2500    -999.2500       0.4470    1000.0000       2.9355     -75.3313
   2263.4448       6.1640      -0.6990    -999.2500      19.1970       1.3660       1.5010    -999.2500    -999.2500    -999.2500       0.4360    1000.0000       2.9370     -75.0690
   2263.5972       6.1640      -0.7140    -999.2500      18.0617       1.4147       1.5627    -999.2500    -999.2500    -999.2500       0.4331    1000.0000       2.9230     -72.2197
   2263.7495       6.1640      -0.7290    -999.2500      16.9300       1.4630       1.6240    -999.2500    -999.2500    -999.2500       0.4300    1000.0000       2.9090     -69.3750
   2263.9019       6.1640      -0.7465    -999.2500      16.7342       1.4921       1.6666    -999.2500    -999.2500    -999.2500       0.4180     771.6945       2.8855     -53.6593
   2264.0542       6.1640      -0.7640    -999.2500      16.5390       1.5210       1.7090    -999.2500    -999.2500    -999.2500       0.4094     544.0940       2.8620     -37.9670
   2264.2068       6.1640      -0.7700    -999.2500      17.7348       1.5295       1.7070    -999.2500    -999.2500    -999.2500       0.4205     772.3854       2.8865     -22.6716
   2264.3591       6.1640      -0.7760    -999.2500      18.9270       1.5380       1.7050    -999.2500    -999.2500    -999.2500       0.4360    1000.0000       2.9110      -7.3970
   2264.5115       6.1640      -0.7955    -999.2500      19.7186       1.5144       1.6819    -999.2500    -999.2500    -999.2500       0.4459     889.0831       2.8664       4.5179
   2264.6638       6.1640      -0.8150    -999.2500      20.5080       1.4910       1.6590    -999.2500    -999.2500    -999.2500       0.4531     778.4810       2.8220      16.4180
   2264.8164       6.1640      -0.8335    -999.2500      19.8276       1.4754       1.6224    -999.2500    -999.2500    -999.2500       0.4567     412.1028       2.7849      15.7696
   2264.9688       6.1640      -0.8520    -999.2500      19.1490       1.4600       1.5860    -999.2500    -999.2500    -999.2500       0.4581      46.7190       2.7480      15.1220
   2265.1211       6.1640      -0.8460    -999.2500      18.3510       1.4816       1.6061    -999.2500    -999.2500    -999.2500       0.4563     289.7923       2.7746     -13.5002
   2265.2734       6.1640      -0.8400    -999.2500      17.5550       1.5030       1.6260    -999.2500    -999.2500    -999.2500       0.4557     531.8480       2.8010     -42.0940
   2265.4260       6.1640      -0.8410    -999.2500      17.7352       1.5402       1.6797    -999.2500    -999.2500    -999.2500       0.4623     571.7440       2.8621     -41.6943
   2265.5784       6.1640      -0.8420    -999.2500      17.9150       1.5770       1.7330    -999.2500    -999.2500    -999.2500       0.4694     611.4780       2.9230     -41.2950
   2265.7307       6.1640      -0.8510    -999.2500      19.2225       1.5755       1.7315    -999.2500    -999.2500    -999.2500       0.4708     806.1221       2.9200     -37.7342
   2265.8831       6.1640      -0.8600    -999.2500      20.5270       1.5740       1.7300    -999.2500    -999.2500    -999.2500       0.4695    1000.0000       2.9170     -34.1760
   2266.0354       6.1640      -0.8945    -999.2500      20.5605       1.5434       1.6999    -999.2500    -999.2500    -999.2500       0.4648    1000.0000       2.8604     -20.0682
   2266.1880       6.1640      -0.9290    -999.2500      20.5940       1.5130       1.6700    -999.2500    -999.2500    -999.2500       0.4595    1000.0000       2.8040      -5.9690
   2266.3403       6.1640      -0.9535    -999.2500      19.1140       1.4869       1.6159    -999.2500    -999.2500    -999.2500       0.4560    1000.0000       2.7419      -1.6259
   2266.4927       6.1640      -0.9780    -999.2500      17.6370       1.4610       1.5620    -999.2500    -999.2500    -999.2500       0.4523    1000.0000       2.6800       2.7150
   2266.6450       6.1640      -0.9690    -999.2500      16.9703       1.4299       1.5560    -999.2500    -999.2500    -999.2500       0.4463     801.9202       2.6940      -7.1772
   2266.7976       6.1640      -0.9600    -999.2500      16.3050       1.3990       1.5500    -999.2500    -999.2500    -999.2500       0.4417     604.5450       2.7080     -17.0500
   2266.9500       6.1640      -0.9535    -999.2500      16.6140       1.4141       1.5505    -999.2500    -999.2500    -999.2500       0.4438     562.6355       2.7135     -29.4904
   2267.1023       6.1640      -0.9470    -999.2500      16.9220       1.4290       1.5510    -999.2500    -999.2500    -999.2500       0.4465     520.8700       2.7190     -41.9080
   2267.2546       6.1640      -0.9435    -999.2500      16.3896       1.4742       1.5976    -999.2500    -999.2500    -999.2500       0.4444     272.6455       2.7400     -45.4806
   2267.4072       6.1640      -0.9400    -999.2500      15.8590       1.5190       1.6440    -999.2500    -999.2500    -999.2500       0.4420      25.2420       2.7610     -49.0470
   2267.5596       6.1640      -0.9575    -999.2500      16.6683       1.5652       1.6967    -999.2500    -999.2500    -999.2500       0.4438     291.2476       2.7254     -43.2259
   2267.7119       6.1640      -0.9750    -999.2500      17.4750       1.6110       1.7490    -999.2500    -999.2500    -999.2500       0.4467     556.4060       2.6900     -37.4140
   2267.8643       6.1640      -0.9740    -999.2500      18.1691       1.6085       1.7465    -999.2500    -999.2500    -999.2500       0.4495     521.9438       2.6930     -21.0926
