#------------------------------------------------------------------------------
#
#   Created by  : [OpenWorks] Log Export Utility (LEXP)
#   Created on  : 2016-05-24 12:10:47
#   Project     : CANT971
#   User        : R5K
#   Interpreter : PEP
#
#------------------------------------------------------------------------------
~VERSION INFORMATION
VERS. 2.0 : CWLS Log ASCII Standard - version 2.0
WRAP.  NO : One line per depth step
~WELL INFORMATION
#MNEMONIC   .UNIT                                           VALUE :DESCRIPTION
#------------------------------------------------------------------------------
STRT        .M                                           551.3831 :START DEPTH
STOP        .M                                          2723.0830 :STOP DEPTH
STEP        .M                                             0.1524 :STEP
NULL        .                                           -999.2500 :NULL VALUE
COMP        .                                   PEMEX EXPL & PROD :COMPANY
WELL        .                                                1017 :WELL
FLD         .                                           CANTARELL :FIELD
LOC         .                                             UNKNOWN :LOCATION
CNTY        .                                      CD. DEL CARMEN :COUNTY
STAT        .                                            CAMPECHE :STATE
CTRY        .                                              MEXICO :COUNTRY
SRVC        .                                             UNKNOWN :SERVICE COMPANY
DATE        .                                             UNKNOWN :LOG DATE
UWI         .                                          3060000487 :UNIQUE WELL ID
XCOORD      .                                       598533.080000 :SURFACE X
YCOORD      .                                      2152013.220000 :SURFACE Y
LAT         .                                           19.461320 :LATITUDE
LON         .                                          -92.061247 :LONGITUDE
ELEV        .M                                            27.9700 :SURFACE ELEV
ELEV_TYPE   .                                                  KB :ELEV TYPE
~CURVE INFORMATION
#MNEMONIC.UNIT        API CODE       : CURVE DESCRIPTION
#------------------------------------------------------------------------------
DEPTH    .M                          : Measured Depth
CALI     .inches      UNKNOWN        : CALI:registros:rC:NONE:v0 (auto-composite)
DRHO     .g/cm3       UNKNOWN        : DRHO:registros:rC:NONE:v0 (auto-composite)
DT       .us/ft       UNKNOWN        : DT:registros:rC:NONE:v0 (auto-composite)
GR       .API         UNKNOWN        : GR:registros:rC:NONE:v0 (auto-composite)
ILD      .ohm.m       UNKNOWN        : ILD:registros:rC:NONE:v0 (auto-composite)
ILM      .ohm.m       UNKNOWN        : ILM:registros:rC:NONE:v0 (auto-composite)
LLD      .ohm.m       UNKNOWN        : LLD:registros:rC:NONE:v0 (auto-composite)
LLS      .ohm.m       UNKNOWN        : LLS:registros:rC:NONE:v0 (auto-composite)
MSFL     .ohm.m       UNKNOWN        : MSFL:registros:rC:NONE:v0 (auto-composite)
NPHI     .UNKNOWN     UNKNOWN        : NPHI:registros:rC:NONE:v0 (auto-composite)
PEF      .UNKNOWN     UNKNOWN        : PEF:registros:rC:NONE:v0 (auto-composite)
RHOB     .g/cm3       UNKNOWN        : RHOB:registros:rC:NONE:v0 (auto-composite)
SP       .mV          UNKNOWN        : SP:registros:rC:NONE:v0 (auto-composite)
~A     DEPTH         CALI         DRHO           DT           GR          ILD          ILM          LLD          LLS         MSFL         NPHI          PEF         RHOB           SP
# ...
   2509.4182       6.1640      -0.7220    -999.2500      19.3830    -999.2500    -999.2500      29.2300      29.0410    -999.2500       0.1409    1000.0000       2.4430     -68.7190
   2509.5708       6.1640      -0.7220    -999.2500      20.4064    -999.2500    -999.2500      24.7476      25.2763    -999.2500       0.1417     993.4203       2.4435     -68.6745
   2509.7231       6.1640      -0.7220    -999.2500      21.4270    -999.2500    -999.2500      20.2920      21.5220    -999.2500       0.1433     986.8590       2.4440     -68.6300
   2509.8755       6.1640      -0.7205    -999.2500      22.1404    -999.2500    -999.2500      16.9242      18.0259    -999.2500       0.1500     847.6194       2.4505     -67.6895
   2510.0278       6.1640      -0.7190    -999.2500      22.8520    -999.2500    -999.2500      13.5760      14.5390    -999.2500       0.1548     708.7500       2.4570     -66.7500
   2510.1804       6.1640      -0.7190    -999.2500      23.1954    -999.2500    -999.2500      12.4031      13.2198    -999.2500       0.1464     419.9719       2.4665     -65.9039
   2510.3328       6.1640      -0.7190    -999.2500      23.5380    -999.2500    -999.2500      11.2370      11.9040    -999.2500       0.1375     131.9260       2.4760     -65.0600
   2510.4851       6.1640      -0.7190    -999.2500      24.2894    -999.2500    -999.2500      10.2287      10.8302    -999.2500       0.1395      89.3017       2.4640     -63.1912
   2510.6375       6.1640      -0.7190    -999.2500      25.0390    -999.2500    -999.2500       9.2260       9.7590    -999.2500       0.1447      46.7800       2.4520     -61.3270
   2510.7900       6.1640      -0.7225    -999.2500      24.9424    -999.2500    -999.2500       8.1485       8.6372    -999.2500       0.1525      38.5331       2.4039     -58.3161
   2510.9424       6.1640      -0.7260    -999.2500      24.8460    -999.2500    -999.2500       7.0770       7.5180    -999.2500       0.1563      30.3050       2.3560     -55.3120
   2511.0947       6.1640      -0.7120    -999.2500      22.0295    -999.2500    -999.2500       6.7571       7.2032    -999.2500       0.1395      36.7439       2.3895     -53.2633
   2511.2471       6.1640      -0.6980    -999.2500      19.2190    -999.2500    -999.2500       6.4390       6.8890    -999.2500       0.1255      43.1690       2.4230     -51.2190
   2511.3994       6.1640      -0.7050    -999.2500      20.5484    -999.2500    -999.2500       7.7158       8.1793    -999.2500       0.1448      52.8599       2.3674     -51.0704
   2511.5520       6.1640      -0.7120    -999.2500      21.8750    -999.2500    -999.2500       8.9860       9.4670    -999.2500       0.1674      62.5310       2.3120     -50.9220
   2511.7043       6.1640      -0.7190    -999.2500      21.7779    -999.2500    -999.2500       9.6121      10.3228    -999.2500       0.1715      59.8082       2.3180     -50.9240
   2511.8567       6.1640      -0.7260    -999.2500      21.6810    -999.2500    -999.2500      10.2340      11.1770    -999.2500       0.1698      57.0950       2.3240     -50.9260
   2512.0090       6.1640      -0.7285    -999.2500      21.0940    -999.2500    -999.2500      10.4532      11.4017    -999.2500       0.1615      40.6527       2.3601     -50.9395
   2512.1616       6.1640      -0.7310    -999.2500      20.5080    -999.2500    -999.2500      10.6710      11.6260    -999.2500       0.1496      24.2660       2.3960     -50.9530
   2512.3140       6.1660      -0.7280    -999.2500      20.0741    -999.2500    -999.2500      11.6080      12.4332    -999.2500       0.1279      30.9469       2.4376     -51.4064
   2512.4663       6.1680      -0.7250    -999.2500      19.6410    -999.2500    -999.2500      12.5390      13.2390    -999.2500       0.1165      37.6060       2.4790     -51.8590
   2512.6187       6.1935      -0.7565    -999.2500      22.1559    -999.2500    -999.2500      11.8508      12.3138    -999.2500       0.1610      59.0395       2.3483     -51.9606
   2512.7710       6.2190      -0.7880    -999.2500      24.6670    -999.2500    -999.2500      11.1670      11.3900    -999.2500       0.2164      80.4060       2.2180     -52.0620
   2512.9236       6.2140      -0.7950    -999.2500      26.2789    -999.2500    -999.2500       9.2962       9.7035    -999.2500       0.2653      67.1601       2.1329     -51.5271
   2513.0759       6.2090      -0.8020    -999.2500      27.8860    -999.2500    -999.2500       7.4370       8.0220    -999.2500       0.3064      53.9540       2.0480     -50.9930
   2513.2283       6.2010      -0.7780    -999.2500      29.8323    -999.2500    -999.2500       9.0499       9.4921    -999.2500       0.3186      45.3396       2.1151     -50.6803
   2513.3806       6.1930      -0.7540    -999.2500      31.7730    -999.2500    -999.2500      10.6530      10.9580    -999.2500       0.3250      36.7500       2.1820     -50.3680
   2513.5332       6.2060      -0.7440    -999.2500      30.7090    -999.2500    -999.2500      28.2889      26.6401    -999.2500       0.3329      47.6445       2.2090     -49.8137
   2513.6855       6.2190      -0.7340    -999.2500      29.6480    -999.2500    -999.2500      45.8200      42.2790    -999.2500       0.3392      58.5090       2.2360     -49.2600
   2513.8379       6.2150      -0.7295    -999.2500      30.1842    -999.2500    -999.2500      37.1824      34.5804    -999.2500       0.3364     296.5047       2.2460     -48.9403
   2513.9902       6.2110      -0.7250    -999.2500      30.7190    -999.2500    -999.2500      28.5950      26.9020    -999.2500       0.3324     533.8750       2.2560     -48.6210
   2514.1428       6.2130      -0.7260    -999.2500      30.7025    -999.2500    -999.2500      19.3371      18.7228    -999.2500       0.3326     300.9663       2.2525     -47.4420
   2514.2952       6.2150      -0.7270    -999.2500      30.6860    -999.2500    -999.2500      10.1320      10.5640    -999.2500       0.3400      68.6410       2.2490     -46.2660
   2514.4475       6.1935      -0.7400    -999.2500      30.5268    -999.2500    -999.2500       7.7223       7.7076    -999.2500       0.3778      84.6911       2.1944     -46.3972
   2514.5999       6.1720      -0.7530    -999.2500      30.3680    -999.2500    -999.2500       5.3260       4.8580    -999.2500       0.4154     100.7030       2.1400     -46.5280
   2514.7522       6.1720      -0.7530    -999.2500      29.6392    -999.2500    -999.2500       5.3405       4.8700    -999.2500       0.4210     100.2600       2.1405     -50.5676
   2514.9048       6.1720      -0.7530    -999.2500      28.9120    -999.2500    -999.2500       5.3550       4.8820    -999.2500       0.4153      99.8180       2.1410     -54.5980
   2515.0571       6.1720      -0.7520    -999.2500      27.7753    -999.2500    -999.2500       5.9265       5.3545    -999.2500       0.3866      84.1188       2.1505     -57.4505
   2515.2095       6.1720      -0.7510    -999.2500      26.6410    -999.2500    -999.2500       6.4950       5.8260    -999.2500       0.3513      68.4530       2.1600     -60.2970
   2515.3618       6.2020      -0.7445    -999.2500      25.1315    -999.2500    -999.2500       6.6489       6.0187    -999.2500       0.3071     534.6935       2.1955     -57.5718
   2515.5144       6.2320      -0.7380    -999.2500      23.6250    -999.2500    -999.2500       6.8020       6.2110    -999.2500       0.2681    1000.0000       2.2310     -54.8520
   2515.6667       6.2245      -0.7350    -999.2500      24.7996    -999.2500    -999.2500       5.5649       5.1340    -999.2500       0.2637     716.1266       2.2445     -53.0183
   2515.8191       6.2170      -0.7320    -999.2500      25.9720    -999.2500    -999.2500       4.3360       4.0590    -999.2500       0.2648     433.2400       2.2580     -51.1880
   2515.9714       6.1985      -0.7290    -999.2500      27.0404    -999.2500    -999.2500       3.5881       3.2973    -999.2500       0.2580     261.9973       2.2525     -51.7630
