#------------------------------------------------------------------------------
#
#   Created by  : [OpenWorks] Log Export Utility (LEXP)
#   Created on  : 2016-05-24 12:10:47
#   Project     : CANT971
#   User        : R5K
#   Interpreter : PEP
#
#------------------------------------------------------------------------------
~VERSION INFORMATION
VERS. 2.0 : CWLS Log ASCII Standard - version 2.0
WRAP.  NO : One line per depth step
~WELL INFORMATION
#MNEMONIC   .UNIT                                           VALUE :DESCRIPTION
#------------------------------------------------------------------------------
STRT        .M                                           551.3831 :START DEPTH
STOP        .M                                          2723.0830 :STOP DEPTH
STEP        .M                                             0.1524 :STEP
NULL        .                                           -999.2500 :NULL VALUE
COMP        .                                   PEMEX EXPL & PROD :COMPANY
WELL        .                                                1017 :WELL
FLD         .                                           CANTARELL :FIELD
LOC         .                                             UNKNOWN :LOCATION
CNTY        .                                      CD. DEL CARMEN :COUNTY
STAT        .                                            CAMPECHE :STATE
CTRY        .                                              MEXICO :COUNTRY
SRVC        .                                             UNKNOWN :SERVICE COMPANY
DATE        .                                             UNKNOWN :LOG DATE
UWI         .                                          3060000487 :UNIQUE WELL ID
XCOORD      .                                       598533.080000 :SURFACE X
YCOORD      .                                      2152013.220000 :SURFACE Y
LAT         .                                           19.461320 :LATITUDE
LON         .                                          -92.061247 :LONGITUDE
ELEV        .M                                            27.9700 :SURFACE ELEV
ELEV_TYPE   .                                                  KB :ELEV TYPE
~CURVE INFORMATION
#MNEMONIC.UNIT        API CODE       : CURVE DESCRIPTION
#------------------------------------------------------------------------------
DEPTH    .M                          : Measured Depth
CALI     .inches      UNKNOWN        : CALI:registros:rC:NONE:v0 (auto-composite)
DRHO     .g/cm3       UNKNOWN        : DRHO:registros:rC:NONE:v0 (auto-composite)
DT       .us/ft       UNKNOWN        : DT:registros:rC:NONE:v0 (auto-composite)
GR       .API         UNKNOWN        : GR:registros:rC:NONE:v0 (auto-composite)
ILD      .ohm.m       UNKNOWN        : ILD:registros:rC:NONE:v0 (auto-composite)
ILM      .ohm.m       UNKNOWN        : ILM:registros:rC:NONE:v0 (auto-composite)
LLD      .ohm.m       UNKNOWN        : LLD:registros:rC:NONE:v0 (auto-composite)
LLS      .ohm.m       UNKNOWN        : LLS:registros:rC:NONE:v0 (auto-composite)
MSFL     .ohm.m       UNKNOWN        : MSFL:registros:rC:NONE:v0 (auto-composite)
NPHI     .UNKNOWN     UNKNOWN        : NPHI:registros:rC:NONE:v0 (auto-composite)
PEF      .UNKNOWN     UNKNOWN        : PEF:registros:rC:NONE:v0 (auto-composite)
RHOB     .g/cm3       UNKNOWN        : RHOB:registros:rC:NONE:v0 (auto-composite)
SP       .mV          UNKNOWN        : SP:registros:rC:NONE:v0 (auto-composite)
~A     DEPTH         CALI         DRHO           DT           GR          ILD          ILM          LLD          LLS         MSFL         NPHI          PEF         RHOB           SP
# ...
   2549.6519       6.2730      -0.8100    -999.2500      40.0920    -999.2500    -999.2500       4.3200       3.5600       0.1830       0.4114      63.6660       1.9000     -51.8010
   2549.8042       6.2790      -0.8000    -999.2500      37.1522    -999.2500    -999.2500       4.5090       3.6806       0.2111       0.3860      56.2542       1.9270     -51.4391
   2549.9568       6.2850      -0.7900    -999.2500      34.2190    -999.2500    -999.2500       4.6970       3.8010       0.2390       0.3590      48.8590       1.9540     -51.0780
   2550.1091       6.2705      -0.7535    -999.2500      37.7227    -999.2500    -999.2500       4.7547       3.8165       0.2104       0.3226      50.3996       2.0416     -51.4614
   2550.2615       6.2560      -0.7170    -999.2500      41.2190    -999.2500    -999.2500       4.8120       3.8320       0.1820       0.2870      51.9370       2.1290     -51.8440
   2550.4138       6.2315      -0.7170    -999.2500      40.4603    -999.2500    -999.2500       5.0647       4.0682       0.2001       0.2870      71.1485       2.1785     -51.7554
   2550.5664       6.2070      -0.7170    -999.2500      39.7030    -999.2500    -999.2500       5.3160       4.3040       0.2180       0.2879      90.3220       2.2280     -51.6670
   2550.7188       6.2130      -0.7175    -999.2500      39.7520    -999.2500    -999.2500       5.2794       4.2735       0.2787       0.2926     434.9431       2.2280     -51.2641
   2550.8711       6.2190      -0.7180    -999.2500      39.8010    -999.2500    -999.2500       5.2430       4.2430       0.3390       0.2972     778.3750       2.2280     -50.8620
   2551.0234       6.2185      -0.7340    -999.2500      40.4951    -999.2500    -999.2500       4.4922       3.9913       0.5050       0.2911     775.7076       2.2260     -50.8050
   2551.1760       6.2180      -0.7500    -999.2500      41.1880    -999.2500    -999.2500       3.7450       3.7400       0.6700       0.2850     773.0490       2.2240     -50.7480
   2551.3284       6.2055      -0.7500    -999.2500      41.1815    -999.2500    -999.2500       3.7465       3.4768       0.6690       0.2849     685.8014       2.1955     -50.7055
   2551.4807       6.1930      -0.7500    -999.2500      41.1750    -999.2500    -999.2500       3.7480       3.2140       0.6680       0.2850     598.8330       2.1670     -50.6630
   2551.6331       6.1855      -0.7485    -999.2500      40.9623    -999.2500    -999.2500       3.7971       3.2120       0.6254       0.2865     437.3244       2.1560     -50.5034
   2551.7854       6.1780      -0.7470    -999.2500      40.7500    -999.2500    -999.2500       3.8460       3.2100       0.5830       0.2882     276.3120       2.1450     -50.3440
   2551.9380       6.1710      -0.7450    -999.2500      41.3188    -999.2500    -999.2500       3.6945       3.1394       0.4270       0.2942     162.3710       2.1390     -50.5161
   2552.0903       6.1640      -0.7430    -999.2500      41.8860    -999.2500    -999.2500       3.5440       3.0690       0.2720       0.3003      48.7660       2.1330     -50.6880
   2552.2427       6.1775      -0.7445    -999.2500      42.5925    -999.2500    -999.2500       3.6458       3.1081       0.2926       0.3016      49.5596       2.1285     -50.6800
   2552.3950       6.1910      -0.7460    -999.2500      43.2970    -999.2500    -999.2500       3.7470       3.1470       0.3130       0.3027      50.3510       2.1240     -50.6720
   2552.5476       6.1855      -0.7465    -999.2500      43.1838    -999.2500    -999.2500       3.9220       3.3483       0.2558       0.2965      54.0700       2.1320     -50.7030
   2552.7000       6.1800      -0.7470    -999.2500      43.0710    -999.2500    -999.2500       4.0960       3.5490       0.1990       0.2901      57.7790       2.1400     -50.7340
   2552.8523       6.1955      -0.7455    -999.2500      41.2296    -999.2500    -999.2500       4.3201       3.8113       0.2718       0.2788      60.7623       2.1525     -50.4614
   2553.0046       6.2110      -0.7440    -999.2500      39.3930    -999.2500    -999.2500       4.5430       4.0730       0.3440       0.2675      63.7380       2.1650     -50.1890
   2553.1572       6.2000      -0.7470    -999.2500      38.1870    -999.2500    -999.2500       4.4427       4.0034       0.2798       0.2559      94.8601       2.1610     -49.8130
   2553.3096       6.1890      -0.7500    -931.7990      36.9840    -999.2500    -999.2500       4.3430       3.9340       0.2160       0.2445     125.9060       2.1570     -49.4380
   2553.4619       6.1895      -0.7675    -444.1665      37.3069    -999.2500    -999.2500       4.6002       3.9941       0.3981       0.2494     124.7306       2.0949     -49.5631
   2553.6143       6.1900      -0.7850      40.0000      37.6290    -999.2500    -999.2500       4.8560       4.0540       0.5790       0.2545     123.5580       2.0330     -49.6880
   2553.7666       6.1915      -0.8050      40.0000      39.2383    -999.2500    -999.2500       5.1317       4.2212       1.0476       0.2918     105.3370       1.9559     -49.6565
   2553.9192       6.1930      -0.8250      40.0000      40.8440    -999.2500    -999.2500       5.4060       4.3880       1.5130       0.3294      87.1560       1.8790     -49.6250
   2554.0715       6.1434      -0.8590      47.3693      39.5957    -999.2500    -999.2500       5.7669       4.7819       1.4704       0.3962     298.4478       1.8495     -49.7171
   2554.2239       6.0940      -0.8930      54.6880      38.3500    -999.2500    -999.2500       6.1260       5.1750       1.4280       0.4632     509.3020       1.8200     -49.8090
   2554.3762       6.0960      -0.9215      54.3584      35.6414    -999.2500    -999.2500       6.7280       5.8532       1.0853       0.4778     754.8901       1.8385     -49.9516
   2554.5288       6.0980      -0.9500      54.0310      32.9380    -999.2500    -999.2500       7.3270       6.5300       0.7450       0.4920    1000.0000       1.8570     -50.0940
   2554.6812       6.0604      -0.9575      54.1639      32.1283    -999.2500    -999.2500       7.8142       7.1356       0.6035       0.5098     754.4537       1.8881     -50.0880
   2554.8335       6.0230      -0.9650      54.2960      31.3200    -999.2500    -999.2500       8.2990       7.7400       0.4630       0.5276     509.7470       1.9190     -50.0820
   2554.9858       6.0340      -0.9380      55.4171      31.9580    -999.2500    -999.2500       8.5281       8.1333       0.7153       0.5047     409.0698       1.9435     -49.9549
   2555.1384       6.0450      -0.9110      56.5310      32.5950    -999.2500    -999.2500       8.7560       8.5260       0.9660       0.4815     308.7240       1.9680     -49.8280
   2555.2908       6.1136      -0.8675      56.2361      34.4434    -999.2500    -999.2500       8.2824       8.1038       0.9319       0.4094     243.7310       1.9370     -50.2208
   2555.4431       6.1820      -0.8240      55.9430      36.2860    -999.2500    -999.2500       7.8110       7.6830       0.8980       0.3371     178.9440       1.9060     -50.6130
   2555.5955       6.1730      -0.8040      55.0312      37.4558    -999.2500    -999.2500       6.9530       6.8768       0.7215       0.3746     132.8078       1.8940     -51.2580
   2555.7478       6.1640      -0.7840      54.1250      38.6220    -999.2500    -999.2500       6.0990       6.0730       0.5460       0.4125      86.8120       1.8820     -51.9020
   2555.9004       6.1685      -0.7755      54.1385      39.5063    -999.2500    -999.2500       5.8489       5.7185       0.5525       0.4108     104.5339       1.9040     -52.4644
   2556.0527       6.1730      -0.7670      54.1520      40.3880    -999.2500    -999.2500       5.6000       5.3650       0.5590       0.4091     122.2040       1.9260     -53.0260
   2556.2051       6.1775      -0.7665      54.2954      40.7961    -999.2500    -999.2500       5.2322       5.0716       0.6362       0.3899     163.5036       1.9480     -53.9195
