#------------------------------------------------------------------------------
#
#   Created by  : [OpenWorks] Log Export Utility (LEXP)
#   Created on  : 2016-05-24 12:10:47
#   Project     : CANT971
#   User        : R5K
#   Interpreter : PEP
#
#------------------------------------------------------------------------------
~VERSION INFORMATION
VERS. 2.0 : CWLS Log ASCII Standard - version 2.0
WRAP.  NO : One line per depth step
~WELL INFORMATION
#MNEMONIC   .UNIT                                           VALUE :DESCRIPTION
#------------------------------------------------------------------------------
STRT        .M                                           551.3831 :START DEPTH
STOP        .M                                          2723.0830 :STOP DEPTH
STEP        .M                                             0.1524 :STEP
NULL        .                                           -999.2500 :NULL VALUE
COMP        .                                   PEMEX EXPL & PROD :COMPANY
WELL        .                                                1017 :WELL
FLD         .                                           CANTARELL :FIELD
LOC         .                                             UNKNOWN :LOCATION
CNTY        .                                      CD. DEL CARMEN :COUNTY
STAT        .                                            CAMPECHE :STATE
CTRY        .                                              MEXICO :COUNTRY
SRVC        .                                             UNKNOWN :SERVICE COMPANY
DATE        .                                             UNKNOWN :LOG DATE
UWI         .                                          3060000487 :UNIQUE WELL ID
XCOORD      .                                       598533.080000 :SURFACE X
YCOORD      .                                      2152013.220000 :SURFACE Y
LAT         .                                           19.461320 :LATITUDE
LON         .                                          -92.061247 :LONGITUDE
ELEV        .M                                            27.9700 :SURFACE ELEV
ELEV_TYPE   .                                                  KB :ELEV TYPE
~CURVE INFORMATION
#MNEMONIC.UNIT        API CODE       : CURVE DESCRIPTION
#------------------------------------------------------------------------------
DEPTH    .M                          : Measured Depth
CALI     .inches      UNKNOWN        : CALI:registros:rC:NONE:v0 (auto-composite)
DRHO     .g/cm3       UNKNOWN        : DRHO:registros:rC:NONE:v0 (auto-composite)
DT       .us/ft       UNKNOWN        : DT:registros:rC:NONE:v0 (auto-composite)
GR       .API         UNKNOWN        : GR:registros:rC:NONE:v0 (auto-composite)
ILD      .ohm.m       UNKNOWN        : ILD:registros:rC:NONE:v0 (auto-composite)
ILM      .ohm.m       UNKNOWN        : ILM:registros:rC:NONE:v0 (auto-composite)
LLD      .ohm.m       UNKNOWN        : LLD:registros:rC:NONE:v0 (auto-composite)
LLS      .ohm.m       UNKNOWN        : LLS:registros:rC:NONE:v0 (auto-composite)
MSFL     .ohm.m       UNKNOWN        : MSFL:registros:rC:NONE:v0 (auto-composite)
NPHI     .UNKNOWN     UNKNOWN        : NPHI:registros:rC:NONE:v0 (auto-composite)
PEF      .UNKNOWN     UNKNOWN        : PEF:registros:rC:NONE:v0 (auto-composite)
RHOB     .g/cm3       UNKNOWN        : RHOB:registros:rC:NONE:v0 (auto-composite)
SP       .mV          UNKNOWN        : SP:registros:rC:NONE:v0 (auto-composite)
~A     DEPTH         CALI         DRHO           DT           GR          ILD          ILM          LLD          LLS         MSFL         NPHI          PEF         RHOB           SP
# ...
   2093.6711    -999.2500    -999.2500    -999.2500      29.2420       1.3520       1.6010    -999.2500    -999.2500    -999.2500    -999.2500    -999.2500    -999.2500     -81.9940
   2093.8235    -999.2500    -999.2500    -999.2500      28.8910       1.3982       1.5880    -999.2500    -999.2500    -999.2500    -999.2500    -999.2500    -999.2500     -40.5150
   2093.9758    -999.2500    -999.2500    -999.2500      28.5410       1.4440       1.5750    -999.2500    -999.2500    -999.2500    -999.2500    -999.2500    -999.2500       0.9190
   2094.1284    -999.2500    -999.2500    -999.2500      27.9578       1.4169       1.5459    -999.2500    -999.2500    -999.2500    -999.2500    -999.2500    -999.2500      35.0854
   2094.2808    -999.2500    -999.2500    -999.2500      27.3760       1.3900       1.5170    -999.2500    -999.2500    -999.2500    -999.2500    -999.2500    -999.2500      69.2190
   2094.4331    -999.2500    -999.2500    -999.2500      27.0351       1.3443       1.4899    -999.2500    -999.2500    -999.2500    -999.2500    -999.2500    -999.2500      62.2986
   2094.5854    -999.2500    -999.2500    -999.2500      26.6950       1.2990       1.4630    -999.2500    -999.2500    -999.2500    -999.2500    -999.2500    -999.2500      55.3840
   2094.7380    -999.2500    -999.2500    -999.2500      26.8257       1.2754       1.4369    -999.2500    -999.2500    -999.2500    -999.2500    -999.2500    -999.2500      40.4352
   2094.8904    -999.2500    -999.2500    -999.2500      26.9560       1.2520       1.4110    -999.2500    -999.2500    -999.2500    -999.2500    -999.2500    -999.2500      25.4970
   2095.0427    -999.2500    -999.2500    -999.2500      27.8460       1.2314       1.3844    -999.2500    -999.2500    -999.2500    -999.2500    -999.2500    -999.2500      10.1920
   2095.1951    -999.2500    -999.2500    -999.2500      28.7340       1.2110       1.3580    -999.2500    -999.2500    -999.2500    -999.2500    -999.2500    -999.2500      -5.1040
   2095.3474    -999.2500    -999.2500    -999.2500      27.9402       1.1748       1.3159    -999.2500    -999.2500    -999.2500    -999.2500    -999.2500    -999.2500     -19.8604
   2095.5000    -999.2500    -999.2500    -999.2500      27.1480       1.1390       1.2740    -999.2500    -999.2500    -999.2500    -999.2500    -999.2500    -999.2500     -34.6100
   2095.6523    -999.2500    -999.2500    -999.2500      27.3008       1.1440       1.2815    -999.2500    -999.2500    -999.2500    -999.2500    -999.2500    -999.2500     -44.4741
   2095.8047    -999.2500    -999.2500    -999.2500      27.4530       1.1490       1.2890    -999.2500    -999.2500    -999.2500    -999.2500    -999.2500    -999.2500     -54.3350
   2095.9570    -999.2500    -999.2500    -999.2500      26.2479       1.1440       1.3005    -999.2500    -999.2500    -999.2500    -999.2500    -999.2500    -999.2500     -63.1600
   2096.1096    -999.2500    -999.2500    -999.2500      25.0470       1.1390       1.3120    -999.2500    -999.2500    -999.2500    -999.2500    -999.2500    -999.2500     -71.9690
   2096.2620    -999.2500       0.2500    -999.2500      25.7316       1.1526       1.3080    -999.2500    -999.2500    -999.2500      -4.3417    -999.2500    -999.2500     -69.1051
   2096.4143    -434.4220       0.2500    -999.2500      26.4140       1.1660       1.3040    -999.2500    -999.2500    -999.2500      -4.2919    -434.4220    -433.3190     -66.2460
   2096.5667    -213.7020      -0.4255    -999.2500      25.1029       1.1555       1.2970    -999.2500    -999.2500    -999.2500      -1.9264     284.4974    -214.9055     -62.2449
   2096.7192       5.9690      -1.1000    -999.2500      23.7960       1.1450       1.2900    -999.2500    -999.2500    -999.2500       0.4315    1000.0000       2.4700     -58.2500
   2096.8716       6.0667      -1.1295    -999.2500      21.7699       1.1149       1.2644    -999.2500    -999.2500    -999.2500       0.5068     773.6797       2.4525     -58.8199
   2097.0239       6.1640      -1.1590    -999.2500      19.7500       1.0850       1.2390    -999.2500    -999.2500    -999.2500       0.5281     548.4060       2.4350     -59.3890
   2097.1763       6.1640      -1.1450    -999.2500      19.8672       1.1106       1.2425    -999.2500    -999.2500    -999.2500       0.5201     567.0775       2.4681     -63.8094
   2097.3286       6.1640      -1.1310    -999.2500      19.9840       1.1360       1.2460    -999.2500    -999.2500    -999.2500       0.5116     585.6650       2.5010     -68.2240
   2097.4812       6.1640      -1.1285    -999.2500      20.6960       1.1315       1.2670    -999.2500    -999.2500    -999.2500       0.5098     698.9553       2.4865     -77.6330
   2097.6335       6.1640      -1.1260    -999.2500      21.4060       1.1270       1.2880    -999.2500    -999.2500    -999.2500       0.5082     811.7500       2.4720     -87.0310
   2097.7859       6.1640      -1.1295    -999.2500      20.7566       1.1521       1.3025    -999.2500    -999.2500    -999.2500       0.5089     905.9247       2.4650     -89.4388
   2097.9382       6.1640      -1.1330    -999.2500      20.1090       1.1770       1.3170    -999.2500    -999.2500    -999.2500       0.5096     999.6990       2.4580     -91.8440
   2098.0908       6.1640      -1.1275    -999.2500      21.2995       1.1981       1.3285    -999.2500    -999.2500    -999.2500       0.5128     999.8498       2.4705     -83.6542
   2098.2432       6.1640      -1.1220    -999.2500      22.4870       1.2190       1.3400    -999.2500    -999.2500    -999.2500       0.5154    1000.0000       2.4830     -75.4720
   2098.3955       6.1640      -1.1140    -999.2500      22.7243       1.2074       1.3455    -999.2500    -999.2500    -999.2500       0.4971    1000.0000       2.4910     -63.7958
   2098.5479       6.1640      -1.1060    -999.2500      22.9610       1.1960       1.3510    -999.2500    -999.2500    -999.2500       0.4791    1000.0000       2.4990     -52.1290
   2098.7004       6.1640      -1.0970    -999.2500      21.8843       1.1865       1.3320    -999.2500    -999.2500    -999.2500       0.4905    1000.0000       2.5060     -46.3670
   2098.8528       6.1640      -1.0880    -999.2500      20.8100       1.1770       1.3130    -999.2500    -999.2500    -999.2500       0.5025    1000.0000       2.5130     -40.6090
   2099.0051       6.1640      -1.0700    -999.2500      19.6493       1.1524       1.2900    -999.2500    -999.2500    -999.2500       0.5073     951.4830       2.5295     -42.5550
   2099.1575       6.1640      -1.0520    -999.2500      18.4910       1.1280       1.2670    -999.2500    -999.2500    -999.2500       0.5114     903.1480       2.5460     -44.5000
   2099.3098       6.1640      -1.0350    -999.2500      18.0966       1.1059       1.2329    -999.2500    -999.2500    -999.2500       0.5029     461.4141       2.5735     -54.2646
   2099.4624       6.1640      -1.0180    -999.2500      17.7030       1.0840       1.1990    -999.2500    -999.2500    -999.2500       0.4938      21.2810       2.6010     -64.0250
   2099.6147       6.1640      -0.9960    -999.2500      17.7741       1.0820       1.2025    -999.2500    -999.2500    -999.2500       0.4829      21.9857       2.6656     -73.7380
   2099.7671       6.1640      -0.9740    -999.2500      17.8450       1.0800       1.2060    -999.2500    -999.2500    -999.2500       0.4735      22.6880       2.7300     -83.4480
   2099.9194       6.1640      -0.9745    -999.2500      19.1317       1.0705       1.2060    -999.2500    -999.2500    -999.2500       0.5039     512.1697       2.7290     -97.2988
   2100.0720       6.1640      -0.9750    -999.2500      20.4140       1.0610       1.2060    -999.2500    -999.2500    -999.2500       0.5347    1000.0000       2.7280    -111.1250
   2100.2244       6.1640      -0.9885    -999.2500      20.3910       1.0479       1.1985    -999.2500    -999.2500    -999.2500       0.5354     995.6710       2.6954    -111.0279
