#------------------------------------------------------------------------------
#
#   Created by  : [OpenWorks] Log Export Utility (LEXP)
#   Created on  : 2016-05-24 12:10:47
#   Project     : CANT971
#   User        : R5K
#   Interpreter : PEP
#
#------------------------------------------------------------------------------
~VERSION INFORMATION
VERS. 2.0 : CWLS Log ASCII Standard - version 2.0
WRAP.  NO : One line per depth step
~WELL INFORMATION
#MNEMONIC   .UNIT                                           VALUE :DESCRIPTION
#------------------------------------------------------------------------------
STRT        .M                                           551.3831 :START DEPTH
STOP        .M                                          2723.0830 :STOP DEPTH
STEP        .M                                             0.1524 :STEP
NULL        .                                           -999.2500 :NULL VALUE
COMP        .                                   PEMEX EXPL & PROD :COMPANY
WELL        .                                                1017 :WELL
FLD         .                                           CANTARELL :FIELD
LOC         .                                             UNKNOWN :LOCATION
CNTY        .                                      CD. DEL CARMEN :COUNTY
STAT        .                                            CAMPECHE :STATE
CTRY        .                                              MEXICO :COUNTRY
SRVC        .                                             UNKNOWN :SERVICE COMPANY
DATE        .                                             UNKNOWN :LOG DATE
UWI         .                                          3060000487 :UNIQUE WELL ID
XCOORD      .                                       598533.080000 :SURFACE X
YCOORD      .                                      2152013.220000 :SURFACE Y
LAT         .                                           19.461320 :LATITUDE
LON         .                                          -92.061247 :LONGITUDE
ELEV        .M                                            27.9700 :SURFACE ELEV
ELEV_TYPE   .                                                  KB :ELEV TYPE
~CURVE INFORMATION
#MNEMONIC.UNIT        API CODE       : CURVE DESCRIPTION
#------------------------------------------------------------------------------
DEPTH    .M                          : Measured Depth
CALI     .inches      UNKNOWN        : CALI:registros:rC:NONE:v0 (auto-composite)
DRHO     .g/cm3       UNKNOWN        : DRHO:registros:rC:NONE:v0 (auto-composite)
DT       .us/ft       UNKNOWN        : DT:registros:rC:NONE:v0 (auto-composite)
GR       .API         UNKNOWN        : GR:registros:rC:NONE:v0 (auto-composite)
ILD      .ohm.m       UNKNOWN        : ILD:registros:rC:NONE:v0 (auto-composite)
ILM      .ohm.m       UNKNOWN        : ILM:registros:rC:NONE:v0 (auto-composite)
LLD      .ohm.m       UNKNOWN        : LLD:registros:rC:NONE:v0 (auto-composite)
LLS      .ohm.m       UNKNOWN        : LLS:registros:rC:NONE:v0 (auto-composite)
MSFL     .ohm.m       UNKNOWN        : MSFL:registros:rC:NONE:v0 (auto-composite)
NPHI     .UNKNOWN     UNKNOWN        : NPHI:registros:rC:NONE:v0 (auto-composite)
PEF      .UNKNOWN     UNKNOWN        : PEF:registros:rC:NONE:v0 (auto-composite)
RHOB     .g/cm3       UNKNOWN        : RHOB:registros:rC:NONE:v0 (auto-composite)
SP       .mV          UNKNOWN        : SP:registros:rC:NONE:v0 (auto-composite)
~A     DEPTH         CALI         DRHO           DT           GR          ILD          ILM          LLD          LLS         MSFL         NPHI          PEF         RHOB           SP
# ...
   2174.1384       6.1640      -0.7430    -999.2500      19.5080       1.2080       1.3840    -999.2500    -999.2500    -999.2500       0.5367      25.0620       3.0700     -93.2600
   2174.2908       6.1640      -0.7560    -999.2500      18.9171       1.2090       1.3785    -999.2500    -999.2500    -999.2500       0.5421     415.1512       3.0184    -108.4229
   2174.4431       6.1640      -0.7690    -999.2500      18.3280       1.2100       1.3730    -999.2500    -999.2500    -999.2500       0.5476     804.0040       2.9670    -123.5620
   2174.5955       6.1640      -0.7760    -999.2500      17.9484       1.2005       1.3705    -999.2500    -999.2500    -999.2500       0.5412     902.2299       2.9239    -129.9006
   2174.7478       6.1640      -0.7830    -999.2500      17.5700       1.1910       1.3680    -999.2500    -999.2500    -999.2500       0.5311    1000.0000       2.8810    -136.2300
   2174.9004       6.1640      -0.7650    -999.2500      17.8790       1.1805       1.3374    -999.2500    -999.2500    -999.2500       0.5240    1000.0000       2.9492    -138.2123
   2175.0527       6.1640      -0.7470    -999.2500      18.1870       1.1700       1.3070    -999.2500    -999.2500    -999.2500       0.5205    1000.0000       3.0170    -140.1920
   2175.2051       6.1640      -0.7490    -999.2500      19.8378       1.1795       1.2804    -999.2500    -999.2500    -999.2500       0.5223     788.8174       3.0045    -159.9203
   2175.3574       6.1640      -0.7510    -999.2500      21.4840       1.1890       1.2540    -999.2500    -999.2500    -999.2500       0.5254     578.5620       2.9920    -179.6250
   2175.5100       6.1640      -0.7585    -999.2500      21.4444       1.1890       1.2760    -999.2500    -999.2500    -999.2500       0.5257     591.3603       2.9820    -179.5870
   2175.6624       6.1640      -0.7660    -999.2500      21.4050       1.1890       1.2980    -999.2500    -999.2500    -999.2500       0.5230     604.1040       2.9720    -179.5490
   2175.8147       6.1640      -0.7775    -999.2500      20.7917       1.1850       1.3220    -999.2500    -999.2500    -999.2500       0.5155     802.4626       2.9545    -178.9617
   2175.9670       6.1640      -0.7890    -999.2500      20.1800       1.1810       1.3460    -999.2500    -999.2500    -999.2500       0.5090    1000.0000       2.9370    -178.3750
   2176.1196       6.1640      -0.7990    -999.2500      18.4629       1.1418       1.2808    -999.2500    -999.2500    -999.2500       0.5095     522.0803       2.9094    -168.9141
   2176.2720       6.1640      -0.8090    -999.2500      16.7500       1.1030       1.2160    -999.2500    -999.2500    -999.2500       0.5155      46.0780       2.8820    -159.4610
   2176.4243       6.1640      -0.8025    -999.2500      17.0453       1.0513       1.1508    -999.2500    -999.2500    -999.2500       0.5273     289.4969       2.8920    -146.8201
   2176.5767       6.1640      -0.7960    -999.2500      17.3400       1.0000       1.0860    -999.2500    -999.2500    -999.2500       0.5445     531.9690       2.9020    -134.1880
   2176.7290       6.1640      -0.7820    -999.2500      18.3065       0.9543       1.0474    -999.2500    -999.2500    -999.2500       0.5687     273.8701       2.9311    -156.8874
   2176.8816       6.1640      -0.7680    -999.2500      19.2710       0.9090       1.0090    -999.2500    -999.2500    -999.2500       0.5850      16.7420       2.9600    -179.5740
   2177.0339       6.1640      -0.7690    -999.2500      20.2037       0.8804       0.9889    -999.2500    -999.2500    -999.2500       0.5765     197.3401       2.9860    -200.9332
   2177.1863       6.1640      -0.7700    -999.2500      21.1330       0.8520       0.9690    -999.2500    -999.2500    -999.2500       0.5595     377.2810       3.0120    -222.2830
   2177.3386       6.1640      -0.7950    -999.2500      21.6845       0.8374       0.9610    -999.2500    -999.2500    -999.2500       0.5478     663.6323       2.9699    -240.3688
   2177.4912       6.1640      -0.8200    -999.2500      22.2340       0.8230       0.9530    -999.2500    -999.2500    -999.2500       0.5412     948.9780       2.9280    -258.4200
   2177.6436       6.1640      -0.8415    -999.2500      22.1679       0.8175       0.9340    -999.2500    -999.2500    -999.2500       0.5409     974.5323       2.8609    -267.8434
   2177.7959       6.1640      -0.8630    -999.2500      22.1020       0.8120       0.9150    -999.2500    -999.2500    -999.2500       0.5435    1000.0000       2.7940    -277.2500
   2177.9482       6.1640      -0.8430    -999.2500      22.9048       0.8115       0.9150    -999.2500    -999.2500    -999.2500       0.5469     958.4828       2.8245    -274.1849
   2178.1008       6.1640      -0.8230    -999.2500      23.7050       0.8110       0.9150    -999.2500    -999.2500    -999.2500       0.5519     917.1010       2.8550    -271.1250
   2178.2532       6.1640      -0.8025    -999.2500      23.8838       0.8085       0.9170    -999.2500    -999.2500    -999.2500       0.5601     467.1884       2.8906    -272.4385
   2178.4055       6.1640      -0.7820    -999.2500      24.0620       0.8060       0.9190    -999.2500    -999.2500    -999.2500       0.5656      18.6880       2.9260    -273.7500
   2178.5579       6.1640      -0.7745    -999.2500      23.7851       0.8150       0.9310    -999.2500    -999.2500    -999.2500       0.5618      21.1126       2.9541    -266.7265
   2178.7102       6.1640      -0.7670    -999.2500      23.5090       0.8240       0.9430    -999.2500    -999.2500    -999.2500       0.5529      23.5260       2.9820    -259.7130
   2178.8628       6.1610      -0.7490    -999.2500      22.6868       0.8371       0.9545    -999.2500    -999.2500    -999.2500       0.5416     512.8594       3.0030    -253.5195
   2179.0151       6.1580      -0.7310    -999.2500      21.8670       0.8500       0.9660    -999.2500    -999.2500    -999.2500       0.5251    1000.0000       3.0240    -247.3340
   2179.1675       6.1580      -0.7225    -999.2500      22.3206       0.8636       0.9770    -999.2500    -999.2500    -999.2500       0.4994     754.1866       2.9779    -238.1366
   2179.3198       6.1580      -0.7140    -999.2500      22.7730       0.8770       0.9880    -999.2500    -999.2500    -999.2500       0.4788     509.4450       2.9320    -228.9500
   2179.4724       6.1605      -0.6895    -999.2500      24.0667       0.8815       0.9980    -999.2500    -999.2500    -999.2500       0.4787     512.7826       2.9706    -220.2185
   2179.6248       6.1630      -0.6650    -999.2500      25.3570       0.8860       1.0080    -999.2500    -999.2500    -999.2500       0.4922     516.1060       3.0090    -211.4960
   2179.7771       6.1635      -0.6920    -999.2500      25.8822       0.8885       0.9915    -999.2500    -999.2500    -999.2500       0.5159     269.2097       2.9579    -201.8686
   2179.9294       6.1640      -0.7190    -999.2500      26.4060       0.8910       0.9750    -999.2500    -999.2500    -999.2500       0.5385      23.3280       2.9070    -192.2500
   2180.0820       6.1640      -0.7175    -999.2500      24.0947       0.8980       0.9931    -999.2500    -999.2500    -999.2500       0.5484      41.6174       2.9646    -193.6681
   2180.2344       6.1640      -0.7160    -999.2500      21.7890       0.9050       1.0110    -999.2500    -999.2500    -999.2500       0.5516      59.8340       3.0220    -195.0850
   2180.3867       6.1640      -0.7040    -999.2500      21.8290       0.9045       1.0105    -999.2500    -999.2500    -999.2500       0.5522     200.1022       3.0215    -205.5895
   2180.5391       6.1640      -0.6920    -999.2500      21.8690       0.9040       1.0100    -999.2500    -999.2500    -999.2500       0.5493     339.8290       3.0210    -216.0870
   2180.6914       6.1640      -0.6855    -999.2500      22.7164       0.9000       0.9990    -999.2500    -999.2500    -999.2500       0.5409     504.7847       3.0095    -220.9823
