#------------------------------------------------------------------------------
#
#   Created by  : [OpenWorks] Log Export Utility (LEXP)
#   Created on  : 2016-05-24 12:10:47
#   Project     : CANT971
#   User        : R5K
#   Interpreter : PEP
#
#------------------------------------------------------------------------------
~VERSION INFORMATION
VERS. 2.0 : CWLS Log ASCII Standard - version 2.0
WRAP.  NO : One line per depth step
~WELL INFORMATION
#MNEMONIC   .UNIT                                           VALUE :DESCRIPTION
#------------------------------------------------------------------------------
STRT        .M                                           551.3831 :START DEPTH
STOP        .M                                          2723.0830 :STOP DEPTH
STEP        .M                                             0.1524 :STEP
NULL        .                                           -999.2500 :NULL VALUE
COMP        .                                   PEMEX EXPL & PROD :COMPANY
WELL        .                                                1017 :WELL
FLD         .                                           CANTARELL :FIELD
LOC         .                                             UNKNOWN :LOCATION
CNTY        .                                      CD. DEL CARMEN :COUNTY
STAT        .                                            CAMPECHE :STATE
CTRY        .                                              MEXICO :COUNTRY
SRVC        .                                             UNKNOWN :SERVICE COMPANY
DATE        .                                             UNKNOWN :LOG DATE
UWI         .                                          3060000487 :UNIQUE WELL ID
XCOORD      .                                       598533.080000 :SURFACE X
YCOORD      .                                      2152013.220000 :SURFACE Y
LAT         .                                           19.461320 :LATITUDE
LON         .                                          -92.061247 :LONGITUDE
ELEV        .M                                            27.9700 :SURFACE ELEV
ELEV_TYPE   .                                                  KB :ELEV TYPE
~CURVE INFORMATION
#MNEMONIC.UNIT        API CODE       : CURVE DESCRIPTION
#------------------------------------------------------------------------------
DEPTH    .M                          : Measured Depth
CALI     .inches      UNKNOWN        : CALI:registros:rC:NONE:v0 (auto-composite)
DRHO     .g/cm3       UNKNOWN        : DRHO:registros:rC:NONE:v0 (auto-composite)
DT       .us/ft       UNKNOWN        : DT:registros:rC:NONE:v0 (auto-composite)
GR       .API         UNKNOWN        : GR:registros:rC:NONE:v0 (auto-composite)
ILD      .ohm.m       UNKNOWN        : ILD:registros:rC:NONE:v0 (auto-composite)
ILM      .ohm.m       UNKNOWN        : ILM:registros:rC:NONE:v0 (auto-composite)
LLD      .ohm.m       UNKNOWN        : LLD:registros:rC:NONE:v0 (auto-composite)
LLS      .ohm.m       UNKNOWN        : LLS:registros:rC:NONE:v0 (auto-composite)
MSFL     .ohm.m       UNKNOWN        : MSFL:registros:rC:NONE:v0 (auto-composite)
NPHI     .UNKNOWN     UNKNOWN        : NPHI:registros:rC:NONE:v0 (auto-composite)
PEF      .UNKNOWN     UNKNOWN        : PEF:registros:rC:NONE:v0 (auto-composite)
RHOB     .g/cm3       UNKNOWN        : RHOB:registros:rC:NONE:v0 (auto-composite)
SP       .mV          UNKNOWN        : SP:registros:rC:NONE:v0 (auto-composite)
~A     DEPTH         CALI         DRHO           DT           GR          ILD          ILM          LLD          LLS         MSFL         NPHI          PEF         RHOB           SP
# ...
   2133.9048       6.1640      -0.7520    -999.2500      24.9730       1.0090       1.1500    -999.2500    -999.2500    -999.2500       0.5760     524.0160       2.7900     -95.6400
   2134.0571       6.1640      -0.7500    -999.2500      22.9924       0.9879       1.1295    -999.2500    -999.2500    -999.2500       0.5806     540.6796       2.7885     -97.6800
   2134.2095       6.1640      -0.7480    -999.2500      21.0160       0.9670       1.1090    -999.2500    -999.2500    -999.2500       0.5847     557.2810       2.7870     -99.7190
   2134.3618       6.1640      -0.7440    -999.2500      22.5370       0.9509       1.0879    -999.2500    -999.2500    -999.2500       0.5793     302.6043       2.8055    -104.4625
   2134.5144       6.1640      -0.7400    -999.2500      24.0550       0.9350       1.0670    -999.2500    -999.2500    -999.2500       0.5686      48.8440       2.8240    -109.2040
   2134.6667       6.1640      -0.7365    -999.2500      23.2897       0.9159       1.0555    -999.2500    -999.2500    -999.2500       0.5437      97.3423       2.8450    -120.6556
   2134.8191       6.1640      -0.7330    -999.2500      22.5270       0.8970       1.0440    -999.2500    -999.2500    -999.2500       0.5168     145.6720       2.8660    -132.1040
   2134.9714       6.1640      -0.7345    -999.2500      21.8579       0.8734       1.0209    -999.2500    -999.2500    -999.2500       0.4951      86.2365       2.8610    -141.5633
   2135.1240       6.1640      -0.7360    -999.2500      21.1910       0.8500       0.9980    -999.2500    -999.2500    -999.2500       0.4748      27.0000       2.8560    -151.0060
   2135.2764       6.1640      -0.7330    -999.2500      19.5453       0.8324       0.9669    -999.2500    -999.2500    -999.2500       0.4548      27.2669       2.8650    -158.9720
   2135.4287       6.1640      -0.7300    -999.2500      17.9050       0.8150       0.9360    -999.2500    -999.2500    -999.2500       0.4351      27.5330       2.8740    -166.9250
   2135.5811       6.1640      -0.7320    -999.2500      15.4938       0.7974       0.9170    -999.2500    -999.2500    -999.2500       0.4158     170.3143       2.8800    -187.1222
   2135.7334       6.1640      -0.7340    -999.2500      13.0900       0.7800       0.8980    -999.2500    -999.2500    -999.2500       0.4095     312.4250       2.8860    -207.2890
   2135.8860       6.1640      -0.7415    -999.2500      14.9853       0.7870       0.9050    -999.2500    -999.2500    -999.2500       0.4605     656.9995       2.8639    -229.8160
   2136.0383       6.1640      -0.7490    -999.2500      16.8750       0.7940       0.9120    -999.2500    -999.2500    -999.2500       0.5143    1000.0000       2.8420    -252.3120
   2136.1907       6.1640      -0.7625    -999.2500      18.7016       0.8131       0.9436    -999.2500    -999.2500    -999.2500       0.5241     950.8898       2.8435    -251.4364
   2136.3430       6.1640      -0.7760    -999.2500      20.5230       0.8320       0.9750    -999.2500    -999.2500    -999.2500       0.5241     901.9980       2.8450    -250.5620
   2136.4956       6.1640      -0.7835    -999.2500      20.1830       0.8556       0.9730    -999.2500    -999.2500    -999.2500       0.5244     466.0302       2.8716    -242.5665
   2136.6479       6.1640      -0.7910    -999.2500      19.8440       0.8790       0.9710    -999.2500    -999.2500    -999.2500       0.5272      31.9450       2.8980    -234.5800
   2136.8003       6.1640      -0.7955    -999.2500      19.8841       0.8785       0.9710    -999.2500    -999.2500    -999.2500       0.5396      38.7773       2.8975    -215.1508
   2136.9526       6.1640      -0.8000    -999.2500      19.9240       0.8780       0.9710    -999.2500    -999.2500    -999.2500       0.5542      45.5810       2.8970    -195.7410
   2137.1052       6.1640      -0.8130    -999.2500      21.3543       0.8634       0.9765    -999.2500    -999.2500    -999.2500       0.5681     287.6033       2.8704    -183.3961
   2137.2576       6.1640      -0.8260    -999.2500      22.7810       0.8490       0.9820    -999.2500    -999.2500    -999.2500       0.5759     528.6410       2.8440    -171.0620
   2137.4099       6.1640      -0.8420    -999.2500      23.4343       0.8113       0.9459    -999.2500    -999.2500    -999.2500       0.5582     732.9977       2.8210    -169.5614
   2137.5623       6.1640      -0.8580    -999.2500      24.0860       0.7740       0.9100    -999.2500    -999.2500    -999.2500       0.5360     936.5480       2.7980    -168.0620
   2137.7146       6.1640      -0.8780    -999.2500      23.9268       0.7474       0.8689    -999.2500    -999.2500    -999.2500       0.5197     968.3347       2.7699    -169.4604
   2137.8672       6.1640      -0.8980    -999.2500      23.7680       0.7210       0.8280    -999.2500    -999.2500    -999.2500       0.5097    1000.0000       2.7420    -170.8580
   2138.0195       6.1640      -0.9120    -999.2500      22.6059       0.6929       0.8014    -999.2500    -999.2500    -999.2500       0.5200    1000.0000       2.7190    -196.5804
   2138.1719       6.1640      -0.9260    -999.2500      21.4480       0.6650       0.7750    -999.2500    -999.2500    -999.2500       0.5321    1000.0000       2.6960    -222.2900
   2138.3242       6.1640      -0.9120    -999.2500      20.9070       0.6464       0.7544    -999.2500    -999.2500    -999.2500       0.5313    1000.0000       2.7391    -259.7230
   2138.4768       6.1640      -0.8980    -999.2500      20.3680       0.6280       0.7340    -999.2500    -999.2500    -999.2500       0.5236    1000.0000       2.7820    -297.1420
   2138.6292       6.1640      -0.8835    -999.2500      19.0683       0.6787       0.7816    -999.2500    -999.2500    -999.2500       0.4989     972.6434       2.7695    -341.3889
   2138.7815       6.1640      -0.8690    -999.2500      17.7730       0.7290       0.8290    -999.2500    -999.2500    -999.2500       0.4793     945.3810       2.7570    -385.6250
   2138.9338       6.1640      -0.8695    -999.2500      17.7825       0.7842       0.9087    -999.2500    -999.2500    -999.2500       0.4978     551.5402       2.8146    -382.2501
   2139.0864       6.1640      -0.8700    -999.2500      17.7920       0.8390       0.9880    -999.2500    -999.2500    -999.2500       0.5230     159.0060       2.8720    -378.8810
   2139.2388       6.1640      -0.8720    -999.2500      17.9392       0.9986       1.1108    -999.2500    -999.2500    -999.2500       0.5392      87.8348       2.8910    -325.9293
   2139.3911       6.1640      -0.8740    -999.2500      18.0860       1.1570       1.2330    -999.2500    -999.2500    -999.2500       0.5479      16.8910       2.9100    -273.0620
   2139.5435       6.1610      -0.8670    -999.2500      18.4581       1.3191       1.4194    -999.2500    -999.2500    -999.2500       0.5354      20.1371       2.9180    -213.4967
   2139.6958       6.1580      -0.8600    -999.2500      18.8290       1.4800       1.6050    -999.2500    -999.2500    -999.2500       0.5194      23.3680       2.9260    -154.0190
   2139.8484       6.1605      -0.8850    -999.2500      19.8535       1.4785       1.6982    -999.2500    -999.2500    -999.2500       0.5102     463.4148       2.8694     -75.3892
   2140.0007       6.1630      -0.9100    -999.2500      20.8750       1.4770       1.7910    -999.2500    -999.2500    -999.2500       0.4981     901.4650       2.8130       3.1350
   2140.1531       6.1635      -0.9195    -999.2500      19.5707       1.4107       1.6567    -999.2500    -999.2500    -999.2500       0.4675     950.8416       2.7980      72.0000
   2140.3054       6.1640      -0.9290    -999.2500      18.2700       1.3450       1.5230    -999.2500    -999.2500    -999.2500       0.4389    1000.0000       2.7830     140.7810
   2140.4580       6.1640      -0.9560    -999.2500      17.3327       1.2280       1.3697    -999.2500    -999.2500    -999.2500       0.4363    1000.0000       2.7139     140.7695
