#------------------------------------------------------------------------------
#
#   Created by  : [OpenWorks] Log Export Utility (LEXP)
#   Created on  : 2016-05-24 12:10:47
#   Project     : CANT971
#   User        : R5K
#   Interpreter : PEP
#
#------------------------------------------------------------------------------
~VERSION INFORMATION
VERS. 2.0 : CWLS Log ASCII Standard - version 2.0
WRAP.  NO : One line per depth step
~WELL INFORMATION
#MNEMONIC   .UNIT                                           VALUE :DESCRIPTION
#------------------------------------------------------------------------------
STRT        .M                                           551.3831 :START DEPTH
STOP        .M                                          2723.0830 :STOP DEPTH
STEP        .M                                             0.1524 :STEP
NULL        .                                           -999.2500 :NULL VALUE
COMP        .                                   PEMEX EXPL & PROD :COMPANY
WELL        .                                                1017 :WELL
FLD         .                                           CANTARELL :FIELD
LOC         .                                             UNKNOWN :LOCATION
CNTY        .                                      CD. DEL CARMEN :COUNTY
STAT        .                                            CAMPECHE :STATE
CTRY        .                                              MEXICO :COUNTRY
SRVC        .                                             UNKNOWN :SERVICE COMPANY
DATE        .                                             UNKNOWN :LOG DATE
UWI         .                                          3060000487 :UNIQUE WELL ID
XCOORD      .                                       598533.080000 :SURFACE X
YCOORD      .                                      2152013.220000 :SURFACE Y
LAT         .                                           19.461320 :LATITUDE
LON         .                                          -92.061247 :LONGITUDE
ELEV        .M                                            27.9700 :SURFACE ELEV
ELEV_TYPE   .                                                  KB :ELEV TYPE
~CURVE INFORMATION
#MNEMONIC.UNIT        API CODE       : CURVE DESCRIPTION
#------------------------------------------------------------------------------
DEPTH    .M                          : Measured Depth
CALI     .inches      UNKNOWN        : CALI:registros:rC:NONE:v0 (auto-composite)
DRHO     .g/cm3       UNKNOWN        : DRHO:registros:rC:NONE:v0 (auto-composite)
DT       .us/ft       UNKNOWN        : DT:registros:rC:NONE:v0 (auto-composite)
GR       .API         UNKNOWN        : GR:registros:rC:NONE:v0 (auto-composite)
ILD      .ohm.m       UNKNOWN        : ILD:registros:rC:NONE:v0 (auto-composite)
ILM      .ohm.m       UNKNOWN        : ILM:registros:rC:NONE:v0 (auto-composite)
LLD      .ohm.m       UNKNOWN        : LLD:registros:rC:NONE:v0 (auto-composite)
LLS      .ohm.m       UNKNOWN        : LLS:registros:rC:NONE:v0 (auto-composite)
MSFL     .ohm.m       UNKNOWN        : MSFL:registros:rC:NONE:v0 (auto-composite)
NPHI     .UNKNOWN     UNKNOWN        : NPHI:registros:rC:NONE:v0 (auto-composite)
PEF      .UNKNOWN     UNKNOWN        : PEF:registros:rC:NONE:v0 (auto-composite)
RHOB     .g/cm3       UNKNOWN        : RHOB:registros:rC:NONE:v0 (auto-composite)
SP       .mV          UNKNOWN        : SP:registros:rC:NONE:v0 (auto-composite)
~A     DEPTH         CALI         DRHO           DT           GR          ILD          ILM          LLD          LLS         MSFL         NPHI          PEF         RHOB           SP
# ...
   2428.9512       6.3050      -0.7040    -999.2500      37.5880    -999.2500    -999.2500       2.2020       1.4520    -999.2500       0.3676      40.2520       2.2210     -64.4060
   2429.1035       6.3045      -0.7050    -999.2500      36.9423    -999.2500    -999.2500       2.4383       1.5721    -999.2500       0.3717      43.9748       2.2185     -64.1792
   2429.2559       6.3040      -0.7060    -999.2500      36.2980    -999.2500    -999.2500       2.6730       1.6920    -999.2500       0.3797      47.6890       2.2160     -63.9530
   2429.4082       6.2960      -0.7310    -999.2500      35.3380    -999.2500    -999.2500       2.6690       1.6890    -999.2500       0.3934      90.2944       2.1274     -63.9575
   2429.5608       6.2880      -0.7560    -999.2500      34.3800    -999.2500    -999.2500       2.6650       1.6860    -999.2500       0.4085     132.8070       2.0390     -63.9620
   2429.7131       6.2650      -0.7800    -999.2500      33.0792    -999.2500    -999.2500       2.5356       1.5999    -999.2500       0.4209     160.4384       1.9719     -64.1217
   2429.8655       6.2420      -0.8040    -999.2500      31.7810    -999.2500    -999.2500       2.4070       1.5140    -999.2500       0.4262     187.9690       1.9050     -64.2810
   2430.0178       6.2124      -0.8020    -999.2500      31.4412    -999.2500    -999.2500       2.1103       1.4109    -999.2500       0.4202     484.3814       1.9235     -64.2204
   2430.1704       6.1830      -0.8000    -999.2500      31.1020    -999.2500    -999.2500       1.8160       1.3080    -999.2500       0.4104     779.7500       1.9420     -64.1600
   2430.3228       6.1735      -0.7900    -999.2500      31.4608    -999.2500    -999.2500       1.8552       1.2590    -999.2500       0.4041     595.4753       1.9836     -63.7907
   2430.4751       6.1640      -0.7800    -999.2500      31.8190    -999.2500    -999.2500       1.8940       1.2100    -999.2500       0.4051     411.8270       2.0250     -63.4220
   2430.6274       6.1730      -0.7860    -999.2500      32.5586    -999.2500    -999.2500       1.9824       1.2620    -999.2500       0.4174     294.4996       1.9919     -64.5244
   2430.7800       6.1820      -0.7920    -999.2500      33.2970    -999.2500    -999.2500       2.0700       1.3140    -999.2500       0.4358     177.5560       1.9590     -65.6250
   2430.9324       6.1875      -0.8070    -999.2500      33.2805    -999.2500    -999.2500       2.1694       1.5102    -999.2500       0.4552     141.6875       1.9184     -65.2097
   2431.0847       6.1930      -0.8220    -999.2500      33.2640    -999.2500    -999.2500       2.2680       1.7060    -999.2500       0.4660     105.9320       1.8780     -64.7950
   2431.2371       6.1835      -0.8485    -999.2500      31.2620    -999.2500    -999.2500       2.4838       1.6645    -999.2500       0.4583      98.3140       1.8925     -64.6164
   2431.3894       6.1740      -0.8750    -999.2500      29.2660    -999.2500    -999.2500       2.6980       1.6230    -999.2500       0.4407      90.7190       1.9070     -64.4380
   2431.5420       6.2010      -0.8550    -999.2500      31.5909    -999.2500    -999.2500       2.4777       1.5229    -999.2500       0.4215     339.8320       1.9531     -64.6076
   2431.6943       6.2280      -0.8350    -999.2500      33.9090    -999.2500    -999.2500       2.2590       1.4230    -999.2500       0.4063     588.2230       1.9990     -64.7770
   2431.8467       6.2555      -0.7920    -999.2500      35.3235    -999.2500    -999.2500       2.1707       1.3704    -999.2500       0.4007     794.3972       2.0566     -65.4669
   2431.9990       6.2830      -0.7490    -999.2500      36.7340    -999.2500    -999.2500       2.0830       1.3180    -999.2500       0.4033    1000.0000       2.1140     -66.1560
   2432.1516       6.2645      -0.7490    -999.2500      34.8725    -999.2500    -999.2500       2.1648       1.3916    -999.2500       0.4124    1000.0000       2.0910     -66.5472
   2432.3040       6.2460      -0.7490    -999.2500      33.0160    -999.2500    -999.2500       2.2460       1.4650    -999.2500       0.4224    1000.0000       2.0680     -66.9380
   2432.4563       6.2290      -0.7660    -999.2500      33.5241    -999.2500    -999.2500       2.3564       1.5466    -999.2500       0.4276    1000.0000       2.0355     -66.5868
   2432.6086       6.2120      -0.7830    -999.2500      34.0310    -999.2500    -999.2500       2.4660       1.6280    -999.2500       0.4303    1000.0000       2.0030     -66.2360
   2432.7612       6.2055      -0.7910    -999.2500      33.5229    -999.2500    -999.2500       2.5543       1.6716    -999.2500       0.4328     640.7214       1.9825     -65.6543
   2432.9136       6.1990      -0.7990    -999.2500      33.0160    -999.2500    -999.2500       2.6420       1.7150    -999.2500       0.4370     282.3040       1.9620     -65.0740
   2433.0659       6.2040      -0.8085    -999.2500      33.4795    -999.2500    -999.2500       2.6656       1.6955    -999.2500       0.4449     161.8668       1.9415     -64.1690
   2433.2183       6.2090      -0.8180    -999.2500      33.9420    -999.2500    -999.2500       2.6890       1.6760    -999.2500       0.4540      41.7030       1.9210     -63.2660
   2433.3706       6.1905      -0.8145    -999.2500      34.4480    -999.2500    -999.2500       2.5089       1.6129    -999.2500       0.4615      57.8999       1.9520     -63.7775
   2433.5232       6.1720      -0.8110    -999.2500      34.9530    -999.2500    -999.2500       2.3300       1.5500    -999.2500       0.4644      74.0620       1.9830     -64.2880
   2433.6755       6.1680      -0.7875    -999.2500      34.3219    -999.2500    -999.2500       2.1148       1.4544    -999.2500       0.4597      57.0001       2.0717     -64.7695
   2433.8279       6.1640      -0.7640    -999.2500      33.6920    -999.2500    -999.2500       1.9010       1.3590    -999.2500       0.4479      40.0000       2.1600     -65.2500
   2433.9802       6.1640      -0.7640    -999.2500      32.3783    -999.2500    -999.2500       2.0255       1.3620    -999.2500       0.4294      99.8750       2.1585     -64.7495
   2434.1328       6.1640      -0.7640    -999.2500      31.0670    -999.2500    -999.2500       2.1490       1.3650    -999.2500       0.4117     159.5410       2.1570     -64.2500
   2434.2852       6.1640      -0.7670    -999.2500      30.5410    -999.2500    -999.2500       2.1319       1.3970    -999.2500       0.4021     580.4795       2.1400     -64.3441
   2434.4375       6.1640      -0.7700    -999.2500      30.0160    -999.2500    -999.2500       2.1150       1.4290    -999.2500       0.4005    1000.0000       2.1230     -64.4380
   2434.5898       6.1640      -0.7980    -999.2500      32.1432    -999.2500    -999.2500       2.1873       1.4445    -999.2500       0.4069    1000.0000       2.0263     -65.5324
   2434.7424       6.1640      -0.8260    -999.2500      34.2670    -999.2500    -999.2500       2.2590       1.4600    -999.2500       0.4158    1000.0000       1.9300     -66.6250
   2434.8948       6.1640      -0.8375    -999.2500      34.8604    -999.2500    -999.2500       2.4698       1.5927    -999.2500       0.4216    1000.0000       1.9030     -66.1947
   2435.0471       6.1640      -0.8490    -999.2500      35.4520    -999.2500    -999.2500       2.6790       1.7250    -999.2500       0.4234    1000.0000       1.8760     -65.7650
   2435.1995       6.1655      -0.8415    -999.2500      35.8356    -999.2500    -999.2500       2.5314       1.6469    -999.2500       0.4201    1000.0000       1.9141     -64.6787
   2435.3518       6.1670      -0.8340    -999.2500      36.2180    -999.2500    -999.2500       2.3850       1.5690    -999.2500       0.4135    1000.0000       1.9520     -63.5940
   2435.5044       6.1725      -0.8265    -999.2500      36.6721    -999.2500    -999.2500       2.1601       1.4523    -999.2500       0.4058     695.0197       1.9835     -64.1208
