#------------------------------------------------------------------------------
#
#   Created by  : [OpenWorks] Log Export Utility (LEXP)
#   Created on  : 2016-05-24 12:10:47
#   Project     : CANT971
#   User        : R5K
#   Interpreter : PEP
#
#------------------------------------------------------------------------------
~VERSION INFORMATION
VERS. 2.0 : CWLS Log ASCII Standard - version 2.0
WRAP.  NO : One line per depth step
~WELL INFORMATION
#MNEMONIC   .UNIT                                           VALUE :DESCRIPTION
#------------------------------------------------------------------------------
STRT        .M                                           551.3831 :START DEPTH
STOP        .M                                          2723.0830 :STOP DEPTH
STEP        .M                                             0.1524 :STEP
NULL        .                                           -999.2500 :NULL VALUE
COMP        .                                   PEMEX EXPL & PROD :COMPANY
WELL        .                                                1017 :WELL
FLD         .                                           CANTARELL :FIELD
LOC         .                                             UNKNOWN :LOCATION
CNTY        .                                      CD. DEL CARMEN :COUNTY
STAT        .                                            CAMPECHE :STATE
CTRY        .                                              MEXICO :COUNTRY
SRVC        .                                             UNKNOWN :SERVICE COMPANY
DATE        .                                             UNKNOWN :LOG DATE
UWI         .                                          3060000487 :UNIQUE WELL ID
XCOORD      .                                       598533.080000 :SURFACE X
YCOORD      .                                      2152013.220000 :SURFACE Y
LAT         .                                           19.461320 :LATITUDE
LON         .                                          -92.061247 :LONGITUDE
ELEV        .M                                            27.9700 :SURFACE ELEV
ELEV_TYPE   .                                                  KB :ELEV TYPE
~CURVE INFORMATION
#MNEMONIC.UNIT        API CODE       : CURVE DESCRIPTION
#------------------------------------------------------------------------------
DEPTH    .M                          : Measured Depth
CALI     .inches      UNKNOWN        : CALI:registros:rC:NONE:v0 (auto-composite)
DRHO     .g/cm3       UNKNOWN        : DRHO:registros:rC:NONE:v0 (auto-composite)
DT       .us/ft       UNKNOWN        : DT:registros:rC:NONE:v0 (auto-composite)
GR       .API         UNKNOWN        : GR:registros:rC:NONE:v0 (auto-composite)
ILD      .ohm.m       UNKNOWN        : ILD:registros:rC:NONE:v0 (auto-composite)
ILM      .ohm.m       UNKNOWN        : ILM:registros:rC:NONE:v0 (auto-composite)
LLD      .ohm.m       UNKNOWN        : LLD:registros:rC:NONE:v0 (auto-composite)
LLS      .ohm.m       UNKNOWN        : LLS:registros:rC:NONE:v0 (auto-composite)
MSFL     .ohm.m       UNKNOWN        : MSFL:registros:rC:NONE:v0 (auto-composite)
NPHI     .UNKNOWN     UNKNOWN        : NPHI:registros:rC:NONE:v0 (auto-composite)
PEF      .UNKNOWN     UNKNOWN        : PEF:registros:rC:NONE:v0 (auto-composite)
RHOB     .g/cm3       UNKNOWN        : RHOB:registros:rC:NONE:v0 (auto-composite)
SP       .mV          UNKNOWN        : SP:registros:rC:NONE:v0 (auto-composite)
~A     DEPTH         CALI         DRHO           DT           GR          ILD          ILM          LLD          LLS         MSFL         NPHI          PEF         RHOB           SP
# ...
   2341.7783       6.1640      -0.5650    -999.2500      21.5860       1.2530       1.4350    -999.2500    -999.2500    -999.2500       0.5071      27.3250       3.0520    -118.7810
   2341.9307       6.1640      -0.5515    -999.2500      21.8744       1.2796       1.4556    -999.2500    -999.2500    -999.2500       0.4949      24.6390       3.0780     -97.2296
   2342.0830       6.1640      -0.5380    -999.2500      22.1620       1.3060       1.4760    -999.2500    -999.2500    -999.2500       0.4845      21.9610       3.1040     -75.7080
   2342.2356       6.1640      -0.5395    -999.2500      22.8555       1.2980       1.4820    -999.2500    -999.2500    -999.2500       0.4976     511.6789       3.0710     -59.6474
   2342.3879       6.1640      -0.5410    -999.2500      23.5470       1.2900       1.4880    -999.2500    -999.2500    -999.2500       0.5110    1000.0000       3.0380     -43.6070
   2342.5403       6.1640      -0.5340    -999.2500      23.1209       1.2614       1.4504    -999.2500    -999.2500    -999.2500       0.5059     785.1132       3.0275     -33.4268
   2342.6926       6.1640      -0.5270    -999.2500      22.6960       1.2330       1.4130    -999.2500    -999.2500    -999.2500       0.4987     570.8120       3.0170     -23.2580
   2342.8452       6.1640      -0.5250    -999.2500      21.8859       1.1712       1.2891    -999.2500    -999.2500    -999.2500       0.4857     785.6855       2.9769     -27.5246
   2342.9976       6.1640      -0.5230    -999.2500      21.0780       1.1100       1.1660    -999.2500    -999.2500    -999.2500       0.4768    1000.0000       2.9370     -31.7870
   2343.1499       6.1640      -0.5260    -999.2500      22.1028       1.0804       1.1670    -999.2500    -999.2500    -999.2500       0.5202     578.0626       2.9425     -45.3534
   2343.3022       6.1640      -0.5290    -999.2500      23.1250       1.0510       1.1680    -999.2500    -999.2500    -999.2500       0.5623     157.8440       2.9480     -58.9080
   2343.4548       6.1640      -0.5175    -999.2500      24.0246       1.0530       1.1755    -999.2500    -999.2500    -999.2500       0.5404     202.7481       2.9741    -103.2516
   2343.6072       6.1640      -0.5060    -999.2500      24.9220       1.0550       1.1830    -999.2500    -999.2500    -999.2500       0.5149     247.4750       3.0000    -147.5620
   2343.7595       6.1640      -0.5040    -999.2500      24.9080       1.0751       1.2096    -999.2500    -999.2500    -999.2500       0.5131     624.4582       2.9960    -147.3649
   2343.9119       6.1640      -0.5020    -999.2500      24.8940       1.0950       1.2360    -999.2500    -999.2500    -999.2500       0.5146    1000.0000       2.9920    -147.1680
   2344.0642       6.1640      -0.5010    -999.2500      24.4330       1.1291       1.2686    -999.2500    -999.2500    -999.2500       0.5272    1000.0000       2.9925    -140.7718
   2344.2168       6.1640      -0.5000    -999.2500      23.9730       1.1630       1.3010    -999.2500    -999.2500    -999.2500       0.5417    1000.0000       2.9930    -134.3890
   2344.3691       6.1640      -0.4955    -999.2500      22.5241       1.1916       1.3166    -999.2500    -999.2500    -999.2500       0.5667    1000.0000       3.0226    -119.1169
   2344.5215       6.1640      -0.4910    -999.2500      21.0780       1.2200       1.3320    -999.2500    -999.2500    -999.2500       0.5902    1000.0000       3.0520    -103.8750
   2344.6738       6.1640      -0.4650    -999.2500      21.4503       1.2200       1.3255    -999.2500    -999.2500    -999.2500       0.5877     765.4164       3.1407     -87.8372
   2344.8264       6.1640      -0.4390    -999.2500      21.8220       1.2200       1.3190    -999.2500    -999.2500    -999.2500       0.5814     531.6410       3.2290     -71.8290
   2344.9788       6.1640      -0.4445    -999.2500      22.8988       1.2054       1.3150    -999.2500    -999.2500    -999.2500       0.5615     542.5106       3.2150     -60.8190
   2345.1311       6.1640      -0.4500    -999.2500      23.9720       1.1910       1.3110    -999.2500    -999.2500    -999.2500       0.5424     553.3440       3.2010     -49.8280
   2345.2834       6.1640      -0.4510    -999.2500      25.2626       1.1820       1.3020    -999.2500    -999.2500    -999.2500       0.5457     307.1928       3.1820     -51.2732
   2345.4360       6.1640      -0.4520    -999.2500      26.5490       1.1730       1.2930    -999.2500    -999.2500    -999.2500       0.5519      61.8280       3.1630     -52.7160
   2345.5884       6.1640      -0.4555    -999.2500      27.8154       1.1645       1.2830    -999.2500    -999.2500    -999.2500       0.5648     223.4758       3.1480     -56.9336
   2345.7407       6.1640      -0.4590    -999.2500      29.0780       1.1560       1.2730    -999.2500    -999.2500    -999.2500       0.5751     384.6270       3.1330     -61.1450
   2345.8931       6.1640      -0.4790    -999.2500      27.5287       1.1374       1.2765    -999.2500    -999.2500    -999.2500       0.5532     692.7672       3.0524     -76.1921
   2346.0454       6.1640      -0.4990    -999.2500      25.9840       1.1190       1.2800    -999.2500    -999.2500    -999.2500       0.5308    1000.0000       2.9720     -91.2190
   2346.1980       6.1640      -0.4990    -999.2500      26.5278       1.1145       1.2665    -999.2500    -999.2500    -999.2500       0.5357    1000.0000       2.9725     -90.9543
   2346.3503       6.1640      -0.4990    -999.2500      27.0700       1.1100       1.2530    -999.2500    -999.2500    -999.2500       0.5426    1000.0000       2.9730     -90.6900
   2346.5027       6.1640      -0.4980    -999.2500      27.5511       1.1025       1.2349    -999.2500    -999.2500    -999.2500       0.5405    1000.0000       2.9775     -86.5928
   2346.6550       6.1640      -0.4970    -999.2500      28.0310       1.0950       1.2170    -999.2500    -999.2500    -999.2500       0.5378    1000.0000       2.9820     -82.5000
   2346.8076       6.1640      -0.4935    -999.2500      27.7582       1.0935       1.2180    -999.2500    -999.2500    -999.2500       0.5387    1000.0000       3.0025     -86.6395
   2346.9600       6.1640      -0.4900    -999.2500      27.4860       1.0920       1.2190    -999.2500    -999.2500    -999.2500       0.5400    1000.0000       3.0230     -90.7750
   2347.1123       6.1640      -0.4895    -999.2500      26.4067       1.1025       1.2230    -999.2500    -999.2500    -999.2500       0.5407    1000.0000       3.0345     -99.0315
   2347.2646       6.1640      -0.4890    -999.2500      25.3300       1.1130       1.2270    -999.2500    -999.2500    -999.2500       0.5419    1000.0000       3.0460    -107.2810
   2347.4172       6.1640      -0.4940    -999.2500      25.1493       1.1100       1.2245    -999.2500    -999.2500    -999.2500       0.5470     813.7344       3.0280    -104.9822
   2347.5696       6.1640      -0.4990    -999.2500      24.9690       1.1070       1.2220    -999.2500    -999.2500    -999.2500       0.5525     628.1980       3.0100    -102.6850
   2347.7219       6.1640      -0.4945    -999.2500      25.6357       1.0980       1.2115    -999.2500    -999.2500    -999.2500       0.5577     339.8762       3.0340     -98.6818
   2347.8743       6.1640      -0.4900    -999.2500      26.3010       1.0890       1.2010    -999.2500    -999.2500    -999.2500       0.5595      52.6480       3.0580     -94.6810
   2348.0266       6.1640      -0.4745    -999.2500      27.2139       1.0594       1.1834    -999.2500    -999.2500    -999.2500       0.5311      63.8160       3.1251     -93.1669
   2348.1792       6.1640      -0.4590    -999.2500      28.1250       1.0300       1.1660    -999.2500    -999.2500    -999.2500       0.5033      74.9430       3.1920     -91.6560
   2348.3315       6.1640      -0.4640    -999.2500      27.1826       1.0149       1.1349    -999.2500    -999.2500    -999.2500       0.5096    1062.7211       3.2165     -97.9907
