#------------------------------------------------------------------------------
#
#   Created by  : [OpenWorks] Log Export Utility (LEXP)
#   Created on  : 2016-05-24 12:10:47
#   Project     : CANT971
#   User        : R5K
#   Interpreter : PEP
#
#------------------------------------------------------------------------------
~VERSION INFORMATION
VERS. 2.0 : CWLS Log ASCII Standard - version 2.0
WRAP.  NO : One line per depth step
~WELL INFORMATION
#MNEMONIC   .UNIT                                           VALUE :DESCRIPTION
#------------------------------------------------------------------------------
STRT        .M                                           551.3831 :START DEPTH
STOP        .M                                          2723.0830 :STOP DEPTH
STEP        .M                                             0.1524 :STEP
NULL        .                                           -999.2500 :NULL VALUE
COMP        .                                   PEMEX EXPL & PROD :COMPANY
WELL        .                                                1017 :WELL
FLD         .                                           CANTARELL :FIELD
LOC         .                                             UNKNOWN :LOCATION
CNTY        .                                      CD. DEL CARMEN :COUNTY
STAT        .                                            CAMPECHE :STATE
CTRY        .                                              MEXICO :COUNTRY
SRVC        .                                             UNKNOWN :SERVICE COMPANY
DATE        .                                             UNKNOWN :LOG DATE
UWI         .                                          3060000487 :UNIQUE WELL ID
XCOORD      .                                       598533.080000 :SURFACE X
YCOORD      .                                      2152013.220000 :SURFACE Y
LAT         .                                           19.461320 :LATITUDE
LON         .                                          -92.061247 :LONGITUDE
ELEV        .M                                            27.9700 :SURFACE ELEV
ELEV_TYPE   .                                                  KB :ELEV TYPE
~CURVE INFORMATION
#MNEMONIC.UNIT        API CODE       : CURVE DESCRIPTION
#------------------------------------------------------------------------------
DEPTH    .M                          : Measured Depth
CALI     .inches      UNKNOWN        : CALI:registros:rC:NONE:v0 (auto-composite)
DRHO     .g/cm3       UNKNOWN        : DRHO:registros:rC:NONE:v0 (auto-composite)
DT       .us/ft       UNKNOWN        : DT:registros:rC:NONE:v0 (auto-composite)
GR       .API         UNKNOWN        : GR:registros:rC:NONE:v0 (auto-composite)
ILD      .ohm.m       UNKNOWN        : ILD:registros:rC:NONE:v0 (auto-composite)
ILM      .ohm.m       UNKNOWN        : ILM:registros:rC:NONE:v0 (auto-composite)
LLD      .ohm.m       UNKNOWN        : LLD:registros:rC:NONE:v0 (auto-composite)
LLS      .ohm.m       UNKNOWN        : LLS:registros:rC:NONE:v0 (auto-composite)
MSFL     .ohm.m       UNKNOWN        : MSFL:registros:rC:NONE:v0 (auto-composite)
NPHI     .UNKNOWN     UNKNOWN        : NPHI:registros:rC:NONE:v0 (auto-composite)
PEF      .UNKNOWN     UNKNOWN        : PEF:registros:rC:NONE:v0 (auto-composite)
RHOB     .g/cm3       UNKNOWN        : RHOB:registros:rC:NONE:v0 (auto-composite)
SP       .mV          UNKNOWN        : SP:registros:rC:NONE:v0 (auto-composite)
~A     DEPTH         CALI         DRHO           DT           GR          ILD          ILM          LLD          LLS         MSFL         NPHI          PEF         RHOB           SP
# ...
   2382.0120       6.1640      -1.1390    -999.2500      23.5810       0.9490       1.0740       1.2920       0.1490    -999.2500       0.5098     330.5090       2.5210    -357.0000
   2382.1643       6.1640      -1.1285    -999.2500      22.8601       0.9987       1.1187       1.3236       0.1495    -999.2500       0.5014     582.6148       2.5781    -354.5100
   2382.3167       6.1640      -1.1180    -999.2500      22.1410       1.0480       1.1630       1.3550       0.1500    -999.2500       0.5033     834.1110       2.6350    -352.0220
   2382.4692       6.1640      -1.1230    -999.2500      23.3924       1.0756       1.1901       1.3364       0.1500    -999.2500       0.5364     917.1508       2.6150    -262.5333
   2382.6216       6.1640      -1.1280    -999.2500      24.6410       1.1030       1.2170       1.3180       0.1500    -999.2500       0.5707    1000.0000       2.5950    -173.2500
   2382.7739       6.1640      -1.1225    -999.2500      24.6150       1.1457       1.2426       1.3205       0.1495    -999.2500       0.5780    1000.0000       2.6155    -173.4282
   2382.9263       6.1640      -1.1170    -999.2500      24.5890       1.1880       1.2680       1.3230       0.1490    -999.2500       0.5749    1000.0000       2.6360    -173.6060
   2383.0786       6.1640      -1.1245    -999.2500      24.1886       1.2181       1.2986       1.3612       0.1490    -999.2500       0.5645    1000.0000       2.6480    -176.3683
   2383.2312       6.1640      -1.1320    -999.2500      23.7890       1.2480       1.3290       1.3990       0.1490    -999.2500       0.5536    1000.0000       2.6600    -179.1250
   2383.3835       6.1640      -1.1625    -999.2500      24.8280       1.2736       1.3471       1.3388       0.1500    -999.2500       0.5485    1000.0000       2.6330    -173.1117
   2383.5359       6.1640      -1.1930    -999.2500      25.8650       1.2990       1.3650       1.2790       0.1510    -999.2500       0.5474    1000.0000       2.6060    -167.1100
   2383.6882       6.1640      -1.2250    -999.2500      26.1227       1.3166       1.3715       1.2865       0.1505    -999.2500       0.5532    1000.0000       2.5294    -140.0027
   2383.8408       6.1640      -1.2570    -999.2500      26.3800       1.3340       1.3780       1.2940       0.1500    -999.2500       0.5588    1000.0000       2.4530    -112.9440
   2383.9932       6.1640      -1.2440    -999.2500      26.4090       1.3270       1.4011       1.2895       0.1495    -999.2500       0.5574    1000.0000       2.4530    -102.8386
   2384.1455       6.1640      -1.2310    -999.2500      26.4380       1.3200       1.4240       1.2850       0.1490    -999.2500       0.5538    1000.0000       2.4530     -92.7500
   2384.2979       6.1640      -1.2230    -999.2500      25.7329       1.2823       1.4135       1.2920       0.1490    -999.2500       0.5503    1000.0000       2.4535     -96.3233
   2384.4504       6.1640      -1.2150    -999.2500      25.0300       1.2450       1.4030       1.2990       0.1490    -999.2500       0.5437    1000.0000       2.4540     -99.8910
   2384.6028       6.1640      -1.2115    -999.2500      24.4076       1.1832       1.3468       1.3311       0.1490    -999.2500       0.5274    1000.0000       2.4630    -101.7293
   2384.7551       6.1640      -1.2080    -999.2500      23.7870       1.1220       1.2910       1.3630       0.1490    -999.2500       0.5091    1000.0000       2.4720    -103.5650
   2384.9075       6.1640      -1.1845    -999.2500      23.3303       1.0828       1.2278       1.4147       0.1495    -999.2500       0.4940     642.5228       2.5241    -122.7724
   2385.0598       6.1640      -1.1610    -999.2500      22.8750       1.0440       1.1650       1.4660       0.1500    -999.2500       0.4854     286.0780       2.5760    -141.9550
   2385.2124       6.1640      -1.1620    -999.2500      23.0708       1.0797       1.1810       1.4193       0.1495    -999.2500       0.4938     411.5149       2.5715    -156.5910
   2385.3647       6.1640      -1.1630    -999.2500      23.2660       1.1150       1.1970       1.3730       0.1490    -999.2500       0.5049     536.6050       2.5670    -171.2100
   2385.5171       6.1640      -1.1770    -999.2500      22.5971       1.1587       1.2617       1.3524       0.1490    -999.2500       0.5077     550.2896       2.5214    -187.8011
   2385.6694       6.1640      -1.1910    -999.2500      21.9300       1.2020       1.3260       1.3320       0.1490    -999.2500       0.5090     563.9380       2.4760    -204.3750
   2385.8220       6.1640      -1.1885    -999.2500      20.7801       1.2668       1.3902       1.3697       0.1490    -999.2500       0.5139     544.3849       2.4870    -198.4848
   2385.9744       6.1640      -1.1860    -999.2500      19.6330       1.3310       1.4540       1.4070       0.1490    -999.2500       0.5185     524.8810       2.4980    -192.6000
   2386.1267       6.1725      -1.1730    -999.2500      20.7869       1.3817       1.4911       1.3804       0.1490    -999.2500       0.5189     428.5610       2.5210    -163.1684
   2386.2791       6.1810      -1.1600    -999.2500      21.9380       1.4320       1.5280       1.3540       0.1490    -999.2500       0.5185     332.6250       2.5440    -133.7600
   2386.4314       6.1940      -1.1510    -999.2500      22.7980       1.4410       1.5390       1.3635       0.1490    -999.2500       0.5198     410.2462       2.5265     -99.5973
   2386.5840       6.2070      -1.1420    -999.2500      23.6560       1.4500       1.5500       1.3730       0.1490    -999.2500       0.5234     487.5680       2.5090     -65.5120
   2386.7363       6.1855      -1.1345    -999.2500      23.4913       1.4354       1.5244       1.3660       0.1490    -999.2500       0.5326     744.2636       2.4920     -31.8075
   2386.8887       6.1640      -1.1270    -999.2500      23.3270       1.4210       1.4990       1.3590       0.1490    -999.2500       0.5404    1000.0000       2.4750       1.8250
   2387.0410       6.1640      -1.1305    -999.2500      22.4751       1.3828       1.4458       1.3846       0.1495    -999.2500       0.5386     603.1745       2.4449      -5.6821
   2387.1936       6.1640      -1.1340    -999.2500      21.6250       1.3450       1.3930       1.4100       0.1500    -999.2500       0.5361     207.7810       2.4150     -13.1740
   2387.3459       6.1640      -1.1245    -999.2500      20.5225       1.3224       1.3649       1.3362       0.1500    -999.2500       0.5414     256.2074       2.4736     -30.9287
   2387.4983       6.1640      -1.1150    -999.2500      19.4220       1.3000       1.3370       1.2630       0.1500    -999.2500       0.5454     304.4650       2.5320     -48.6500
   2387.6506       6.1640      -1.1160    -999.2500      19.4350       1.2834       1.3375       1.2650       0.1495    -999.2500       0.5377     652.8174       2.5300     -68.5886
   2387.8032       6.1640      -1.1170    -999.2500      19.4480       1.2670       1.3380       1.2670       0.1490    -999.2500       0.5274    1000.0000       2.5280     -88.4920
   2387.9556       6.1660      -1.1290    -999.2500      19.7244       1.2539       1.3475       1.3127       0.1490    -999.2500       0.5205    1000.0000       2.4774    -102.6481
   2388.1079       6.1680      -1.1410    -999.2500      20.0000       1.2410       1.3570       1.3580       0.1490    -999.2500       0.5162    1000.0000       2.4270    -116.7810
   2388.2603       6.1660      -1.1250    -999.2500      21.6195       1.2752       1.3946       1.3786       0.1490    -999.2500       0.5163     769.7672       2.4360    -125.1778
   2388.4126       6.1640      -1.1090    -999.2500      23.2340       1.3090       1.4320       1.3990       0.1490    -999.2500       0.5210     540.2500       2.4450    -133.5620
   2388.5652       6.1680      -1.0930    -999.2500      23.2150       1.3391       1.4661       1.3905       0.1495    -999.2500       0.5347     277.5589       2.4710    -133.0446
