#------------------------------------------------------------------------------
#
#   Created by  : [OpenWorks] Log Export Utility (LEXP)
#   Created on  : 2016-05-24 12:10:47
#   Project     : CANT971
#   User        : R5K
#   Interpreter : PEP
#
#------------------------------------------------------------------------------
~VERSION INFORMATION
VERS. 2.0 : CWLS Log ASCII Standard - version 2.0
WRAP.  NO : One line per depth step
~WELL INFORMATION
#MNEMONIC   .UNIT                                           VALUE :DESCRIPTION
#------------------------------------------------------------------------------
STRT        .M                                           551.3831 :START DEPTH
STOP        .M                                          2723.0830 :STOP DEPTH
STEP        .M                                             0.1524 :STEP
NULL        .                                           -999.2500 :NULL VALUE
COMP        .                                   PEMEX EXPL & PROD :COMPANY
WELL        .                                                1017 :WELL
FLD         .                                           CANTARELL :FIELD
LOC         .                                             UNKNOWN :LOCATION
CNTY        .                                      CD. DEL CARMEN :COUNTY
STAT        .                                            CAMPECHE :STATE
CTRY        .                                              MEXICO :COUNTRY
SRVC        .                                             UNKNOWN :SERVICE COMPANY
DATE        .                                             UNKNOWN :LOG DATE
UWI         .                                          3060000487 :UNIQUE WELL ID
XCOORD      .                                       598533.080000 :SURFACE X
YCOORD      .                                      2152013.220000 :SURFACE Y
LAT         .                                           19.461320 :LATITUDE
LON         .                                          -92.061247 :LONGITUDE
ELEV        .M                                            27.9700 :SURFACE ELEV
ELEV_TYPE   .                                                  KB :ELEV TYPE
~CURVE INFORMATION
#MNEMONIC.UNIT        API CODE       : CURVE DESCRIPTION
#------------------------------------------------------------------------------
DEPTH    .M                          : Measured Depth
CALI     .inches      UNKNOWN        : CALI:registros:rC:NONE:v0 (auto-composite)
DRHO     .g/cm3       UNKNOWN        : DRHO:registros:rC:NONE:v0 (auto-composite)
DT       .us/ft       UNKNOWN        : DT:registros:rC:NONE:v0 (auto-composite)
GR       .API         UNKNOWN        : GR:registros:rC:NONE:v0 (auto-composite)
ILD      .ohm.m       UNKNOWN        : ILD:registros:rC:NONE:v0 (auto-composite)
ILM      .ohm.m       UNKNOWN        : ILM:registros:rC:NONE:v0 (auto-composite)
LLD      .ohm.m       UNKNOWN        : LLD:registros:rC:NONE:v0 (auto-composite)
LLS      .ohm.m       UNKNOWN        : LLS:registros:rC:NONE:v0 (auto-composite)
MSFL     .ohm.m       UNKNOWN        : MSFL:registros:rC:NONE:v0 (auto-composite)
NPHI     .UNKNOWN     UNKNOWN        : NPHI:registros:rC:NONE:v0 (auto-composite)
PEF      .UNKNOWN     UNKNOWN        : PEF:registros:rC:NONE:v0 (auto-composite)
RHOB     .g/cm3       UNKNOWN        : RHOB:registros:rC:NONE:v0 (auto-composite)
SP       .mV          UNKNOWN        : SP:registros:rC:NONE:v0 (auto-composite)
~A     DEPTH         CALI         DRHO           DT           GR          ILD          ILM          LLD          LLS         MSFL         NPHI          PEF         RHOB           SP
# ...
   2221.0776       6.1640      -1.0820    -999.2500      10.3540       1.7900       1.9590    -999.2500    -999.2500    -999.2500       0.4343      28.1480       2.6130      98.9410
   2221.2300       6.1640      -1.0750    -999.2500       9.4666       1.7554       1.9595    -999.2500    -999.2500    -999.2500       0.4666     338.6052       2.6546      65.0199
   2221.3823       6.1640      -1.0680    -999.2500       8.5820       1.7210       1.9600    -999.2500    -999.2500    -999.2500       0.5057     648.1150       2.6960      31.1480
   2221.5347       6.1640      -1.0710    -999.2500       8.5885       1.7260       1.9665    -999.2500    -999.2500    -999.2500       0.5172     824.3151       2.6174      31.2776
   2221.6870       6.1640      -1.0740    -999.2500       8.5950       1.7310       1.9730    -999.2500    -999.2500    -999.2500       0.5050    1000.0000       2.5390      31.4070
   2221.8396       6.1640      -1.0895    -999.2500       9.2790       1.7772       2.0166    -999.2500    -999.2500    -999.2500       0.4719    1000.0000       2.5390      32.6112
   2221.9919       6.1640      -1.1050    -999.2500       9.9610       1.8230       2.0600    -999.2500    -999.2500    -999.2500       0.4392    1000.0000       2.5390      33.8140
   2222.1443       6.1640      -1.1050    -999.2500       9.9435       1.9219       2.1788    -999.2500    -999.2500    -999.2500       0.4288     993.3919       2.5550      37.4384
   2222.2966       6.1640      -1.1050    -999.2500       9.9260       2.0200       2.2970    -999.2500    -999.2500    -999.2500       0.4316     986.8120       2.5710      41.0590
   2222.4492       6.1640      -1.0965    -999.2500       9.3002       2.1506       2.4570    -999.2500    -999.2500    -999.2500       0.4397     752.7254       2.6246      46.2585
   2222.6016       6.1640      -1.0880    -999.2500       8.6760       2.2800       2.6160    -999.2500    -999.2500    -999.2500       0.4462     519.6090       2.6780      51.4530
   2222.7539       6.1640      -1.1080    -999.2500       8.6545       2.3870       2.7363    -999.2500    -999.2500    -999.2500       0.4440     534.1402       2.6259      67.4626
   2222.9062       6.1640      -1.1280    -999.2500       8.6330       2.4930       2.8560    -999.2500    -999.2500    -999.2500       0.4387     548.6130       2.5740      83.4590
   2223.0588       6.1640      -1.1360    -999.2500       8.8247       2.4162       2.8089    -999.2500    -999.2500    -999.2500       0.4354     644.3679       2.5545     102.9298
   2223.2112       6.1640      -1.1440    -999.2500       9.0160       2.3400       2.7620    -999.2500    -999.2500    -999.2500       0.4308     739.7500       2.5350     122.3870
   2223.3635       6.1640      -1.1475    -999.2500       9.7078       2.2140       2.5605    -999.2500    -999.2500    -999.2500       0.4215     645.1340       2.5350     134.1659
   2223.5159       6.1640      -1.1510    -999.2500      10.3980       2.0890       2.3600    -999.2500    -999.2500    -999.2500       0.4107     550.8750       2.5350     145.9380
   2223.6682       6.1640      -1.1510    -999.2500      10.3079       1.9705       2.1309    -999.2500    -999.2500    -999.2500       0.4015     708.0674       2.5370     137.8833
   2223.8208       6.1640      -1.1510    -999.2500      10.2180       1.8530       1.9030    -999.2500    -999.2500    -999.2500       0.3900     864.6870       2.5390     129.8450
   2223.9731       6.1640      -1.1320    -999.2500      10.1303       1.7601       1.9662    -999.2500    -999.2500    -999.2500       0.3722     932.4628       2.6417      63.2285
   2224.1255       6.1640      -1.1130    -999.2500      10.0430       1.6680       2.0290    -999.2500    -999.2500    -999.2500       0.3616    1000.0000       2.7440      -3.2600
   2224.2778       6.1640      -1.1140    -999.2500      11.0277       1.6946       2.0270    -999.2500    -999.2500    -999.2500       0.3720    1000.0000       2.7440      -2.9647
   2224.4304       6.1640      -1.1150    -999.2500      12.0090       1.7210       2.0250    -999.2500    -999.2500    -999.2500       0.3960    1000.0000       2.7440      -2.6700
   2224.5828       6.1640      -1.1305    -999.2500      12.3861       1.7300       1.9954    -999.2500    -999.2500    -999.2500       0.4270    1000.0000       2.7390       1.9689
   2224.7351       6.1640      -1.1460    -999.2500      12.7620       1.7390       1.9660    -999.2500    -999.2500    -999.2500       0.4504    1000.0000       2.7340       6.6000
   2224.8875       6.1640      -1.1440    -999.2500      12.8516       1.7159       1.9685    -999.2500    -999.2500    -999.2500       0.4510    1000.0000       2.7445      20.7169
   2225.0400       6.1640      -1.1420    -999.2500      12.9410       1.6930       1.9710    -999.2500    -999.2500    -999.2500       0.4424    1000.0000       2.7550      34.8120
   2225.1924       6.1640      -1.1540    -999.2500      12.1728       1.6794       1.9755    -999.2500    -999.2500    -999.2500       0.4375    1000.0000       2.6964      37.9332
   2225.3447       6.1640      -1.1660    -999.2500      11.4070       1.6660       1.9800    -999.2500    -999.2500    -999.2500       0.4334    1000.0000       2.6380      41.0500
   2225.4971       6.1640      -1.1875    -999.2500      10.1081       1.6499       1.9660    -999.2500    -999.2500    -999.2500       0.4273    1000.0000       2.5604      43.8783
   2225.6494       6.1640      -1.2090    -999.2500       8.8130       1.6340       1.9520    -999.2500    -999.2500    -999.2500       0.4226    1000.0000       2.4830      46.7030
   2225.8020       6.1640      -1.2060    -999.2500       7.2679       1.6410       1.9360    -999.2500    -999.2500    -999.2500       0.4230    1000.0000       2.5045      43.3941
   2225.9543       6.1640      -1.2030    -999.2500       5.7270       1.6480       1.9200    -999.2500    -999.2500    -999.2500       0.4270    1000.0000       2.5260      40.0890
   2226.1067       6.1640      -1.1830    -999.2500       6.3508       1.6706       1.9320    -999.2500    -999.2500    -999.2500       0.4333    1000.0000       2.5906      31.2294
   2226.2590       6.1640      -1.1630    -999.2500       6.9730       1.6930       1.9440    -999.2500    -999.2500    -999.2500       0.4406    1000.0000       2.6550      22.3790
   2226.4116       6.1640      -1.1730    -999.2500       7.3745       1.7477       2.0277    -999.2500    -999.2500    -999.2500       0.4477     799.9325       2.6039      14.5284
   2226.5640       6.1640      -1.1830    -999.2500       7.7750       1.8020       2.1110    -999.2500    -999.2500    -999.2500       0.4477     600.6880       2.5530       6.6850
   2226.7163       6.1640      -1.1630    -999.2500       7.7365       1.8803       2.2103    -999.2500    -999.2500    -999.2500       0.4330     617.5883       2.5941       8.1776
   2226.8687       6.1640      -1.1430    -999.2500       7.6980       1.9580       2.3090    -999.2500    -999.2500    -999.2500       0.4102     634.4210       2.6350       9.6690
   2227.0210       6.1640      -1.1335    -999.2500       7.2800       2.0489       2.3882    -999.2500    -999.2500    -999.2500       0.3852     817.5643       2.6300      25.8479
   2227.1736       6.1640      -1.1240    -999.2500       6.8630       2.1390       2.4670    -999.2500    -999.2500    -999.2500       0.3632    1000.0000       2.6250      42.0160
   2227.3259       6.1640      -1.1225    -999.2500       7.2329       2.1967       2.5487    -999.2500    -999.2500    -999.2500       0.3495    1000.0000       2.5939      59.9969
   2227.4783       6.1640      -1.1210    -999.2500       7.6020       2.2540       2.6300    -999.2500    -999.2500    -999.2500       0.3424    1000.0000       2.5630      77.9680
   2227.6306       6.1640      -1.1055    -999.2500       8.4298       2.3248       2.6776    -999.2500    -999.2500    -999.2500       0.3409    1000.0000       2.5956      91.3911
