#------------------------------------------------------------------------------
#
#   Created by  : [OpenWorks] Log Export Utility (LEXP)
#   Created on  : 2016-05-24 12:10:47
#   Project     : CANT971
#   User        : R5K
#   Interpreter : PEP
#
#------------------------------------------------------------------------------
~VERSION INFORMATION
VERS. 2.0 : CWLS Log ASCII Standard - version 2.0
WRAP.  NO : One line per depth step
~WELL INFORMATION
#MNEMONIC   .UNIT                                           VALUE :DESCRIPTION
#------------------------------------------------------------------------------
STRT        .M                                           551.3831 :START DEPTH
STOP        .M                                          2723.0830 :STOP DEPTH
STEP        .M                                             0.1524 :STEP
NULL        .                                           -999.2500 :NULL VALUE
COMP        .                                   PEMEX EXPL & PROD :COMPANY
WELL        .                                                1017 :WELL
FLD         .                                           CANTARELL :FIELD
LOC         .                                             UNKNOWN :LOCATION
CNTY        .                                      CD. DEL CARMEN :COUNTY
STAT        .                                            CAMPECHE :STATE
CTRY        .                                              MEXICO :COUNTRY
SRVC        .                                             UNKNOWN :SERVICE COMPANY
DATE        .                                             UNKNOWN :LOG DATE
UWI         .                                          3060000487 :UNIQUE WELL ID
XCOORD      .                                       598533.080000 :SURFACE X
YCOORD      .                                      2152013.220000 :SURFACE Y
LAT         .                                           19.461320 :LATITUDE
LON         .                                          -92.061247 :LONGITUDE
ELEV        .M                                            27.9700 :SURFACE ELEV
ELEV_TYPE   .                                                  KB :ELEV TYPE
~CURVE INFORMATION
#MNEMONIC.UNIT        API CODE       : CURVE DESCRIPTION
#------------------------------------------------------------------------------
DEPTH    .M                          : Measured Depth
CALI     .inches      UNKNOWN        : CALI:registros:rC:NONE:v0 (auto-composite)
DRHO     .g/cm3       UNKNOWN        : DRHO:registros:rC:NONE:v0 (auto-composite)
DT       .us/ft       UNKNOWN        : DT:registros:rC:NONE:v0 (auto-composite)
GR       .API         UNKNOWN        : GR:registros:rC:NONE:v0 (auto-composite)
ILD      .ohm.m       UNKNOWN        : ILD:registros:rC:NONE:v0 (auto-composite)
ILM      .ohm.m       UNKNOWN        : ILM:registros:rC:NONE:v0 (auto-composite)
LLD      .ohm.m       UNKNOWN        : LLD:registros:rC:NONE:v0 (auto-composite)
LLS      .ohm.m       UNKNOWN        : LLS:registros:rC:NONE:v0 (auto-composite)
MSFL     .ohm.m       UNKNOWN        : MSFL:registros:rC:NONE:v0 (auto-composite)
NPHI     .UNKNOWN     UNKNOWN        : NPHI:registros:rC:NONE:v0 (auto-composite)
PEF      .UNKNOWN     UNKNOWN        : PEF:registros:rC:NONE:v0 (auto-composite)
RHOB     .g/cm3       UNKNOWN        : RHOB:registros:rC:NONE:v0 (auto-composite)
SP       .mV          UNKNOWN        : SP:registros:rC:NONE:v0 (auto-composite)
~A     DEPTH         CALI         DRHO           DT           GR          ILD          ILM          LLD          LLS         MSFL         NPHI          PEF         RHOB           SP
# ...
   2677.0583       6.1430       0.1130      56.6880      56.3440    -999.2500    -999.2500   17211.7148   44636.1680    1216.0000       0.0904       2.8200       2.7560    -335.7410
   2677.2107       6.2241       0.1035      57.4029      50.9395    -999.2500    -999.2500   16801.1855   42369.1406     811.4081       0.0947       2.7599       2.7024    -336.7468
   2677.3630       6.3050       0.0940      58.1160      45.5490    -999.2500    -999.2500   16391.7207   40107.9922     408.5120       0.0969       2.7000       2.6490    -337.7500
   2677.5156       6.2845       0.0910      62.7197      34.6165    -999.2500    -999.2500   17505.8828   43335.3789     209.5784       0.0946       2.9894       2.6170    -336.1230
   2677.6680       6.2640       0.0880      67.3120      23.7110    -999.2500    -999.2500   18617.2949   46554.8008      11.4530       0.0894       3.2780       2.5850    -334.5000
   2677.8203       6.2660       0.0825      67.1181      25.4230    -999.2500    -999.2500   19692.0059   46455.6875      47.3292       0.0828       3.2620       2.6255    -335.2509
   2677.9727       6.2680       0.0770      66.9250      27.1310    -999.2500    -999.2500   20764.2012   46356.8086      83.0640       0.0753       3.2460       2.6660    -336.0000
   2678.1250       6.2900       0.0665      64.8180      27.7577    -999.2500    -999.2500   21501.3984   45308.5781     108.2991       0.0675       3.0713       2.6775    -335.6246
   2678.2776       6.3120       0.0560      62.7190      28.3830    -999.2500    -999.2500   22236.9590   44262.6719     133.4380       0.0633       2.8970       2.6890    -335.2500
   2678.4299       6.3385       0.0565      62.2231      26.8459    -999.2500    -999.2500   16999.5859   32343.8672      76.0015       0.0668       2.9280       2.6820    -334.3115
   2678.5823       6.3650       0.0570      61.7290      25.3120    -999.2500    -999.2500   11781.5439   20449.9844      18.7770       0.0770       2.9590       2.6750    -333.3750
   2678.7346       6.3210       0.0595      60.6160      26.2434    -999.2500    -999.2500   13591.6279   25997.8750     284.9927       0.0929       3.1642       2.6800    -334.0742
   2678.8872       6.2770       0.0620      59.5070      27.1730    -999.2500    -999.2500   15395.2637   31534.8496     550.2600       0.1064       3.3690       2.6850    -334.7720
   2679.0396       6.3351       0.0670      59.2220      28.6388    -999.2500    -999.2500   18002.6758   36558.5664     778.4916       0.1097       3.3540       2.6825    -336.2579
   2679.1919       6.3930       0.0720      58.9380      30.1020    -999.2500    -999.2500   20601.1191   41573.0391    1005.9380       0.1080       3.3390       2.6800    -337.7410
   2679.3442       6.3565       0.0960      60.2522      31.1594    -999.2500    -999.2500   19840.3809   40725.4609     839.5399       0.1066       3.2664       2.6540    -339.2468
   2679.4968       6.3200       0.1200      61.5620      32.2150    -999.2500    -999.2500   19082.1621   39879.3398     673.6930       0.1021       3.1940       2.6280    -340.7500
   2679.6492       6.3270       0.1340      59.3084      35.7353    -999.2500    -999.2500   17473.5918   40636.1719     341.9033       0.0909       3.0524       2.7226    -339.4330
   2679.8015       6.3340       0.1480      57.0620      39.2500    -999.2500    -999.2500   15870.1523   41390.5898      11.1720       0.0801       2.9110       2.8170    -338.1180
   2679.9539       6.3475       0.0800      58.6274      38.6120    -999.2500    -999.2500   16130.7188   44262.9844      32.3334       0.0767       2.9360       2.8110    -337.5246
   2680.1062       6.3610       0.0120      60.1880      37.9750    -999.2500    -999.2500   16390.4863   47126.5820      53.4300       0.0774       2.9610       2.8050    -336.9320
   2680.2588       6.3565       0.0125      59.8405      33.2070    -999.2500    -999.2500   18603.8906   47117.4688     139.7313       0.0788       2.9595       2.7594    -335.6987
   2680.4111       6.3520       0.0130      59.4940      28.4530    -999.2500    -999.2500   20810.7891   47108.3828     225.7790       0.0809       2.9580       2.7140    -334.4670
   2680.5635       6.2579       0.0325      58.1045      25.3902    -999.2500    -999.2500   21993.2363   46916.3672     306.8219       0.0836       2.9235       2.7035    -332.7950
   2680.7158       6.1640       0.0520      56.7190      22.3360    -999.2500    -999.2500   23172.3594   46724.8906     387.6370       0.0862       2.8890       2.6930    -331.1250
   2680.8684       6.2571       0.0705      55.9485      26.7625    -999.2500    -999.2500   23526.0586   47515.0703     702.1593       0.0882       3.0442       2.7270    -332.9980
   2681.0208       6.3500       0.0890      55.1800      31.1770    -999.2500    -999.2500   23878.8086   48303.1289    1015.8360       0.0904       3.1990       2.7610    -334.8660
   2681.1731       6.3310       0.0905      54.9973      37.2643    -999.2500    -999.2500   22995.2422   45222.6758     512.8344       0.0935       3.1840       2.7465    -337.6761
   2681.3254       6.3120       0.0920      54.8150      43.3360    -999.2500    -999.2500   22113.9395   42150.1094      11.1210       0.0987       3.1690       2.7320    -340.4790
   2681.4780       6.2900       0.0995      53.7812      44.7948    -999.2500    -999.2500   21713.1836   40780.6016     479.0449       0.1072       3.1600       2.7045    -342.0514
   2681.6304       6.2680       0.1070      52.7500      46.2500    -999.2500    -999.2500   21313.4062   39414.4297     945.8280       0.1144       3.1510       2.6770    -343.6200
   2681.7827       6.2860       0.0995      54.5575      42.3625    -999.2500    -999.2500   22945.9102   42310.8125     533.8821       0.1155       3.1760       2.6855    -345.0361
   2681.9351       6.3040       0.0920      56.3580      38.4840    -999.2500    -999.2500   24574.6426   45200.5039     123.5470       0.1137       3.2010       2.6940    -346.4490
   2682.0874       6.3310       0.0565      60.9221      34.8640    -999.2500    -999.2500   24725.7188   43418.7305     111.6024       0.1123       3.2691       2.6439    -348.9147
   2682.2400       6.3580       0.0210      65.4690      31.2520    -999.2500    -999.2500   24876.4629   41640.8516      99.7030       0.1107       3.3370       2.5940    -351.3750
   2682.3923       6.6118       0.0225      65.2867      30.3045    -999.2500    -999.2500   24415.0430   45824.7852     232.8827       0.1087       3.2364       2.5945    -348.7047
   2682.5447       6.8650       0.0240      65.1050      29.3590    -999.2500    -999.2500   23955.3105   50000.1016     365.5750       0.1044       3.1360       2.5950    -346.0400
   2682.6970       7.5797       0.0340      64.0036      27.3025    -999.2500    -999.2500   23669.4805   53094.2617    1184.2333       0.0959       2.9849       2.5960    -343.8929
   2682.8496       8.2930       0.0440      62.9060      25.2500    -999.2500    -999.2500   23384.6582   56182.4336    2000.0000       0.0901       2.8340       2.5970    -341.7500
   2683.0020       8.3455       0.0510      65.2365      25.9807    -999.2500    -999.2500   25759.5234   56964.3633    1018.8228       0.0942       2.7965       2.6290    -343.4375
   2683.1543       8.3980       0.0580      67.5590      26.7100    -999.2500    -999.2500   28126.2930   57744.8789      40.9910       0.1022       2.7590       2.6610    -345.1220
   2683.3066       7.8856       0.0415      68.2531      30.6058    -999.2500    -999.2500   28408.7637   55725.5078      29.7856       0.1082       2.7710       2.6415    -348.0640
   2683.4592       7.3740       0.0250      68.9450      34.4950    -999.2500    -999.2500   28690.3086   53709.5430      18.6170       0.1107       2.7830       2.6220    -351.0010
   2683.6116       6.8391       0.0365      70.8816      38.6002    -999.2500    -999.2500   30172.4512   56947.2500     690.7452       0.1081       2.8070       2.5985    -351.6735
