#------------------------------------------------------------------------------
#
#   Created by  : [OpenWorks] Log Export Utility (LEXP)
#   Created on  : 2016-05-24 12:10:47
#   Project     : CANT971
#   User        : R5K
#   Interpreter : PEP
#
#------------------------------------------------------------------------------
~VERSION INFORMATION
VERS. 2.0 : CWLS Log ASCII Standard - version 2.0
WRAP.  NO : One line per depth step
~WELL INFORMATION
#MNEMONIC   .UNIT                                           VALUE :DESCRIPTION
#------------------------------------------------------------------------------
STRT        .M                                           551.3831 :START DEPTH
STOP        .M                                          2723.0830 :STOP DEPTH
STEP        .M                                             0.1524 :STEP
NULL        .                                           -999.2500 :NULL VALUE
COMP        .                                   PEMEX EXPL & PROD :COMPANY
WELL        .                                                1017 :WELL
FLD         .                                           CANTARELL :FIELD
LOC         .                                             UNKNOWN :LOCATION
CNTY        .                                      CD. DEL CARMEN :COUNTY
STAT        .                                            CAMPECHE :STATE
CTRY        .                                              MEXICO :COUNTRY
SRVC        .                                             UNKNOWN :SERVICE COMPANY
DATE        .                                             UNKNOWN :LOG DATE
UWI         .                                          3060000487 :UNIQUE WELL ID
XCOORD      .                                       598533.080000 :SURFACE X
YCOORD      .                                      2152013.220000 :SURFACE Y
LAT         .                                           19.461320 :LATITUDE
LON         .                                          -92.061247 :LONGITUDE
ELEV        .M                                            27.9700 :SURFACE ELEV
ELEV_TYPE   .                                                  KB :ELEV TYPE
~CURVE INFORMATION
#MNEMONIC.UNIT        API CODE       : CURVE DESCRIPTION
#------------------------------------------------------------------------------
DEPTH    .M                          : Measured Depth
CALI     .inches      UNKNOWN        : CALI:registros:rC:NONE:v0 (auto-composite)
DRHO     .g/cm3       UNKNOWN        : DRHO:registros:rC:NONE:v0 (auto-composite)
DT       .us/ft       UNKNOWN        : DT:registros:rC:NONE:v0 (auto-composite)
GR       .API         UNKNOWN        : GR:registros:rC:NONE:v0 (auto-composite)
ILD      .ohm.m       UNKNOWN        : ILD:registros:rC:NONE:v0 (auto-composite)
ILM      .ohm.m       UNKNOWN        : ILM:registros:rC:NONE:v0 (auto-composite)
LLD      .ohm.m       UNKNOWN        : LLD:registros:rC:NONE:v0 (auto-composite)
LLS      .ohm.m       UNKNOWN        : LLS:registros:rC:NONE:v0 (auto-composite)
MSFL     .ohm.m       UNKNOWN        : MSFL:registros:rC:NONE:v0 (auto-composite)
NPHI     .UNKNOWN     UNKNOWN        : NPHI:registros:rC:NONE:v0 (auto-composite)
PEF      .UNKNOWN     UNKNOWN        : PEF:registros:rC:NONE:v0 (auto-composite)
RHOB     .g/cm3       UNKNOWN        : RHOB:registros:rC:NONE:v0 (auto-composite)
SP       .mV          UNKNOWN        : SP:registros:rC:NONE:v0 (auto-composite)
~A     DEPTH         CALI         DRHO           DT           GR          ILD          ILM          LLD          LLS         MSFL         NPHI          PEF         RHOB           SP
# ...
   2636.8247       6.9280       0.2090      59.5390      46.7220    -999.2500    -999.2500     199.3300     106.3040     296.3540       0.1322       2.0460       2.6790      35.0330
   2636.9771       9.8688       0.1104      61.3363      44.8360    -999.2500    -999.2500     163.1906      88.0358     163.4355       0.1243       1.7778       2.1386      33.4057
   2637.1296      12.8050       0.0120      63.1250      42.9530    -999.2500    -999.2500     127.1650      69.7960      31.1480       0.1175       1.5100       1.5990      31.7810
   2637.2820      13.0789      -0.0010      63.5856      44.3065    -999.2500    -999.2500     104.4576      58.6361      28.4347       0.1187       1.5255       1.4393      31.1215
   2637.4343      13.3520      -0.0140      64.0440      45.6560    -999.2500    -999.2500      81.8190      47.5100      25.7340       0.1220       1.5410       1.2800      30.4630
   2637.5867      13.3951      -0.0250      64.8679      44.1448    -999.2500    -999.2500      68.6123      41.8623      39.8092       0.1223       1.5886       1.2454      26.1012
   2637.7390      13.4380      -0.0360      65.6880      42.6380    -999.2500    -999.2500      55.4650      36.2310      53.8210       0.1217       1.6360       1.2110      21.7450
   2637.8916      14.2692      -0.0330      65.3277      40.6207    -999.2500    -999.2500      47.6900      32.9565      94.9839       0.1221       1.5294       1.1960      15.5098
   2638.0439      15.0980      -0.0300      64.9690      38.6090    -999.2500    -999.2500      39.9490      29.6910     135.9670       0.1301       1.4230       1.1810       9.2920
   2638.1963      15.9802      -0.0235      66.7743      39.0411    -999.2500    -999.2500      42.5886      31.3322      76.6761       0.1551       1.3339       1.1359       3.9189
   2638.3486      16.8600      -0.0170      68.5720      39.4720    -999.2500    -999.2500      45.2170      32.9690      17.6370       0.1886       1.2450       1.0910      -1.4400
   2638.5012      17.2009      -0.0125      73.4991      44.1479    -999.2500    -999.2500      40.1511      29.5727    1010.8640       0.2258       1.2230       1.0620      -6.7582
   2638.6536      17.5410      -0.0080      78.4060      48.8120    -999.2500    -999.2500      35.1060      26.1850    2000.0000       0.2526       1.2010       1.0330     -12.0630
   2638.8059      19.0308      -0.0085      77.3258      48.7895    -999.2500    -999.2500      29.3675      22.2638    1974.3828       0.2513       1.2270       1.0470     -14.9975
   2638.9583      20.5170      -0.0090      76.2500      48.7670    -999.2500    -999.2500      23.6520      18.3520    1948.8680       0.2358       1.2530       1.0610     -17.9250
   2639.1106      21.8575      -0.0080      76.7665      48.4141    -999.2500    -999.2500      22.9221      17.7533    1626.0596       0.2147       1.2660       1.0750     -21.9516
   2639.2632      23.1950      -0.0070      77.2810      48.0620    -999.2500    -999.2500      22.1950      17.1560    1304.5000       0.1998       1.2790       1.0890     -25.9690
   2639.4155      23.1249      -0.0035      81.8991      45.3176    -999.2500    -999.2500     132.9109      54.7839    1648.8951       0.2045       1.2800       1.0960     -55.4717
   2639.5679      23.0550       0.0000      86.5000      42.5790    -999.2500    -999.2500     243.2120      92.3310    1992.0000       0.2182       1.2810       1.1030     -84.9110
   2639.7202      23.0665       0.0035      81.1934      42.0309    -999.2500    -999.2500     732.0951     355.1449    1534.2089       0.2330       1.2655       1.1100     -89.3115
   2639.8728      23.0780       0.0070      75.9060      41.4840    -999.2500    -999.2500    1219.2090     617.4270    1078.8060       0.2472       1.2500       1.1170     -93.7030
   2640.0251      23.0660       0.0100      76.5211      42.1887    -999.2500    -999.2500     712.0203     359.7276     942.0606       0.2588       1.2880       1.1470     -63.3422
   2640.1775      23.0540       0.0130      77.1340      42.8920    -999.2500    -999.2500     206.6050     102.5170     806.0110       0.2619       1.3260       1.1770     -33.0390
   2640.3298      22.8733       0.0255      91.9162      43.4700    -999.2500    -999.2500    1498.5254    1041.1685     469.6767       0.2477       1.4671       1.2546     -44.8580
   2640.4824      22.6930       0.0380     106.6250      44.0470    -999.2500    -999.2500    2786.0940    1978.1560     135.0130       0.2350       1.6080       1.3320     -56.6560
   2640.6348      18.0567       0.0580     102.3121      43.6562    -999.2500    -999.2500    6224.2617    1949.1211      68.6745       0.2430       1.9873       1.5282     -49.4941
   2640.7871      13.4280       0.0780      98.0200      43.2660    -999.2500    -999.2500    9651.2695    1920.1340       2.6570       0.2462       2.3660       1.7240     -42.3440
   2640.9395      12.7485       0.1330      86.5139      45.9631    -999.2500    -999.2500   24992.1016   33655.8281     980.6351       0.2177       2.4616       2.1798     -53.6681
   2641.0918      12.0700       0.1880      75.0620      48.6560    -999.2500    -999.2500   40285.0977   65343.2227    1954.0000       0.1797       2.5570       2.6350     -64.9750
   2641.2444      11.8582       0.1825      81.9698      48.5889    -999.2500    -999.2500   30312.8965   46915.6172    1889.6880       0.1515       2.4443       2.6055     -69.7233
   2641.3967      11.6470       0.1770      88.8460      48.5220    -999.2500    -999.2500   20370.5684   28543.2090    1825.6710       0.1321       2.3320       2.5760     -74.4650
   2641.5491      10.9240       0.1220      96.2676      47.7990    -999.2500    -999.2500   10771.1230   14473.8906    1351.5657       0.1231       2.1542       2.2585     -82.1749
   2641.7014      10.2030       0.0670     103.6560      47.0780    -999.2500    -999.2500    1214.5580     444.9230     879.5780       0.1302       1.9770       1.9420     -89.8750
   2641.8540      10.5535       0.0445      88.0522      44.8524    -999.2500    -999.2500     932.0377     300.1278    1387.1000       0.1638       1.9670       1.6741    -115.5883
   2642.0063      10.9030       0.0220      72.5160      42.6330    -999.2500    -999.2500     650.7430     155.7300    1892.4200       0.2090       1.9570       1.4070    -141.2310
   2642.1587      11.3446       0.0230      73.0246      39.6861    -999.2500    -999.2500     360.5562      88.6507    1946.3237       0.2548       1.9515       1.4170    -146.4784
   2642.3110      11.7850       0.0240      73.5310      36.7470    -999.2500    -999.2500      71.5930      21.7470    2000.0000       0.2875       1.9460       1.4270    -151.7120
   2642.4636      11.6638       0.0235      67.7692      32.9272    -999.2500    -999.2500     175.1161      56.7647    1923.3433       0.2896       2.0046       1.6047    -202.9809
   2642.6160      11.5430       0.0230      62.0310      29.1170    -999.2500    -999.2500     278.2160      91.6950    1847.0000       0.2780       2.0630       1.7820    -254.1220
   2642.7683      10.2380       0.0175      66.3992      26.5224    -999.2500    -999.2500    4541.3242    3683.6653    1923.6520       0.2654       2.2988       1.9407    -275.6580
   2642.9207       8.9360       0.0120      70.7500      23.9340    -999.2500    -999.2500    8787.5225    7267.1328    2000.0000       0.2566       2.5340       2.0990    -297.1430
   2643.0730       7.8723       0.0430      64.0652      21.5423    -999.2500    -999.2500    4556.5669    3678.0042    1010.6523       0.2572       2.7698       2.2462    -279.0822
   2643.2256       6.8110       0.0740      57.4060      19.1560    -999.2500    -999.2500     341.8510      96.9280      25.1020       0.2605       3.0050       2.3930    -261.0620
   2643.3779       6.8515       0.0705      57.6810      19.2401    -999.2500    -999.2500     343.1815     100.6199      17.7579       0.2602       2.9610       2.4375    -263.0116
