#------------------------------------------------------------------------------
#
#   Created by  : [OpenWorks] Log Export Utility (LEXP)
#   Created on  : 2016-05-24 12:10:47
#   Project     : CANT971
#   User        : R5K
#   Interpreter : PEP
#
#------------------------------------------------------------------------------
~VERSION INFORMATION
VERS. 2.0 : CWLS Log ASCII Standard - version 2.0
WRAP.  NO : One line per depth step
~WELL INFORMATION
#MNEMONIC   .UNIT                                           VALUE :DESCRIPTION
#------------------------------------------------------------------------------
STRT        .M                                           551.3831 :START DEPTH
STOP        .M                                          2723.0830 :STOP DEPTH
STEP        .M                                             0.1524 :STEP
NULL        .                                           -999.2500 :NULL VALUE
COMP        .                                   PEMEX EXPL & PROD :COMPANY
WELL        .                                                1017 :WELL
FLD         .                                           CANTARELL :FIELD
LOC         .                                             UNKNOWN :LOCATION
CNTY        .                                      CD. DEL CARMEN :COUNTY
STAT        .                                            CAMPECHE :STATE
CTRY        .                                              MEXICO :COUNTRY
SRVC        .                                             UNKNOWN :SERVICE COMPANY
DATE        .                                             UNKNOWN :LOG DATE
UWI         .                                          3060000487 :UNIQUE WELL ID
XCOORD      .                                       598533.080000 :SURFACE X
YCOORD      .                                      2152013.220000 :SURFACE Y
LAT         .                                           19.461320 :LATITUDE
LON         .                                          -92.061247 :LONGITUDE
ELEV        .M                                            27.9700 :SURFACE ELEV
ELEV_TYPE   .                                                  KB :ELEV TYPE
~CURVE INFORMATION
#MNEMONIC.UNIT        API CODE       : CURVE DESCRIPTION
#------------------------------------------------------------------------------
DEPTH    .M                          : Measured Depth
CALI     .inches      UNKNOWN        : CALI:registros:rC:NONE:v0 (auto-composite)
DRHO     .g/cm3       UNKNOWN        : DRHO:registros:rC:NONE:v0 (auto-composite)
DT       .us/ft       UNKNOWN        : DT:registros:rC:NONE:v0 (auto-composite)
GR       .API         UNKNOWN        : GR:registros:rC:NONE:v0 (auto-composite)
ILD      .ohm.m       UNKNOWN        : ILD:registros:rC:NONE:v0 (auto-composite)
ILM      .ohm.m       UNKNOWN        : ILM:registros:rC:NONE:v0 (auto-composite)
LLD      .ohm.m       UNKNOWN        : LLD:registros:rC:NONE:v0 (auto-composite)
LLS      .ohm.m       UNKNOWN        : LLS:registros:rC:NONE:v0 (auto-composite)
MSFL     .ohm.m       UNKNOWN        : MSFL:registros:rC:NONE:v0 (auto-composite)
NPHI     .UNKNOWN     UNKNOWN        : NPHI:registros:rC:NONE:v0 (auto-composite)
PEF      .UNKNOWN     UNKNOWN        : PEF:registros:rC:NONE:v0 (auto-composite)
RHOB     .g/cm3       UNKNOWN        : RHOB:registros:rC:NONE:v0 (auto-composite)
SP       .mV          UNKNOWN        : SP:registros:rC:NONE:v0 (auto-composite)
~A     DEPTH         CALI         DRHO           DT           GR          ILD          ILM          LLD          LLS         MSFL         NPHI          PEF         RHOB           SP
# ...
   2469.1848       6.1640      -0.8360    -999.2500      40.5160    -999.2500    -999.2500       2.7610       2.4360    -999.2500       0.4507     122.4380       1.9870     -68.0310
   2469.3372       6.1640      -0.8315    -999.2500      41.8136    -999.2500    -999.2500       2.6567       2.3414    -999.2500       0.4480      82.2458       1.9955     -68.3688
   2469.4895       6.1640      -0.8270    -999.2500      43.1090    -999.2500    -999.2500       2.5530       2.2470    -999.2500       0.4466      42.1880       2.0040     -68.7060
   2469.6418       6.1640      -0.8130    -999.2500      42.2338    -999.2500    -999.2500       2.5194       2.1689    -999.2500       0.4414      46.3792       2.0230     -69.7288
   2469.7944       6.1640      -0.7990    -999.2500      41.3600    -999.2500    -999.2500       2.4860       2.0910    -999.2500       0.4356      50.5570       2.0420     -70.7500
   2469.9468       6.1640      -0.8005    -999.2500      40.9123    -999.2500    -999.2500       2.5502       2.1706    -999.2500       0.4320     122.5458       2.0550     -70.3992
   2470.0991       6.1640      -0.8020    -999.2500      40.4660    -999.2500    -999.2500       2.6140       2.2500    -999.2500       0.4209     194.3120       2.0680     -70.0490
   2470.2515       6.1670      -0.8395    -999.2500      39.2757    -999.2500    -999.2500       2.7339       2.2835    -999.2500       0.3907     161.1223       2.0520     -69.2269
   2470.4038       6.1700      -0.8770    -999.2500      38.0890    -999.2500    -999.2500       2.8530       2.3170    -999.2500       0.3612     128.0310       2.0360     -68.4060
   2470.5564       6.2005      -0.8960    -999.2500      36.8878    -999.2500    -999.2500       2.8405       2.3060    -999.2500       0.3528     165.8097       2.0185     -68.4871
   2470.7087       6.2310      -0.9150    -999.2500      35.6900    -999.2500    -999.2500       2.8280       2.2950    -999.2500       0.3556     203.4810       2.0010     -68.5680
   2470.8611       6.2415      -0.9300    -999.2500      32.2543    -999.2500    -999.2500       2.7000       2.1874    -999.2500       0.3627     257.8768       1.9584     -69.4405
   2471.0134       6.2520      -0.9450    -999.2500      28.8280    -999.2500    -999.2500       2.5730       2.0800    -999.2500       0.3747     312.1250       1.9160     -70.3120
   2471.1660       6.2410      -0.9275    -999.2500      28.9376    -999.2500    -999.2500       2.5891       2.1281    -999.2500       0.3936     209.1946       1.9010     -70.0154
   2471.3184       6.2300      -0.9100    -999.2500      29.0470    -999.2500    -999.2500       2.6050       2.1760    -999.2500       0.4020     106.5310       1.8860     -69.7190
   2471.4707       6.2310      -0.8945    -999.2500      29.0235    -999.2500    -999.2500       3.3256       2.5445    -999.2500       0.3793     171.9821       1.8750     -69.9746
   2471.6230       6.2320      -0.8790    -999.2500      29.0000    -999.2500    -999.2500       4.0410       2.9120    -999.2500       0.3339     237.2720       1.8640     -70.2300
   2471.7756       6.2485      -0.8380    -999.2500      26.1922    -999.2500    -999.2500       3.7485       2.8249    -999.2500       0.2668     507.8277       1.9351     -71.1786
   2471.9280       6.2650      -0.7970    -999.2500      23.3910    -999.2500    -999.2500       3.4580       2.7380    -999.2500       0.2183     777.7500       2.0060     -72.1250
   2472.0803       6.2790      -0.8000    -999.2500      24.0703    -999.2500    -999.2500       3.3225       2.6669    -999.2500       0.2341     457.9585       2.0030     -70.7014
   2472.2327       6.2930      -0.8030    -999.2500      24.7480    -999.2500    -999.2500       3.1880       2.5960    -999.2500       0.2837     138.8750       2.0000     -69.2810
   2472.3850       6.2610      -0.8250    -999.2500      26.9343    -999.2500    -999.2500       3.2602       2.5555    -999.2500       0.3473    1154.4989       1.9344     -69.5468
   2472.5376       6.2290      -0.8470    -999.2500      29.1160    -999.2500    -999.2500       3.3320       2.5150    -999.2500       0.3975    2168.0000       1.8690     -69.8120
   2472.6899       6.2325      -0.8465    -999.2500      31.0774    -999.2500    -999.2500       3.0430       2.3864    -999.2500       0.4018    2049.4121       1.8700     -70.6413
   2472.8423       6.2360      -0.8460    -999.2500      33.0350    -999.2500    -999.2500       2.7560       2.2580    -999.2500       0.3928    1931.2469       1.8710     -71.4690
   2472.9946       6.2355      -0.8425    -999.2500      33.6501    -999.2500    -999.2500       2.7630       2.2590    -999.2500       0.3985    1075.0635       1.8790     -71.4184
   2473.1472       6.2350      -0.8390    -999.2500      34.2640    -999.2500    -999.2500       2.7700       2.2600    -999.2500       0.4145     221.8210       1.8870     -71.3680
   2473.2996       6.2240      -0.8375    -999.2500      35.0937    -999.2500    -999.2500       2.9250       2.2890    -999.2500       0.4397     170.0122       1.8985     -70.2771
   2473.4519       6.2130      -0.8360    -999.2500      35.9220    -999.2500    -999.2500       3.0790       2.3180    -999.2500       0.4575     118.3750       1.9100     -69.1880
   2473.6042       6.2205      -0.8270    -999.2500      34.3593    -999.2500    -999.2500       2.8046       2.1574    -999.2500       0.4482     112.3609       1.9355     -69.2180
   2473.7568       6.2280      -0.8180    -999.2500      32.7990    -999.2500    -999.2500       2.5320       1.9970    -999.2500       0.4215     106.3660       1.9610     -69.2480
   2473.9092       6.2480      -0.7880    -999.2500      31.3778    -999.2500    -999.2500       2.4041       1.8758    -999.2500       0.3809      81.8329       2.0476     -69.4682
   2474.0615       6.2680      -0.7580    -999.2500      29.9610    -999.2500    -999.2500       2.2770       1.7550    -999.2500       0.3508      57.3750       2.1340     -69.6880
   2474.2139       6.2505      -0.7370    -999.2500      32.2453    -999.2500    -999.2500       2.1958       1.6473    -999.2500       0.3595     309.6516       2.1861     -69.5159
   2474.3662       6.2330      -0.7160    -999.2500      34.5230    -999.2500    -999.2500       2.1150       1.5400    -999.2500       0.3889     561.1880       2.2380     -69.3440
   2474.5188       6.2180      -0.7360    -999.2500      40.7247    -999.2500    -999.2500       2.1331       1.5480    -999.2500       0.4283     346.7455       2.1859     -69.5942
   2474.6711       6.2030      -0.7560    -999.2500      46.9090    -999.2500    -999.2500       2.1510       1.5560    -999.2500       0.4602     132.9060       2.1340     -69.8440
   2474.8235       6.2140      -0.7805    -999.2500      48.5898    -999.2500    -999.2500       2.2810       1.6546    -999.2500       0.4641     145.2040       2.0649     -70.5474
   2474.9758       6.2250      -0.8050    -999.2500      50.2660    -999.2500    -999.2500       2.4100       1.7530    -999.2500       0.4568     157.4690       1.9960     -71.2500
   2475.1284       6.2240      -0.8035    -999.2500      47.2772    -999.2500    -999.2500       2.3844       1.7230    -999.2500       0.4504     119.8108       1.9995     -70.8503
   2475.2808       6.2230      -0.8020    -999.2500      44.2960    -999.2500    -999.2500       2.3590       1.6930    -999.2500       0.4438      82.2490       2.0030     -70.4510
   2475.4331       6.2190      -0.7925    -999.2500      43.3028    -999.2500    -999.2500       2.2145       1.6209    -999.2500       0.4356      80.5915       2.0260     -68.0370
   2475.5854       6.2150      -0.7830    -999.2500      42.3120    -999.2500    -999.2500       2.0710       1.5490    -999.2500       0.4307      78.9380       2.0490     -65.6250
   2475.7380       6.2190      -0.7685    -999.2500      44.8229    -999.2500    -999.2500       1.9967       1.4889    -999.2500       0.4348      75.0660       2.0660     -63.4465
