~Version Information
 VERS.                  2.0:   CWLS log ASCII Standard -VERSION 2.0
 WRAP.                   NO:   One line per depth step
~Well Information Block
#MNEM.UNIT       Data Type    Information
#---------     -----------    ---------------------------
 STRT.M               760.0188:
 STOP.M              2903.9820:
 STEP.M                 0.1524:
 NULL.               -999.2500:
 UWI .                   1019D:  UWI
 API .                   1019D:  UWI
 WELL.                   1019D:  COMMON WELL NAME
 COMP.                 UNKNOWN:  WELL OPERATOR
 FLD .                 UNKNOWN:  FIELD
 LIC .                 UNKNOWN:  AUTHORIZATION NO
 LOC .                 UNKNOWN:  BASIN
 CTRY.                 UNKNOWN:  COUNTRY
 STAT.                 UNKNOWN:  STATE
 CNTY.                 UNKNOWN:  COUNTY
 PROV.                 UNKNOWN:  STATE
 SRVC.                 UNKNOWN:  COMPANY
 DATE.                 UNKNOWN:  LOG RUN DATE
 LONG.                -92.0500:  LONGITUDE
 LATI.                 19.4617:  LATITUDE
 XCOORD.           599718.1875:  X COORDINATE
 YCOORD.          2152056.5000:  Y COORDINATE
 ELEV.M                 0.0000:  ELEVATION
 TD  .M              2900.0000:  TOTAL DEPTH
~Parameter Information Block
#MNEM.UNIT       Value        Description
#---------     -----------    ---------------------------
~Curve Information Block
#MNEM.UNIT                 API CODE     Curve Description
#---------               -----------    ---------------------------
 DEPTH.M                00 000 000 000:  Index Curve
 CGR .GAPI              00 000 000 000:  Gamma ray; Uranium-free
 DT  .US/F              00 000 000 000:  Acoustic wave travel time
 GR  .GAPI              00 000 000 000:  Gamma ray; total
 GR-LWD.GAPI            00 000 000 000:  
 ILD-LWD.OHMM           00 000 000 000:  
 ILM-LWD.OHMM           00 000 000 000:  
 NPHI.V/V               00 000 000 000:  Neutron porosity
 POTA.                  00 000 000 000:  Potassium contribution from spectral gamma ray
 SIGM.CU                00 000 000 000:  Sigma (neutron capture cross-section)
 THOR.PPM               00 000 000 000:  Thorium contribution from spectral gamma ray
 URAN.PPM               00 000 000 000:  Uranium contribution from spectral gamma ray
~A DEPTH        CGR    DT    GR   GR-LWD   ILD-LWD   ILM-LWD    NPHI    POTA    SIGM    THOR    URAN
# ...
 2442.6672     5.5039  -999.2500    49.1959    42.5197     6.1559     6.4664     0.0486     0.0036  -999.2500     0.3299     4.8644 
 2442.8196     5.4865  -999.2500    50.8260    41.1128     6.6418     6.8302     0.0494     0.0036  -999.2500     0.0939     5.0478 
 2442.9720     4.0479  -999.2500    51.7362    39.7815     7.0703     7.0413     0.0492     0.0025  -999.2500     0.1188     5.3093 
 2443.1244     4.4384  -999.2500    51.8716    38.9969     7.2066     7.0841     0.0501     0.0023  -999.2500     0.1972     5.3222 
 2443.2768     4.3484  -999.2500    52.3928    38.7298     7.3929     7.2256     0.0538     0.0024  -999.2500     0.3947     5.3563 
 2443.4292     5.4120  -999.2500    53.3145    39.2036     7.5389     7.3292     0.0552     0.0038  -999.2500     0.4118     5.3332 
 2443.5816     6.8277  -999.2500    54.6507    40.2097     7.7513     7.5232     0.0617     0.0043  -999.2500     0.2942     5.3243 
 2443.7340     7.4596  -999.2500    56.4468    41.2153     8.1572     7.8952     0.0672     0.0044  -999.2500     0.3869     5.4539 
 2443.8864     8.5517  -999.2500    58.5320    42.4281     9.1714     8.7891     0.0670     0.0042  -999.2500     0.7691     5.5645 
 2444.0388     9.3492  -999.2500    59.7259    43.6507     9.3056     8.8987     0.0643     0.0038  -999.2500     1.1521     5.6086 
 2444.1912     8.7069  -999.2500    60.9326    44.2722     8.8043     8.2942     0.0600     0.0035  -999.2500     1.1977     5.8145 
 2444.3436     6.2455  -999.2500    62.4698    44.9413     9.4639     9.1134     0.0587     0.0017  -999.2500     1.1104     6.2597 
 2444.4960     3.9722  -999.2500    64.3315    45.0109     9.8975     9.6618     0.0598     0.0006  -999.2500     1.0195     6.7200 
 2444.6484     3.4640  -999.2500    67.1836    46.0877    10.6014    10.5935     0.0598     0.0006  -999.2500     0.8484     7.0941 
 2444.8008     2.4760  -999.2500    67.7365    47.3887    11.0241    11.2137     0.0605     0.0006  -999.2500     0.6628     7.1297 
 2444.9532     1.7713  -999.2500    65.9307    49.8438    11.4860    11.9010     0.0656     0.0006  -999.2500     0.3594     7.0153 
 2445.1056     1.6146  -999.2500    63.9170    51.9984    12.2756    12.8421     0.0674     0.0032  -999.2500     0.1616     6.9363 
 2445.2580     5.7005  -999.2500    64.8820    53.4754    12.6304    13.2547     0.0730     0.0050  -999.2500     0.1159     6.5889 
 2445.4104     8.3585  -999.2500    65.7329    54.6282    12.9778    13.6510     0.0739     0.0056  -999.2500     0.1640     6.3877 
 2445.5628    10.5995  -999.2500    66.4898    55.2016    12.9527    13.6006     0.0717     0.0057  -999.2500     0.7626     6.2225 
 2445.7152    11.4618  -999.2500    66.4126    55.4063    13.0339    13.6287     0.0710     0.0058  -999.2500     0.9307     6.1178 
 2445.8676    12.2306  -999.2500    65.3381    52.0273    13.4895    14.0784     0.0675     0.0059  -999.2500     1.1296     5.9126 
 2446.0200    11.6551  -999.2500    64.2241    50.9372    13.8897    14.5006     0.0657     0.0059  -999.2500     1.0813     5.8527 
 2446.1724     9.4246  -999.2500    62.4968    50.2326    14.5160    15.2017     0.0639     0.0047  -999.2500     0.8495     5.9087 
 2446.3248     7.8274  -999.2500    61.4934    49.6367    15.1999    15.9681     0.0640     0.0041  -999.2500     0.7503     5.9748 
 2446.4772     7.4521  -999.2500    61.1283    49.0480    15.9099    16.6572     0.0647     0.0043  -999.2500     0.5340     5.9178 
 2446.6296     7.1228  -999.2500    60.5060    48.6956    16.5296    17.1867     0.0656     0.0047  -999.2500     0.3137     5.9691 
 2446.7820     7.0225  -999.2500    60.9168    46.0198    16.7328    17.3544     0.0651     0.0049  -999.2500     0.1044     6.0070 
 2446.9344    11.2928  -999.2500    62.9448    47.1185    16.9189    17.5048     0.0656     0.0038  -999.2500     1.3995     5.7506 
 2447.0868    12.2652  -999.2500    63.7739    48.6527    17.1513    17.6820     0.0641     0.0037  -999.2500     2.0592     5.7346 
 2447.2392    14.1698  -999.2500    63.0996    49.2360    17.4012    17.8657     0.0644     0.0036  -999.2500     2.5874     5.4475 
 2447.3916    12.1788  -999.2500    61.9715    49.1801    17.8218    18.1775     0.0648     0.0032  -999.2500     2.2040     5.5436 
 2447.5440     7.8770  -999.2500    60.0088    48.3737    18.3582    18.5890     0.0645     0.0016  -999.2500     1.5962     5.8040 
 2447.6964     4.4244  -999.2500    60.6049    46.8652    18.8007    18.9659     0.0648     0.0006  -999.2500     1.4498     6.2548 
 2447.8488     4.2754  -999.2500    61.2327    47.3330    19.1393    19.2202     0.0657     0.0006  -999.2500     1.0014     6.3413 
 2448.0012     4.2544  -999.2500    60.1352    47.3805    19.4161    19.4565     0.0653     0.0006  -999.2500     0.9906     6.2214 
 2448.1536     5.3560  -999.2500    57.4228    49.6373    19.6334    19.6333     0.0649     0.0016  -999.2500     1.0122     5.7968 
 2448.3060     6.5538  -999.2500    56.6656    50.6219    20.1199    20.0874     0.0653     0.0031  -999.2500     0.7729     5.4946 
 2448.4584     6.2120  -999.2500    55.4826    50.2525    20.7722    20.7128     0.0671     0.0034  -999.2500     0.5311     5.4479 
 2448.6108     4.9545  -999.2500    54.1752    49.5996    21.9787    21.8800     0.0666     0.0026  -999.2500     0.0846     5.4799 
 2448.7632     3.5655  -999.2500    53.9091    47.9520    23.2372    23.1178     0.0645     0.0011  -999.2500     0.0885     5.6049 
 2448.9156     1.1235  -999.2500    54.8511    46.2980    23.8563    23.6606     0.0639     0.0006  -999.2500     0.0932     5.9817 
 2449.0680     1.0856  -999.2500    56.2482    45.2388    24.4796    24.1146     0.0629     0.0006  -999.2500     0.0869     6.1414 
 2449.2204     0.9860  -999.2500    58.8805    45.6563    25.6288    24.8624     0.0623     0.0005  -999.2500     0.0707     6.4456 
 2449.3728     1.2285  -999.2500    59.3591    48.0334    26.9994    25.6566     0.0661     0.0005  -999.2500     0.0664     6.4719 
 2449.5252     2.7832  -999.2500    59.9271    48.4804    27.6110    26.0162     0.0668     0.0006  -999.2500     0.2489     6.3620 
 2449.6776     4.7131  -999.2500    58.4939    48.7428    28.6688    26.7946     0.0670     0.0008  -999.2500     0.7222     5.9876 
 2449.8300     7.3154  -999.2500    58.4983    48.6074    29.8969    27.7993     0.0667     0.0018  -999.2500     1.1475     5.6984 
 2449.9824    10.2813  -999.2500    58.7793    48.1815    31.7382    29.5232     0.0662     0.0031  -999.2500     1.4639     5.3973 
 2450.1348    10.8011  -999.2500    58.7434    47.7325    34.1369    31.8967     0.0673     0.0028  -999.2500     1.7213     5.4355 
 2450.2872     9.1382  -999.2500    59.3246    46.8092    36.2992    34.1706     0.0666     0.0008  -999.2500     1.8527     5.6238 
 2450.4396     8.6140  -999.2500    60.4429    46.0100    38.3540    36.4860     0.0685     0.0006  -999.2500     2.2022     5.7703 
 2450.5920     8.9310  -999.2500    65.0917    46.0411    40.1176    38.4208     0.0710     0.0005  -999.2500     2.3154     6.2526 
 2450.7444     8.8431  -999.2500    65.6379    46.3138    41.3067    39.7393     0.0696     0.0005  -999.2500     2.2913     6.3232 
 2450.8968     6.9178  -999.2500    64.8945    47.0001    42.4070    40.7766     0.0679     0.0006  -999.2500     1.7343     6.4547 
 2451.0492     6.9340  -999.2500    64.3045    47.4494    43.0717    41.2281     0.0695     0.0006  -999.2500     1.7361     6.3873 
 2451.2016     8.2528  -999.2500    63.8229    48.5622    43.6897    41.4999     0.0698     0.0017  -999.2500     1.7388     6.1868 
 2451.3540     9.0238  -999.2500    63.7822    49.8482    44.4176    41.5561     0.0648     0.0027  -999.2500     1.6565     6.0965 
 2451.5064     9.0939  -999.2500    63.9247    52.1181    44.9515    41.5558     0.0651     0.0041  -999.2500     1.3665     6.1045 
 2451.6588     8.7943  -999.2500    64.2904    53.1763    45.9814    42.0880     0.0664     0.0058  -999.2500     0.5819     6.1848 
 2451.8112     8.5701  -999.2500    64.4551    52.7821    46.6541    42.5338     0.0663     0.0058  -999.2500     0.1151     6.2971 
