~Version Information
 VERS.                  2.0:   CWLS log ASCII Standard -VERSION 2.0
 WRAP.                   NO:   One line per depth step
~Well Information Block
#MNEM.UNIT       Data Type    Information
#---------     -----------    ---------------------------
 STRT.M               760.0188:
 STOP.M              2903.9820:
 STEP.M                 0.1524:
 NULL.               -999.2500:
 UWI .                   1019D:  UWI
 API .                   1019D:  UWI
 WELL.                   1019D:  COMMON WELL NAME
 COMP.                 UNKNOWN:  WELL OPERATOR
 FLD .                 UNKNOWN:  FIELD
 LIC .                 UNKNOWN:  AUTHORIZATION NO
 LOC .                 UNKNOWN:  BASIN
 CTRY.                 UNKNOWN:  COUNTRY
 STAT.                 UNKNOWN:  STATE
 CNTY.                 UNKNOWN:  COUNTY
 PROV.                 UNKNOWN:  STATE
 SRVC.                 UNKNOWN:  COMPANY
 DATE.                 UNKNOWN:  LOG RUN DATE
 LONG.                -92.0500:  LONGITUDE
 LATI.                 19.4617:  LATITUDE
 XCOORD.           599718.1875:  X COORDINATE
 YCOORD.          2152056.5000:  Y COORDINATE
 ELEV.M                 0.0000:  ELEVATION
 TD  .M              2900.0000:  TOTAL DEPTH
~Parameter Information Block
#MNEM.UNIT       Value        Description
#---------     -----------    ---------------------------
~Curve Information Block
#MNEM.UNIT                 API CODE     Curve Description
#---------               -----------    ---------------------------
 DEPTH.M                00 000 000 000:  Index Curve
 CGR .GAPI              00 000 000 000:  Gamma ray; Uranium-free
 DT  .US/F              00 000 000 000:  Acoustic wave travel time
 GR  .GAPI              00 000 000 000:  Gamma ray; total
 GR-LWD.GAPI            00 000 000 000:  
 ILD-LWD.OHMM           00 000 000 000:  
 ILM-LWD.OHMM           00 000 000 000:  
 NPHI.V/V               00 000 000 000:  Neutron porosity
 POTA.                  00 000 000 000:  Potassium contribution from spectral gamma ray
 SIGM.CU                00 000 000 000:  Sigma (neutron capture cross-section)
 THOR.PPM               00 000 000 000:  Thorium contribution from spectral gamma ray
 URAN.PPM               00 000 000 000:  Uranium contribution from spectral gamma ray
~A DEPTH        CGR    DT    GR   GR-LWD   ILD-LWD   ILM-LWD    NPHI    POTA    SIGM    THOR    URAN
# ...
 2758.7448    14.6480  -999.2500    28.7493    26.1261    31.3826    35.8064     0.0892     0.0097    10.3733     0.2949     1.5700 
 2758.8972    11.2925  -999.2500    22.8836    25.6713    31.2729    36.5692     0.0880     0.0079    10.5241     0.0614     1.2905 
 2759.0496     8.8017  -999.2500    21.6916    46.4284    33.3859    39.6027     0.0837     0.0046    10.5949     0.7602     1.4351 
 2759.2020    11.2876  -999.2500    26.2790    50.3563    35.0657    41.3080     0.0788     0.0062    10.5317     1.3581     1.6691 
 2759.3544    15.5898  -999.2500    34.6167    48.4214    33.0261    40.2109     0.0764     0.0068    10.2998     1.8180     2.1183 
 2759.5068    14.3054  -999.2500    37.6181    49.2435    32.0207    38.7590     0.0710     0.0063    10.1568     1.3928     2.6076 
 2759.6592    10.2620  -999.2500    36.7572    48.6205    30.9673    37.0374     0.0617     0.0048    10.3206     0.7380     2.9217 
 2759.8116     9.7088  -999.2500    34.3645    47.6096    28.4416    33.0979     0.0579     0.0043    10.7041     0.7196     2.6408 
 2759.9640    13.7669  -999.2500    34.4711    47.6628    26.1126    29.1700     0.0610     0.0058    11.4197     1.3164     2.3057 
 2760.1164    17.3506  -999.2500    38.9219    45.5419    24.2320    26.2829     0.0630     0.0073    11.9274     1.7154     2.4016 
 2760.2688    19.9335  -999.2500    47.9938    43.1738    22.4448    23.8536     0.0730     0.0087    11.9551     2.0645     3.1240 
 2760.4212    21.0581  -999.2500    52.2266    41.4942    20.9178    22.0374     0.0817     0.0090    11.6436     2.2808     3.4701 
 2760.5736    21.8837  -999.2500    52.6321    37.8078    20.8898    22.0621     0.0852     0.0092    10.9950     2.5104     3.4233 
 2760.7260    21.9313  -999.2500    51.8524    34.3468    22.3594    24.0960     0.0838     0.0090    10.4472     2.5860     3.1064 
 2760.8784    19.9904  -999.2500    46.5443    27.6683    23.3362    25.4806     0.0677     0.0089    10.0296     2.1223     2.8946 
 2761.0308    17.7230  -999.2500    42.2813    19.9639    24.3798    27.0469     0.0620     0.0088     9.6259     1.5023     2.7341 
 2761.1832    16.7299  -999.2500    37.8732    20.5844    24.7659    27.8719     0.0584     0.0084     9.4268     1.4219     2.3539 
 2761.3356    14.7454  -999.2500    29.5172    22.8876    24.0822    27.5439     0.0531     0.0062     9.4866     1.7323     1.6446 
 2761.4880    12.4064  -999.2500    25.0075    26.9526    23.2174    27.0419     0.0529     0.0046     9.7446     1.7133     1.4029 
 2761.6404    10.1487  -999.2500    22.5353    30.2688    21.8612    26.1344     0.0575     0.0036    10.1229     1.6321     1.4092 
 2761.7928    10.0428  -999.2500    23.1578    34.1774    20.5803    24.8242     0.0628     0.0046    10.3454     1.3508     1.5775 
 2761.9452    10.6785  -999.2500    27.2348    36.7458    19.8220    23.9114     0.0646     0.0063    10.3217     0.9213     1.8433 
 2762.0976    10.7687  -999.2500    33.4500    37.5009    19.6668    23.5613     0.0657     0.0066    10.0420     0.4588     2.5252 
 2762.2500     9.6685  -999.2500    39.4047    37.6995    20.3399    24.1060     0.0635     0.0063     9.6110     0.2359     3.3106 
 2762.4024    10.3152  -999.2500    43.5492    34.7852    22.0318    26.3957     0.0612     0.0063     9.2746     0.2394     3.7001 
 2762.5548    10.9897  -999.2500    40.9147    30.4626    22.1035    26.6088     0.0583     0.0060     8.9996     0.5245     3.3316 
 2762.7072    11.4100  -999.2500    34.5408    29.3393    21.8379    26.3676     0.0529     0.0060     8.8742     0.8390     2.5753 
 2762.8596     9.1989  -999.2500    27.8014    29.6555    21.4365    25.9975     0.0487     0.0048     8.8482     0.6963     2.0711 
 2763.0120     5.9473  -999.2500    19.8665    34.6805    20.7301    25.1211     0.0484     0.0030     8.9148     0.4857     1.5497 
 2763.1644     4.2112  -999.2500    17.7967    38.0913    20.4193    24.7259     0.0522     0.0025     9.0657     0.1830     1.5125 
 2763.3168     5.9123  -999.2500    17.1632    41.0990    20.7680    24.9454     0.0588     0.0025     9.3638     0.6476     1.2526 
 2763.4692     6.7380  -999.2500    17.1871    38.4988    24.0116    28.4365     0.0713     0.0021     9.6313     0.9728     1.1633 
 2763.6216     8.3974  -999.2500    17.4112    35.9727    35.2923    40.7654     0.0808     0.0021     9.8130     1.5677     1.0036 
 2763.7740     8.4022  -999.2500    17.4710    32.0062    56.1052    63.0178     0.0826     0.0026     9.8541     1.5297     1.0097 
 2763.9264     8.9992  -999.2500    18.6137    28.0069    87.3148    95.2440     0.0803     0.0026     9.7357     1.5235     1.1956 
 2764.0788     9.3719  -999.2500    20.4089    25.3967   105.8006   117.0118     0.0746     0.0033     9.5729     1.3877     1.5814 
 2764.2312    10.4208  -999.2500    25.1795    24.3225   126.7139   148.3584     0.0745     0.0038     9.3608     1.3614     1.7678 
 2764.3836    11.4162  -999.2500    27.0865    26.1222   148.8935   192.5137     0.0722     0.0044     9.1753     1.5215     1.7446 
 2764.5360    10.3746  -999.2500    24.6738    28.8666   161.1540   227.6095     0.0719     0.0038     9.0783     1.4573     1.5920 
 2764.6884     9.3089  -999.2500    21.7791    33.9332   171.2755   261.8173     0.0757     0.0030     9.0574     1.4629     1.3883 
 2764.8408     8.4966  -999.2500    18.4931    36.4148   179.1245   285.4422     0.0685     0.0019     9.0707     1.4961     1.1130 
 2764.9932     8.9494  -999.2500    17.3977    40.6083   192.0491   299.6508     0.0614     0.0018     9.0519     1.7490     0.9405 
 2765.1456     8.9356  -999.2500    16.7480    43.6694   205.0365   305.3344     0.0591     0.0016     8.9907     1.8486     0.8698 
 2765.2980     7.8277  -999.2500    16.1509    44.2363   221.4975   309.1613     0.0593     0.0017     8.9426     1.5549     0.9267 
 2765.4504     6.7669  -999.2500    15.4543    45.4670   238.4230   299.8090     0.0592     0.0025     8.9734     0.9089     0.9672 
 2765.6028     7.2529  -999.2500    15.1115    48.0030   246.6078   286.2301     0.0582     0.0033     9.0525     0.7602     0.8749 
 2765.7552     8.0830  -999.2500    15.1941    49.4354   254.7641   274.9595     0.0586     0.0038     9.1256     0.8159     0.7917 
 2765.9076     7.4612  -999.2500    15.8210    51.0235   259.1204   275.6782     0.0595     0.0041     9.1800     0.5655     0.9307 
 2766.0600     9.4095  -999.2500    17.6456    51.9009   269.8552   289.7013     0.0584     0.0041     9.1932     1.0080     0.9169 
 2766.2124    10.3667  -999.2500    19.2431    52.1705   277.3498   305.4280     0.0551     0.0036     9.1731     1.3806     0.9882 
 2766.3648    11.2400  -999.2500    19.8107    50.4657   287.0259   340.8704     0.0539     0.0033     9.1773     1.8279     0.8970 
 2766.5172    12.0188  -999.2500    19.1052    43.2036   302.2051   379.1588     0.0526     0.0032     9.2096     2.0444     0.6868 
 2766.6696    10.7167  -999.2500    17.5484    34.7052   302.6683   398.3510     0.0512     0.0033     9.2341     2.0956     0.6804 
 2766.8220     7.4300  -999.2500    16.7851    18.0785   323.1566   441.1455     0.0517     0.0031     9.2502     1.4610     1.0415 
 2766.9744     5.3692  -999.2500    18.3089    11.9239   348.7614   486.8213     0.0537     0.0026     9.2427     0.4665     1.4406 
 2767.1268     6.2485  -999.2500    20.1750    11.6547   391.8338   552.0311     0.0567     0.0023     9.2649     0.6438     1.5505 
 2767.2792     8.4685  -999.2500    22.6154    11.0404   410.2083   576.1644     0.0602     0.0033     9.3090     0.9614     1.5750 
 2767.4316    10.0253  -999.2500    24.2584    11.3182   395.8658   549.0325     0.0644     0.0040     9.4037     1.1816     1.5846 
 2767.5840     8.8564  -999.2500    26.4834    12.1943   349.4046   474.7265     0.0640     0.0038     9.5113     1.2528     1.9625 
 2767.7364     7.3568  -999.2500    27.2659    13.2686   305.5946   405.8773     0.0601     0.0028     9.5693     0.9671     2.2166 
 2767.8888     6.8719  -999.2500    26.5285    13.1334   272.9661   354.6805     0.0554     0.0027     9.6076     0.8642     2.1884 
