~Version Information
 VERS.                  2.0:   CWLS log ASCII Standard -VERSION 2.0
 WRAP.                   NO:   One line per depth step
~Well Information Block
#MNEM.UNIT       Data Type    Information
#---------     -----------    ---------------------------
 STRT.M               760.0188:
 STOP.M              2903.9820:
 STEP.M                 0.1524:
 NULL.               -999.2500:
 UWI .                   1019D:  UWI
 API .                   1019D:  UWI
 WELL.                   1019D:  COMMON WELL NAME
 COMP.                 UNKNOWN:  WELL OPERATOR
 FLD .                 UNKNOWN:  FIELD
 LIC .                 UNKNOWN:  AUTHORIZATION NO
 LOC .                 UNKNOWN:  BASIN
 CTRY.                 UNKNOWN:  COUNTRY
 STAT.                 UNKNOWN:  STATE
 CNTY.                 UNKNOWN:  COUNTY
 PROV.                 UNKNOWN:  STATE
 SRVC.                 UNKNOWN:  COMPANY
 DATE.                 UNKNOWN:  LOG RUN DATE
 LONG.                -92.0500:  LONGITUDE
 LATI.                 19.4617:  LATITUDE
 XCOORD.           599718.1875:  X COORDINATE
 YCOORD.          2152056.5000:  Y COORDINATE
 ELEV.M                 0.0000:  ELEVATION
 TD  .M              2900.0000:  TOTAL DEPTH
~Parameter Information Block
#MNEM.UNIT       Value        Description
#---------     -----------    ---------------------------
~Curve Information Block
#MNEM.UNIT                 API CODE     Curve Description
#---------               -----------    ---------------------------
 DEPTH.M                00 000 000 000:  Index Curve
 CGR .GAPI              00 000 000 000:  Gamma ray; Uranium-free
 DT  .US/F              00 000 000 000:  Acoustic wave travel time
 GR  .GAPI              00 000 000 000:  Gamma ray; total
 GR-LWD.GAPI            00 000 000 000:  
 ILD-LWD.OHMM           00 000 000 000:  
 ILM-LWD.OHMM           00 000 000 000:  
 NPHI.V/V               00 000 000 000:  Neutron porosity
 POTA.                  00 000 000 000:  Potassium contribution from spectral gamma ray
 SIGM.CU                00 000 000 000:  Sigma (neutron capture cross-section)
 THOR.PPM               00 000 000 000:  Thorium contribution from spectral gamma ray
 URAN.PPM               00 000 000 000:  Uranium contribution from spectral gamma ray
~A DEPTH        CGR    DT    GR   GR-LWD   ILD-LWD   ILM-LWD    NPHI    POTA    SIGM    THOR    URAN
# ...
 2479.8528     4.2348  -999.2500    45.7549    33.0040   143.6544   108.8153     0.0395     0.0025  -999.2500     0.2232     4.6226 
 2480.0052     2.2932  -999.2500    49.2443    34.4806   146.8756   115.9438     0.0391     0.0010  -999.2500     0.2697     5.2272 
 2480.1576     2.1810  -999.2500    53.8243    37.2913   148.7106   119.9129     0.0432     0.0005  -999.2500     0.4036     5.7496 
 2480.3100     3.2715  -999.2500    54.0727    39.7817   149.1329   121.7010     0.0487     0.0005  -999.2500     0.7104     5.6559 
 2480.4624     4.4444  -999.2500    50.0668    42.4356   148.5336   121.6497     0.0542     0.0006  -999.2500     1.0397     5.0793 
 2480.6148     7.3612  -999.2500    47.5264    42.0765   145.7075   118.1700     0.0586     0.0014  -999.2500     1.5314     4.4717 
 2480.7672     9.3993  -999.2500    46.0448    40.4390   140.0671   110.6411     0.0587     0.0024  -999.2500     1.7200     4.0799 
 2480.9196    10.6925  -999.2500    45.3122    38.4044   134.5278   102.9663     0.0554     0.0031  -999.2500     1.8115     3.8543 
 2481.0720     8.3941  -999.2500    44.9649    37.2137   131.7360    98.9184     0.0509     0.0025  -999.2500     1.4032     4.0716 
 2481.2244     4.7116  -999.2500    45.8468    35.3963   134.5182   102.9244     0.0483     0.0009  -999.2500     0.8105     4.5798 
 2481.3768     2.0382  -999.2500    47.6839    34.4236   137.9002   108.0734     0.0459     0.0007  -999.2500     0.2793     5.0819 
 2481.5292     1.3832  -999.2500    48.9721    34.0497   140.5695   113.1641     0.0447     0.0005  -999.2500     0.1181     5.2983 
 2481.6816     1.0387  -999.2500    49.7653    33.7015   143.4656   119.6584     0.0445     0.0005  -999.2500     0.0913     5.4250 
 2481.8340     0.9253  -999.2500    49.9762    34.1285   143.6618   121.8975     0.0442     0.0005  -999.2500     0.0615     5.4610 
 2481.9864     0.9432  -999.2500    48.2195    33.9279   143.4634   124.1176     0.0446     0.0005  -999.2500     0.0656     5.2634 
 2482.1388     1.3787  -999.2500    43.4909    33.6974   142.8755   125.9030     0.0434     0.0020  -999.2500     0.0435     4.6885 
 2482.2912     4.1793  -999.2500    42.2094    33.4933   141.8251   125.9411     0.0422     0.0078  -999.2500     0.0427     4.2341 
 2482.4436    11.4183  -999.2500    42.5618    32.7876   140.3946   124.6272     0.0447     0.0073  -999.2500     0.0399     3.4673 
 2482.5960     9.5374  -999.2500    43.4400    32.9681   138.7163   122.6624     0.0425     0.0007  -999.2500     0.0398     3.7745 
 2482.7484     0.8013  -999.2500    48.2867    33.4932   137.3148   121.0125     0.0406     0.0005  -999.2500     0.0427     5.2867 
 2482.9008     0.9138  -999.2500    51.1925    34.8041   136.2750   119.4368     0.0394     0.0005  -999.2500     0.0686     5.5977 
 2483.0532     1.5979  -999.2500    50.1911    37.0753   135.2884   118.4137     0.0386     0.0005  -999.2500     0.2477     5.4101 
 2483.2056     2.5563  -999.2500    48.4822    38.0965   134.6517   118.6180     0.0386     0.0006  -999.2500     0.5210     5.1131 
 2483.3580     3.9958  -999.2500    46.5961    38.5842   134.5781   119.9128     0.0384     0.0015  -999.2500     0.7141     4.7428 
 2483.5104     4.1562  -999.2500    46.2919    38.4899   134.9766   121.2517     0.0397     0.0012  -999.2500     0.5903     4.6911 
 2483.6628     5.0540  -999.2500    48.0030    38.3375   135.3001   122.4357     0.0417     0.0013  -999.2500     0.9001     4.7817 
 2483.8152     5.7447  -999.2500    50.0137    38.5373   135.7953   123.3516     0.0427     0.0024  -999.2500     1.1163     4.9287 
 2483.9676     8.2951  -999.2500    50.5256    39.6034   136.1167   124.2268     0.0428     0.0052  -999.2500     0.8959     4.7017 
 2484.1200     9.8561  -999.2500    49.2825    39.7979   135.8724   125.5379     0.0423     0.0062  -999.2500     0.5743     4.3895 
 2484.2724    11.5366  -999.2500    46.6952    39.8524   135.3263   126.6409     0.0418     0.0063  -999.2500     0.7046     3.9143 
 2484.4248    10.9964  -999.2500    45.5952    39.2129   134.5342   127.1974     0.0413     0.0051  -999.2500     0.7478     3.8520 
 2484.5772     9.5617  -999.2500    45.9663    38.4474   134.1974   127.6804     0.0417     0.0041  -999.2500     0.8831     4.0531 
 2484.7296     9.1636  -999.2500    46.4882    38.5048   133.9812   128.7289     0.0421     0.0040  -999.2500     0.9930     4.1555 
 2484.8820     8.8521  -999.2500    47.1166    39.1646   133.7348   129.2687     0.0425     0.0033  -999.2500     1.0314     4.2601 
 2485.0344     8.0358  -999.2500    48.2339    40.3944   134.0196   130.5283     0.0418     0.0026  -999.2500     1.0838     4.4754 
 2485.1868     6.4237  -999.2500    48.8501    41.2627   134.6347   132.2607     0.0421     0.0021  -999.2500     0.7908     4.7235 
 2485.3392     5.6429  -999.2500    49.6378    41.4164   135.7780   133.8337     0.0438     0.0027  -999.2500     0.7119     4.8981 
 2485.4916     5.7827  -999.2500    50.1025    41.3033   136.1359   134.2870     0.0425     0.0029  -999.2500     0.5174     4.9343 
 2485.6440     5.1195  -999.2500    52.9394    41.1914   136.1022   134.1466     0.0415     0.0035  -999.2500     0.1658     5.3240 
 2485.7964     5.2040  -999.2500    52.8668    41.1643   135.2018   132.9069     0.0409     0.0009  -999.2500     0.1600     5.3065 
 2485.9488     1.9918  -999.2500    50.4368    41.9261   133.7916   131.1326     0.0388     0.0005  -999.2500     0.2979     5.3936 
 2486.1012     2.9364  -999.2500    50.4412    43.0419   132.8605   129.0527     0.0383     0.0005  -999.2500     0.6202     5.2889 
 2486.2536     2.6509  -999.2500    50.8027    44.2777   132.8089   127.9391     0.0386     0.0019  -999.2500     0.3906     5.3111 
 2486.4060     4.3138  -999.2500    51.1835    44.9203   133.9576   126.9644     0.0388     0.0028  -999.2500     0.2507     5.2013 
 2486.5584     5.5372  -999.2500    51.0975    44.8868   135.2651   125.6800     0.0386     0.0038  -999.2500     0.2655     4.8778 
 2486.7108     6.6545  -999.2500    49.8148    43.5926   136.0494   125.1074     0.0375     0.0033  -999.2500     0.3819     4.7485 
 2486.8632     4.6036  -999.2500    47.5524    42.1086   136.7151   124.9215     0.0352     0.0020  -999.2500     0.3101     4.7488 
 2487.0156     3.3635  -999.2500    46.3356    39.1847   137.0226   126.2949     0.0336     0.0015  -999.2500     0.2975     4.8261 
 2487.1680     1.9460  -999.2500    47.6243    37.7623   137.4763   128.8132     0.0361     0.0010  -999.2500     0.2270     5.3074 
 2487.3204     2.2257  -999.2500    50.8467    37.9601   139.0892   132.9531     0.0388     0.0012  -999.2500     0.1491     5.6358 
 2487.4728     2.8508  -999.2500    52.4572    38.4682   141.2793   139.7918     0.0393     0.0009  -999.2500     0.1507     5.3273 
 2487.6252     5.0151  -999.2500    50.2706    39.2851   143.3191   143.4476     0.0381     0.0008  -999.2500     0.6742     5.1075 
 2487.7776     6.7059  -999.2500    51.2546    39.0638   144.6594   146.0034     0.0388     0.0017  -999.2500     1.2439     4.9767 
 2487.9300     6.8905  -999.2500    51.4423    38.9667   145.6500   148.6759     0.0407     0.0020  -999.2500     1.2033     4.9521 
 2488.0824     7.7304  -999.2500    51.1019    38.1960   146.6853   151.7956     0.0405     0.0037  -999.2500     1.0985     4.6657 
 2488.2348     7.3728  -999.2500    49.1257    37.6242   147.2640   153.9162     0.0383     0.0042  -999.2500     0.6074     4.5887 
 2488.3872     6.7422  -999.2500    48.3855    37.6922   147.6982   155.9447     0.0373     0.0039  -999.2500     0.3658     4.5628 
 2488.5396     7.0090  -999.2500    47.5598    37.3857   147.9741   156.9128     0.0369     0.0038  -999.2500     0.3665     4.5024 
 2488.6920     8.3207  -999.2500    47.4581    37.6995   147.8612   156.8036     0.0373     0.0030  -999.2500     0.6194     4.2919 
 2488.8444     8.7079  -999.2500    46.8769    38.6504   147.3602   155.6956     0.0390     0.0027  -999.2500     1.2909     4.2678 
 2488.9968     9.2890  -999.2500    47.1526    38.2475   146.5838   154.2679     0.0383     0.0029  -999.2500     1.4485     4.3280 
