~Version Information
 VERS.                  2.0:   CWLS log ASCII Standard -VERSION 2.0
 WRAP.                   NO:   One line per depth step
~Well Information Block
#MNEM.UNIT       Data Type    Information
#---------     -----------    ---------------------------
 STRT.M               760.0188:
 STOP.M              2903.9820:
 STEP.M                 0.1524:
 NULL.               -999.2500:
 UWI .                   1019D:  UWI
 API .                   1019D:  UWI
 WELL.                   1019D:  COMMON WELL NAME
 COMP.                 UNKNOWN:  WELL OPERATOR
 FLD .                 UNKNOWN:  FIELD
 LIC .                 UNKNOWN:  AUTHORIZATION NO
 LOC .                 UNKNOWN:  BASIN
 CTRY.                 UNKNOWN:  COUNTRY
 STAT.                 UNKNOWN:  STATE
 CNTY.                 UNKNOWN:  COUNTY
 PROV.                 UNKNOWN:  STATE
 SRVC.                 UNKNOWN:  COMPANY
 DATE.                 UNKNOWN:  LOG RUN DATE
 LONG.                -92.0500:  LONGITUDE
 LATI.                 19.4617:  LATITUDE
 XCOORD.           599718.1875:  X COORDINATE
 YCOORD.          2152056.5000:  Y COORDINATE
 ELEV.M                 0.0000:  ELEVATION
 TD  .M              2900.0000:  TOTAL DEPTH
~Parameter Information Block
#MNEM.UNIT       Value        Description
#---------     -----------    ---------------------------
~Curve Information Block
#MNEM.UNIT                 API CODE     Curve Description
#---------               -----------    ---------------------------
 DEPTH.M                00 000 000 000:  Index Curve
 CGR .GAPI              00 000 000 000:  Gamma ray; Uranium-free
 DT  .US/F              00 000 000 000:  Acoustic wave travel time
 GR  .GAPI              00 000 000 000:  Gamma ray; total
 GR-LWD.GAPI            00 000 000 000:  
 ILD-LWD.OHMM           00 000 000 000:  
 ILM-LWD.OHMM           00 000 000 000:  
 NPHI.V/V               00 000 000 000:  Neutron porosity
 POTA.                  00 000 000 000:  Potassium contribution from spectral gamma ray
 SIGM.CU                00 000 000 000:  Sigma (neutron capture cross-section)
 THOR.PPM               00 000 000 000:  Thorium contribution from spectral gamma ray
 URAN.PPM               00 000 000 000:  Uranium contribution from spectral gamma ray
~A DEPTH        CGR    DT    GR   GR-LWD   ILD-LWD   ILM-LWD    NPHI    POTA    SIGM    THOR    URAN
# ...
 2414.7780  -999.2500    98.1743    27.1767    29.5798  -999.2500  -999.2500  -999.2500  -999.2500  -999.2500  -999.2500  -999.2500 
 2414.9304  -999.2500    98.1651    27.4402    28.4100  -999.2500  -999.2500  -999.2500  -999.2500  -999.2500  -999.2500  -999.2500 
 2415.0828  -999.2500    98.1400    28.2552    28.3327  -999.2500  -999.2500  -999.2500  -999.2500  -999.2500  -999.2500  -999.2500 
 2415.2352  -999.2500    98.2385    28.2010    30.1454  -999.2500  -999.2500  -999.2500  -999.2500  -999.2500  -999.2500  -999.2500 
 2415.3876  -999.2500    98.2696    28.4159    32.1851  -999.2500  -999.2500  -999.2500  -999.2500  -999.2500  -999.2500  -999.2500 
 2415.5400  -999.2500    98.7909    26.4291    34.0727  -999.2500  -999.2500  -999.2500  -999.2500  -999.2500  -999.2500  -999.2500 
 2415.6924  -999.2500    99.1721    26.2440    35.4662  -999.2500  -999.2500  -999.2500  -999.2500  -999.2500  -999.2500  -999.2500 
 2415.8448  -999.2500    99.4229    25.1674    35.6830  -999.2500  -999.2500  -999.2500  -999.2500  -999.2500  -999.2500  -999.2500 
 2415.9972  -999.2500    99.4852    25.5992    35.3776  -999.2500  -999.2500  -999.2500  -999.2500  -999.2500  -999.2500  -999.2500 
 2416.1496  -999.2500    99.5386    22.5152    34.6124     1.7723     1.8421  -999.2500  -999.2500  -999.2500  -999.2500  -999.2500 
 2416.3020  -999.2500    99.5768    23.0067    32.9243     1.8704     1.9186  -999.2500  -999.2500  -999.2500  -999.2500  -999.2500 
 2416.4544  -999.2500    99.5768    24.2403    31.3060     1.9896     2.0182  -999.2500  -999.2500  -999.2500  -999.2500  -999.2500 
 2416.6068  -999.2500    99.5768    29.4215    29.8081     2.0937     2.1128  -999.2500  -999.2500  -999.2500  -999.2500  -999.2500 
 2416.7592  -999.2500    99.5768    32.9989    29.6339     2.1309     2.1643  -999.2500  -999.2500  -999.2500  -999.2500  -999.2500 
 2416.9116  -999.2500    99.5768    34.2942    29.9674     2.1296     2.1769  -999.2500  -999.2500  -999.2500  -999.2500  -999.2500 
 2417.0640  -999.2500    99.5768    33.8625    29.9565     2.1031     2.1692  -999.2500  -999.2500  -999.2500  -999.2500  -999.2500 
 2417.2164  -999.2500    99.5768    33.2457    30.2905     2.0946     2.1594  -999.2500  -999.2500  -999.2500  -999.2500  -999.2500 
 2417.3688  -999.2500    99.5768    33.7671    30.7609     2.1146     2.1744  -999.2500  -999.2500  -999.2500  -999.2500  -999.2500 
 2417.5212  -999.2500    99.5768    33.5821    31.0135     2.1553     2.2145  -999.2500  -999.2500  -999.2500  -999.2500  -999.2500 
 2417.6736  -999.2500    99.5768    32.7803    31.0246     2.2023     2.2671  -999.2500  -999.2500  -999.2500  -999.2500  -999.2500 
 2417.8260  -999.2500    99.5768    33.2317    31.1685     2.2502     2.3266  -999.2500  -999.2500  -999.2500  -999.2500  -999.2500 
 2417.9784  -999.2500    99.5768    33.2934    31.4857     2.2829     2.3697  -999.2500  -999.2500  -999.2500  -999.2500  -999.2500 
 2418.1308  -999.2500    99.5768    32.2819    31.3349     2.2863     2.3733  -999.2500  -999.2500  -999.2500  -999.2500  -999.2500 
 2418.2832  -999.2500    99.5768    30.8811    31.2033     2.2741     2.3520  -999.2500  -999.2500  -999.2500  -999.2500  -999.2500 
 2418.4356  -999.2500    99.5768    30.8523    30.9605     2.2464     2.3038  -999.2500  -999.2500  -999.2500  -999.2500  -999.2500 
 2418.5880  -999.2500    99.5768    32.4722    30.6963     2.2113     2.2435  -999.2500  -999.2500  -999.2500  -999.2500  -999.2500 
 2418.7404  -999.2500    99.5768    33.2001    30.7335     2.1756     2.1742  -999.2500  -999.2500  -999.2500  -999.2500  -999.2500 
 2418.8928  -999.2500    99.5768    32.7759    30.9373     2.1667     2.1153  -999.2500  -999.2500  -999.2500  -999.2500  -999.2500 
 2419.0452    36.8823    99.5768    33.1843    31.9087     2.2787     2.1158     0.2403     0.0142  -999.2500     5.2539     0.5269 
 2419.1976    40.4959    99.5768    42.7576    32.7477     2.4578     2.1621     0.2366     0.0157  -999.2500     5.6313     0.1599 
 2419.3500    38.5302    99.5768    43.1039    33.9761     2.6199     2.2140     0.2114     0.0148  -999.2500     5.4637     0.4905 
 2419.5024    35.2276    98.8881    43.1428    35.5020     2.7696     2.2666     0.1831     0.0138  -999.2500     4.8645     0.8813 
 2419.6548    30.3267    98.1993    44.0319    35.6176     2.8380     2.2911     0.1854     0.0127  -999.2500     4.3127     1.5259 
 2419.8072    30.1415    97.8478    45.1655    36.8414     2.7763     2.2253     0.1849     0.0138  -999.2500     3.0967     1.6727 
 2419.9596    32.7699   101.9157    46.3520    40.0053     2.7580     2.1898     0.1784     0.0152  -999.2500     2.9969     1.5121 
 2420.1120    37.8637   100.9442    47.4795    42.9091     2.7378     2.1578     0.1657     0.0161  -999.2500     3.5818     1.0706 
 2420.2644    43.1586    99.5768    49.5310    45.9173     2.7386     2.1419     0.1629     0.0175  -999.2500     4.9910     0.7094 
 2420.4168    43.8945    99.5768    51.6446    47.9896     2.7313     2.1262     0.1683     0.0181  -999.2500     5.2812     0.8628 
 2420.5692    44.9569    99.5768    52.7946    49.9880     2.6902     2.1094     0.1686     0.0202  -999.2500     4.7259     0.8726 
 2420.7216    46.3420    99.5768    52.6714    51.0631     2.6098     2.0963     0.1651     0.0217  -999.2500     4.5182     0.7047 
 2420.8740    46.0624    99.5768    51.8874    50.2953     2.5391     2.1173     0.1641     0.0208  -999.2500     4.5393     0.6485 
 2421.0264    44.0007    99.5768    51.0148    49.0340     2.5296     2.1801     0.1500     0.0200  -999.2500     4.7847     0.7847 
 2421.1788    43.3341    99.5768    50.4512    46.8754     2.6320     2.2857     0.1252     0.0191  -999.2500     4.4252     0.7954 
 2421.3312    41.9579    99.5768    49.1280    45.3515     2.7657     2.4117     0.1154     0.0191  -999.2500     4.3178     0.7983 
 2421.4836    40.9215    99.5768    47.4561    44.6256     2.8730     2.5302     0.1082     0.0195  -999.2500     3.8647     0.7275 
 2421.6360    38.6742    99.5768    46.6691    44.5639     2.8907     2.5845     0.1009     0.0185  -999.2500     3.7886     0.8901 
 2421.7884    35.4361    99.5768    46.3047    44.8925     2.8477     2.5925     0.0760     0.0170  -999.2500     3.5109     1.1455 
 2421.9408    34.6201    99.5768    45.4459    43.8360     2.7721     2.5677     0.0573     0.0161  -999.2500     3.2440     1.2053 
 2422.0932    31.7430    99.5768    43.4822    40.4333     2.7199     2.5570     0.0459     0.0162  -999.2500     2.5885     1.3070 
 2422.2456    28.8591    99.5768    41.1947    38.2268     2.7202     2.5701     0.0478     0.0174  -999.2500     1.7328     1.3734 
 2422.3980    26.8419    99.5768    37.6655    35.3997     2.8173     2.6350     0.0559     0.0188  -999.2500     0.7494     1.2051 
 2422.5504    29.1690    99.5768    37.1064    34.8540     2.9282     2.7044     0.0753     0.0184  -999.2500     0.5680     0.8280 
 2422.7028    30.2598    99.5768    35.9083    39.9870     2.9536     2.7053     0.0882     0.0179  -999.2500     1.2857     0.6289 
 2422.8552    27.1076    99.5768    35.5408    43.0033     2.9183     2.6509     0.1088     0.0178  -999.2500     0.6244     0.9389 
 2423.0076    26.8203    99.5768    36.7199    45.2083     2.9107     2.6093     0.1178     0.0170  -999.2500     0.8732     1.1022 
 2423.1600    28.2959    99.5768    39.5222    46.0895     3.0231     2.6472     0.1225     0.0171  -999.2500     1.2508     1.2499 
 2423.3124    30.5799    99.5768    42.2721    46.6638     3.1549     2.7103     0.1227     0.0176  -999.2500     1.6849     1.3017 
 2423.4648    35.4863    99.5768    44.3162    46.5070     3.3467     2.8161     0.1236     0.0192  -999.2500     2.4497     0.9831 
 2423.6172    40.2530    99.5768    45.4148    46.4800     3.4854     2.8961     0.1291     0.0201  -999.2500     3.4585     0.5747 
 2423.7696    39.0630    99.5768    45.7792    46.3591     3.6126     2.9700     0.1309     0.0188  -999.2500     3.6054     0.7477 
 2423.9220    37.2847    99.5768    46.5161    46.4739     3.7078     3.0248     0.1340     0.0173  -999.2500     3.7065     1.0278 
