~Version Information
 VERS.                  2.0:   CWLS log ASCII Standard -VERSION 2.0
 WRAP.                   NO:   One line per depth step
~Well Information Block
#MNEM.UNIT       Data Type    Information
#---------     -----------    ---------------------------
 STRT.M               760.0188:
 STOP.M              2903.9820:
 STEP.M                 0.1524:
 NULL.               -999.2500:
 UWI .                   1019D:  UWI
 API .                   1019D:  UWI
 WELL.                   1019D:  COMMON WELL NAME
 COMP.                 UNKNOWN:  WELL OPERATOR
 FLD .                 UNKNOWN:  FIELD
 LIC .                 UNKNOWN:  AUTHORIZATION NO
 LOC .                 UNKNOWN:  BASIN
 CTRY.                 UNKNOWN:  COUNTRY
 STAT.                 UNKNOWN:  STATE
 CNTY.                 UNKNOWN:  COUNTY
 PROV.                 UNKNOWN:  STATE
 SRVC.                 UNKNOWN:  COMPANY
 DATE.                 UNKNOWN:  LOG RUN DATE
 LONG.                -92.0500:  LONGITUDE
 LATI.                 19.4617:  LATITUDE
 XCOORD.           599718.1875:  X COORDINATE
 YCOORD.          2152056.5000:  Y COORDINATE
 ELEV.M                 0.0000:  ELEVATION
 TD  .M              2900.0000:  TOTAL DEPTH
~Parameter Information Block
#MNEM.UNIT       Value        Description
#---------     -----------    ---------------------------
~Curve Information Block
#MNEM.UNIT                 API CODE     Curve Description
#---------               -----------    ---------------------------
 DEPTH.M                00 000 000 000:  Index Curve
 CGR .GAPI              00 000 000 000:  Gamma ray; Uranium-free
 DT  .US/F              00 000 000 000:  Acoustic wave travel time
 GR  .GAPI              00 000 000 000:  Gamma ray; total
 GR-LWD.GAPI            00 000 000 000:  
 ILD-LWD.OHMM           00 000 000 000:  
 ILM-LWD.OHMM           00 000 000 000:  
 NPHI.V/V               00 000 000 000:  Neutron porosity
 POTA.                  00 000 000 000:  Potassium contribution from spectral gamma ray
 SIGM.CU                00 000 000 000:  Sigma (neutron capture cross-section)
 THOR.PPM               00 000 000 000:  Thorium contribution from spectral gamma ray
 URAN.PPM               00 000 000 000:  Uranium contribution from spectral gamma ray
~A DEPTH        CGR    DT    GR   GR-LWD   ILD-LWD   ILM-LWD    NPHI    POTA    SIGM    THOR    URAN
# ...
 2637.8916     1.1298  -999.2500    24.3202    15.5389   201.2784   228.3128     0.0751     0.0004     9.3742     0.1747     2.5997 
 2638.0440     1.6817  -999.2500    26.3943    16.2914   207.4610   236.6327     0.0725     0.0004     9.3834     0.3326     2.7513 
 2638.1964     2.0317  -999.2500    30.5229    17.5701   211.8689   235.4999     0.0699     0.0004     9.4460     0.3700     3.1720 
 2638.3488     2.4989  -999.2500    30.6565    19.3301   209.2989   226.5720     0.0730     0.0004     9.5569     0.4853     3.1192 
 2638.5012     2.5375  -999.2500    30.3750    21.4168   203.2408   206.9494     0.0768     0.0018     9.6472     0.5237     3.0993 
 2638.6536     6.9479  -999.2500    30.8825    24.4109   193.7968   181.8900     0.0768     0.0027     9.6386     0.8112     2.6672 
 2638.8060     8.9487  -999.2500    31.3261    25.8774   183.0344   159.7411     0.0742     0.0035     9.5790     1.1278     2.5016 
 2638.9584    11.5288  -999.2500    34.8864    26.6095   181.0528   155.9142     0.0681     0.0046     9.4027     1.5555     2.6693 
 2639.1108    11.4922  -999.2500    38.4050    27.4792   177.7776   151.4433     0.0604     0.0058     9.2101     1.0926     3.0527 
 2639.2632    11.0111  -999.2500    37.4919    29.4134   174.7049   147.3560     0.0519     0.0054     9.0277     1.0118     2.8459 
 2639.4156    11.6762  -999.2500    32.9005    31.7017   171.2890   142.9148     0.0471     0.0057     8.7963     1.0514     2.3400 
 2639.5680    12.5471  -999.2500    27.9525    33.0259   167.3745   138.3924     0.0455     0.0056     8.6348     1.2284     1.6682 
 2639.7204    10.6739  -999.2500    24.6077    32.3469   163.1793   134.1580     0.0431     0.0042     8.6280     1.3774     1.4719 
 2639.8728     8.8292  -999.2500    22.5795    29.0372   157.3616   128.4426     0.0433     0.0033     8.7310     1.2617     1.4407 
 2640.0252     8.4278  -999.2500    20.7970    24.5412   152.1063   123.8938     0.0464     0.0027     8.9206     1.2224     1.3771 
 2640.1776     7.8546  -999.2500    21.6298    21.4888   148.5742   120.7510     0.0509     0.0024     9.3107     1.4089     1.6029 
 2640.3300     7.0111  -999.2500    24.9962    20.1681   149.1369   123.5296     0.0610     0.0029     9.6826     0.9837     2.0023 
 2640.4824     6.4310  -999.2500    30.2730    23.8920   151.5045   129.0614     0.0675     0.0042     9.9975     0.1868     3.0320 
 2640.6348     7.1423  -999.2500    42.5111    23.8920   155.4612   136.9799     0.0766     0.0048    10.1123     0.1195     3.9377 
 2640.7872     6.0596  -999.2500    46.7037    22.5692   161.8502   150.0426     0.0787     0.0024    10.0383     0.1043     4.5251 
 2640.9396     1.3720  -999.2500    52.9886    19.1393   176.0267   179.8467     0.0794     0.0008     9.8629     0.0727     5.7467 
 2641.0920     1.2670  -999.2500    53.6109    15.8526   182.7815   194.6116     0.0789     0.0005     9.7367     0.1069     5.8276 
 2641.2444     1.8764  -999.2500    50.2714    15.0398   185.2325   198.4125     0.0792     0.0007     9.7307     0.1674     5.3880 
 2641.3968     4.3806  -999.2500    47.4113    14.9792   180.3658   184.3337     0.0796     0.0019     9.7954     0.3878     4.7907 
 2641.5492    11.6530  -999.2500    44.2457    18.3533   164.2023   144.8276     0.0862     0.0044     9.8879     0.8977     3.5530 
 2641.7016    14.1719  -999.2500    42.8448    28.4436   154.9638   123.0748     0.0903     0.0054    10.0133     1.8504     3.0821 
 2641.8540    13.4072  -999.2500    41.2371    37.0878   151.1723   114.0632     0.0960     0.0049    10.2331     1.8340     3.0380 
 2642.0064    12.8149  -999.2500    39.8289    41.2888   150.7813   110.6230     0.1015     0.0042    10.3867     1.7506     3.0076 
 2642.1588    10.5677  -999.2500    37.2575    37.5997   150.6476   110.1780     0.1197     0.0026    10.6112     1.6450     2.9715 
 2642.3112     8.7210  -999.2500    34.1852    34.6679   150.8545   109.9337     0.1324     0.0025    10.7047     1.4896     2.8350 
 2642.4636     8.6637  -999.2500    31.5199    32.4263   151.9994   110.7387     0.1370     0.0022    10.5528     1.5727     2.5447 
 2642.6160     9.3307  -999.2500    27.8114    30.6844   154.6004   112.8658     0.1291     0.0020    10.0179     1.8575     2.0575 
 2642.7684     7.3002  -999.2500    25.9795    30.2388   156.0529   114.6015     0.1125     0.0014     9.5127     1.5182     2.0797 
 2642.9208     3.2506  -999.2500    23.6902    29.2611   157.9125   115.1710     0.0917     0.0003     9.0520     1.2887     2.2757 
 2643.0732     2.5100  -999.2500    23.5095    26.2636   159.0775   114.9462     0.0823     0.0003     8.7752     0.6806     2.3379 
 2643.2256     1.1773  -999.2500    23.1780    23.9993   162.5793   117.5344     0.0714     0.0003     8.6602     0.4719     2.4494 
 2643.3780     1.7950  -999.2500    22.9778    21.4974   170.5982   126.1654     0.0701     0.0003     8.6577     0.2244     2.3584 
 2643.5304     3.1098  -999.2500    21.8250    19.5486   181.5578   141.5156     0.0685     0.0003     8.7481     0.5303     2.0410 
 2643.6828     5.1412  -999.2500    20.7791    18.0373   201.0751   173.5539     0.0688     0.0012     8.8240     0.8275     1.6943 
 2643.8352     6.4635  -999.2500    20.1303    16.4683   217.9802   203.0064     0.0723     0.0037     8.8719     0.9836     1.2877 
 2643.9876     9.1273  -999.2500    19.6109    16.2606   233.5628   234.2359     0.0723     0.0044     8.8739     1.0037     1.1671 
 2644.1400    10.2799  -999.2500    19.5828    15.9206   243.5021   254.0751     0.0688     0.0044     8.8161     1.1088     1.0357 
 2644.2924     9.3015  -999.2500    19.6755    15.6676   253.0417   273.9265     0.0618     0.0038     8.7450     1.0890     1.1550 
 2644.4448     6.8533  -999.2500    20.0284    15.2063   263.0503   297.0656     0.0618     0.0029     8.7016     0.7750     1.4668 
 2644.5972     3.8476  -999.2500    20.0127    14.8047   273.7829   326.0795     0.0612     0.0020     8.6426     0.3083     1.7997 
 2644.7496     4.1778  -999.2500    20.6584    14.4160   281.9843   349.9295     0.0583     0.0027     8.6076     0.1059     1.8349 
 2644.9020     6.2117  -999.2500    19.9422    14.2705   288.4886   372.2720     0.0569     0.0042     8.6007     0.0964     1.5287 
 2645.0544     6.8850  -999.2500    19.2957    14.2298   292.3716   383.5883     0.0592     0.0040     8.6499     0.1836     1.3817 
 2645.2068     5.7883  -999.2500    19.9663    14.5527   291.0406   377.7566     0.0629     0.0028     8.7654     0.4681     1.5785 
 2645.3592     6.6343  -999.2500    20.7512    14.5886   286.6462   361.0196     0.0699     0.0020     8.9236     0.6911     1.5717 
 2645.5116     9.5948  -999.2500    21.0218    14.7963   281.9218   340.9865     0.0773     0.0014     9.1413     1.3584     1.3426 
 2645.6640     8.3829  -999.2500    21.8162    14.6032   277.7957   328.9230     0.0846     0.0008     9.3354     2.1967     1.5041 
 2645.8164     7.5973  -999.2500    21.8795    14.6439   273.0135   314.2106     0.0992     0.0005     9.5320     1.8929     1.5901 
 2645.9688     5.4980  -999.2500    22.0292    14.9495   263.9525   295.4664     0.1065     0.0009     9.7103     1.3210     1.8405 
 2646.1212     6.0725  -999.2500    22.0407    15.0727   256.8811   280.5766     0.1076     0.0016     9.8676     1.2522     1.7778 
 2646.2736     6.5178  -999.2500    21.4225    16.0218   246.9475   259.5336     0.1105     0.0021     9.9558     0.9964     1.6594 
 2646.4260     6.1862  -999.2500    20.3647    16.5883   237.4296   240.0115     0.1106     0.0028     9.9475     0.6488     1.5785 
 2646.5784     6.7391  -999.2500    18.9598    17.2479   226.8272   219.7589     0.1114     0.0038     9.8962     0.4176     1.3605 
 2646.7308     7.1854  -999.2500    18.5478    17.5459   219.2953   207.4749     0.1210     0.0047     9.8337     0.1932     1.2650 
 2646.8832     6.5950  -999.2500    20.7740    18.1225   206.3183   186.4373     0.1276     0.0045     9.8155     0.1167     1.5786 
 2647.0356     5.8452  -999.2500    22.3783    18.3648   197.3578   174.4402     0.1315     0.0040     9.8234     0.0767     1.8407 
