~Version Information
 VERS.                  2.0:   CWLS log ASCII Standard -VERSION 2.0
 WRAP.                   NO:   One line per depth step
~Well Information Block
#MNEM.UNIT       Data Type    Information
#---------     -----------    ---------------------------
 STRT.M               760.0188:
 STOP.M              2903.9820:
 STEP.M                 0.1524:
 NULL.               -999.2500:
 UWI .                   1019D:  UWI
 API .                   1019D:  UWI
 WELL.                   1019D:  COMMON WELL NAME
 COMP.                 UNKNOWN:  WELL OPERATOR
 FLD .                 UNKNOWN:  FIELD
 LIC .                 UNKNOWN:  AUTHORIZATION NO
 LOC .                 UNKNOWN:  BASIN
 CTRY.                 UNKNOWN:  COUNTRY
 STAT.                 UNKNOWN:  STATE
 CNTY.                 UNKNOWN:  COUNTY
 PROV.                 UNKNOWN:  STATE
 SRVC.                 UNKNOWN:  COMPANY
 DATE.                 UNKNOWN:  LOG RUN DATE
 LONG.                -92.0500:  LONGITUDE
 LATI.                 19.4617:  LATITUDE
 XCOORD.           599718.1875:  X COORDINATE
 YCOORD.          2152056.5000:  Y COORDINATE
 ELEV.M                 0.0000:  ELEVATION
 TD  .M              2900.0000:  TOTAL DEPTH
~Parameter Information Block
#MNEM.UNIT       Value        Description
#---------     -----------    ---------------------------
~Curve Information Block
#MNEM.UNIT                 API CODE     Curve Description
#---------               -----------    ---------------------------
 DEPTH.M                00 000 000 000:  Index Curve
 CGR .GAPI              00 000 000 000:  Gamma ray; Uranium-free
 DT  .US/F              00 000 000 000:  Acoustic wave travel time
 GR  .GAPI              00 000 000 000:  Gamma ray; total
 GR-LWD.GAPI            00 000 000 000:  
 ILD-LWD.OHMM           00 000 000 000:  
 ILM-LWD.OHMM           00 000 000 000:  
 NPHI.V/V               00 000 000 000:  Neutron porosity
 POTA.                  00 000 000 000:  Potassium contribution from spectral gamma ray
 SIGM.CU                00 000 000 000:  Sigma (neutron capture cross-section)
 THOR.PPM               00 000 000 000:  Thorium contribution from spectral gamma ray
 URAN.PPM               00 000 000 000:  Uranium contribution from spectral gamma ray
~A DEPTH        CGR    DT    GR   GR-LWD   ILD-LWD   ILM-LWD    NPHI    POTA    SIGM    THOR    URAN
# ...
 2888.8944    42.6431  -999.2500    69.0059    47.6032    10.2235    10.7342     0.1093     0.0141  -999.2500     6.5118     2.9351 
 2889.0468    42.4514  -999.2500    70.4533    44.5907    10.9328    11.4144     0.1264     0.0153  -999.2500     5.9632     3.1175 
 2889.1992    40.1593  -999.2500    67.1057    43.1028    10.8860    11.2085     0.1151     0.0154  -999.2500     5.2713     3.0001 
 2889.3516    31.9715  -999.2500    57.4606    42.8936    10.2504    10.3989     0.1063     0.0135  -999.2500     3.7122     2.8378 
 2889.5040    28.6143  -999.2500    54.5354    44.4995     9.2873     9.3307     0.0987     0.0126  -999.2500     3.1208     2.8859 
 2889.6564    46.7261  -999.2500    69.7918    48.1939     7.8929     7.8978     0.0916     0.0187  -999.2500     5.8499     2.5680 
 2889.8088    75.6588  -999.2500    99.6551    49.5568     6.4466     6.4047     0.0996     0.0285  -999.2500    10.1623     2.6716 
 2889.9612   130.0819  -999.2500   165.2093    50.0139     6.6926     6.2014     0.1115     0.0475  -999.2500    18.0742     3.9109 
 2890.1136   145.6476  -999.2500   198.4631    46.9439     6.9584     6.0514     0.1266     0.0520  -999.2500    20.6917     5.8801 
 2890.2660   129.1812  -999.2500   198.4938    41.7395     7.6408     6.2288     0.1342     0.0455  -999.2500    18.6022     7.7168 
 2890.4184    96.3090  -999.2500   166.2126    45.8720     7.9695     6.3389     0.1201     0.0351  -999.2500    13.4099     7.7826 
 2890.5708    55.8031  -999.2500   108.7846    52.4636     7.6681     6.0370     0.0969     0.0235  -999.2500     6.4992     5.8986 
 2890.7232    33.9454  -999.2500    75.2933    60.2757     6.8193     5.4184     0.0918     0.0174  -999.2500     2.7351     4.6034 
 2890.8756    31.5207  -999.2500    65.2441    66.5793     5.0811     4.2368     0.0897     0.0161  -999.2500     2.5499     3.7546 
 2891.0280    36.7497  -999.2500    67.6594    61.4359     4.2770     3.7056     0.0901     0.0166  -999.2500     3.8280     3.4413 
 2891.1804    42.9064  -999.2500    73.8157    55.9610     4.0570     3.5460     0.0903     0.0184  -999.2500     4.8681     3.4413 
 2891.3328    44.1600  -999.2500    76.2427    42.6979     4.6503     3.9750     0.0927     0.0194  -999.2500     4.8371     3.5719 
 2891.4852    41.2155  -999.2500    76.7194    34.9365     5.7355     4.8009     0.0970     0.0200  -999.2500     3.7510     3.9528 
 2891.6376    38.7235  -999.2500    76.9131    36.7690     6.6742     5.6411     0.1015     0.0189  -999.2500     3.4678     4.2518 
 2891.7900    35.9232  -999.2500    76.7836    41.4633     7.4110     6.3868     0.1091     0.0162  -999.2500     3.7426     4.5491 
 2891.9424    33.8870  -999.2500    76.2441    47.9166     7.6560     6.8566     0.1155     0.0157  -999.2500     3.3906     4.7158 
 2892.0948    32.5884  -999.2500    75.1247    49.9916     8.1224     7.5430     0.1258     0.0155  -999.2500     3.0801     4.7357 
 2892.2472    31.2518  -999.2500    73.2935    49.9154     8.5678     8.0429     0.1422     0.0171  -999.2500     2.0838     4.6806 
 2892.3996    28.9314  -999.2500    73.2406    46.1837     9.1353     8.6062     0.1644     0.0165  -999.2500     1.6417     4.9331 
 2892.5520    23.7378  -999.2500    74.9073    41.7110     9.6197     9.1077     0.1566     0.0150  -999.2500     0.7937     5.6969 
 2892.7044    21.8392  -999.2500    76.5521    37.4849     9.6989     9.3486     0.1530     0.0137  -999.2500     0.7612     6.0914 
 2892.8568    21.9505  -999.2500    78.3867    36.2867     9.8093     9.7388     0.1516     0.0127  -999.2500     1.1668     6.2832 
 2893.0092    25.9521  -999.2500    78.8608    34.8202     9.9488    10.2456     0.1464     0.0131  -999.2500     2.1795     5.8906 
 2893.1616    31.3586  -999.2500    79.8337    33.7365    10.3106    10.7576     0.1261     0.0139  -999.2500     3.3721     5.3969 
 2893.3140    34.3060  -999.2500    80.6069    32.5793    10.6946    11.2474     0.1111     0.0143  -999.2500     4.0660     5.1548 
 2893.4664    36.2996  -999.2500    81.5532    31.2804    10.9828    11.5143     0.0975     0.0151  -999.2500     4.2960     5.0383 
 2893.6188    36.8299  -999.2500    81.5240    30.3393    10.5051    10.8751     0.1005     0.0160  -999.2500     4.1052     4.9760 
 2893.7712    37.3808  -999.2500    81.5232    30.4320     9.6342     9.7177     0.0993     0.0164  -999.2500     4.1140     4.9145 
 2893.9236  -999.2500  -999.2500  -999.2500    33.6570     8.9021     8.7659     0.0989  -999.2500  -999.2500  -999.2500  -999.2500 
 2894.0760  -999.2500  -999.2500  -999.2500    36.5256     8.3951     8.0426     0.0992  -999.2500  -999.2500  -999.2500  -999.2500 
 2894.2284  -999.2500  -999.2500  -999.2500    39.3041     8.3583     7.8526     0.0978  -999.2500  -999.2500  -999.2500  -999.2500 
 2894.3808  -999.2500  -999.2500  -999.2500    41.1477     8.3381     7.6888     0.0981  -999.2500  -999.2500  -999.2500  -999.2500 
 2894.5332  -999.2500  -999.2500  -999.2500    41.9752     8.5639     7.7953     0.0967  -999.2500  -999.2500  -999.2500  -999.2500 
 2894.6856  -999.2500  -999.2500  -999.2500    42.3606     8.9271     8.0998     0.0950  -999.2500  -999.2500  -999.2500  -999.2500 
 2894.8380  -999.2500  -999.2500  -999.2500    41.9925     9.2505     8.5089     0.0971  -999.2500  -999.2500  -999.2500  -999.2500 
 2894.9904  -999.2500  -999.2500  -999.2500    43.7194     9.5226     8.8588     0.0992  -999.2500  -999.2500  -999.2500  -999.2500 
 2895.1428  -999.2500  -999.2500  -999.2500    44.6950     9.8912     9.3955     0.0970  -999.2500  -999.2500  -999.2500  -999.2500 
 2895.2952  -999.2500  -999.2500  -999.2500    44.3476    10.3075    10.0421     0.0970  -999.2500  -999.2500  -999.2500  -999.2500 
 2895.4476  -999.2500  -999.2500  -999.2500    43.3873    10.7534    10.7681     0.0999  -999.2500  -999.2500  -999.2500  -999.2500 
 2895.6000  -999.2500  -999.2500  -999.2500    41.7694    11.6489    12.3529     0.1032  -999.2500  -999.2500  -999.2500  -999.2500 
 2895.7524  -999.2500  -999.2500  -999.2500    39.8845    12.1970    13.7863     0.1006  -999.2500  -999.2500  -999.2500  -999.2500 
 2895.9048  -999.2500  -999.2500  -999.2500    37.2511    12.5044    14.7629     0.0986  -999.2500  -999.2500  -999.2500  -999.2500 
 2896.0572  -999.2500  -999.2500  -999.2500    34.7570    12.5833    15.2453  -999.2500  -999.2500  -999.2500  -999.2500  -999.2500 
 2896.2096  -999.2500  -999.2500  -999.2500    33.3278    12.4487    15.1950  -999.2500  -999.2500  -999.2500  -999.2500  -999.2500 
 2896.3620  -999.2500  -999.2500  -999.2500    32.4241    12.1480    14.6520  -999.2500  -999.2500  -999.2500  -999.2500  -999.2500 
 2896.5144  -999.2500  -999.2500    49.8505    32.7744    11.7518    13.8294  -999.2500  -999.2500  -999.2500  -999.2500  -999.2500 
 2896.6668  -999.2500  -999.2500    81.7920    38.6785    11.0634    12.4418  -999.2500  -999.2500  -999.2500  -999.2500  -999.2500 
 2896.8192  -999.2500  -999.2500  -999.2500    42.6985    10.2938    11.0864  -999.2500  -999.2500  -999.2500  -999.2500  -999.2500 
 2896.9716  -999.2500  -999.2500  -999.2500    45.0970     9.5573     9.9997  -999.2500  -999.2500  -999.2500  -999.2500  -999.2500 
 2897.1240  -999.2500  -999.2500  -999.2500    44.8008     9.0057     9.2173  -999.2500  -999.2500  -999.2500  -999.2500  -999.2500 
 2897.2764  -999.2500  -999.2500  -999.2500    43.2386     9.0302     9.1220  -999.2500  -999.2500  -999.2500  -999.2500  -999.2500 
 2897.4288  -999.2500  -999.2500  -999.2500    40.5031     9.4609     9.5061  -999.2500  -999.2500  -999.2500  -999.2500  -999.2500 
 2897.5812  -999.2500  -999.2500  -999.2500    33.8906    10.6241    10.7088  -999.2500  -999.2500  -999.2500  -999.2500  -999.2500 
 2897.7336  -999.2500  -999.2500  -999.2500    30.4026    11.9629    12.1910  -999.2500  -999.2500  -999.2500  -999.2500  -999.2500 
 2897.8860  -999.2500  -999.2500  -999.2500    28.3523    13.5654    14.0827  -999.2500  -999.2500  -999.2500  -999.2500  -999.2500 
 2898.0384  -999.2500  -999.2500  -999.2500    28.6885    14.6769    15.5906  -999.2500  -999.2500  -999.2500  -999.2500  -999.2500 
