~Version Information
 VERS.                  2.0:   CWLS log ASCII Standard -VERSION 2.0
 WRAP.                   NO:   One line per depth step
~Well Information Block
#MNEM.UNIT       Data Type    Information
#---------     -----------    ---------------------------
 STRT.M               760.0188:
 STOP.M              2903.9820:
 STEP.M                 0.1524:
 NULL.               -999.2500:
 UWI .                   1019D:  UWI
 API .                   1019D:  UWI
 WELL.                   1019D:  COMMON WELL NAME
 COMP.                 UNKNOWN:  WELL OPERATOR
 FLD .                 UNKNOWN:  FIELD
 LIC .                 UNKNOWN:  AUTHORIZATION NO
 LOC .                 UNKNOWN:  BASIN
 CTRY.                 UNKNOWN:  COUNTRY
 STAT.                 UNKNOWN:  STATE
 CNTY.                 UNKNOWN:  COUNTY
 PROV.                 UNKNOWN:  STATE
 SRVC.                 UNKNOWN:  COMPANY
 DATE.                 UNKNOWN:  LOG RUN DATE
 LONG.                -92.0500:  LONGITUDE
 LATI.                 19.4617:  LATITUDE
 XCOORD.           599718.1875:  X COORDINATE
 YCOORD.          2152056.5000:  Y COORDINATE
 ELEV.M                 0.0000:  ELEVATION
 TD  .M              2900.0000:  TOTAL DEPTH
~Parameter Information Block
#MNEM.UNIT       Value        Description
#---------     -----------    ---------------------------
~Curve Information Block
#MNEM.UNIT                 API CODE     Curve Description
#---------               -----------    ---------------------------
 DEPTH.M                00 000 000 000:  Index Curve
 CGR .GAPI              00 000 000 000:  Gamma ray; Uranium-free
 DT  .US/F              00 000 000 000:  Acoustic wave travel time
 GR  .GAPI              00 000 000 000:  Gamma ray; total
 GR-LWD.GAPI            00 000 000 000:  
 ILD-LWD.OHMM           00 000 000 000:  
 ILM-LWD.OHMM           00 000 000 000:  
 NPHI.V/V               00 000 000 000:  Neutron porosity
 POTA.                  00 000 000 000:  Potassium contribution from spectral gamma ray
 SIGM.CU                00 000 000 000:  Sigma (neutron capture cross-section)
 THOR.PPM               00 000 000 000:  Thorium contribution from spectral gamma ray
 URAN.PPM               00 000 000 000:  Uranium contribution from spectral gamma ray
~A DEPTH        CGR    DT    GR   GR-LWD   ILD-LWD   ILM-LWD    NPHI    POTA    SIGM    THOR    URAN
# ...
 2665.7808    11.3898  -999.2500    44.9716    52.8426   131.8638   124.1306     0.0499     0.0059     9.1443     1.0876     3.7388 
 2665.9332     8.8790  -999.2500    48.0114    59.8526   140.3173   129.0553     0.0411     0.0051     9.0315     0.7808     4.3568 
 2666.0856     5.0944  -999.2500    48.6895    61.3266   152.8582   137.7064     0.0368     0.0029     8.8481     0.3783     4.8536 
 2666.2380     2.1327  -999.2500    45.0897    52.2320   152.2945   139.4482     0.0353     0.0012     8.6826     0.2478     4.7826 
 2666.3904     0.8801  -999.2500    41.9651    41.6220   148.2760   142.0010     0.0328     0.0004     8.5234     0.0935     4.2797 
 2666.5428     0.8639  -999.2500    37.7068    38.5121   143.8528   144.7472     0.0320     0.0004     8.4628     0.0894     3.8014 
 2666.6952     0.7829  -999.2500    33.8850    37.0492   138.4095   149.6831     0.0337     0.0004     8.6139     0.0864     3.4342 
 2666.8476     1.3528  -999.2500    31.2175    37.9900   132.6531   156.5562     0.0362     0.0010     8.8744     0.0963     3.2465 
 2667.0000     2.7433  -999.2500    31.5018    38.6880   127.3130   163.8980     0.0437     0.0024     9.4568     0.2544     3.2018 
 2667.1524     6.2055  -999.2500    35.7364    37.6649   119.9834   167.8204     0.0487     0.0037    10.0519     0.6103     3.2878 
 2667.3048     8.5222  -999.2500    40.4403    33.5869   109.3644   156.9867     0.0582     0.0051    10.5696     0.8218     3.5536 
 2667.4572    11.4009  -999.2500    49.9691    29.2678    98.1441   142.7827     0.0615     0.0064    10.8131     0.9979     4.2939 
 2667.6096    14.1857  -999.2500    54.1091    27.0120    87.6470   125.4030     0.0663     0.0077    10.8151     1.3373     4.4448 
 2667.7620    20.1069  -999.2500    55.5172    26.8546    75.3227   103.7527     0.0700     0.0090    10.7620     2.5501     3.9423 
 2667.9144    25.6616  -999.2500    56.5272    29.7064    61.3509    79.8805     0.0643     0.0096    10.7785     3.4542     3.4364 
 2668.0668    32.5165  -999.2500    63.6852    36.6000    52.1713    62.4419     0.0546     0.0117    10.8701     4.5727     3.4701 
 2668.2192    36.1762  -999.2500    71.5427    44.3921    43.4085    47.5800     0.0551     0.0136    11.0652     4.8659     3.9375 
 2668.3716    33.3551  -999.2500    82.7185    48.5152    39.3569    40.3291     0.0583     0.0141    11.2555     3.8652     5.4958 
 2668.5240    24.4061  -999.2500    90.8478    52.0032    36.3632    35.9229     0.0589     0.0115    11.3915     2.3573     7.3972 
 2668.6764    11.4553  -999.2500   100.0966    55.3895    32.3144    30.2479     0.0655     0.0057    11.3439     0.9922     9.8688 
 2668.8288     9.4462  -999.2500   105.1909    59.0323    29.3897    26.6757     0.0686     0.0042    10.9447     0.9944    10.6596 
 2668.9812    16.2499  -999.2500   105.4003    70.0774    22.3956    20.6023     0.0740     0.0082    10.4347     1.3364     9.9254 
 2669.1336    21.1891  -999.2500   101.7893    81.1538    21.4382    19.6463     0.0692     0.0110     9.7613     1.6403     8.9735 
 2669.2860    19.9524  -999.2500    91.4889    88.2924    20.8861    19.0884     0.0629     0.0095     9.2784     1.8883     7.9645 
 2669.4384    14.8974  -999.2500    79.6880    93.4023    20.3620    18.6103     0.0557     0.0037     9.0233     1.7440     7.2134 
 2669.5908     6.7291  -999.2500    58.5640    93.0478    19.2772    17.5849     0.0514     0.0009     8.8729     1.1837     5.7710 
 2669.7432     4.3428  -999.2500    45.0570    93.3346    17.8360    16.1561     0.0483     0.0014     8.8536     0.8334     4.5329 
 2669.8956     3.4063  -999.2500    35.1044    86.3627    17.4019    15.6768     0.0491     0.0018     8.9730     0.2982     3.5290 
 2670.0480     3.2621  -999.2500    26.2030    76.8175    20.6508    19.8647     0.0511     0.0018     9.1414     0.1502     2.4268 
 2670.2004     4.3457  -999.2500    24.9355    60.9173    26.9337    28.2292     0.0543     0.0025     9.3229     0.2685     2.6092 
 2670.3528     5.0896  -999.2500    29.2164    45.0879    35.3068    40.3544     0.0616     0.0033     9.3977     0.2066     2.9871 
 2670.5052     6.7421  -999.2500    36.9641    33.3867    43.6404    53.4635     0.0697     0.0046     9.3106     0.0935     3.3648 
 2670.6576     8.4081  -999.2500    37.0206    24.5973    49.9488    64.5432     0.0750     0.0051     9.1120     0.1387     3.1855 
 2670.8100    12.4823  -999.2500    35.4639    21.0841    57.9800    78.9462     0.0718     0.0063     9.0064     0.5190     2.5587 
 2670.9624    13.0061  -999.2500    35.2441    20.6831    69.7505    97.1773     0.0639     0.0057     8.9791     1.1983     2.4758 
 2671.1148     8.6876  -999.2500    36.2155    22.3699    82.3265   114.0202     0.0618     0.0032     8.9689     1.4633     3.0648 
 2671.2672     3.4927  -999.2500    36.1134    25.5727    90.4788   119.5147     0.0613     0.0009     9.0002     1.0186     3.6318 
 2671.4196     1.0734  -999.2500    35.5688    29.0081    95.8953   121.1934     0.0623     0.0004     9.1072     0.4576     3.8405 
 2671.5720     2.1438  -999.2500    34.0464    30.7866   101.9158   122.6052     0.0632     0.0003     9.2458     0.4765     3.5519 
 2671.7244     3.7987  -999.2500    31.4705    31.3228   109.6076   123.8330     0.0605     0.0003     9.3449     0.9443     3.0808 
 2671.8768     5.0150  -999.2500    29.2121    29.1845   117.6400   126.5901     0.0606     0.0006     9.3249     1.1748     2.6939 
 2672.0292     6.7167  -999.2500    28.1774    27.2814   124.6809   129.5211     0.0701     0.0018     9.2245     1.1901     2.3893 
 2672.1816     8.0516  -999.2500    25.5128    26.3840   127.0402   129.9083     0.0717     0.0025     9.1399     1.3607     1.9440 
 2672.3340     9.1804  -999.2500    23.4737    25.3739   127.1061   128.8161     0.0646     0.0038     9.0652     1.4288     1.5913 
 2672.4864    10.5249  -999.2500    22.6765    23.9173   123.1007   122.9728     0.0611     0.0045     9.0096     1.3961     1.3529 
 2672.6388    10.0795  -999.2500    24.6466    22.4579   115.1509   113.0408     0.0609     0.0042     8.8899     1.0739     1.7460 
 2672.7912     6.1791  -999.2500    27.6029    21.3857   107.3791   103.1708     0.0598     0.0033     8.7741     0.5862     2.4940 
 2672.9436     3.5441  -999.2500    28.8080    21.2584   100.6240    95.4352     0.0583     0.0023     8.7712     0.2702     2.9457 
 2673.0960     2.3602  -999.2500    28.6008    20.5385   100.3386    96.4367     0.0565     0.0014     8.8690     0.0894     2.9301 
 2673.2484     2.6218  -999.2500    27.1302    20.0673   103.7915   104.7394     0.0560     0.0015     9.1409     0.1174     2.7286 
 2673.4008     3.7187  -999.2500    27.6231    19.5595   107.4279   113.6591     0.0602     0.0021     9.4241     0.1712     2.6614 
 2673.5532     7.9153  -999.2500    30.9213    19.1440   113.0487   129.3567     0.0668     0.0034     9.5199     0.3583     2.5614 
 2673.7056    12.3351  -999.2500    34.9939    19.3864   115.1812   138.9912     0.0734     0.0048     9.3524     1.2619     2.5227 
 2673.8580    15.4560  -999.2500    38.9624    20.6646   115.3192   145.5854     0.0740     0.0059     9.0733     1.7940     2.6171 
 2674.0104    16.3713  -999.2500    40.8177    22.3345   114.7372   148.2231     0.0673     0.0065     8.8267     2.1365     2.7217 
 2674.1628    14.8306  -999.2500    40.5139    23.6553   112.4955   144.9585     0.0527     0.0057     8.6279     1.9678     2.8594 
 2674.3152    12.7194  -999.2500    39.4955    23.7609   110.0284   137.4718     0.0458     0.0045     8.5795     1.9303     2.9811 
 2674.4676    10.0684  -999.2500    38.6025    24.2867   100.2688   115.6589     0.0364     0.0033     8.7782     1.7279     3.1768 
 2674.6200     6.2533  -999.2500    37.4590    27.3290    93.2609   100.2441     0.0348     0.0015     9.0348     1.4480     3.4742 
 2674.7724     4.6299  -999.2500    36.5341    30.1526    82.5112    80.5731     0.0374     0.0014     9.3061     0.9969     3.5520 
 2674.9248     4.9073  -999.2500    33.9908    32.8703    79.5336    75.9188     0.0443     0.0023     9.4363     0.6507     3.2380 
