~Version Information
 VERS.                  2.0:   CWLS log ASCII Standard -VERSION 2.0
 WRAP.                   NO:   One line per depth step
~Well Information Block
#MNEM.UNIT       Data Type    Information
#---------     -----------    ---------------------------
 STRT.M               760.0188:
 STOP.M              2903.9820:
 STEP.M                 0.1524:
 NULL.               -999.2500:
 UWI .                   1019D:  UWI
 API .                   1019D:  UWI
 WELL.                   1019D:  COMMON WELL NAME
 COMP.                 UNKNOWN:  WELL OPERATOR
 FLD .                 UNKNOWN:  FIELD
 LIC .                 UNKNOWN:  AUTHORIZATION NO
 LOC .                 UNKNOWN:  BASIN
 CTRY.                 UNKNOWN:  COUNTRY
 STAT.                 UNKNOWN:  STATE
 CNTY.                 UNKNOWN:  COUNTY
 PROV.                 UNKNOWN:  STATE
 SRVC.                 UNKNOWN:  COMPANY
 DATE.                 UNKNOWN:  LOG RUN DATE
 LONG.                -92.0500:  LONGITUDE
 LATI.                 19.4617:  LATITUDE
 XCOORD.           599718.1875:  X COORDINATE
 YCOORD.          2152056.5000:  Y COORDINATE
 ELEV.M                 0.0000:  ELEVATION
 TD  .M              2900.0000:  TOTAL DEPTH
~Parameter Information Block
#MNEM.UNIT       Value        Description
#---------     -----------    ---------------------------
~Curve Information Block
#MNEM.UNIT                 API CODE     Curve Description
#---------               -----------    ---------------------------
 DEPTH.M                00 000 000 000:  Index Curve
 CGR .GAPI              00 000 000 000:  Gamma ray; Uranium-free
 DT  .US/F              00 000 000 000:  Acoustic wave travel time
 GR  .GAPI              00 000 000 000:  Gamma ray; total
 GR-LWD.GAPI            00 000 000 000:  
 ILD-LWD.OHMM           00 000 000 000:  
 ILM-LWD.OHMM           00 000 000 000:  
 NPHI.V/V               00 000 000 000:  Neutron porosity
 POTA.                  00 000 000 000:  Potassium contribution from spectral gamma ray
 SIGM.CU                00 000 000 000:  Sigma (neutron capture cross-section)
 THOR.PPM               00 000 000 000:  Thorium contribution from spectral gamma ray
 URAN.PPM               00 000 000 000:  Uranium contribution from spectral gamma ray
~A DEPTH        CGR    DT    GR   GR-LWD   ILD-LWD   ILM-LWD    NPHI    POTA    SIGM    THOR    URAN
# ...
 2572.8168     4.8459  -999.2500    47.2399    37.6646   285.3129   266.5107     0.0240     0.0007     9.9605     0.7549     4.7136 
 2572.9692     6.4448  -999.2500    47.0114    37.1553   275.8841   254.5514     0.0232     0.0023     9.9419     1.1166     4.4464 
 2573.1216     6.4891  -999.2500    45.8478    37.1378   267.9899   248.5703     0.0233     0.0031     9.8793     0.7836     4.3820 
 2573.2740     5.4062  -999.2500    42.0327    37.0037   264.2249   246.8565     0.0238     0.0031     9.7815     0.2881     4.0777 
 2573.4264     4.7162  -999.2500    38.5251    36.9028   261.6781   247.9351     0.0254     0.0034     9.7022     0.0829     3.7640 
 2573.5788     5.4071  -999.2500    34.1876    36.1929   258.6239   249.7692     0.0260     0.0037     9.6565     0.0796     3.2043 
 2573.7312     7.8112  -999.2500    31.7488    34.4914   258.8468   255.0208     0.0273     0.0043     9.6675     0.5131     2.6650 
 2573.8836    11.3726  -999.2500    30.9462    33.3866   253.5386   253.0058     0.0281     0.0046     9.7425     1.3973     2.1792 
 2574.0360    14.3950  -999.2500    31.7392    31.8015   246.2782   246.8413     0.0304     0.0056     9.8547     1.8622     1.9310 
 2574.1884    14.6546  -999.2500    34.6725    30.4830   237.2710   237.4567     0.0322     0.0049     9.9686     2.2014     2.2286 
 2574.3408    11.9858  -999.2500    37.5229    29.3552   224.5620   220.8437     0.0333     0.0034    10.0506     2.0476     2.8431 
 2574.4932     5.8901  -999.2500    42.1363    28.4403   212.4021   204.1500     0.0327     0.0006    10.0760     1.4239     4.0354 
 2574.6456     4.8065  -999.2500    44.9783    28.7136   203.0517   189.7450     0.0343     0.0005    10.0669     1.1757     4.4725 
 2574.7980     4.0096  -999.2500    45.9311    29.7246   192.7002   175.5638     0.0341     0.0005    10.0466     0.9480     4.6673 
 2574.9504     2.0087  -999.2500    45.3599    30.6410   189.0196   170.0857     0.0338     0.0005    10.0114     0.3831     4.8265 
 2575.1028     1.5259  -999.2500    44.6726    32.0787   181.2883   159.7868     0.0331     0.0009     9.9576     0.0877     4.8037 
 2575.2552     3.7989  -999.2500    46.6951    33.7704   178.0193   155.6560     0.0319     0.0026     9.8977     0.0430     4.7758 
 2575.4076     5.3291  -999.2500    48.0102    36.2175   173.3317   149.6754     0.0330     0.0035     9.8460     0.1229     4.7519 
 2575.5600     5.1219  -999.2500    49.4055    38.9414   172.0179   147.5218     0.0328     0.0027     9.8740     0.3750     4.9302 
 2575.7124     5.0112  -999.2500    49.5719    42.3226   168.6446   141.2766     0.0324     0.0017     9.9958     0.7303     4.9611 
 2575.8648     7.3703  -999.2500    50.0813    42.3174   165.5340   135.4763     0.0316     0.0005    10.2108     1.8812     4.7552 
 2576.0172     8.0557  -999.2500    50.5990    40.4761   163.6057   131.1785     0.0230     0.0005    10.4636     2.0762     4.7365 
 2576.1696     6.6088  -999.2500    49.3990    38.3710   159.1240   124.3980     0.0171     0.0005    10.7072     1.6702     4.7640 
 2576.3220     4.8251  -999.2500    47.0685    36.1110   155.8437   120.1019     0.0237     0.0005    10.9340     1.1714     4.7031 
 2576.4744     3.5432  -999.2500    43.7950    34.2892   152.9968   114.8048     0.0287     0.0006    11.1176     0.7769     4.4814 
 2576.6268     2.0561  -999.2500    41.9873    32.7414   151.3267   107.8911     0.0268     0.0007    11.2499     0.3244     4.4457 
 2576.7792     1.4676  -999.2500    40.5545    32.5599   151.1355   102.4690     0.0243     0.0008    11.2811     0.0907     4.3517 
 2576.9316     1.8855  -999.2500    39.3269    31.4596   152.3713    98.9933     0.0203     0.0011    11.1608     0.0820     4.1685 
 2577.0840     3.0229  -999.2500    38.0337    30.6047   154.1920    98.7274     0.0153     0.0020    11.0258     0.0820     3.8978 
 2577.2364     5.4899  -999.2500    38.1231    29.0818   155.0556   100.0259     0.0095     0.0033    11.0141     0.2510     3.6332 
 2577.3888     7.6357  -999.2500    41.7443    28.0125   154.3705   103.2654     0.0135     0.0045    11.1042     0.3684     3.7975 
 2577.5412     8.0280  -999.2500    45.0098    27.3215   152.7166   105.1653     0.0206     0.0050    11.2779     0.2784     4.1173 
 2577.6936     5.7499  -999.2500    48.6700    26.6718   150.5733   105.6281     0.0280     0.0033    11.3784     0.3409     4.7785 
 2577.8460     5.3306  -999.2500    48.7602    28.1390   148.9440   106.5762     0.0351     0.0021    11.3187     0.6772     4.8352 
 2577.9984     6.0035  -999.2500    47.7431    29.8535   148.9767   109.3783     0.0376     0.0014    11.1792     1.1471     4.6470 
 2578.1508     8.4917  -999.2500    45.8236    31.7119   152.5428   116.2360     0.0365     0.0016    10.9817     1.7611     4.1563 
 2578.3032     8.2540  -999.2500    45.0939    32.8072   189.9983   124.5704     0.0340     0.0020    10.7265     1.5426     4.1015 
 2578.4556     7.4111  -999.2500    44.9095    33.8680   286.0186   134.4027     0.0339     0.0024    10.4759     1.1614     4.1748 
 2578.6080     5.5703  -999.2500    44.6889    34.7002   365.1324   143.8294     0.0339     0.0024    10.2496     0.6434     4.3552 
 2578.7604     4.5762  -999.2500    43.5205    35.4999   483.2772   150.2056     0.0325     0.0025    10.1254     0.3173     4.3358 
 2578.9128     4.8848  -999.2500    42.7271    34.2582   447.2447   156.2220     0.0346     0.0028    10.1258     0.2702     4.2131 
 2579.0652     6.5433  -999.2500    43.1694    33.5549   393.2083   158.3903     0.0419     0.0043    10.2718     0.1601     4.0777 
 2579.2176     8.0767  -999.2500    44.7484    31.5805   268.4198   159.3330     0.0430     0.0051    10.4732     0.2656     4.0828 
 2579.3700    11.5479  -999.2500    48.0614    30.4990   158.2910   154.4320     0.0373     0.0061    10.6377     0.8747     4.0652 
 2579.5224    10.4315  -999.2500    49.3524    33.0493   156.0634   144.7418     0.0332     0.0051    10.7015     0.9425     4.3332 
 2579.6748     5.2578  -999.2500    48.6133    34.1787   154.3333   139.2539     0.0332     0.0029    10.7173     0.3519     4.8269 
 2579.8272     1.4839  -999.2500    47.5854    35.7911   153.8603   134.3002     0.0355     0.0009    10.7191     0.0794     5.1326 
 2579.9796     0.9904  -999.2500    49.1634    34.7451   153.2858   131.3514     0.0382     0.0005    10.7286     0.0818     5.3633 
 2580.1320     1.0237  -999.2500    52.0826    33.8829   157.9929   135.8996     0.0408     0.0005    10.7586     0.0812     5.6845 
 2580.2844     3.3324  -999.2500    55.5339    32.9998   159.4863   136.8445     0.0384     0.0015    10.7353     0.3562     5.8118 
 2580.4368     8.3437  -999.2500    57.6172    33.1599   160.7976   138.1293     0.0345     0.0038    10.6456     0.8400     5.4858 
 2580.5892    14.0568  -999.2500    57.7546    34.9384   157.7731   134.3427     0.0304     0.0063    10.4607     1.4890     4.8650 
 2580.7416    15.7771  -999.2500    57.0227    37.4154   147.1593   123.7058     0.0284     0.0069    10.2859     1.7561     4.5920 
 2580.8940    13.1320  -999.2500    56.7726    39.3972   136.1897   112.9271     0.0264     0.0045    10.2001     1.9285     4.8586 
 2581.0464    11.6252  -999.2500    56.6058    40.8127   123.9153   100.7605     0.0269     0.0034    10.2198     1.9508     5.0079 
 2581.1988    11.1189  -999.2500    55.5384    41.6857   120.1788    97.8841     0.0319     0.0034    10.3195     1.7972     4.9454 
 2581.3512    10.3872  -999.2500    52.7153    41.6672   116.8602    94.1644     0.0403     0.0050    10.6849     0.9668     4.7126 
 2581.5036     9.3384  -999.2500    52.2200    41.0044   112.0700    87.1504     0.0429     0.0054    11.1304     0.4956     4.7741 
 2581.6560     7.0764  -999.2500    56.3477    39.8795   102.0791    73.5859     0.0441     0.0045    11.4263     0.2245     5.4855 
 2581.8084     8.5574  -999.2500    61.9315    39.9751    91.5520    59.5795     0.0425     0.0046    11.5438     0.6182     5.9423 
 2581.9608    10.3921  -999.2500    70.8350    41.0240    85.1417    53.2367     0.0422     0.0045    11.5100     1.1504     6.7293 
