~Version Information
 VERS.                  2.0:   CWLS log ASCII Standard -VERSION 2.0
 WRAP.                   NO:   One line per depth step
~Well Information Block
#MNEM.UNIT       Data Type    Information
#---------     -----------    ---------------------------
 STRT.M               760.0188:
 STOP.M              2903.9820:
 STEP.M                 0.1524:
 NULL.               -999.2500:
 UWI .                   1019D:  UWI
 API .                   1019D:  UWI
 WELL.                   1019D:  COMMON WELL NAME
 COMP.                 UNKNOWN:  WELL OPERATOR
 FLD .                 UNKNOWN:  FIELD
 LIC .                 UNKNOWN:  AUTHORIZATION NO
 LOC .                 UNKNOWN:  BASIN
 CTRY.                 UNKNOWN:  COUNTRY
 STAT.                 UNKNOWN:  STATE
 CNTY.                 UNKNOWN:  COUNTY
 PROV.                 UNKNOWN:  STATE
 SRVC.                 UNKNOWN:  COMPANY
 DATE.                 UNKNOWN:  LOG RUN DATE
 LONG.                -92.0500:  LONGITUDE
 LATI.                 19.4617:  LATITUDE
 XCOORD.           599718.1875:  X COORDINATE
 YCOORD.          2152056.5000:  Y COORDINATE
 ELEV.M                 0.0000:  ELEVATION
 TD  .M              2900.0000:  TOTAL DEPTH
~Parameter Information Block
#MNEM.UNIT       Value        Description
#---------     -----------    ---------------------------
~Curve Information Block
#MNEM.UNIT                 API CODE     Curve Description
#---------               -----------    ---------------------------
 DEPTH.M                00 000 000 000:  Index Curve
 CGR .GAPI              00 000 000 000:  Gamma ray; Uranium-free
 DT  .US/F              00 000 000 000:  Acoustic wave travel time
 GR  .GAPI              00 000 000 000:  Gamma ray; total
 GR-LWD.GAPI            00 000 000 000:  
 ILD-LWD.OHMM           00 000 000 000:  
 ILM-LWD.OHMM           00 000 000 000:  
 NPHI.V/V               00 000 000 000:  Neutron porosity
 POTA.                  00 000 000 000:  Potassium contribution from spectral gamma ray
 SIGM.CU                00 000 000 000:  Sigma (neutron capture cross-section)
 THOR.PPM               00 000 000 000:  Thorium contribution from spectral gamma ray
 URAN.PPM               00 000 000 000:  Uranium contribution from spectral gamma ray
~A DEPTH        CGR    DT    GR   GR-LWD   ILD-LWD   ILM-LWD    NPHI    POTA    SIGM    THOR    URAN
# ...
 2600.7060     6.5073  -999.2500    52.9989    27.0534    90.3222    95.3982     0.0352     0.0015    10.3134     0.8105     5.1761 
 2600.8584     6.8713  -999.2500    50.8145    29.5753    84.3091    90.3596     0.0333     0.0018    10.3761     1.3524     4.5334 
 2601.0108     6.5310  -999.2500    44.9862    32.9466    78.7193    86.1391     0.0330     0.0027    10.3709     1.0730     4.2814 
 2601.1632     7.9765  -999.2500    40.5082    36.5140    72.0493    81.0762     0.0316     0.0031    10.3482     1.0747     3.6219 
 2601.3156     7.5917  -999.2500    33.9221    38.2746    65.8550    77.0186     0.0338     0.0031    10.3618     0.9395     2.9315 
 2601.4680     7.4544  -999.2500    30.6842    37.5905    59.0240    72.1306     0.0410     0.0035    10.4413     0.7230     2.5862 
 2601.6204     4.8241  -999.2500    27.2560    34.6349    51.5790    65.6819     0.0463     0.0030    10.6598     0.5828     2.4974 
 2601.7728     4.0832  -999.2500    27.6103    31.3571    46.7835    59.4123     0.0567     0.0028    11.2028     0.1264     2.6194 
 2601.9252     4.2454  -999.2500    28.2828    28.6757    41.6707    51.3279     0.0628     0.0030    11.8269     0.0448     2.8390 
 2602.0776     4.7805  -999.2500    37.4394    25.4859    35.4222    40.9363     0.0649     0.0038    12.0933     0.1186     3.6360 
 2602.2300     7.4943  -999.2500    48.5925    22.2411    29.2282    31.3361     0.0635     0.0052    11.7839     0.3882     4.5756 
 2602.3824    11.3028  -999.2500    61.2694    19.8568    22.3920    22.6146     0.0559     0.0056    11.2864     0.9864     5.5629 
 2602.5348    14.3437  -999.2500    63.0352    18.2041    17.1733    16.6250     0.0420     0.0060    10.6773     1.5450     5.4210 
 2602.6872    12.9770  -999.2500    53.7089    17.3023    14.1227    13.3433     0.0395     0.0049    10.2542     1.6905     4.5348 
 2602.8396    10.0774  -999.2500    43.1713    17.1798    13.4895    12.6346     0.0381     0.0042    10.0314     1.4202     3.3611 
 2602.9920     6.6771  -999.2500    34.9910    17.6425    18.4100    17.6108     0.0385     0.0025     9.9240     1.0722     3.1523 
 2603.1444     4.2548  -999.2500    34.7846    23.2605    22.8715    22.8167     0.0390     0.0010     9.8614     0.8260     3.3990 
 2603.2968     3.0784  -999.2500    36.9140    23.1561    27.0683    28.5517     0.0389     0.0004     9.7683     0.7066     3.7670 
 2603.4492     2.4740  -999.2500    39.6173    22.9390    30.2628    34.0068     0.0369     0.0004     9.6186     0.5408     4.1353 
 2603.6016     1.8877  -999.2500    41.7618    24.5591    33.3678    40.6154     0.0366     0.0004     9.5148     0.3555     4.4378 
 2603.7540     4.3810  -999.2500    42.3831    26.0541    38.2712    51.0454     0.0362     0.0013     9.5415     0.3882     4.2309 
 2603.9064     6.8473  -999.2500    42.6245    29.0859    43.2176    61.2281     0.0353     0.0022     9.6391     0.9739     3.9832 
 2604.0588     8.2418  -999.2500    41.3773    31.7109    49.2579    68.7750     0.0338     0.0022     9.7143     1.4769     3.6891 
 2604.2112     8.6715  -999.2500    40.3441    34.6443    53.6727    72.5287     0.0337     0.0017     9.6988     1.7070     3.5262 
 2604.3636     7.1869  -999.2500    41.2991    36.3170    59.4253    75.1081     0.0333     0.0011     9.6538     1.7768     3.8959 
 2604.5160     3.8446  -999.2500    46.4309    36.4507    64.7062    76.9767     0.0325     0.0005     9.6088     1.3112     4.7413 
 2604.6684     2.8111  -999.2500    51.9409    34.8500    72.2837    80.7565     0.0334     0.0005     9.5896     0.7574     5.4698 
 2604.8208     3.0384  -999.2500    54.3481    32.5594    77.4707    84.3490     0.0341     0.0005     9.5750     0.6163     5.7125 
 2604.9732     5.4142  -999.2500    49.4100    32.6259    83.0538    89.6650     0.0325     0.0007     9.5325     0.8134     4.8982 
 2605.1256     8.7481  -999.2500    45.8291    33.2683    88.2150    95.5531     0.0329     0.0020     9.5007     1.4646     4.1283 
 2605.2780    12.7422  -999.2500    42.4617    34.6420    96.3135   105.2803     0.0354     0.0037     9.5191     1.8578     3.3088 
 2605.4304    10.9411  -999.2500    41.0927    35.1084   102.4884   112.7184     0.0379     0.0029     9.6206     2.1635     3.3569 
 2605.5828     6.6711  -999.2500    40.8272    35.2047   110.9780   123.0620     0.0414     0.0022     9.7489     1.7848     3.8444 
 2605.7352     4.0946  -999.2500    41.5730    34.7150   117.6395   131.6949     0.0437     0.0019     9.9032     0.7417     4.2541 
 2605.8876     3.7360  -999.2500    42.5970    33.2246   123.6477   139.6028     0.0443     0.0019    10.0236     0.3266     4.4218 
 2606.0400     2.6687  -999.2500    42.4742    32.6569   129.0154   146.4688     0.0459     0.0014    10.1116     0.0607     4.4317 
 2606.1924     1.7973  -999.2500    41.2101    32.3088   131.9197   149.1444     0.0478     0.0011    10.1488     0.0572     4.3880 
 2606.3448     2.3080  -999.2500    37.9290    32.3551   133.3510   149.7965     0.0483     0.0024    10.1350     0.0443     3.9658 
 2606.4972     4.0857  -999.2500    34.0184    32.4346   135.6026   150.4535     0.0485     0.0028    10.0240     0.0406     3.3325 
 2606.6496     3.7967  -999.2500    29.9786    31.4320   139.6330   153.1690     0.0463     0.0026     9.8680     0.0401     2.9150 
 2606.8020     2.2167  -999.2500    26.4870    29.5943   143.8214   156.9420     0.0456     0.0015     9.6687     0.0398     2.7021 
 2606.9544     1.0301  -999.2500    26.0624    26.5777   151.0123   165.0106     0.0457     0.0006     9.5489     0.0440     2.7869 
 2607.1068     1.1263  -999.2500    28.6121    24.0058   158.2846   174.1259     0.0457     0.0004     9.5363     0.1692     3.0601 
 2607.2592     3.2204  -999.2500    34.4123    22.3829   164.1495   181.0786     0.0418     0.0004     9.6100     0.7506     3.4727 
 2607.4116     6.8942  -999.2500    39.1657    21.2803   169.7338   187.7693     0.0396     0.0011     9.7811     1.5087     3.5929 
 2607.5640    11.1618  -999.2500    41.4179    22.1698   173.8601   191.9305     0.0398     0.0031     9.9601     1.9519     3.3685 
 2607.7164    13.2029  -999.2500    41.1393    24.2169   175.0326   191.3891     0.0396     0.0043    10.1487     2.0365     3.1103 
 2607.8688    12.2604  -999.2500    39.6832    27.5866   174.7084   187.4185     0.0377     0.0040    10.2545     1.8972     3.0531 
 2608.0212     9.6814  -999.2500    36.7312    29.4760   173.1371   180.8591     0.0359     0.0030    10.2908     1.5398     3.0115 
 2608.1736     9.0027  -999.2500    35.2520    30.3639   171.7359   173.6201     0.0365     0.0033    10.2735     1.2434     2.9224 
 2608.3260    10.6736  -999.2500    33.3968    29.7489   171.8433   168.0545     0.0361     0.0047    10.2113     1.1506     2.5298 
 2608.4784    10.3740  -999.2500    32.9256    28.3405   173.4401   165.8405     0.0325     0.0049    10.1169     0.9972     2.5108 
 2608.6308     9.2395  -999.2500    33.5194    26.3993   176.1287   165.5432     0.0302     0.0040     9.9935     1.0506     2.7032 
 2608.7832     7.9951  -999.2500    33.9660    25.2420   180.3348   168.8935     0.0303     0.0034     9.8615     0.9150     2.8915 
 2608.9356     6.0193  -999.2500    34.5876    25.1596   184.1914   172.2747     0.0318     0.0031     9.7747     0.4651     3.1806 
 2609.0880     4.8782  -999.2500    34.9120    25.2309   188.2207   175.6397     0.0343     0.0030     9.7622     0.1976     3.3438 
 2609.2404     5.6932  -999.2500    36.0207    25.6100   191.8438   178.3474     0.0358     0.0035     9.8359     0.2327     3.3765 
 2609.3928     6.4245  -999.2500    36.8580    25.9769   193.8075   179.0293     0.0371     0.0035     9.9108     0.4318     3.3882 
 2609.5452     6.9294  -999.2500    37.7075    26.6660   194.7324   178.2975     0.0406     0.0035     9.9345     0.5860     3.4266 
 2609.6976     5.5797  -999.2500    38.2449    27.2523   194.9638   176.7695     0.0436     0.0026     9.8555     0.5646     3.6367 
 2609.8500     4.4167  -999.2500    37.6129    28.2200   193.4450   172.8250     0.0476     0.0017     9.7939     0.5723     3.6959 
