~Version Information
 VERS.                  2.0:   CWLS log ASCII Standard -VERSION 2.0
 WRAP.                   NO:   One line per depth step
~Well Information Block
#MNEM.UNIT       Data Type    Information
#---------     -----------    ---------------------------
 STRT.M               760.0188:
 STOP.M              2903.9820:
 STEP.M                 0.1524:
 NULL.               -999.2500:
 UWI .                   1019D:  UWI
 API .                   1019D:  UWI
 WELL.                   1019D:  COMMON WELL NAME
 COMP.                 UNKNOWN:  WELL OPERATOR
 FLD .                 UNKNOWN:  FIELD
 LIC .                 UNKNOWN:  AUTHORIZATION NO
 LOC .                 UNKNOWN:  BASIN
 CTRY.                 UNKNOWN:  COUNTRY
 STAT.                 UNKNOWN:  STATE
 CNTY.                 UNKNOWN:  COUNTY
 PROV.                 UNKNOWN:  STATE
 SRVC.                 UNKNOWN:  COMPANY
 DATE.                 UNKNOWN:  LOG RUN DATE
 LONG.                -92.0500:  LONGITUDE
 LATI.                 19.4617:  LATITUDE
 XCOORD.           599718.1875:  X COORDINATE
 YCOORD.          2152056.5000:  Y COORDINATE
 ELEV.M                 0.0000:  ELEVATION
 TD  .M              2900.0000:  TOTAL DEPTH
~Parameter Information Block
#MNEM.UNIT       Value        Description
#---------     -----------    ---------------------------
~Curve Information Block
#MNEM.UNIT                 API CODE     Curve Description
#---------               -----------    ---------------------------
 DEPTH.M                00 000 000 000:  Index Curve
 CGR .GAPI              00 000 000 000:  Gamma ray; Uranium-free
 DT  .US/F              00 000 000 000:  Acoustic wave travel time
 GR  .GAPI              00 000 000 000:  Gamma ray; total
 GR-LWD.GAPI            00 000 000 000:  
 ILD-LWD.OHMM           00 000 000 000:  
 ILM-LWD.OHMM           00 000 000 000:  
 NPHI.V/V               00 000 000 000:  Neutron porosity
 POTA.                  00 000 000 000:  Potassium contribution from spectral gamma ray
 SIGM.CU                00 000 000 000:  Sigma (neutron capture cross-section)
 THOR.PPM               00 000 000 000:  Thorium contribution from spectral gamma ray
 URAN.PPM               00 000 000 000:  Uranium contribution from spectral gamma ray
~A DEPTH        CGR    DT    GR   GR-LWD   ILD-LWD   ILM-LWD    NPHI    POTA    SIGM    THOR    URAN
# ...
 2861.0052     7.0124  -999.2500    37.0498    25.4840    52.8794    46.5123     0.0649     0.0019  -999.2500     1.7646     3.3442 
 2861.1576     7.4346  -999.2500    34.2688    24.8873    55.2146    47.7473     0.0640     0.0030  -999.2500     1.1373     2.9876 
 2861.3100     9.3214  -999.2500    32.9802    24.3251    57.3157    48.7509     0.0640     0.0040  -999.2500     1.2157     2.6390 
 2861.4624     6.7711  -999.2500    33.0006    23.5946    59.1586    49.6394     0.0704     0.0038  -999.2500     0.7395     2.9386 
 2861.6148     5.7535  -999.2500    36.6736    23.0879    61.1156    50.7678     0.0747     0.0037  -999.2500     0.3402     3.4424 
 2861.7672     8.0052  -999.2500    36.6429    23.2473    66.0446    54.1636     0.0729     0.0036  -999.2500     0.9179     3.1883 
 2861.9196    13.8945  -999.2500    35.6936    24.5092    68.7560    57.0980     0.0652     0.0040  -999.2500     2.1838     2.4270 
 2862.0720    14.5692  -999.2500    34.2842    25.4753    71.2905    60.0439     0.0623     0.0045  -999.2500     2.3495     2.1950 
 2862.2244    12.2612  -999.2500    31.9476    26.1292    74.5080    63.7612     0.0601     0.0054  -999.2500     1.4689     2.1824 
 2862.3768    11.6467  -999.2500    31.0855    26.1106    78.5368    68.3643     0.0614     0.0060  -999.2500     1.1225     2.1554 
 2862.5292    13.3768  -999.2500    31.1328    25.1949    81.3735    72.9789     0.0643     0.0069  -999.2500     0.9695     1.9769 
 2862.6816    14.9105  -999.2500    32.3701    24.3441    83.8714    77.1378     0.0679     0.0074  -999.2500     1.2949     1.9438 
 2862.8340    17.1575  -999.2500    34.1226    22.8555    85.8998    81.1856     0.0623     0.0078  -999.2500     1.4162     1.9423 
 2862.9864    19.7427  -999.2500    35.1863    22.4735    87.2775    84.0243     0.0576     0.0087  -999.2500     2.0465     1.7194 
 2863.1388    20.3276  -999.2500    34.1749    22.3362    88.9850    87.2411     0.0535     0.0103  -999.2500     1.9995     1.5323 
 2863.2912    16.5668  -999.2500    33.4865    22.8603    90.1868    89.5034     0.0516     0.0098  -999.2500     1.3346     1.8817 
 2863.4436    14.0980  -999.2500    34.4653    23.8590    91.9190    92.2189     0.0547     0.0077  -999.2500     0.9705     2.2676 
 2863.5960    14.0696  -999.2500    35.8310    24.0337    91.0917    93.2105     0.0567     0.0062  -999.2500     1.4222     2.4227 
 2863.7484    17.5076  -999.2500    34.4946    24.0249    90.3661    93.9817     0.0572     0.0070  -999.2500     1.8154     1.8157 
 2863.9008    17.7779  -999.2500    31.8511    24.1940    89.3759    94.9121     0.0582     0.0069  -999.2500     2.2561     1.5668 
 2864.0532    13.1019  -999.2500    29.0526    24.3049    88.7472    95.5355     0.0549     0.0054  -999.2500     1.6657     1.7430 
 2864.2056    10.2763  -999.2500    28.3590    24.3496    87.3936    96.8719     0.0529     0.0041  -999.2500     1.2664     2.0132 
 2864.3580    11.0812  -999.2500    28.8972    24.2028    85.5015    97.8808     0.0530     0.0039  -999.2500     1.5008     1.9836 
 2864.5104    13.4255  -999.2500    30.3097    23.8480    83.4532    98.8807     0.0583     0.0052  -999.2500     1.9985     1.8829 
 2864.6628    15.3090  -999.2500    30.8642    23.2304    80.8990    98.1782     0.0610     0.0057  -999.2500     2.0788     1.7429 
 2864.8152    14.3057  -999.2500    31.3992    21.4181    78.6391    96.2983     0.0603     0.0056  -999.2500     1.9862     1.9031 
 2864.9676    12.3874  -999.2500    31.5436    20.6102    76.8725    94.1532     0.0576     0.0045  -999.2500     1.4380     2.2706 
 2865.1200     8.9817  -999.2500    30.7755    19.9075    74.4482    91.0749     0.0562     0.0035  -999.2500     1.0780     2.4264 
 2865.2724     9.0718  -999.2500    30.7520    19.6740    71.0768    86.4524     0.0608     0.0034  -999.2500     1.2365     2.4137 
 2865.4248    10.6720  -999.2500    31.5552    19.2694    69.4177    83.3060     0.0694     0.0037  -999.2500     1.5541     2.3539 
 2865.5772    12.6987  -999.2500    33.2457    19.1460    67.8994    79.8745     0.0784     0.0034  -999.2500     2.0283     2.3142 
 2865.7296    13.2712  -999.2500    33.5146    19.4350    67.1912    77.2128     0.0871     0.0036  -999.2500     2.2689     2.2538 
 2865.8820    12.7054  -999.2500    33.3860    20.3879    67.5112    75.9116     0.0885     0.0036  -999.2500     2.2373     2.3388 
 2866.0344    12.5365  -999.2500    34.9926    21.3655    69.1015    74.7293     0.0995     0.0043  -999.2500     2.0558     2.5001 
 2866.1868    12.4811  -999.2500    37.8540    22.0952    71.6409    74.3025     0.1157     0.0054  -999.2500     1.4594     2.8249 
 2866.3392    14.8070  -999.2500    40.7126    22.4234    77.1467    74.2543     0.1282     0.0095  -999.2500     0.9674     2.9251 
 2866.4916    17.4612  -999.2500    44.2293    22.6158    81.9697    74.4768     0.1219     0.0101  -999.2500     0.8398     2.9889 
 2866.6440    13.8847  -999.2500    44.6095    23.0199    86.4337    75.0493     0.1028     0.0081  -999.2500     0.8781     3.4207 
 2866.7964    10.5769  -999.2500    43.7144    23.0285    87.7230    75.3551     0.0964     0.0058  -999.2500     0.7174     3.6893 
 2866.9488     6.9963  -999.2500    41.3857    23.2135    88.3766    76.3836     0.1017     0.0020  -999.2500     0.9951     3.8287 
 2867.1012     8.7510  -999.2500    39.6976    23.3688    87.5326    78.2441     0.1088     0.0030  -999.2500     1.2417     3.1980 
 2867.2536     9.5823  -999.2500    36.8078    23.7141    88.7965    83.1931     0.1007     0.0036  -999.2500     1.3195     2.9936 
 2867.4060    10.3030  -999.2500    36.0215    24.4277    91.3026    86.4632     0.0826     0.0042  -999.2500     1.2191     2.8634 
 2867.5584    12.0155  -999.2500    35.5565    25.2165    92.9317    88.6473     0.0643     0.0053  -999.2500     1.2676     2.6209 
 2867.7108    12.6679  -999.2500    34.9537    26.6754    85.0553    80.5197     0.0623     0.0088  -999.2500     0.9552     2.4811 
 2867.8632    15.5942  -999.2500    32.9883    27.5928    71.9718    68.0695     0.0607     0.0091  -999.2500     0.8778     1.9365 
 2868.0156    15.6651  -999.2500    31.3888    28.6270    58.2120    55.0504     0.0580     0.0086  -999.2500     1.0524     1.6017 
 2868.1680    13.9802  -999.2500    29.6502    29.0708    45.3180    42.5914     0.0615     0.0075  -999.2500     0.9462     1.7446 
 2868.3204    11.1704  -999.2500    31.0328    29.4856    39.5489    37.1336     0.0622     0.0060  -999.2500     0.9956     2.2114 
 2868.4728     9.9461  -999.2500    32.0752    28.1511    36.1434    33.1126     0.0601     0.0051  -999.2500     0.7709     2.4637 
 2868.6252    10.3230  -999.2500    32.7571    26.7156    36.8495    31.1669     0.0584     0.0052  -999.2500     0.8691     2.4830 
 2868.7776    12.2857  -999.2500    32.1384    25.1007    39.4580    31.3092     0.0541     0.0053  -999.2500     1.3338     2.1974 
 2868.9300    13.8030  -999.2500    31.5740    24.0489    42.8442    32.3279     0.0523     0.0056  -999.2500     1.4500     1.9785 
 2869.0824    13.4548  -999.2500    31.8245    23.1386    44.8117    33.1511     0.0542     0.0050  -999.2500     1.7986     2.0452 
 2869.2348    12.6275  -999.2500    33.2425    22.6285    46.1710    34.4156     0.0566     0.0030  -999.2500     2.1890     2.2952 
 2869.3872    12.4538  -999.2500    33.9895    22.3684    46.5234    35.3034     0.0640     0.0029  -999.2500     2.1772     2.5151 
 2869.5396    14.8006  -999.2500    35.6126    21.6958    46.7435    36.8560     0.0693     0.0035  -999.2500     2.5233     2.3170 
 2869.6920    18.8235  -999.2500    35.9231    21.0501    47.2349    38.1884     0.0717     0.0055  -999.2500     2.9459     1.9038 
 2869.8444    21.9693  -999.2500    35.9903    20.4942    48.2431    40.5570     0.0718     0.0077  -999.2500     3.3565     1.5610 
 2869.9968    24.9440  -999.2500    36.6546    20.1549    48.8341    43.1685     0.0716     0.0093  -999.2500     3.4857     1.5593 
 2870.1492    21.8676  -999.2500    38.7085    21.3236    48.8275    45.5717     0.0689     0.0088  -999.2500     3.0324     1.8927 
