~Version Information
 VERS.                  2.0:   CWLS log ASCII Standard -VERSION 2.0
 WRAP.                   NO:   One line per depth step
~Well Information Block
#MNEM.UNIT       Data Type    Information
#---------     -----------    ---------------------------
 STRT.M               760.0188:
 STOP.M              2903.9820:
 STEP.M                 0.1524:
 NULL.               -999.2500:
 UWI .                   1019D:  UWI
 API .                   1019D:  UWI
 WELL.                   1019D:  COMMON WELL NAME
 COMP.                 UNKNOWN:  WELL OPERATOR
 FLD .                 UNKNOWN:  FIELD
 LIC .                 UNKNOWN:  AUTHORIZATION NO
 LOC .                 UNKNOWN:  BASIN
 CTRY.                 UNKNOWN:  COUNTRY
 STAT.                 UNKNOWN:  STATE
 CNTY.                 UNKNOWN:  COUNTY
 PROV.                 UNKNOWN:  STATE
 SRVC.                 UNKNOWN:  COMPANY
 DATE.                 UNKNOWN:  LOG RUN DATE
 LONG.                -92.0500:  LONGITUDE
 LATI.                 19.4617:  LATITUDE
 XCOORD.           599718.1875:  X COORDINATE
 YCOORD.          2152056.5000:  Y COORDINATE
 ELEV.M                 0.0000:  ELEVATION
 TD  .M              2900.0000:  TOTAL DEPTH
~Parameter Information Block
#MNEM.UNIT       Value        Description
#---------     -----------    ---------------------------
~Curve Information Block
#MNEM.UNIT                 API CODE     Curve Description
#---------               -----------    ---------------------------
 DEPTH.M                00 000 000 000:  Index Curve
 CGR .GAPI              00 000 000 000:  Gamma ray; Uranium-free
 DT  .US/F              00 000 000 000:  Acoustic wave travel time
 GR  .GAPI              00 000 000 000:  Gamma ray; total
 GR-LWD.GAPI            00 000 000 000:  
 ILD-LWD.OHMM           00 000 000 000:  
 ILM-LWD.OHMM           00 000 000 000:  
 NPHI.V/V               00 000 000 000:  Neutron porosity
 POTA.                  00 000 000 000:  Potassium contribution from spectral gamma ray
 SIGM.CU                00 000 000 000:  Sigma (neutron capture cross-section)
 THOR.PPM               00 000 000 000:  Thorium contribution from spectral gamma ray
 URAN.PPM               00 000 000 000:  Uranium contribution from spectral gamma ray
~A DEPTH        CGR    DT    GR   GR-LWD   ILD-LWD   ILM-LWD    NPHI    POTA    SIGM    THOR    URAN
# ...
 2702.9664     9.6660  -999.2500    47.7264    23.7024    15.1477    17.9268     0.0851     0.0051    13.1095     0.7089     4.2374 
 2703.1188    10.6809  -999.2500    46.8068    25.3553    14.1195    16.7418     0.0876     0.0051    13.3458     0.9471     4.0137 
 2703.2712    14.0606  -999.2500    46.4155    32.4642    12.1629    13.9762     0.1040     0.0062    13.7085     1.2549     3.5895 
 2703.4236    16.6930  -999.2500    49.1436    36.1694    10.5732    11.6123     0.1026     0.0078    14.0405     1.7510     3.6128 
 2703.5760    21.8270  -999.2500    53.6976    39.6805     9.3447     9.8036     0.0937     0.0111    14.2833     1.7715     3.6728 
 2703.7284    21.5538  -999.2500    58.7402    40.4928     8.4684     8.5897     0.0965     0.0110    14.4257     1.9000     4.1401 
 2703.8808    20.2888  -999.2500    60.8201    41.8542     7.8403     7.7711     0.1041     0.0093    14.4528     1.7523     4.5125 
 2704.0332    16.2321  -999.2500    62.0212    42.0642     7.2334     7.0862     0.0970     0.0085    14.4045     1.2171     5.0412 
 2704.1856    11.5640  -999.2500    55.0827    41.6364     6.7461     6.5585     0.0942     0.0065    14.3338     1.2314     4.8451 
 2704.3380    10.9668  -999.2500    50.4260    42.7889     6.4714     6.3010     0.1137     0.0051    14.4385     0.8605     4.3767 
 2704.4904    17.7136  -999.2500    52.7654    44.7409     6.4427     6.3011     0.1318     0.0083    14.7285     1.5692     3.8983 
 2704.6428    23.5288  -999.2500    59.6413    47.5604     6.3618     6.2720     0.1386     0.0128    15.4244     1.8990     4.0205 
 2704.7952    30.8053  -999.2500    70.9020    51.6269     6.4197     6.3895     0.1488     0.0161    16.0816     2.2196     4.8145 
 2704.9476    31.7513  -999.2500    77.5277    52.9544     6.4028     6.3984     0.1514     0.0164    16.6147     2.4792     5.0964 
 2705.1000    30.6933  -999.2500    77.3525    52.7644     6.3574     6.2376     0.1422     0.0160    16.8549     2.4332     5.1948 
 2705.2524    29.2734  -999.2500    71.8598    50.7124     5.9499     5.6827     0.1308     0.0145    16.6056     2.4844     4.7413 
 2705.4048    24.1419  -999.2500    63.6992    49.8885     5.5323     5.1423     0.1165     0.0114    16.1692     2.4983     4.4041 
 2705.5572    16.7181  -999.2500    54.0450    50.5943     5.3429     4.8919     0.1131     0.0081    15.3711     2.1365     4.1557 
 2705.7096    12.0826  -999.2500    46.4817    51.1959     4.8813     4.4545     0.1068     0.0060    14.6749     1.1504     3.8298 
 2705.8620    10.1533  -999.2500    44.1838    54.9198     4.5111     4.0856     0.0988     0.0049    14.0951     1.0242     3.6838 
 2706.0144    10.7116  -999.2500    42.6261    59.1433     3.8125     3.4868     0.0929     0.0056    13.6078     0.9086     3.5477 
 2706.1668    12.4483  -999.2500    43.2737    60.2551     3.5532     3.2693     0.0911     0.0065    13.3219     0.8811     3.6388 
 2706.3192    13.5390  -999.2500    46.8988    59.0536     3.6919     3.4063     0.0903     0.0093    13.2399     0.9517     3.9358 
 2706.4716    16.8286  -999.2500    53.1331    56.4152     4.1177     3.7491     0.0839     0.0107    13.3612     0.8862     4.0419 
 2706.6240    18.6588  -999.2500    56.0374    53.6092     4.6781     4.1782     0.0755     0.0130    13.5238     0.7722     4.1615 
 2706.7764    19.4698  -999.2500    57.3371    48.1213     6.8871     5.9510     0.0693     0.0130    13.6883     0.2819     4.2160 
 2706.9288    21.2066  -999.2500    57.7097    42.3611     7.5728     6.5699     0.0701     0.0122    13.8554     0.9585     4.0640 
 2707.0812    22.9083  -999.2500    59.8732    37.6613     8.3586     7.3236     0.0754     0.0118    14.3233     1.7845     4.1154 
 2707.2336    24.6009  -999.2500    64.5201    38.5671     8.4322     7.5494     0.0777     0.0117    14.8923     2.3394     4.4444 
 2707.3860    25.9140  -999.2500    72.0537    41.1131     8.3290     7.6657     0.0831     0.0116    15.5219     2.7431     5.1369 
 2707.5384    26.4056  -999.2500    77.1717    44.7768     8.5600     8.0666     0.0843     0.0114    16.0587     2.9740     5.6520 
 2707.6908    29.0409  -999.2500    84.5282    49.5596     8.4391     8.2284     0.0827     0.0117    16.4942     3.5924     6.1776 
 2707.8432    30.8170  -999.2500    88.3153    51.7431     9.2732     9.1399     0.0801     0.0124    16.7798     3.8222     6.4015 
 2707.9956    32.0752  -999.2500    93.0577    54.9720     9.9669     9.9606     0.0808     0.0146    16.8960     3.8362     6.7894 
 2708.1480    32.7594  -999.2500    94.1689    57.6747    10.4056    10.5241     0.0815     0.0166    16.9333     3.0761     6.8369 
 2708.3004    30.7441  -999.2500    93.1159    62.2385    10.3324    10.6234     0.0775     0.0167    16.9224     2.5382     6.9436 
 2708.4528    30.6137  -999.2500    92.7146    67.4726     9.8384    10.1516     0.0749     0.0159    16.8806     2.2191     6.8741 
 2708.6052    31.7799  -999.2500    91.2383    72.6913     9.3161     9.5623     0.0778     0.0157    16.5976     2.7402     6.6198 
 2708.7576    33.5363  -999.2500    88.1988    78.1473     8.8902     9.1629     0.0769     0.0155    16.2061     3.3749     6.0858 
 2708.9100    31.3535  -999.2500    84.8744    82.8424     8.4992     8.6924     0.0759     0.0141    15.8530     3.3691     5.9587 
 2709.0624    23.8846  -999.2500    79.2847    86.1347    18.6047    20.4495     0.0732     0.0102    15.6396     3.0189     6.1679 
 2709.2148    20.3638  -999.2500    78.6992    89.0262    24.9979    27.9091     0.0678     0.0082    15.8069     2.6731     6.5411 
 2709.3672    19.0900  -999.2500    80.3333    88.9303    27.6478    30.9539     0.0654     0.0100    16.6183     2.2719     6.9919 
 2709.5196    22.4640  -999.2500    98.3725    86.4465    31.6821    35.7082     0.0681     0.0115    17.5586     1.8037     8.4512 
 2709.6720    27.7440  -999.2500   115.0877    83.8621    26.0683    29.1931     0.0794     0.0155    18.4109     1.7368     9.7243 
 2709.8244    32.3474  -999.2500   133.5232    79.6503    22.9712    25.6683     0.0840     0.0187    18.7880     1.7119    11.2643 
 2709.9768    31.5253  -999.2500   132.6999    73.8797    11.7590    12.7504     0.0855     0.0170    18.7652     1.7081    11.2641 
 2710.1292    33.7593  -999.2500   117.4638    69.4379     8.5002     8.9974     0.0797     0.0168    18.5204     2.4713     8.8558 
 2710.2816    40.4552  -999.2500   107.2971    73.6889     8.3506     8.8313     0.0785     0.0187    17.9208     3.1604     7.4417 
 2710.4340    42.6110  -999.2500   104.0432    83.2509     7.8231     8.1604     0.0803     0.0185    17.0475     4.5497     6.8395 
 2710.5864    38.0014  -999.2500    91.6290    93.3592     7.2971     7.4510     0.0750     0.0158    16.5793     4.5432     5.2969 
 2710.7388    32.9783  -999.2500    75.1456   100.0302     7.0220     7.0671     0.0677     0.0134    16.8403     4.2885     4.6947 
 2710.8912    31.0019  -999.2500    74.3670   103.4586     6.9366     6.9089     0.0619     0.0123    17.8165     3.9326     4.8280 
 2711.0436    32.5495  -999.2500    83.0825   104.4923     6.9117     6.8200     0.0761     0.0133    19.1514     3.8650     5.6260 
 2711.1960    32.8343  -999.2500   103.1178    99.5126     6.9144     6.8126     0.0854     0.0128    20.5913     3.9036     7.8249 
 2711.3484    33.7646  -999.2500   116.5798    93.5659     6.8941     6.6261     0.0925     0.0132    20.9555     3.9218     9.5460 
 2711.5008    38.3023  -999.2500   123.3295    89.2034     6.9146     6.6643     0.1033     0.0157    19.5911     4.5912     9.4664 
 2711.6532    40.8593  -999.2500   118.8073    80.4384     6.8829     6.6422     0.1181     0.0188    16.5084     4.5424     8.6782 
 2711.8056    36.5806  -999.2500   108.6923    72.2241     6.8023     6.6141     0.1245     0.0184    14.1846     3.7525     8.0284 
 2711.9580    26.4284  -999.2500    87.9606    68.8549     6.6863     6.5489     0.1100     0.0133    12.8797     2.7781     6.8506 
 2712.1104    18.0704  -999.2500    66.1777    72.8422     6.3895     6.2704     0.0910     0.0087    12.1446     1.9474     5.3560 
