~Version Information
 VERS.                  2.0:   CWLS log ASCII Standard -VERSION 2.0
 WRAP.                   NO:   One line per depth step
~Well Information Block
#MNEM.UNIT       Data Type    Information
#---------     -----------    ---------------------------
 STRT.M               760.0188:
 STOP.M              2903.9820:
 STEP.M                 0.1524:
 NULL.               -999.2500:
 UWI .                   1019D:  UWI
 API .                   1019D:  UWI
 WELL.                   1019D:  COMMON WELL NAME
 COMP.                 UNKNOWN:  WELL OPERATOR
 FLD .                 UNKNOWN:  FIELD
 LIC .                 UNKNOWN:  AUTHORIZATION NO
 LOC .                 UNKNOWN:  BASIN
 CTRY.                 UNKNOWN:  COUNTRY
 STAT.                 UNKNOWN:  STATE
 CNTY.                 UNKNOWN:  COUNTY
 PROV.                 UNKNOWN:  STATE
 SRVC.                 UNKNOWN:  COMPANY
 DATE.                 UNKNOWN:  LOG RUN DATE
 LONG.                -92.0500:  LONGITUDE
 LATI.                 19.4617:  LATITUDE
 XCOORD.           599718.1875:  X COORDINATE
 YCOORD.          2152056.5000:  Y COORDINATE
 ELEV.M                 0.0000:  ELEVATION
 TD  .M              2900.0000:  TOTAL DEPTH
~Parameter Information Block
#MNEM.UNIT       Value        Description
#---------     -----------    ---------------------------
~Curve Information Block
#MNEM.UNIT                 API CODE     Curve Description
#---------               -----------    ---------------------------
 DEPTH.M                00 000 000 000:  Index Curve
 CGR .GAPI              00 000 000 000:  Gamma ray; Uranium-free
 DT  .US/F              00 000 000 000:  Acoustic wave travel time
 GR  .GAPI              00 000 000 000:  Gamma ray; total
 GR-LWD.GAPI            00 000 000 000:  
 ILD-LWD.OHMM           00 000 000 000:  
 ILM-LWD.OHMM           00 000 000 000:  
 NPHI.V/V               00 000 000 000:  Neutron porosity
 POTA.                  00 000 000 000:  Potassium contribution from spectral gamma ray
 SIGM.CU                00 000 000 000:  Sigma (neutron capture cross-section)
 THOR.PPM               00 000 000 000:  Thorium contribution from spectral gamma ray
 URAN.PPM               00 000 000 000:  Uranium contribution from spectral gamma ray
~A DEPTH        CGR    DT    GR   GR-LWD   ILD-LWD   ILM-LWD    NPHI    POTA    SIGM    THOR    URAN
# ...
 2823.8196    14.7573  -999.2500    47.0839    39.7155    84.0053    92.2342     0.1009     0.0050    11.0794     2.4213     3.4480 
 2823.9720    12.3181  -999.2500    42.5966    38.5232    84.7670    92.0252     0.0963     0.0049    11.4825     2.1936     3.3710 
 2824.1244    10.8497  -999.2500    40.8604    36.5528    85.4737    91.6246     0.0944     0.0048    11.8684     1.1869     3.3412 
 2824.2768     9.2351  -999.2500    39.2480    33.8197    85.9523    91.5644     0.0975     0.0044  -999.2500     0.7929     3.3567 
 2824.4292     6.9740  -999.2500    37.2017    30.1058    87.1939    92.4743     0.1072     0.0043  -999.2500     0.3415     3.3653 
 2824.5816     6.0635  -999.2500    36.3791    27.6932    86.9155    91.8210     0.1098     0.0042  -999.2500     0.1131     3.3751 
 2824.7340     5.2211  -999.2500    36.7639    28.5203    85.9643    90.3515     0.1038     0.0031  -999.2500     0.2333     3.5118 
 2824.8864     7.1957  -999.2500    38.0164    30.3808    84.4792    88.0228     0.0958     0.0032  -999.2500     0.7702     3.4314 
 2825.0388    12.6606  -999.2500    38.7497    32.2783    81.9306    85.6350     0.0895     0.0050  -999.2500     1.6089     2.9046 
 2825.1912    15.2397  -999.2500    38.3230    33.4191    80.0803    83.6861     0.0868     0.0059  -999.2500     2.0013     2.5700 
 2825.3436    16.5183  -999.2500    38.0996    33.7470    76.8788    80.7570     0.0891     0.0060  -999.2500     2.2955     2.4027 
 2825.4960    15.4899  -999.2500    39.6305    33.5758    73.2850    77.2406     0.0969     0.0047  -999.2500     2.5152     2.6877 
 2825.6484    13.7691  -999.2500    45.0428    33.4651    67.5278    70.9440     0.1001     0.0041  -999.2500     2.2941     3.4818 
 2825.8008    13.6580  -999.2500    49.7743    35.3763    55.5768    57.2217     0.0991     0.0044  -999.2500     2.1295     4.0210 
 2825.9532    18.2367  -999.2500    57.0686    38.7401    45.8953    45.7819     0.0890     0.0100  -999.2500     1.5148     4.3233 
 2826.1056    24.7589  -999.2500    60.5708    42.7238    41.6716    40.9932     0.0802     0.0127  -999.2500     1.7594     3.9722 
 2826.2580    22.7995  -999.2500    54.8025    43.9509    39.2335    38.3238     0.0808     0.0100  -999.2500     2.1303     3.4500 
 2826.4104    21.1070  -999.2500    50.0996    43.0870    39.9480    39.4350     0.0820     0.0079  -999.2500     2.4595     3.2279 
 2826.5628    18.1478  -999.2500    57.9182    39.6275    39.9324    39.5330     0.0846     0.0076  -999.2500     2.5012     4.6816 
 2826.7152    14.5324  -999.2500    62.3532    36.4912    40.1897    39.9422     0.0830     0.0101  -999.2500     1.1587     5.3241 
 2826.8676    17.2358  -999.2500    59.7768    37.1091    39.2270    38.6126     0.0774     0.0105  -999.2500     0.7331     4.6540 
 2827.0200    15.7859  -999.2500    57.0995    39.6097    36.2530    34.7973     0.0753     0.0084  -999.2500     0.7769     4.5996 
 2827.1724    18.4395  -999.2500    55.9127    44.8288    34.4768    32.5377     0.0745     0.0059  -999.2500     2.2732     4.0599 
 2827.3248    14.2817  -999.2500    48.2347    49.1279    32.9640    30.3198     0.0731     0.0062  -999.2500     1.9849     3.7801 
 2827.4772    15.1139  -999.2500    41.0446    51.3856    32.4945    29.7194     0.0693     0.0075  -999.2500     1.3316     2.8869 
 2827.6296    14.9207  -999.2500    39.5452    49.9101    32.4508    29.6132     0.0683     0.0053  -999.2500     1.8402     2.7181 
 2827.7820    13.7383  -999.2500    38.8780    46.6018    32.8570    30.1708     0.0705     0.0055  -999.2500     1.9442     2.7989 
 2827.9344    15.9945  -999.2500    38.2056    44.5136    33.7395    31.7440     0.0700     0.0086  -999.2500     1.3692     2.4604 
 2828.0868    17.4948  -999.2500    37.3326    42.3546    35.2476    34.0530     0.0673     0.0089  -999.2500     1.4140     2.2086 
 2828.2392    14.7109  -999.2500    34.9775    40.6063    36.7038    37.3049     0.0614     0.0069  -999.2500     1.4159     2.2276 
 2828.3916     9.7793  -999.2500    34.3186    39.3160    38.6478    41.4607     0.0574     0.0048  -999.2500     1.2601     2.7260 
 2828.5440     8.6742  -999.2500    35.4390    37.5500    40.1760    45.3090     0.0569     0.0054  -999.2500     0.7081     3.1402 
 2828.6964    11.0843  -999.2500    41.6259    34.9240    40.1598    46.9960     0.0605     0.0099  -999.2500     0.7152     3.4003 
 2828.8488    23.0025  -999.2500    65.1099    29.1604    40.3073    48.4060     0.0831     0.0110  -999.2500     2.1697     4.6880 
 2829.0012    30.1375  -999.2500    83.3270    27.9174    39.4392    50.0847     0.1070     0.0135  -999.2500     3.1955     5.9218 
 2829.1536    33.7203  -999.2500    99.9662    27.2961    38.4378    51.7956     0.1379     0.0135  -999.2500     3.8042     7.3754 
 2829.3060    28.7095  -999.2500    95.4850    27.7290    36.9610    52.6486     0.1333     0.0120  -999.2500     4.0217     7.4343 
 2829.4584    17.4922  -999.2500    73.7254    27.8653    35.1842    51.9544     0.1005     0.0075  -999.2500     1.7451     6.2606 
 2829.6108     9.7597  -999.2500    53.0381    27.1755    33.3087    48.2539     0.0837     0.0050  -999.2500     0.5642     4.7137 
 2829.7632    11.2377  -999.2500    41.7546    26.9411    31.5370    43.3680     0.0879     0.0056  -999.2500     0.7887     3.0400 
 2829.9156    13.6601  -999.2500    40.6585    25.4506    29.1166    36.5182     0.0800     0.0058  -999.2500     1.3336     3.0059 
 2830.0680    10.2097  -999.2500    44.7225    26.3584    27.1494    31.1426     0.0792     0.0035  -999.2500     1.5652     3.8424 
 2830.2204     9.6645  -999.2500    48.0339    32.7130    23.0560    24.1980     0.0842     0.0028  -999.2500     1.6464     4.2718 
 2830.3728    10.0208  -999.2500    52.4388    48.0695    19.4707    19.7890     0.0897     0.0038  -999.2500     1.6039     4.7226 
 2830.5252    13.1128  -999.2500    55.3099    66.6954    15.1775    15.2823     0.0940     0.0058  -999.2500     1.7822     4.7716 
 2830.6776    16.7998  -999.2500    58.8601    77.8326    13.3311    13.2521     0.0975     0.0076  -999.2500     1.8341     4.7476 
 2830.8300    16.3833  -999.2500    59.4564    83.1610    16.0350    16.5550     0.1008     0.0080  -999.2500     1.7177     4.7271 
 2830.9824    13.6258  -999.2500    57.7786    72.7126    18.6110    20.5174     0.1026     0.0065  -999.2500     1.0653     4.8758 
 2831.1348    10.9737  -999.2500    54.9080    59.9152    32.4732    47.4081     0.1020     0.0059  -999.2500     0.7588     4.8913 
 2831.2872     8.1051  -999.2500    48.8239    42.5466    36.3332    55.2721     0.1054     0.0031  -999.2500     0.7304     4.5334 
 2831.4396     9.4042  -999.2500    47.0127    30.1692    40.1623    63.7453     0.0985     0.0027  -999.2500     1.3253     3.9931 
 2831.5920    11.9877  -999.2500    42.8441    30.3059    42.3122    68.5957     0.0777     0.0030  -999.2500     2.2183     3.4354 
 2831.7444    18.2570  -999.2500    39.1272    32.1092    44.2543    73.3261     0.0715     0.0043  -999.2500     3.4314     2.3235 
 2831.8968    19.2983  -999.2500    40.1859    35.5380    46.4300    76.4159     0.0692     0.0052  -999.2500     3.5328     2.3255 
 2832.0492    16.6457  -999.2500    46.6029    37.9416    51.8944    81.4129     0.0684     0.0058  -999.2500     3.0618     3.3352 
 2832.2016    14.0522  -999.2500    50.7682    40.4185    55.1210    82.0571     0.0686     0.0059  -999.2500     1.6537     4.0878 
 2832.3540    11.1618  -999.2500    52.1042    42.2949    58.9440    82.5583     0.0653     0.0052  -999.2500     1.1009     4.5582 
 2832.5064     7.8462  -999.2500    50.7663    42.7687    61.8650    81.7781     0.0610     0.0041  -999.2500     0.5839     4.7784 
 2832.6588     7.5811  -999.2500    51.0474    42.4938    64.1502    79.4031     0.0618     0.0049  -999.2500     0.4024     4.8392 
 2832.8112     9.3887  -999.2500    56.1692    40.7050    64.6900    76.7454     0.0690     0.0068  -999.2500     0.3531     5.2083 
 2832.9636    13.6066  -999.2500    67.0598    37.6536    63.8546    72.8589     0.0722     0.0077  -999.2500     0.9019     5.9511 
