~Version Information
 VERS.                  2.0:   CWLS log ASCII Standard -VERSION 2.0
 WRAP.                   NO:   One line per depth step
~Well Information Block
#MNEM.UNIT       Data Type    Information
#---------     -----------    ---------------------------
 STRT.M               760.0188:
 STOP.M              2903.9820:
 STEP.M                 0.1524:
 NULL.               -999.2500:
 UWI .                   1019D:  UWI
 API .                   1019D:  UWI
 WELL.                   1019D:  COMMON WELL NAME
 COMP.                 UNKNOWN:  WELL OPERATOR
 FLD .                 UNKNOWN:  FIELD
 LIC .                 UNKNOWN:  AUTHORIZATION NO
 LOC .                 UNKNOWN:  BASIN
 CTRY.                 UNKNOWN:  COUNTRY
 STAT.                 UNKNOWN:  STATE
 CNTY.                 UNKNOWN:  COUNTY
 PROV.                 UNKNOWN:  STATE
 SRVC.                 UNKNOWN:  COMPANY
 DATE.                 UNKNOWN:  LOG RUN DATE
 LONG.                -92.0500:  LONGITUDE
 LATI.                 19.4617:  LATITUDE
 XCOORD.           599718.1875:  X COORDINATE
 YCOORD.          2152056.5000:  Y COORDINATE
 ELEV.M                 0.0000:  ELEVATION
 TD  .M              2900.0000:  TOTAL DEPTH
~Parameter Information Block
#MNEM.UNIT       Value        Description
#---------     -----------    ---------------------------
~Curve Information Block
#MNEM.UNIT                 API CODE     Curve Description
#---------               -----------    ---------------------------
 DEPTH.M                00 000 000 000:  Index Curve
 CGR .GAPI              00 000 000 000:  Gamma ray; Uranium-free
 DT  .US/F              00 000 000 000:  Acoustic wave travel time
 GR  .GAPI              00 000 000 000:  Gamma ray; total
 GR-LWD.GAPI            00 000 000 000:  
 ILD-LWD.OHMM           00 000 000 000:  
 ILM-LWD.OHMM           00 000 000 000:  
 NPHI.V/V               00 000 000 000:  Neutron porosity
 POTA.                  00 000 000 000:  Potassium contribution from spectral gamma ray
 SIGM.CU                00 000 000 000:  Sigma (neutron capture cross-section)
 THOR.PPM               00 000 000 000:  Thorium contribution from spectral gamma ray
 URAN.PPM               00 000 000 000:  Uranium contribution from spectral gamma ray
~A DEPTH        CGR    DT    GR   GR-LWD   ILD-LWD   ILM-LWD    NPHI    POTA    SIGM    THOR    URAN
# ...
 2795.9304    24.9271  -999.2500    64.1112    66.0168    15.1337    13.5055     0.1420     0.0115    14.5704     2.7932     4.3625 
 2796.0828    26.7646  -999.2500    65.9127    69.1610    13.9264    12.5357     0.1522     0.0130    15.1143     2.8460     4.3585 
 2796.2352    29.5861  -999.2500    70.5757    65.5304    13.0355    11.8723     0.1515     0.0143    15.6212     3.0115     4.5635 
 2796.3876    28.9684  -999.2500    74.2168    56.4606    13.0548    12.1657     0.1463     0.0141    16.3212     2.7752     5.0033 
 2796.5400    25.0580  -999.2500    73.0315    43.1430    13.5666    12.8034     0.1506     0.0132    17.2327     2.3001     5.1361 
 2796.6924    27.3652  -999.2500    70.6102    39.2148    14.1107    13.6942     0.1618     0.0140    18.8871     1.8760     4.8307 
 2796.8448    40.1526  -999.2500    73.4721    38.2402    14.3264    14.4439     0.1836     0.0176    20.7169     2.9411     3.9076 
 2796.9972    52.5519  -999.2500    79.7676    42.6949    14.1502    14.7270     0.2019     0.0208    21.9950     5.0754     3.0300 
 2797.1496    67.8389  -999.2500    86.3556    48.2426    13.7392    14.7458     0.2193     0.0242    21.4446     7.9449     2.0615 
 2797.3020    74.0246  -999.2500    89.2557    60.5741    13.4035    14.6363     0.2443     0.0250    18.3202    10.1281     1.6957 
 2797.4544    75.9997  -999.2500    89.1336    59.5662     8.4836     9.7210     0.2323     0.0240    15.2551    11.5249     1.4622 
 2797.6068    69.5358  -999.2500    85.3602    56.4534     7.8067     9.0689     0.1478     0.0214    13.0532    12.1064     1.7618 
 2797.7592    47.4166  -999.2500    74.7167    54.8286     7.4085     8.6665     0.1115     0.0152    11.7666     7.9968     3.0395 
 2797.9116    25.4749  -999.2500    64.4768    57.6167     7.3531     8.6282     0.0946     0.0092    11.1529     3.5784     4.3422 
 2798.0640    10.0594  -999.2500    56.8568    62.7839     7.2128     8.4762     0.0995     0.0043    11.0298     1.1153     5.2101 
 2798.2164     5.3695  -999.2500    54.9929    66.4925     6.6086     7.6550     0.1121     0.0038    11.4914     0.2559     5.5248 
 2798.3688     7.7589  -999.2500    68.2652    68.9762     4.8100     5.2922     0.1290     0.0072    12.1084     0.2520     6.7364 
 2798.5212    15.4914  -999.2500    92.1844    69.1178     2.7747     2.8063     0.1660     0.0121    12.5616     0.4381    10.5951 
 2798.6736    29.6531  -999.2500   132.8246    70.1322     2.0787     1.9825     0.1828     0.0192    12.3987     0.6843    13.3585 
 2798.8260    33.8921  -999.2500   154.0931    75.9158     1.5697     1.4456     0.1721     0.0219    11.7394     0.8450    13.1568 
 2798.9784    34.8884  -999.2500   148.0183    81.1143     1.5560     1.3759     0.1198     0.0196    10.7806     0.9740    12.4091 
 2799.1308    28.9082  -999.2500   104.2291    83.0418     1.9917     1.6393     0.0997     0.0179    10.1163     1.0937     8.3858 
 2799.2832    21.5407  -999.2500    72.0932    77.9737     3.9773     3.4038     0.0895     0.0129     9.7389     1.1326     5.6282 
 2799.4356    11.6591  -999.2500    41.4558    71.6358     7.5680     7.1695     0.0873     0.0062     9.5408     0.8428     3.3174 
 2799.5880     9.9016  -999.2500    35.5360    63.5068    11.0260    12.7368     0.0805     0.0044     9.4001     0.6604     2.8540 
 2799.7404     9.0000  -999.2500    30.4574    61.0342    14.3812    19.5236     0.0777     0.0040     9.2954     0.9493     2.3890 
 2799.8928     8.6985  -999.2500    29.3970    60.3544    16.9553    25.5470     0.0753     0.0030     9.2669     1.1131     2.3045 
 2800.0452     7.9386  -999.2500    29.1798    67.0684    19.4127    31.2768     0.0744     0.0021     9.2703     1.2965     2.3649 
 2800.1976     7.1929  -999.2500    28.3769    55.2148    21.9478    33.9265     0.0744     0.0018     9.3035     1.3354     2.3585 
 2800.3500     6.6389  -999.2500    27.7128    47.3189    27.3087    37.9779     0.0747     0.0012     9.3409     1.3903     2.3462 
 2800.5024     7.3921  -999.2500    27.6297    46.5366    34.1281    43.0022     0.0761     0.0023     9.3708     1.4064     2.2532 
 2800.6548     8.3788  -999.2500    28.7085    45.9601    43.3764    51.4085     0.0805     0.0032     9.4426     1.0973     2.2634 
 2800.8072    10.0742  -999.2500    30.2912    50.5298    54.8689    64.4064     0.0847     0.0044     9.5127     1.1058     2.2509 
 2800.9596    12.5499  -999.2500    33.0806    48.1250    69.8192    86.1240     0.0906     0.0051     9.5877     1.4615     2.2858 
 2801.1120    12.4682  -999.2500    33.9304    60.5691    81.3038   104.4021     0.0953     0.0040     9.6289     1.5997     2.4028 
 2801.2644     8.8885  -999.2500    33.8736    30.5880    92.3373   123.6114     0.0926     0.0031     9.6293     1.3463     2.7758 
 2801.4168     4.8587  -999.2500    32.2433    18.4488   105.1183   146.0892     0.0900     0.0024     9.6166     0.9509     3.0488 
 2801.5692     4.7608  -999.2500    31.9380    17.8377   118.7384   170.4777     0.0861     0.0023     9.5792     0.4303     3.0257 
 2801.7216     4.4286  -999.2500    32.5656    17.6977   140.3292   207.3722     0.0876     0.0014     9.5380     0.4876     3.1326 
 2801.8740     4.2556  -999.2500    33.3152    17.7538   164.8550   246.8712     0.0860     0.0008     9.5396     0.8684     3.2353 
 2802.0264     4.3478  -999.2500    34.6529    18.2679   184.2927   274.3105     0.0838     0.0007     9.5907     0.9990     3.3740 
 2802.1788     5.8340  -999.2500    35.8713    19.9078   203.2048   296.5284     0.0838     0.0019     9.8336     1.2468     3.3441 
 2802.3312     8.8446  -999.2500    38.0918    21.4402   211.8608   304.5808     0.0876     0.0038    10.0815     1.5141     3.3045 
 2802.4836    14.2054  -999.2500    43.1269    22.0740   190.3776   250.3965     0.0928     0.0052    10.3624     1.8810     3.5326 
 2802.6360    18.5718  -999.2500    52.7699    22.5256   184.0813   235.6296     0.1101     0.0057    10.7244     2.3755     3.8074 
 2802.7884    18.8058  -999.2500    53.9539    21.9691   181.6792   229.6052     0.1164     0.0049    10.8173     3.1704     3.9132 
 2802.9408    20.9114  -999.2500    50.6916    21.7690   177.5247   219.1214     0.1083     0.0053    10.5357     3.6450     3.2113 
 2803.0932    20.3191  -999.2500    48.5581    21.9946   184.2585   232.0546     0.0998     0.0054    10.2096     3.6501     3.1264 
 2803.2456    16.7297  -999.2500    45.0437    22.6379   186.5083   230.9400     0.0884     0.0052     9.9277     2.6903     3.1523 
 2803.3980    10.9065  -999.2500    43.8376    23.3783   207.1576   266.8138     0.0861     0.0037     9.8229     2.2570     3.6664 
 2803.5504     8.8774  -999.2500    45.1668    23.4396   196.1244   233.6041     0.0894     0.0025     9.8860     1.5677     4.2820 
 2803.7028     8.1314  -999.2500    49.5524    26.1315   181.8570   200.1548     0.0922     0.0019     9.9673     1.5275     4.6115 
 2803.8552     8.0973  -999.2500    52.7163    32.2892   166.6793   172.5713     0.0853     0.0023    10.0163     1.4543     4.9676 
 2804.0076     9.7037  -999.2500    53.8432    35.8610   152.8993   151.2016     0.0762     0.0036    10.0679     1.3627     4.9142 
 2804.1600    10.2363  -999.2500    51.1600    38.4011   132.4365   125.2479     0.0732     0.0049    10.2400     1.1122     4.5562 
 2804.3124    11.4457  -999.2500    50.5622    39.3299   125.2155   117.2307     0.0761     0.0056    10.5393     0.9649     4.3169 
 2804.4648    12.4397  -999.2500    53.0669    37.1969   120.9606   114.0249     0.0870     0.0060    10.8464     1.1999     4.5232 
 2804.6172    14.9046  -999.2500    59.7538    35.0736   124.5170   125.3354     0.1090     0.0069    11.0097     1.4850     4.9932 
 2804.7696    17.5855  -999.2500    67.5662    31.0526   127.4416   133.2995     0.1110     0.0085    10.9592     1.6126     5.5645 
 2804.9220    19.6965  -999.2500    65.2621    31.2646   131.2017   145.1730     0.0991     0.0096    10.8086     1.7272     4.8053 
 2805.0744    15.9529  -999.2500    51.5595    34.5472   133.1561   158.7629     0.0905     0.0071    10.7293     1.7639     3.7057 
