~Version Information
 VERS.                  2.0:   CWLS log ASCII Standard -VERSION 2.0
 WRAP.                   NO:   One line per depth step
~Well Information Block
#MNEM.UNIT       Data Type    Information
#---------     -----------    ---------------------------
 STRT.M               760.0188:
 STOP.M              2903.9820:
 STEP.M                 0.1524:
 NULL.               -999.2500:
 UWI .                   1019D:  UWI
 API .                   1019D:  UWI
 WELL.                   1019D:  COMMON WELL NAME
 COMP.                 UNKNOWN:  WELL OPERATOR
 FLD .                 UNKNOWN:  FIELD
 LIC .                 UNKNOWN:  AUTHORIZATION NO
 LOC .                 UNKNOWN:  BASIN
 CTRY.                 UNKNOWN:  COUNTRY
 STAT.                 UNKNOWN:  STATE
 CNTY.                 UNKNOWN:  COUNTY
 PROV.                 UNKNOWN:  STATE
 SRVC.                 UNKNOWN:  COMPANY
 DATE.                 UNKNOWN:  LOG RUN DATE
 LONG.                -92.0500:  LONGITUDE
 LATI.                 19.4617:  LATITUDE
 XCOORD.           599718.1875:  X COORDINATE
 YCOORD.          2152056.5000:  Y COORDINATE
 ELEV.M                 0.0000:  ELEVATION
 TD  .M              2900.0000:  TOTAL DEPTH
~Parameter Information Block
#MNEM.UNIT       Value        Description
#---------     -----------    ---------------------------
~Curve Information Block
#MNEM.UNIT                 API CODE     Curve Description
#---------               -----------    ---------------------------
 DEPTH.M                00 000 000 000:  Index Curve
 CGR .GAPI              00 000 000 000:  Gamma ray; Uranium-free
 DT  .US/F              00 000 000 000:  Acoustic wave travel time
 GR  .GAPI              00 000 000 000:  Gamma ray; total
 GR-LWD.GAPI            00 000 000 000:  
 ILD-LWD.OHMM           00 000 000 000:  
 ILM-LWD.OHMM           00 000 000 000:  
 NPHI.V/V               00 000 000 000:  Neutron porosity
 POTA.                  00 000 000 000:  Potassium contribution from spectral gamma ray
 SIGM.CU                00 000 000 000:  Sigma (neutron capture cross-section)
 THOR.PPM               00 000 000 000:  Thorium contribution from spectral gamma ray
 URAN.PPM               00 000 000 000:  Uranium contribution from spectral gamma ray
~A DEPTH        CGR    DT    GR   GR-LWD   ILD-LWD   ILM-LWD    NPHI    POTA    SIGM    THOR    URAN
# ...
 2544.9276     2.0745  -999.2500    51.5867    34.0308   196.1495   182.3376     0.0372     0.0005    10.2782     0.7815     5.4608 
 2545.0800     1.2995  -999.2500    49.8304    33.9056   199.1809   181.9355     0.0366     0.0005    10.2732     0.2304     5.4032 
 2545.2324     3.2446  -999.2500    47.3076    33.4711   201.1715   178.1811     0.0311     0.0024    10.3467     0.1266     4.9057 
 2545.3848     6.2201  -999.2500    46.2514    33.8234   202.2218   174.2242     0.0211     0.0033    10.5335     0.1218     4.4696 
 2545.5372     9.7065  -999.2500    46.8833    33.6311   202.2388   168.0528     0.0203     0.0041    10.6804     0.6257     4.1390 
 2545.6896    12.3273  -999.2500    46.8478    33.4650   204.6425   167.3337     0.0275     0.0042    10.5975     1.7542     3.8433 
 2545.8420    12.4672  -999.2500    46.0277    33.3640   205.5893   164.2260     0.0342     0.0032    10.3144     2.1853     3.8049 
 2545.9944    11.1775  -999.2500    44.7260    32.4611   207.0271   164.6591     0.0369     0.0034    10.0770     1.9082     3.7351 
 2546.1468     9.4108  -999.2500    43.2655    32.2820   210.1246   169.6315     0.0363     0.0024     9.9476     1.5847     3.7692 
 2546.2992     5.7297  -999.2500    41.8468    31.1160   215.2941   178.7698     0.0379     0.0011     9.8975     1.2025     3.9935 
 2546.4516     6.3740  -999.2500    41.8741    31.6611   222.6142   195.1973     0.0391     0.0015     9.9277     1.2238     3.9523 
 2546.6040     7.8783  -999.2500    43.0510    32.2178   229.0144   208.5111     0.0389     0.0025     9.9953     1.2489     3.9159 
 2546.7564     6.6152  -999.2500    45.9686    32.6993   233.0380   218.5320     0.0381     0.0022    10.1255     1.1148     4.4689 
 2546.9088     3.2627  -999.2500    49.8173    33.2718   235.1482   220.6511     0.0359     0.0011    10.2565     0.5910     5.1831 
 2547.0612     3.4341  -999.2500    52.4606    33.9114   233.1436   217.3843     0.0368     0.0005    10.4621     0.6621     5.4583 
 2547.2136     3.9951  -999.2500    52.2979    34.8855   228.8082   209.4282     0.0371     0.0005    10.6109     0.8157     5.3521 
 2547.3660     4.4658  -999.2500    51.6726    35.9680   222.8991   198.3586     0.0362     0.0005    10.6422     1.0646     5.1932 
 2547.5184     4.0171  -999.2500    50.6759    36.6485   215.5296   186.3127     0.0391     0.0005    10.5781     0.9210     5.1947 
 2547.6708     4.8247  -999.2500    48.1891    37.4024   215.0676   184.7354     0.0403     0.0005    10.5133     0.9823     4.8279 
 2547.8232     5.1117  -999.2500    47.5536    37.0154   212.2167   179.3664     0.0393     0.0005    10.3946     1.2505     4.7252 
 2547.9756     5.4240  -999.2500    47.2956    35.9404   208.4573   173.5078     0.0368     0.0005    10.2851     1.3444     4.6617 
 2548.1280     5.6739  -999.2500    46.5180    33.8312   209.4655   171.7758     0.0347     0.0005    10.2342     1.4178     4.4955 
 2548.2804     4.3019  -999.2500    45.1790    32.6424   211.0388   169.2631     0.0323     0.0004    10.2145     1.1427     4.5151 
 2548.4328     3.5220  -999.2500    43.5381    31.3901   217.3597   174.3830     0.0312     0.0004    10.1291     0.8235     4.4551 
 2548.5852     2.5979  -999.2500    40.2678    30.3398   222.7364   178.4187     0.0332     0.0013    10.0450     0.6846     4.1939 
 2548.7376     3.2067  -999.2500    40.9185    29.8752   224.7119   179.3848     0.0374     0.0028    10.0000     0.1312     4.1986 
 2548.8900     5.0205  -999.2500    45.6298    30.3020   225.8460   181.2637     0.0400     0.0033    10.0111     0.1100     4.5212 
 2549.0424     6.9868  -999.2500    50.5248    31.0690   223.0038   181.2267     0.0375     0.0048    10.0659     0.0988     4.8473 
 2549.1948     7.1801  -999.2500    50.7334    33.0049   221.7534   183.6857     0.0339     0.0048    10.1234     0.0848     4.8490 
 2549.3472     6.2871  -999.2500    47.5575    34.7887   224.6568   191.6277     0.0329     0.0042    10.0989     0.1201     4.5948 
 2549.4996     5.9044  -999.2500    43.8315    36.4280   232.1056   205.2209     0.0322     0.0038     9.9764     0.1332     4.2226 
 2549.6520     6.8174  -999.2500    43.8701    37.4373   240.4883   220.8136     0.0327     0.0038     9.8234     0.3012     4.1299 
 2549.8044     6.6915  -999.2500    44.8791    37.9588   244.3840   228.4944     0.0353     0.0037     9.7451     0.4174     4.2516 
 2549.9568     7.4310  -999.2500    46.3581    37.6960   244.7469   228.9622     0.0362     0.0043     9.7618     0.3323     4.3339 
 2550.1092     7.7944  -999.2500    46.9420    37.1044   242.9514   228.5225     0.0377     0.0042     9.8833     0.4620     4.3584 
 2550.2616     9.8261  -999.2500    49.1805    34.4018   241.4086   225.6417     0.0388     0.0041     9.9830     1.1542     4.3814 
 2550.4140    13.5154  -999.2500    50.4532    32.2469   239.0912   220.6759     0.0428     0.0049    10.0726     1.5064     4.1090 
 2550.5664    15.3641  -999.2500    50.3064    30.4283   238.9784   217.1277     0.0441     0.0062    10.2243     2.0686     3.8820 
 2550.7188    17.5167  -999.2500    47.6117    30.4100   241.7582   218.1672     0.0481     0.0065    10.3286     2.3951     3.3506 
 2550.8712    17.0474  -999.2500    45.0668    31.1788   240.9786   215.1571     0.0530     0.0063    10.4737     2.4854     3.1195 
 2551.0236    12.3825  -999.2500    44.0391    31.7301   241.5543   214.2325     0.0586     0.0054    10.5899     2.0537     3.3077 
 2551.1760    11.4681  -999.2500    41.7764    32.6698   240.1743   208.1394     0.0597     0.0051    10.6011     1.1805     3.3744 
 2551.3284    11.8313  -999.2500    41.7994    33.5682   240.3233   205.7483     0.0534     0.0051    10.4957     1.1501     3.3365 
 2551.4808    13.8054  -999.2500    42.2231    34.4092   240.6685   211.8852     0.0449     0.0057    10.3164     1.5353     3.1639 
 2551.6332    13.5255  -999.2500    42.6238    34.8689   240.1213   217.6605     0.0390     0.0054    10.0437     1.7046     3.2396 
 2551.7856    12.1492  -999.2500    43.8090    34.6719   240.5102   227.8451     0.0343     0.0047     9.7855     1.7427     3.5248 
 2551.9380    10.1129  -999.2500    44.3098    33.9545   238.8789   233.4890     0.0343     0.0041     9.5607     1.4298     3.8719 
 2552.0904     8.9083  -999.2500    45.2728    32.9644   240.5067   239.8830     0.0353     0.0040     9.4844     0.9458     4.0486 
 2552.2428     9.3272  -999.2500    45.8332    32.1200   239.6186   242.0726     0.0353     0.0048     9.5255     0.8110     4.0643 
 2552.3952     8.0672  -999.2500    45.7981    31.9954   248.2073   249.1811     0.0344     0.0050     9.5698     0.6934     4.1297 
 2552.5476     7.1147  -999.2500    45.4024    32.6186   253.1429   258.6256     0.0328     0.0045     9.5935     0.2215     4.2627 
 2552.7000     1.7541  -999.2500    46.0369    34.3270   264.6660   276.4660     0.0314     0.0009     9.5051     0.1469     4.9302 
 2552.8524     1.0987  -999.2500    49.9910    34.9139   263.6647   276.7056     0.0312     0.0004     9.4350     0.1426     5.4434 
 2553.0048     1.0638  -999.2500    50.9234    36.0317   259.3778   272.6801     0.0257     0.0004     9.3808     0.1253     5.5511 
 2553.1572     1.1353  -999.2500    47.2483    36.4834   256.7234   270.3333     0.0210     0.0005     9.3934     0.1364     5.1339 
 2553.3096     1.3843  -999.2500    45.7870    36.7393   252.2828   263.4362     0.0207     0.0007     9.5794     0.1467     4.5573 
 2553.4620     3.8299  -999.2500    40.8538    36.6645   248.2281   253.9019     0.0276     0.0022     9.8161     0.1843     4.1220 
 2553.6144     7.8325  -999.2500    41.5520    35.7410   242.5490   237.6360     0.0405     0.0036    10.0325     0.5835     3.7541 
 2553.7668     8.7018  -999.2500    45.8427    34.9926   238.8274   226.0744     0.0439     0.0043    10.1398     0.8609     4.2174 
 2553.9192     7.1024  -999.2500    48.3839    34.0706   236.4113   214.5594     0.0454     0.0032    10.1575     0.7177     4.5960 
 2554.0716     4.1699  -999.2500    48.4535    32.9680   235.3872   210.1672     0.0457     0.0008    10.1573     0.7217     4.9817 
