~Version Information
 VERS.                  2.0:   CWLS log ASCII Standard -VERSION 2.0
 WRAP.                   NO:   One line per depth step
~Well Information Block
#MNEM.UNIT       Data Type    Information
#---------     -----------    ---------------------------
 STRT.M               760.0188:
 STOP.M              2903.9820:
 STEP.M                 0.1524:
 NULL.               -999.2500:
 UWI .                   1019D:  UWI
 API .                   1019D:  UWI
 WELL.                   1019D:  COMMON WELL NAME
 COMP.                 UNKNOWN:  WELL OPERATOR
 FLD .                 UNKNOWN:  FIELD
 LIC .                 UNKNOWN:  AUTHORIZATION NO
 LOC .                 UNKNOWN:  BASIN
 CTRY.                 UNKNOWN:  COUNTRY
 STAT.                 UNKNOWN:  STATE
 CNTY.                 UNKNOWN:  COUNTY
 PROV.                 UNKNOWN:  STATE
 SRVC.                 UNKNOWN:  COMPANY
 DATE.                 UNKNOWN:  LOG RUN DATE
 LONG.                -92.0500:  LONGITUDE
 LATI.                 19.4617:  LATITUDE
 XCOORD.           599718.1875:  X COORDINATE
 YCOORD.          2152056.5000:  Y COORDINATE
 ELEV.M                 0.0000:  ELEVATION
 TD  .M              2900.0000:  TOTAL DEPTH
~Parameter Information Block
#MNEM.UNIT       Value        Description
#---------     -----------    ---------------------------
~Curve Information Block
#MNEM.UNIT                 API CODE     Curve Description
#---------               -----------    ---------------------------
 DEPTH.M                00 000 000 000:  Index Curve
 CGR .GAPI              00 000 000 000:  Gamma ray; Uranium-free
 DT  .US/F              00 000 000 000:  Acoustic wave travel time
 GR  .GAPI              00 000 000 000:  Gamma ray; total
 GR-LWD.GAPI            00 000 000 000:  
 ILD-LWD.OHMM           00 000 000 000:  
 ILM-LWD.OHMM           00 000 000 000:  
 NPHI.V/V               00 000 000 000:  Neutron porosity
 POTA.                  00 000 000 000:  Potassium contribution from spectral gamma ray
 SIGM.CU                00 000 000 000:  Sigma (neutron capture cross-section)
 THOR.PPM               00 000 000 000:  Thorium contribution from spectral gamma ray
 URAN.PPM               00 000 000 000:  Uranium contribution from spectral gamma ray
~A DEPTH        CGR    DT    GR   GR-LWD   ILD-LWD   ILM-LWD    NPHI    POTA    SIGM    THOR    URAN
# ...
 2507.7420     5.1258  -999.2500    64.0514    39.1679   261.2962   243.7012     0.0296     0.0024     9.8956     0.5322     6.5604 
 2507.8944     7.7470  -999.2500    67.8155    42.3191   267.3681   250.8747     0.0326     0.0026     9.9347     1.1838     6.6876 
 2508.0468     8.6913  -999.2500    63.1606    45.1200   267.6653   249.5017     0.0328     0.0027     9.9927     1.3620     6.0643 
 2508.1992     7.0127  -999.2500    54.8451    44.8972   265.2640   244.8251     0.0324     0.0023    10.0126     1.4119     5.3254 
 2508.3516     4.9988  -999.2500    50.0976    42.9750   262.5039   239.4455     0.0329     0.0016    10.0054     0.9630     4.7777 
 2508.5040     4.6721  -999.2500    45.5765    40.5393   259.6840   235.5418     0.0319     0.0010     9.9644     0.7283     4.5540 
 2508.6564     3.8197  -999.2500    37.0125    37.3395   256.4408   233.6940     0.0311     0.0010     9.8953     0.6845     3.6955 
 2508.8088     4.3238  -999.2500    33.1495    34.3195   254.9769   231.7400     0.0307     0.0011     9.8283     0.7754     3.2093 
 2508.9612     3.3374  -999.2500    29.9867    31.3209   248.9617   228.4672     0.0325     0.0014     9.7971     0.5667     2.9670 
 2509.1136     2.1439  -999.2500    31.4269    28.0892   248.1089   230.1658     0.0327     0.0013     9.8821     0.2786     3.2602 
 2509.2660     2.4237  -999.2500    36.8029    25.1140   247.0595   234.4589     0.0328     0.0016    10.0478     0.0861     3.9275 
 2509.4184     2.3523  -999.2500    38.6334    23.0446   233.4828   236.6393     0.0320     0.0009    10.1313     0.0701     4.0393 
 2509.5708     1.2565  -999.2500    42.1295    22.5311   233.1578   238.4366     0.0250     0.0005    10.0913     0.1093     4.5505 
 2509.7232     1.4864  -999.2500    41.4836    23.2331   232.6905   240.5384     0.0245     0.0007    10.0287     0.2324     4.4531 
 2509.8756     5.2913  -999.2500    42.3876    24.2195   229.2071   239.2664     0.0249     0.0020     9.9538     1.0278     3.9628 
 2510.0280     8.6431  -999.2500    41.9577    25.6442   228.2645   237.2106     0.0246     0.0029     9.9218     1.3660     3.6445 
 2510.1804     7.5498  -999.2500    37.9909    27.2550   230.3683   235.6620     0.0249     0.0028     9.9282     1.2266     3.3891 
 2510.3328     5.9526  -999.2500    34.4013    29.0276   230.0264   231.3976     0.0261     0.0025     9.9711     0.8389     3.1673 
 2510.4852     4.2569  -999.2500    29.7616    30.6074   226.5730   224.5114     0.0281     0.0030    10.0308     0.1350     2.8395 
 2510.6376     4.2633  -999.2500    28.7931    31.0203   231.4837   219.6844     0.0284     0.0016    10.0564     0.4043     2.9191 
 2510.7900     2.3177  -999.2500    37.7861    30.5948   235.5009   216.9733     0.0296     0.0004    10.0377     0.4789     3.9978 
 2510.9424     2.6388  -999.2500    46.9341    30.0604   234.1897   216.3421     0.0311     0.0004     9.9556     0.5283     4.9316 
 2511.0948     2.9854  -999.2500    51.7566    28.8534   235.8259   218.6780     0.0315     0.0005     9.8612     0.6635     5.4299 
 2511.2472     5.2013  -999.2500    49.6907    27.3004   238.9003   222.6968     0.0311     0.0005     9.8175     1.2823     4.9532 
 2511.3996     6.5969  -999.2500    47.6797    25.9877   236.4871   222.1880     0.0301     0.0005     9.8495     1.6753     4.5739 
 2511.5520     7.5764  -999.2500    46.2473    24.6265   233.0036   220.6616     0.0296     0.0005     9.9356     1.9516     4.3054 
 2511.7044     5.5492  -999.2500    45.4362    23.1660   232.3235   219.2426     0.0280     0.0005    10.1708     1.3802     4.4407 
 2511.8568     4.8368  -999.2500    44.6347    22.9982   231.0150   213.9235     0.0277     0.0005    10.3135     1.1752     4.4309 
 2512.0092     4.4973  -999.2500    44.9280    23.4971   222.6694   200.3511     0.0275     0.0005    10.3740     1.0649     4.5013 
 2512.1616     6.4858  -999.2500    47.0479    25.0218   223.9730   194.4644     0.0271     0.0011    10.4125     1.4140     4.5159 
 2512.3140     8.8016  -999.2500    49.4619    26.8830   223.9810   184.3882     0.0271     0.0028    10.4538     1.3774     4.5269 
 2512.4664     8.8186  -999.2500    48.5202    29.4255   224.0430   176.0667     0.0272     0.0034    10.4384     1.1460     4.4201 
 2512.6188    10.0468  -999.2500    44.6352    31.5523   221.9724   166.8023     0.0274     0.0044    10.3715     1.1215     3.8509 
 2512.7712    10.1017  -999.2500    43.1000    33.8486   219.3061   158.9016     0.0290     0.0037    10.2684     1.4148     3.6738 
 2512.9236    11.8429  -999.2500    42.6576    35.8350   215.0103   150.3761     0.0297     0.0045    10.1999     1.5617     3.4307 
 2513.0760    11.3246  -999.2500    42.9684    35.5388   208.3123   148.3437     0.0309     0.0051    10.1726     1.2034     3.5230 
 2513.2284    11.2990  -999.2500    42.6233    33.9108   209.3601   153.7722     0.0309     0.0064    10.1344     0.6831     3.4874 
 2513.3808     9.8008  -999.2500    41.4116    31.7073   214.1525   163.8867     0.0318     0.0067    10.0805     0.1186     3.5193 
 2513.5332     7.4437  -999.2500    40.4299    31.5402   225.4303   181.7446     0.0325     0.0051     9.9868     0.0951     3.6725 
 2513.6856     3.8274  -999.2500    39.2306    31.7963   242.1715   207.5561     0.0335     0.0025     9.8692     0.0893     3.9416 
 2513.8380     2.2089  -999.2500    37.3145    32.0383   254.2092   229.0430     0.0330     0.0014     9.8213     0.0640     3.9085 
 2513.9904     3.7227  -999.2500    34.4333    32.1124   270.1236   259.2651     0.0327     0.0025     9.8608     0.0659     3.4191 
 2514.1428     8.1807  -999.2500    32.8276    31.5303   286.8564   289.6723     0.0299     0.0053     9.9786     0.2199     2.7440 
 2514.2952    12.5577  -999.2500    32.7061    30.4284   292.3074   296.9173     0.0277     0.0077    10.0913     0.4939     2.2431 
 2514.4476    13.8658  -999.2500    34.2019    29.6413   296.6517   302.4850     0.0268     0.0084    10.1329     0.6065     2.2641 
 2514.6000    10.8593  -999.2500    36.4485    29.2093   304.3788   307.8053     0.0272     0.0074    10.0723     0.1542     2.8489 
 2514.7524     9.4065  -999.2500    37.4884    29.3275   311.1940   311.4410     0.0271     0.0063     9.9806     0.1861     3.1265 
 2514.9048    10.2279  -999.2500    38.3855    29.7227   319.3135   315.3385     0.0280     0.0046     9.9202     1.0901     3.1349 
 2515.0572    10.8354  -999.2500    39.3766    29.8313   325.7940   315.9360     0.0304     0.0043     9.9300     1.3492     3.1776 
 2515.2096     8.1701  -999.2500    40.7710    30.1085   332.1743   323.9626     0.0327     0.0041    10.1005     0.6975     3.6296 
 2515.3620     6.3940  -999.2500    41.1112    30.1276   334.7271   323.8820     0.0344     0.0038    10.2819     0.2862     3.8652 
 2515.5144     5.5290  -999.2500    40.3981    30.2595   342.8521   332.7858     0.0343     0.0036    10.4500     0.1360     3.8821 
 2515.6668     5.0288  -999.2500    40.1769    29.9658   346.3449   335.5451     0.0324     0.0032    10.5310     0.1550     3.9131 
 2515.8192     3.3683  -999.2500    38.9103    29.4995   347.0474   335.1334     0.0300     0.0019    10.4613     0.2130     3.9570 
 2515.9716     3.3509  -999.2500    39.0295    29.4942   347.9522   334.3833     0.0283     0.0010    10.3202     0.5359     3.9723 
 2516.1240     3.2464  -999.2500    38.7374    29.3624   336.7480   318.7215     0.0281     0.0007    10.1360     0.6493     3.9513 
 2516.2764     4.3011  -999.2500    38.6272    29.5423   338.4385   318.9579     0.0275     0.0012     9.9679     0.7380     3.8216 
 2516.4288     5.8303  -999.2500    38.3773    29.9198   319.7684   293.9820     0.0273     0.0021     9.9039     0.8054     3.6236 
 2516.5812     9.5578  -999.2500    38.2570    30.2398   319.0556   287.4138     0.0296     0.0040     9.9417     1.1322     3.1952 
 2516.7336    13.4277  -999.2500    37.8927    29.8643   300.4684   256.2689     0.0335     0.0061    10.0285     1.3950     2.7238 
 2516.8860    16.8757  -999.2500    37.9508    29.5023   288.0608   233.1693     0.0384     0.0078    10.1237     1.7013     2.3464 
