~Version Information
 VERS.                  2.0:   CWLS log ASCII Standard -VERSION 2.0
 WRAP.                   NO:   One line per depth step
~Well Information Block
#MNEM.UNIT       Data Type    Information
#---------     -----------    ---------------------------
 STRT.M               760.0188:
 STOP.M              2903.9820:
 STEP.M                 0.1524:
 NULL.               -999.2500:
 UWI .                   1019D:  UWI
 API .                   1019D:  UWI
 WELL.                   1019D:  COMMON WELL NAME
 COMP.                 UNKNOWN:  WELL OPERATOR
 FLD .                 UNKNOWN:  FIELD
 LIC .                 UNKNOWN:  AUTHORIZATION NO
 LOC .                 UNKNOWN:  BASIN
 CTRY.                 UNKNOWN:  COUNTRY
 STAT.                 UNKNOWN:  STATE
 CNTY.                 UNKNOWN:  COUNTY
 PROV.                 UNKNOWN:  STATE
 SRVC.                 UNKNOWN:  COMPANY
 DATE.                 UNKNOWN:  LOG RUN DATE
 LONG.                -92.0500:  LONGITUDE
 LATI.                 19.4617:  LATITUDE
 XCOORD.           599718.1875:  X COORDINATE
 YCOORD.          2152056.5000:  Y COORDINATE
 ELEV.M                 0.0000:  ELEVATION
 TD  .M              2900.0000:  TOTAL DEPTH
~Parameter Information Block
#MNEM.UNIT       Value        Description
#---------     -----------    ---------------------------
~Curve Information Block
#MNEM.UNIT                 API CODE     Curve Description
#---------               -----------    ---------------------------
 DEPTH.M                00 000 000 000:  Index Curve
 CGR .GAPI              00 000 000 000:  Gamma ray; Uranium-free
 DT  .US/F              00 000 000 000:  Acoustic wave travel time
 GR  .GAPI              00 000 000 000:  Gamma ray; total
 GR-LWD.GAPI            00 000 000 000:  
 ILD-LWD.OHMM           00 000 000 000:  
 ILM-LWD.OHMM           00 000 000 000:  
 NPHI.V/V               00 000 000 000:  Neutron porosity
 POTA.                  00 000 000 000:  Potassium contribution from spectral gamma ray
 SIGM.CU                00 000 000 000:  Sigma (neutron capture cross-section)
 THOR.PPM               00 000 000 000:  Thorium contribution from spectral gamma ray
 URAN.PPM               00 000 000 000:  Uranium contribution from spectral gamma ray
~A DEPTH        CGR    DT    GR   GR-LWD   ILD-LWD   ILM-LWD    NPHI    POTA    SIGM    THOR    URAN
# ...
 2730.8556    25.9530  -999.2500    56.9682    18.4251    29.6593    34.3812     0.1123     0.0146    12.4236     1.3688     3.4531 
 2731.0080    23.5981  -999.2500    53.9026    21.4039    27.7048    27.8619     0.0797     0.0130    11.6706     1.6268     3.3739 
 2731.1604    20.5190  -999.2500    46.9902    27.4505    25.4784    23.3800     0.0688     0.0104    11.0408     1.6179     2.9471 
 2731.3128    13.7341  -999.2500    36.6239    32.1530    22.5890    20.2147     0.0625     0.0065    10.4466     1.6668     2.5484 
 2731.4652    12.0026  -999.2500    33.0282    37.6038    18.5630    16.5858     0.0560     0.0057    10.0956     1.2618     2.3409 
 2731.6176     9.3632  -999.2500    30.2545    42.4702    15.3286    15.0580     0.0535     0.0058     9.8913     0.9908     2.3259 
 2731.7700     9.5385  -999.2500    29.5129    43.9376    12.1472    13.1423     0.0505     0.0065     9.7831     0.2246     2.2238 
 2731.9224     9.7353  -999.2500    29.6006    44.3825    10.8263    11.5963     0.0505     0.0066     9.7540     0.0883     2.2117 
 2732.0748    11.1464  -999.2500    28.3218    40.8967    10.8571    11.2273     0.0517     0.0061     9.7938     0.3256     1.9122 
 2732.2272    12.2124  -999.2500    29.2124    36.7800    12.9738    10.3166     0.0539     0.0052    10.0225     1.0146     1.8927 
 2732.3796    11.5254  -999.2500    30.7832    31.8439    17.6493    13.2546     0.0619     0.0051    10.3529     1.4490     2.1440 
 2732.5320    11.6772  -999.2500    36.4980    28.6450    22.9688    19.2211     0.0765     0.0063    11.0328     1.0660     2.7634 
 2732.6844    13.7519  -999.2500    43.4076    27.0180    26.5596    24.8130     0.1001     0.0079    11.7048     0.8115     3.3017 
 2732.8368    18.1272  -999.2500    54.2285    26.1619    29.3333    31.5006     0.1104     0.0097    12.1273     0.8429     4.0193 
 2732.9892    22.7958  -999.2500    64.6857    25.9535    31.9803    39.4757     0.0953     0.0113    12.1981     1.6976     4.6638 
 2733.1416    24.1039  -999.2500    63.6452    26.7225    34.6935    47.9737     0.0848     0.0109    11.8707     2.1688     4.4023 
 2733.2940    19.9945  -999.2500    55.2332    28.6797    36.7940    54.0070     0.0856     0.0090    11.4791     2.6611     3.9233 
 2733.4464    13.9499  -999.2500    46.4065    32.0318    38.3831    54.7855     0.0907     0.0075    11.3140     1.7237     3.6135 
 2733.5988    10.5343  -999.2500    41.7680    34.2758    38.8830    50.9121     0.0938     0.0068    11.3425     0.5878     3.4774 
 2733.7512    10.3020  -999.2500    42.2785    38.9826    37.8116    43.8406     0.0932     0.0071    11.4136     0.1924     3.5601 
 2733.9036    11.6485  -999.2500    43.0624    42.0208    34.3836    34.2008     0.0971     0.0074    11.4449     0.1081     3.4975 
 2734.0560    13.3541  -999.2500    41.8501    42.2341    26.8632    22.3751     0.0963     0.0070    11.4023     0.5312     3.1726 
 2734.2084    15.0722  -999.2500    39.5043    42.1312    21.2012    16.1504     0.0984     0.0070    11.3519     1.2985     2.7201 
 2734.3608    15.8013  -999.2500    37.3151    39.9419    16.6605    12.1443     0.1022     0.0073    11.3235     1.6152     2.3952 
 2734.5132    12.2731  -999.2500    33.4664    37.6655    16.0763    11.4603     0.1061     0.0064    11.2549     1.4306     2.3595 
 2734.6656     9.6563  -999.2500    31.1741    35.4052    18.5284    13.0815     0.1095     0.0052    11.1229     0.8282     2.3957 
 2734.8180     6.8444  -999.2500    27.7789    33.9001    22.2933    16.0763     0.1159     0.0039    11.0014     0.5643     2.3307 
 2734.9704     7.1686  -999.2500    26.2449    34.9244    27.1239    20.4337     0.1225     0.0036    10.9481     0.4557     2.1238 
 2735.1228     9.0401  -999.2500    25.3920    35.5519    29.8147    23.6031     0.1380     0.0039    11.0761     0.7093     1.8205 
 2735.2752    10.9175  -999.2500    25.9639    35.6404    32.2049    27.4338     0.1575     0.0043    11.3583     1.1105     1.6752 
 2735.4276    13.6859  -999.2500    28.3171    32.8982    33.8378    32.0264     0.1656     0.0050    11.7250     1.5810     1.6290 
 2735.5800    13.3984  -999.2500    29.8967    31.4118    33.5682    34.9222     0.1759     0.0048    12.0678     1.9358     1.8368 
 2735.7324    10.3281  -999.2500    31.6936    29.6392    33.6006    37.4590     0.1797     0.0033    12.3169     1.8197     2.3787 
 2735.8848     7.8499  -999.2500    31.9350    27.6708    33.4689    39.0425     0.1852     0.0025    12.4794     1.5733     2.6815 
 2736.0372     5.2832  -999.2500    31.8925    25.7688    33.6560    39.9815     0.1788     0.0017    12.5635     1.1089     2.9625 
 2736.1896     4.0204  -999.2500    31.8311    23.7001    36.3609    42.5536     0.1708     0.0017    12.5251     0.6128     3.0963 
 2736.3420     3.9372  -999.2500    32.3557    22.2825    38.1487    43.3860     0.1511     0.0017    12.3964     0.4130     3.1639 
 2736.4944     6.6557  -999.2500    32.7859    21.0938    40.0910    44.3410     0.1318     0.0031    12.1864     0.5502     2.9092 
 2736.6468     8.5635  -999.2500    32.4770    20.7601    39.6853    42.6100     0.1193     0.0045    12.0412     0.7355     2.6624 
 2736.7992     9.5052  -999.2500    32.1350    21.1808    38.9966    40.2684     0.1143     0.0059    12.0304     0.4978     2.5194 
 2736.9516     9.0103  -999.2500    32.7428    22.1165    37.8550    37.1910     0.1130     0.0061    12.1083     0.2060     2.6422 
 2737.1040     9.6981  -999.2500    33.3948    22.5129    39.4629    36.6524     0.1156     0.0054    12.2421     0.2264     2.6382 
 2737.2564    11.0415  -999.2500    34.5003    22.5702    39.4452    35.6931     0.1139     0.0047    12.3680     0.8597     2.6117 
 2737.4088    13.3362  -999.2500    36.7553    21.9756    39.9860    35.6589     0.1141     0.0055    12.5606     1.4439     2.6073 
 2737.5612    18.0614  -999.2500    40.2733    21.1861    39.3724    34.9026     0.1134     0.0075    12.7946     1.7269     2.4729 
 2737.7136    26.2542  -999.2500    47.2364    20.8313    36.2848    32.3128     0.1087     0.0119    13.0952     2.3841     2.3361 
 2737.8660    28.6896  -999.2500    50.7761    21.2399    33.5281    30.1469     0.0969     0.0133    13.4642     2.7878     2.4590 
 2738.0184    28.5198  -999.2500    56.0372    21.4551    27.7780    25.7598     0.0902     0.0139    13.8026     2.7930     3.0637 
 2738.1708    28.5489  -999.2500    59.7113    21.9457    25.7694    24.4979     0.0933     0.0133    14.0516     2.7117     3.4694 
 2738.3232    26.5280  -999.2500    64.6479    22.2456    23.5948    23.0238     0.1085     0.0131    13.9615     2.7080     4.2440 
 2738.4756    24.4972  -999.2500    63.5458    25.1145    19.8396    19.9328     0.1206     0.0121    13.4667     2.2044     4.3475 
 2738.6280    20.4913  -999.2500    52.6847    27.2959    16.8319    17.1521     0.1178     0.0096    12.6721     2.0940     3.5842 
 2738.7804    17.3240  -999.2500    43.1343    30.6414    14.7074    15.0219     0.1215     0.0075    11.8622     1.9992     2.8736 
 2738.9328    13.7822  -999.2500    30.7503    35.0884    12.7721    13.0374     0.1265     0.0054    11.3448     1.9072     1.8891 
 2739.0852    11.6017  -999.2500    26.6334    41.7493    11.0833    11.1536     0.1324     0.0046    10.9510     1.6804     1.6735 
 2739.2376     8.0785  -999.2500    24.4109    47.9078     9.7893     9.5768     0.1264     0.0032    10.7188     1.0127     1.8184 
 2739.3900     2.9990  -999.2500    23.7547    53.2699     8.3793     7.7470     0.1140     0.0018    10.5327     0.1509     2.3108 
 2739.5424     1.8359  -999.2500    23.0972    55.8502     7.5800     6.8595     0.1054     0.0006    10.4421     0.2689     2.3671 
 2739.6948     2.4409  -999.2500    21.7491    57.2607     7.1369     6.4928     0.1088     0.0004    10.4448     0.5530     2.1497 
 2739.8472     5.0161  -999.2500    21.3867    53.4196     7.0872     6.4756     0.1113     0.0019    10.4906     0.6662     1.8226 
 2739.9996     7.5782  -999.2500    21.2202    47.1462     9.1033     8.1833     0.1163     0.0039    10.5916     0.6028     1.5188 
