#------------------------------------------------------------------------------
#
#   Created by  : [OpenWorks] Log Export Utility (LEXP)
#   Created on  : 2016-05-12 18:35:20
#   Project     : CANT971
#   User        : R5K
#   Interpreter : PEP
#
#------------------------------------------------------------------------------
~VERSION INFORMATION
VERS. 2.0 : CWLS Log ASCII Standard - version 2.0
WRAP.  NO : One line per depth step
~WELL INFORMATION
#MNEMONIC   .UNIT                                           VALUE :DESCRIPTION
#------------------------------------------------------------------------------
STRT        .M                                           785.9651 :START DEPTH
STOP        .M                                          3369.6023 :STOP DEPTH
STEP        .M                                             0.1524 :STEP
NULL        .                                           -999.2500 :NULL VALUE
COMP        .                                   PEMEX EXPL & PROD :COMPANY
WELL        .                                               1021D :WELL
FLD         .                                           CANTARELL :FIELD
LOC         .                                             UNKNOWN :LOCATION
CNTY        .                                      CD. DEL CARMEN :COUNTY
STAT        .                                            CAMPECHE :STATE
CTRY        .                                              MEXICO :COUNTRY
SRVC        .                                             UNKNOWN :SERVICE COMPANY
DATE        .                                             UNKNOWN :LOG DATE
UWI         .                                         30600000913 :UNIQUE WELL ID
XCOORD      .                                       597330.910000 :SURFACE X
YCOORD      .                                      2152069.890000 :SURFACE Y
LAT         .                                           19.461891 :LATITUDE
LON         .                                          -92.072697 :LONGITUDE
ELEV        .M                                            26.5400 :SURFACE ELEV
ELEV_TYPE   .                                                  KB :ELEV TYPE
~CURVE INFORMATION
#MNEMONIC.UNIT        API CODE       : CURVE DESCRIPTION
#------------------------------------------------------------------------------
DEPTH    .M                          : Measured Depth
CALI     .inches      UNKNOWN        : CALI:registros:r1:0002:v1 
DRHO     .g/cm3       UNKNOWN        : DRHO:registros:r1:0002:v1 
DT       .us/ft       UNKNOWN        : DT:registros:r1:0002:v1 
GR-LWD   .UNKNOWN     UNKNOWN        : GR-LWD:registros:r1:0002:v1 
GR       .API         UNKNOWN        : GR:registros:r1:0002:v1 
ILD-LWD  .ohm.m       UNKNOWN        : ILD-LWD:registros:r1:0002:v1 
ILM-LWD  .UNKNOWN     UNKNOWN        : ILM-LWD:registros:r1:0002:v1 
LLD      .ohm.m       UNKNOWN        : LLD:registros:r1:0002:v1 
LLS      .ohm.m       UNKNOWN        : LLS:registros:r1:0002:v1 
MSFL     .ohm.m       UNKNOWN        : MSFL:registros:r1:0002:v1 
NPHI     .v/v_decimal UNKNOWN        : NPHI:registros:r1:0002:v1 
PEF      .UNKNOWN     UNKNOWN        : PEF:registros:r1:0002:v1 
RHOB     .g/cm3       UNKNOWN        : RHOB:registros:r1:0002:v1 
SP       .mV          UNKNOWN        : SP:registros:r1:0002:v1 
~A     DEPTH         CALI         DRHO           DT       GR-LWD           GR      ILD-LWD      ILM-LWD          LLD          LLS         MSFL         NPHI          PEF         RHOB           SP
# ...
   2821.4194      12.4613       0.0996      66.1486      27.8980      39.7068     327.1017     135.9525     210.3655     123.2317     319.7299       0.0456       3.6862       2.7954     -35.7488
   2821.5718      12.6211       0.1164      65.9401      25.8447      40.6209     323.3566     181.7072     178.7954     109.1599     273.5540       0.0556       3.6605       2.7653     -35.4854
   2821.7244      12.6678       0.1253      56.9352      27.4172      43.8199     321.0261     233.8733     182.3796     111.7496     153.7336       0.0745       3.7198       2.7313     -35.8125
   2821.8767      12.6550       0.1365      28.6029      32.5368      47.7398     321.9563     201.9751     231.3363     138.1714     145.5343       0.0938       3.7575       2.7084     -35.8282
   2822.0291      12.6835       0.1259      29.7748      35.0345      49.8370     322.4369     138.4785     258.4902     151.9236      74.1190       0.1151       3.8498       2.6674     -35.8592
   2822.1814      12.8484       0.1032      36.6457      36.7080      45.3499     322.4090     111.7196     148.8822      87.5115      97.2789       0.1393       3.7612       2.5931     -35.9071
   2822.3340      12.7774       0.0816      57.8566      41.9357      49.0761     321.0694     102.4126     131.7776      77.0441     120.0363       0.1901       3.7529       2.4922     -36.2032
   2822.4863      12.7573       0.0591      57.7108      43.2263      71.0442     320.5492     111.8860     133.2164      77.2578      14.7692       0.2851       3.6811       2.3950     -36.3601
   2822.6387      12.8413       0.0268      51.4244      43.0292      93.1922     323.3764     122.9861     131.7379      74.6056       9.2224       0.3679       3.5151       2.3256     -36.6245
   2822.7910      12.8347       0.0216      52.5632      44.8073      91.5705     322.8941     128.6754     247.8355     126.4333      83.0282       0.3332       3.2766       2.3728     -36.5479
   2822.9436      12.9380       0.0361      54.9946      43.6299      64.9642     319.6549     174.6088     526.5316     259.2732     233.8800       0.2335       3.2573       2.4979     -36.9697
   2823.0959      12.9744       0.0386      52.1585      45.4267      40.5615     314.6639     213.5663     525.1835     273.0142     104.1637       0.1363       3.4980       2.6162     -37.2814
   2823.2483      12.8492       0.0300      58.2535      42.2471      31.3701     305.3819     275.9912     536.2817     276.6864     159.1679       0.1158       3.6247       2.6476     -37.4852
   2823.4006      12.7180       0.0344      58.1113      32.5994      30.7273     297.4431     382.0934     484.8180     251.5200     249.0697       0.1113       3.5261       2.6380     -37.8598
   2823.5530      12.6026       0.0445      55.4183      30.2408      31.0865     292.0148     447.9298     403.9850     207.9265     174.3014       0.1166       3.5239       2.6257     -38.0473
   2823.7056      12.4976       0.0403      60.1968      26.0433      31.4924     286.9199    1571.5148     350.1723     176.3792     207.6572       0.1250       3.6045       2.6120     -38.0618
   2823.8579      12.5395       0.0494      59.4259      18.9781      32.2839     286.9366    3178.1445     310.8398     153.0288     284.4173       0.1169       3.8485       2.6307     -37.6875
   2824.0103      12.6450       0.0610      59.7496      17.5863      33.1122     288.6151    3447.7212     311.7509     148.2022     246.3475       0.0980       3.8458       2.6546     -37.6560
   2824.1626      12.6441       0.0541      60.0041      17.6743      35.0502     289.0137    2600.2349     324.5626     147.2550     200.1414       0.0902       3.8849       2.6334     -37.7516
   2824.3152      12.6694       0.0431      61.1747      21.0431      38.6026     286.5786    1447.8087     349.7655     153.4739     110.1999       0.0985       3.7263       2.6078     -38.3125
   2824.4675      12.4686       0.0376      60.5463      27.9920      42.1126     282.0313     779.3147     397.2584     172.4227     122.8593       0.1086       3.7021       2.6069     -38.4855
   2824.6199      12.4773       0.0390      59.0260      37.3694      44.0263     278.4120     437.7567     440.4412     190.4769     110.7700       0.1019       3.7627       2.6457     -39.0315
   2824.7722      12.3333       0.0354      58.1631      46.7277      41.3365     276.3912     202.2383     505.5024     218.4848     193.7479       0.0876       3.9651       2.6771     -39.1723
   2824.9248      12.3862       0.0303      54.7781      45.0127      36.8304     274.8402     144.2813     591.7659     255.1600     179.0748       0.0792       4.0166       2.6757     -39.7069
   2825.0771      12.5184       0.0249      55.6253      37.9947      31.8053     275.5725     154.6879     758.5567     321.7961     326.3524       0.0826       3.7893       2.6455     -40.9222
   2825.2295      12.6245       0.0214      56.1787      33.6218      25.8977     279.6379     165.1863    1212.4152     492.7562     550.1309       0.0954       3.7336       2.6045     -40.9365
   2825.3818      12.5331       0.0187      57.4234      33.2094      20.3656     284.4785     148.8744    1864.8347     727.9498     581.2051       0.1098       3.6122       2.5795     -40.7990
   2825.5342      12.3534       0.0173      57.4812      38.3685      15.6655     289.4692     122.7399    2120.6772     814.5409     484.4436       0.1143       3.7535       2.5711     -41.5631
   2825.6868      12.3891       0.0146      57.5831      38.9190      15.4650     295.7549     133.3821    1658.3673     668.5138     603.7930       0.1094       3.6845       2.5831     -41.8286
   2825.8391      12.4744       0.0159      52.7622      32.4696      16.8486     298.8758     162.6770    1100.7158     464.6297     648.7652       0.0990       3.7624       2.6103     -42.1255
   2825.9915      12.5171       0.0165      53.0661      29.8875      19.0053     288.1193     171.4968     717.5150     313.5856     734.1765       0.0920       3.6550       2.6399     -42.2337
   2826.1438      12.5393       0.0117      55.1082      34.0816      21.1992     280.2919     172.9140     456.8454     205.3366     602.2847       0.0818       3.7335       2.6594     -42.0000
   2826.2964      12.5250       0.0098      57.4495      33.7501      27.0076     302.5679     181.4608     274.3939     129.2383     345.5399       0.0757       3.8237       2.6705     -42.0942
   2826.4487      12.3750       0.0019      57.1490      36.1033      34.2649     328.3596     169.6598     221.7016     107.8500     212.8100       0.0821       3.9267       2.6587     -42.4851
   2826.6011      12.2725      -0.0026      56.1455      36.0595      40.7081     335.1100     154.8842     212.3650     105.1316      83.8484       0.0947       3.8889       2.6419     -42.7495
   2826.7534      12.3260      -0.0014      54.4748      30.4510      44.6029     340.1012     155.4575     231.9928     115.2739     136.8324       0.0971       3.9100       2.6434     -42.6572
   2826.9060      12.4258       0.0053      54.3747      27.0867      49.9229     333.2779     139.6646     246.8658     123.7665     226.7722       0.0850       4.1176       2.6589     -42.8271
   2827.0583      12.5186       0.0101      53.7945      29.1469      50.7683     309.7866     130.5569     241.6160     123.9230     315.5856       0.0697       4.1762       2.6830     -42.4843
   2827.2107      12.4658       0.0147      51.8213      41.9580      50.2272     293.5124     108.7704     244.1199     126.3256     208.5783       0.0645       4.0545       2.6855     -42.2643
   2827.3630      12.2686       0.0174      49.9206      46.6819      44.6810     291.9814     106.4480     247.7887     128.3143     302.1859       0.0633       3.7883       2.6957     -41.6396
   2827.5154      12.3203       0.0225      48.5253      40.1798      43.9485     293.6016     132.5283     277.7949     140.4159     145.5790       0.0607       3.8487       2.7117     -41.1864
   2827.6680      12.5021       0.0207      49.4084      37.3251      43.7849     299.1600     121.4316     326.3883     159.4544     164.1644       0.0498       3.9600       2.7415     -40.7182
