#------------------------------------------------------------------------------
#
#   Created by  : [OpenWorks] Log Export Utility (LEXP)
#   Created on  : 2016-05-12 18:35:20
#   Project     : CANT971
#   User        : R5K
#   Interpreter : PEP
#
#------------------------------------------------------------------------------
~VERSION INFORMATION
VERS. 2.0 : CWLS Log ASCII Standard - version 2.0
WRAP.  NO : One line per depth step
~WELL INFORMATION
#MNEMONIC   .UNIT                                           VALUE :DESCRIPTION
#------------------------------------------------------------------------------
STRT        .M                                           785.9651 :START DEPTH
STOP        .M                                          3369.6023 :STOP DEPTH
STEP        .M                                             0.1524 :STEP
NULL        .                                           -999.2500 :NULL VALUE
COMP        .                                   PEMEX EXPL & PROD :COMPANY
WELL        .                                               1021D :WELL
FLD         .                                           CANTARELL :FIELD
LOC         .                                             UNKNOWN :LOCATION
CNTY        .                                      CD. DEL CARMEN :COUNTY
STAT        .                                            CAMPECHE :STATE
CTRY        .                                              MEXICO :COUNTRY
SRVC        .                                             UNKNOWN :SERVICE COMPANY
DATE        .                                             UNKNOWN :LOG DATE
UWI         .                                         30600000913 :UNIQUE WELL ID
XCOORD      .                                       597330.910000 :SURFACE X
YCOORD      .                                      2152069.890000 :SURFACE Y
LAT         .                                           19.461891 :LATITUDE
LON         .                                          -92.072697 :LONGITUDE
ELEV        .M                                            26.5400 :SURFACE ELEV
ELEV_TYPE   .                                                  KB :ELEV TYPE
~CURVE INFORMATION
#MNEMONIC.UNIT        API CODE       : CURVE DESCRIPTION
#------------------------------------------------------------------------------
DEPTH    .M                          : Measured Depth
CALI     .inches      UNKNOWN        : CALI:registros:r1:0002:v1 
DRHO     .g/cm3       UNKNOWN        : DRHO:registros:r1:0002:v1 
DT       .us/ft       UNKNOWN        : DT:registros:r1:0002:v1 
GR-LWD   .UNKNOWN     UNKNOWN        : GR-LWD:registros:r1:0002:v1 
GR       .API         UNKNOWN        : GR:registros:r1:0002:v1 
ILD-LWD  .ohm.m       UNKNOWN        : ILD-LWD:registros:r1:0002:v1 
ILM-LWD  .UNKNOWN     UNKNOWN        : ILM-LWD:registros:r1:0002:v1 
LLD      .ohm.m       UNKNOWN        : LLD:registros:r1:0002:v1 
LLS      .ohm.m       UNKNOWN        : LLS:registros:r1:0002:v1 
MSFL     .ohm.m       UNKNOWN        : MSFL:registros:r1:0002:v1 
NPHI     .v/v_decimal UNKNOWN        : NPHI:registros:r1:0002:v1 
PEF      .UNKNOWN     UNKNOWN        : PEF:registros:r1:0002:v1 
RHOB     .g/cm3       UNKNOWN        : RHOB:registros:r1:0002:v1 
SP       .mV          UNKNOWN        : SP:registros:r1:0002:v1 
~A     DEPTH         CALI         DRHO           DT       GR-LWD           GR      ILD-LWD      ILM-LWD          LLD          LLS         MSFL         NPHI          PEF         RHOB           SP
# ...
   3096.6538      11.9265       0.0083      48.4960      43.7839      36.9120    1042.5812    1678.5607    1089.4154     654.4199     610.2070       0.0221       3.7176       2.8363     -16.9988
   3096.8064      11.6067       0.0087      47.3632      42.5993      35.5549    1039.0487    1255.3979    1546.0790     892.6735     679.7804       0.0212       3.8575       2.8445     -16.5777
   3096.9587      11.6028       0.0097      47.6385      50.8118      34.6848    1046.5802    1242.8698    1867.9495    1028.4492     772.4095       0.0190       3.9161       2.8391     -16.6105
   3097.1111      11.6075       0.0166      47.8244      65.1118      38.1524    1047.0510     947.5167    1991.9377    1043.0883     710.6453       0.0163       3.7745       2.8249     -17.1722
   3097.2634      11.6085       0.0214      47.5495      60.7103      38.6935    1033.3425     321.5009    2055.8340    1024.1649     548.0911       0.0162       3.6969       2.8180     -17.1705
   3097.4158      11.6314       0.0224      47.1473      33.4206      39.6163    1015.4077     714.3945    1868.1381     909.0052     467.4587       0.0174       3.8401       2.8286     -16.4977
   3097.5684      11.6397       0.0215      46.2737      34.8221      36.8635    1021.8337    1132.4586    1621.3109     783.3401     577.8102       0.0195       3.9196       2.8421     -15.5299
   3097.7207      11.5816       0.0125      45.6985      37.0793      33.2353     978.8951    1206.3873    1552.8461     740.1252     530.3937       0.0199       3.7586       2.8427     -15.0324
   3097.8730      11.5176       0.0065      45.8063      36.0515      29.0054     979.3709    1064.8751    1655.3733     784.6530     668.2786       0.0211       3.6369       2.8310     -15.5000
   3098.0254      11.5069       0.0101      47.9253      38.4320      27.3440     926.4746     967.6481    1849.8303     877.5525     879.1956       0.0215       3.5376       2.8180     -15.4053
   3098.1780      11.5208       0.0143      48.0759      47.2984      30.4464     899.6690     813.8370    2157.7317    1034.2681     909.7177       0.0212       3.7541       2.8038     -15.0461
   3098.3303      11.5465       0.0277      48.3253      41.3435      33.7821     894.5175     569.8673    2644.7368    1287.9250     745.5571       0.0188       3.6574       2.8104     -14.6237
   3098.4827      11.5458       0.0483      48.1731    -999.2500      38.4988     901.1342     924.8264    2866.9431    1425.2786     261.5192       0.0179       3.8665       2.8203     -13.8419
   3098.6350      11.5545       0.0574      47.7020    -999.2500      43.3522     889.8680    1161.9817    2813.7896    1411.1295     387.7672       0.0176       3.6488       2.8294     -12.8403
   3098.7876      11.5564       0.0554      48.5023      32.9405      50.5611     851.2342     855.7419    1766.5997     937.2811     547.8562       0.0197       3.6481       2.8174     -11.8598
   3098.9399      11.5615       0.0625      49.6562      27.6700      54.8504     826.2150     927.8273     656.1620     374.1373     574.7780       0.0233       3.5575       2.8363     -11.8742
   3099.0923      11.6476       0.0669      51.3252      23.7794      55.3027     828.6599     781.4709     513.6945     295.5970     508.0291       0.0266       3.7589       2.8425     -11.4685
   3099.2446      11.9807       0.0700      51.2486      25.1389      49.2574     819.8204     423.9000     481.0066     277.0862     478.1508       0.0233       3.8457       2.8464     -11.2173
   3099.3970      12.0227       0.0712      51.1033      29.8846      41.4378     813.0798     529.2155     631.8188     353.6585     604.7225       0.0219       3.8667       2.8321     -10.8762
   3099.5496      11.6453       0.0616      51.6715      34.8627      37.5205     829.2604     527.6473    1021.5475     559.3062     465.6079       0.0229       3.6648       2.8161     -11.0457
   3099.7019      11.6392       0.0542      50.9519      40.8188      39.0290     877.6698     510.9810    1369.9808     736.4774     412.7812       0.0266       3.6513       2.8076      -9.8393
   3099.8542      11.6135       0.0458      51.5739      39.3948      40.3305     903.4828     490.7003    1531.0472     807.9412     398.3643       0.0248       3.5272       2.8178      -7.4950
   3100.0066      11.6210       0.0421      50.9474      35.1118      37.3213     905.7385     525.6417    1416.4666     744.4269     497.9516       0.0232       3.5703       2.8255      -5.8599
   3100.1592      11.6793       0.0437      50.0735      36.4345      34.1375     886.0688     673.4081    1329.4543     708.0012     483.5404       0.0206       3.5636       2.8505      -6.0316
   3100.3115      11.7946       0.0540      50.0288      32.3179      31.5862     868.6956     988.5286    1285.0774     690.4384     507.2394       0.0185       3.5672       2.8642      -6.2037
   3100.4639      11.8572       0.0617      50.8235      32.1800      30.9565     845.0578    1135.6637    1374.9417     732.3337     528.5277       0.0188       3.5561       2.8714      -6.0751
   3100.6162      11.8264       0.0662      50.1485      37.5413      28.8441     797.4844     564.8429    1539.1758     813.4730     388.1552       0.0208       3.5739       2.8580      -4.6055
   3100.7688      11.8757       0.0661      49.7000      44.3329      26.5105     774.4848     717.7172    1432.7314     771.8510     478.0396       0.0235       3.5901       2.8489      -3.3271
   3100.9211      12.0068       0.0625      49.5736      44.7978      26.0567     757.8890    1179.9908    1268.4736     698.4454     687.5895       0.0230       3.7661       2.8425      -3.3145
   3101.0735      11.7617       0.0581      49.3764      37.2284      24.5240     736.1353    2233.7942    1222.2993     676.5406     553.7032       0.0204       3.9653       2.8490      -4.7697
   3101.2258      11.7522       0.0549      49.7991      30.6966      25.4987     738.6497    2730.9563    1143.1812     638.8632     629.0045       0.0192       4.1106       2.8472      -6.7068
   3101.3782      11.7759       0.0477      49.8664      24.5642      29.9651     733.0010    2265.0664    1078.4369     606.0089     674.0104       0.0191       3.9017       2.8346      -7.8908
   3101.5308      11.8045       0.0488      51.1142      17.2537      37.2028     723.5845    2714.6729    1019.6691     584.3009     620.2714       0.0211       3.8096       2.8219      -8.3619
   3101.6831      11.7979       0.0595      51.9526      17.1125      42.6222     698.4517    2552.8560    1014.6491     587.2174     580.9878       0.0255       3.7237       2.8140     -10.0028
   3101.8354      11.7147       0.0566      52.9243      18.7307      41.7611     689.7872    1437.6321    1034.1409     600.5089     317.6219       0.0321       3.7431       2.7840     -11.4403
   3101.9878      11.6693       0.0491      53.4578      17.4155      40.3118     677.6215    1220.8785    1161.3318     663.2680     253.7496       0.0407       3.7076       2.7559     -12.5487
   3102.1404      11.6646       0.0559      55.5735      18.0003      38.4891     659.1221     998.1370    1367.9465     765.8340     292.0089       0.0493       3.7856       2.7693     -13.2993
   3102.2927      11.7277       0.0499      55.1747      22.5266      41.0394     653.2643    1092.4266    1484.7296     826.1435     408.6378       0.0555       3.8385       2.7734     -13.9528
   3102.4451      11.7993       0.0303      54.5202      18.3051      42.1215     631.6580    2255.7090    1373.6310     764.7393     457.9555       0.0600       3.9144       2.7480     -13.8755
   3102.5974      11.7805       0.0230      52.6611      19.6431      40.1692     575.4390    1406.9241    1440.4724     777.7488     381.0767       0.0594       3.9843       2.7378     -14.0941
   3102.7500      11.7609       0.0240      51.7190      23.9611      33.5356     555.1735     454.4125    1557.7186     807.1646     373.9675       0.0548       3.9524       2.7533     -14.6450
   3102.9023      11.7444       0.0287      50.7946      24.8673      25.8021     511.9262     467.2203    2098.6794    1014.1568     692.4623       0.0440       3.7724       2.7839     -16.0315
