#------------------------------------------------------------------------------
#
#   Created by  : [OpenWorks] Log Export Utility (LEXP)
#   Created on  : 2016-05-12 18:35:20
#   Project     : CANT971
#   User        : R5K
#   Interpreter : PEP
#
#------------------------------------------------------------------------------
~VERSION INFORMATION
VERS. 2.0 : CWLS Log ASCII Standard - version 2.0
WRAP.  NO : One line per depth step
~WELL INFORMATION
#MNEMONIC   .UNIT                                           VALUE :DESCRIPTION
#------------------------------------------------------------------------------
STRT        .M                                           785.9651 :START DEPTH
STOP        .M                                          3369.6023 :STOP DEPTH
STEP        .M                                             0.1524 :STEP
NULL        .                                           -999.2500 :NULL VALUE
COMP        .                                   PEMEX EXPL & PROD :COMPANY
WELL        .                                               1021D :WELL
FLD         .                                           CANTARELL :FIELD
LOC         .                                             UNKNOWN :LOCATION
CNTY        .                                      CD. DEL CARMEN :COUNTY
STAT        .                                            CAMPECHE :STATE
CTRY        .                                              MEXICO :COUNTRY
SRVC        .                                             UNKNOWN :SERVICE COMPANY
DATE        .                                             UNKNOWN :LOG DATE
UWI         .                                         30600000913 :UNIQUE WELL ID
XCOORD      .                                       597330.910000 :SURFACE X
YCOORD      .                                      2152069.890000 :SURFACE Y
LAT         .                                           19.461891 :LATITUDE
LON         .                                          -92.072697 :LONGITUDE
ELEV        .M                                            26.5400 :SURFACE ELEV
ELEV_TYPE   .                                                  KB :ELEV TYPE
~CURVE INFORMATION
#MNEMONIC.UNIT        API CODE       : CURVE DESCRIPTION
#------------------------------------------------------------------------------
DEPTH    .M                          : Measured Depth
CALI     .inches      UNKNOWN        : CALI:registros:r1:0002:v1 
DRHO     .g/cm3       UNKNOWN        : DRHO:registros:r1:0002:v1 
DT       .us/ft       UNKNOWN        : DT:registros:r1:0002:v1 
GR-LWD   .UNKNOWN     UNKNOWN        : GR-LWD:registros:r1:0002:v1 
GR       .API         UNKNOWN        : GR:registros:r1:0002:v1 
ILD-LWD  .ohm.m       UNKNOWN        : ILD-LWD:registros:r1:0002:v1 
ILM-LWD  .UNKNOWN     UNKNOWN        : ILM-LWD:registros:r1:0002:v1 
LLD      .ohm.m       UNKNOWN        : LLD:registros:r1:0002:v1 
LLS      .ohm.m       UNKNOWN        : LLS:registros:r1:0002:v1 
MSFL     .ohm.m       UNKNOWN        : MSFL:registros:r1:0002:v1 
NPHI     .v/v_decimal UNKNOWN        : NPHI:registros:r1:0002:v1 
PEF      .UNKNOWN     UNKNOWN        : PEF:registros:r1:0002:v1 
RHOB     .g/cm3       UNKNOWN        : RHOB:registros:r1:0002:v1 
SP       .mV          UNKNOWN        : SP:registros:r1:0002:v1 
~A     DEPTH         CALI         DRHO           DT       GR-LWD           GR      ILD-LWD      ILM-LWD          LLD          LLS         MSFL         NPHI          PEF         RHOB           SP
# ...
   3026.2451      12.1439       0.0625      49.8259      38.8899      39.5345    1331.1891     405.3232    2415.0984     829.0482     585.7505       0.0193       3.8171       2.8212     -54.6709
   3026.3975      12.1162       0.0596      50.0991      36.0662      38.3695    1341.1685     352.6875    2762.1790     944.0555     823.8435       0.0180       3.7825       2.8289     -54.1239
   3026.5498      12.0162       0.0525      49.5475      38.1105      38.9374    1355.6566     342.4987    3327.1643    1136.9404     748.8019       0.0154       3.6710       2.8338     -53.8763
   3026.7024      11.9564       0.0567      48.8000      37.4234      37.3322    1385.0955     414.2596    3395.2429    1186.2751     814.5192       0.0145       3.5668       2.8555     -54.2184
   3026.8547      11.9346       0.0523      48.5219      38.2528      37.3237    1441.4408     488.0406    1821.3551     602.7235     720.5435       0.0151       3.4544       2.8615     -54.1565
   3027.0071      11.9632       0.0483      48.1410      40.8491      37.8428    1488.5900     398.3427    1472.5920     505.4341     517.9918       0.0157       3.4591       2.8510     -54.2342
   3027.1594      12.0477       0.0509      49.4626      34.6396      40.4470    1541.0292     408.0782    1428.7107     507.8887     567.8281       0.0149       3.3952       2.8478     -54.2033
   3027.3118      12.1223       0.0480      48.9692      35.7267      43.0991    1592.5914     465.2161    1298.3818     476.5924     686.8625       0.0163       3.5239       2.8333     -54.4077
   3027.4644      12.1649       0.0485      47.6401      41.8245      42.0337    1613.7603     482.5240    1385.7114     512.5339     430.0136       0.0192       3.6070       2.8231     -54.9693
   3027.6167      12.0943       0.0485      48.3122      41.1375      38.6498    1616.3499     565.9789    1768.2308     656.0007     420.5401       0.0209       3.8359       2.8140     -55.0611
   3027.7690      12.0058       0.0465      48.1495      43.1753      34.8400    1616.3499     580.5681    1660.2859     641.0005     575.7711       0.0193       3.9530       2.8096     -54.0270
   3027.9214      12.0597       0.0429      48.0505      44.4028      34.2655    1601.9380     492.1433    1576.2839     616.1760     551.8956       0.0172       4.0236       2.8104     -52.5146
   3028.0740      12.1883       0.0374      48.4021      43.0370      33.6603    1577.5999     439.1352    1577.9615     624.0027     436.0333       0.0166       3.9281       2.8002     -52.2346
   3028.2263      12.2183       0.0381      48.7482      41.7516      33.4796    1563.9958     468.3977    1386.6393     550.5822     416.8922       0.0168       3.8841       2.7872     -52.3593
   3028.3787      12.2309       0.0447      48.3782      38.6557      33.9275    1561.4761     543.5745    1194.1880     481.9907     335.3238       0.0164       4.0616       2.7916     -52.2967
   3028.5310      12.2474       0.0501      49.3990      33.5409      34.3229    1568.5568     695.2168    1136.4686     469.9866     194.1063       0.0157       4.2834       2.7974     -51.9975
   3028.6836      12.1846       0.0573      49.2770      29.2146      34.7992    1591.4491     825.8840    1085.6934     449.0947     382.9992       0.0175       4.2848       2.8178     -51.0764
   3028.8359      12.1012       0.0615      49.9896      28.8940      36.9184    1625.9515    1123.3846    1291.7889     521.0616     549.4296       0.0213       4.1633       2.8215     -50.3423
   3028.9883      12.0901       0.0513      50.8146      30.3438      40.4830    1663.8269    1191.5709    1574.6615     630.4097     562.6714       0.0266       3.8843       2.8088     -50.0183
   3029.1406      12.1372       0.0432      51.5243      30.1402      46.2997    1657.3302     807.6299    1417.0410     585.0044     466.9933       0.0304       3.8350       2.7759     -51.1104
   3029.2930      12.2218       0.0394      50.6934      26.0965      49.7541    1634.2937     488.2587    1417.5956     580.6604     265.8024       0.0285       3.6202       2.7545     -51.3586
   3029.4456      12.2783       0.0350      48.3946      21.6529      48.4314    1625.1362     482.9072    1390.3246     566.1573     271.8383       0.0224       3.6539       2.7540     -50.9521
   3029.5979      12.2784       0.0411      47.0259      23.6339      42.6748    1618.9553     531.8676    1385.5011     552.0056     358.8643       0.0138       3.5485       2.8031     -50.2643
   3029.7502      12.1549       0.0493      47.0468      24.9303      37.0446    1601.9508     595.2200    1639.3904     633.6301     382.2310       0.0087       3.6086       2.8524     -49.3401
   3029.9026      12.0403       0.0468      46.2021      22.0795      31.2073    1563.6813     527.2470    1999.5054     764.2530     678.2560       0.0065       3.5488       2.8598     -48.0935
   3030.0552      12.0347       0.0268      46.5727      20.2153      27.2016    1547.3024     356.3988    2390.2544     899.3083     855.5739       0.0075       3.6535       2.8322     -48.3300
   3030.2075      12.0973       0.0199      45.8496      17.1286      23.5336    1535.7841     271.0026    2618.3149     988.2853     503.7543       0.0078       3.7493       2.8339     -49.4541
   3030.3599      12.2152       0.0228      46.0026      17.9677      24.2929    1509.0717     235.7415    2643.3801     998.6047     962.5206       0.0071       3.9207       2.8542     -50.1429
   3030.5122      12.2703       0.0196      47.0263      22.0719      22.3388    1507.1804     238.0599    2484.0964     943.4944    1083.2173       0.0054       3.9098       2.8660     -50.8428
   3030.6648      12.2408       0.0113      47.4759      20.0481      20.5517    1542.0822     305.2971    2269.9761     877.6946    1061.6167       0.0053       4.0140       2.8570     -50.4836
   3030.8171      12.1107       0.0110      47.7000      13.3002      19.4879    1579.2665     383.3355    2213.7200     863.3238     945.1708       0.0062       3.9254       2.8547     -50.2185
   3030.9695      12.0341       0.0119      48.2544      14.3608      20.3487    1609.8373     418.2318    2234.3711     875.6544     607.8577       0.0066       3.9294       2.8416     -50.4085
   3031.1218      12.0468       0.0157      49.6476      18.1074      19.8516    1675.5819     378.3939    2270.1736     905.0008     772.8265       0.0067       3.8720       2.8358     -51.5970
   3031.2742      12.1449       0.0367      49.6077      20.3513      19.5089    1720.1528     295.5420    2092.4067     868.4293     930.6818       0.0068       3.8688       2.8287     -52.7669
   3031.4268      12.3510       0.0694      51.5989      21.6458      19.4445    1658.7070     308.7502    1515.8564     656.2067     889.4756       0.0072       3.7702       2.8090     -53.4076
   3031.5791      12.4105       0.0735      51.0733      21.2471      21.2673    1548.2040     413.3355    1270.8237     555.4373     684.9622       0.0104       3.7203       2.7658     -54.0468
   3031.7314      12.1596       0.0793      50.7027      22.9939      21.1184    1479.6915     543.4437    1168.0026     512.9215      78.2002       0.0144       3.8361       2.7565     -53.7320
   3031.8838      12.0735       0.0931      51.4737      25.5551      20.6731    1453.0867     522.9032    1176.9204     517.3094     119.7983       0.0182       3.9368       2.8011     -52.9848
   3032.0364      12.0355       0.0918      51.1000      23.1254      18.9534    1462.6766     452.2430    1322.4611     571.2356     319.6520       0.0165       3.8460       2.8317     -53.3764
   3032.1887      12.0657       0.0627      51.1503      19.2789      17.5194    1484.1876     430.3519    1716.4786     721.5216     323.6946       0.0143       3.5590       2.8353     -54.4240
   3032.3411      12.1293       0.0567      50.9218      16.3787      18.3599    1497.9432     390.0229    1804.0986     774.8566     221.4176       0.0111       3.5536       2.8534     -55.6434
   3032.4934      12.1940       0.0507      49.3203      13.8870      18.0843    1519.7958     375.8039    1788.4399     779.4025     368.5439       0.0107       3.5063       2.8670     -56.4672
