#------------------------------------------------------------------------------
#
#   Created by  : [OpenWorks] Log Export Utility (LEXP)
#   Created on  : 2016-05-12 18:35:20
#   Project     : CANT971
#   User        : R5K
#   Interpreter : PEP
#
#------------------------------------------------------------------------------
~VERSION INFORMATION
VERS. 2.0 : CWLS Log ASCII Standard - version 2.0
WRAP.  NO : One line per depth step
~WELL INFORMATION
#MNEMONIC   .UNIT                                           VALUE :DESCRIPTION
#------------------------------------------------------------------------------
STRT        .M                                           785.9651 :START DEPTH
STOP        .M                                          3369.6023 :STOP DEPTH
STEP        .M                                             0.1524 :STEP
NULL        .                                           -999.2500 :NULL VALUE
COMP        .                                   PEMEX EXPL & PROD :COMPANY
WELL        .                                               1021D :WELL
FLD         .                                           CANTARELL :FIELD
LOC         .                                             UNKNOWN :LOCATION
CNTY        .                                      CD. DEL CARMEN :COUNTY
STAT        .                                            CAMPECHE :STATE
CTRY        .                                              MEXICO :COUNTRY
SRVC        .                                             UNKNOWN :SERVICE COMPANY
DATE        .                                             UNKNOWN :LOG DATE
UWI         .                                         30600000913 :UNIQUE WELL ID
XCOORD      .                                       597330.910000 :SURFACE X
YCOORD      .                                      2152069.890000 :SURFACE Y
LAT         .                                           19.461891 :LATITUDE
LON         .                                          -92.072697 :LONGITUDE
ELEV        .M                                            26.5400 :SURFACE ELEV
ELEV_TYPE   .                                                  KB :ELEV TYPE
~CURVE INFORMATION
#MNEMONIC.UNIT        API CODE       : CURVE DESCRIPTION
#------------------------------------------------------------------------------
DEPTH    .M                          : Measured Depth
CALI     .inches      UNKNOWN        : CALI:registros:r1:0002:v1 
DRHO     .g/cm3       UNKNOWN        : DRHO:registros:r1:0002:v1 
DT       .us/ft       UNKNOWN        : DT:registros:r1:0002:v1 
GR-LWD   .UNKNOWN     UNKNOWN        : GR-LWD:registros:r1:0002:v1 
GR       .API         UNKNOWN        : GR:registros:r1:0002:v1 
ILD-LWD  .ohm.m       UNKNOWN        : ILD-LWD:registros:r1:0002:v1 
ILM-LWD  .UNKNOWN     UNKNOWN        : ILM-LWD:registros:r1:0002:v1 
LLD      .ohm.m       UNKNOWN        : LLD:registros:r1:0002:v1 
LLS      .ohm.m       UNKNOWN        : LLS:registros:r1:0002:v1 
MSFL     .ohm.m       UNKNOWN        : MSFL:registros:r1:0002:v1 
NPHI     .v/v_decimal UNKNOWN        : NPHI:registros:r1:0002:v1 
PEF      .UNKNOWN     UNKNOWN        : PEF:registros:r1:0002:v1 
RHOB     .g/cm3       UNKNOWN        : RHOB:registros:r1:0002:v1 
SP       .mV          UNKNOWN        : SP:registros:r1:0002:v1 
~A     DEPTH         CALI         DRHO           DT       GR-LWD           GR      ILD-LWD      ILM-LWD          LLD          LLS         MSFL         NPHI          PEF         RHOB           SP
# ...
   3365.4875      11.1477       0.0913      48.4000    -999.2500      37.4552    -999.2500    -999.2500      27.0934      26.9367     833.0923       0.1589       2.5792       2.5976     -22.6250
   3365.6399      11.1474       0.0900      48.4000    -999.2500      37.4552    -999.2500    -999.2500      27.0934      26.9367     833.0923       0.1589       2.6666       2.5956     -22.6250
   3365.7922      11.1471       0.0850      48.4000    -999.2500      37.4552    -999.2500    -999.2500      27.0934      26.9367     833.0923       0.1589       2.6634       2.5897     -22.6250
   3365.9446      11.1488       0.0786      48.4000    -999.2500      37.4552    -999.2500    -999.2500      27.0934      26.9367     833.0923       0.1589       2.7112       2.5815     -22.6250
   3366.0972      11.1479       0.0699      48.4000    -999.2500      37.4552    -999.2500    -999.2500      27.0934      26.9367     833.0923       0.1589       2.6516       2.5717     -22.6250
   3366.2495      11.1480       0.0604      48.4000    -999.2500      37.4552    -999.2500    -999.2500      27.0934      26.9367     833.0923       0.1589       2.6111       2.5551     -22.6250
   3366.4019      11.1500       0.0638      48.4000    -999.2500      37.4552    -999.2500    -999.2500      27.0934      26.9367     833.0923       0.1589       2.5052       2.5577     -22.6250
   3366.5542      11.1503       0.0764      48.4000    -999.2500      37.4552    -999.2500    -999.2500      27.0934      26.9367     833.0923       0.1589       2.5449       2.5774     -22.6250
   3366.7068      11.1489       0.0849      48.4000    -999.2500      37.4552    -999.2500    -999.2500      27.0934      26.9367     833.0923       0.1589       2.5986       2.5954     -22.6250
   3366.8591      11.1498       0.0937      48.4000    -999.2500      37.4552    -999.2500    -999.2500      27.0934      26.9367     833.0923       0.1589       2.6320       2.6045     -22.6250
   3367.0115      11.1509       0.0996      48.4000    -999.2500      37.4552    -999.2500    -999.2500      27.0934      26.9367     833.0923       0.1589       2.5265       2.6067     -22.6250
   3367.1638      11.1502       0.0991      48.4000    -999.2500      37.4552    -999.2500    -999.2500      27.0934      26.9367     833.0923       0.1589       2.4408       2.6046     -22.6250
   3367.3164      11.1495       0.0979    -999.2500    -999.2500      37.4552    -999.2500    -999.2500      27.0934      26.9367     833.0923       0.1589       2.3678       2.6079     -22.6250
   3367.4688      11.1497       0.0927    -999.2500    -999.2500      37.4552    -999.2500    -999.2500      27.0934      26.9367     833.0923       0.1589       2.4051       2.6040     -22.6250
   3367.6211      11.1479       0.0881    -999.2500    -999.2500      37.4552    -999.2500    -999.2500      27.0934      26.9367     833.0923       0.1589       2.4395       2.6011     -22.6250
   3367.7734      11.1503       0.0869    -999.2500    -999.2500      37.4552    -999.2500    -999.2500      27.0934      26.9367     833.0923       0.1589       2.4586       2.5961     -22.6250
   3367.9258      11.1505       0.0874    -999.2500    -999.2500      37.4552    -999.2500    -999.2500      27.0934      26.9367     833.0923       0.1589       2.4443       2.5923     -22.6250
   3368.0784      11.1494       0.0850    -999.2500    -999.2500      37.4552    -999.2500    -999.2500      27.0934      26.9367     833.0923       0.1589       2.3714       2.5900     -22.6250
   3368.2307      11.1503       0.0886    -999.2500    -999.2500      37.4552    -999.2500    -999.2500      27.0934      26.9367     833.0923       0.1589       2.4339       2.5946     -22.6250
   3368.3831      11.1491       0.0937    -999.2500    -999.2500      37.4552    -999.2500    -999.2500      27.0934      26.9367     833.0923       0.1589       2.4798       2.6087     -22.6250
   3368.5354      11.1496       0.0928    -999.2500    -999.2500      37.4552    -999.2500    -999.2500      27.0934      26.9367     833.0923       0.1589       2.5181       2.6054     -22.6250
   3368.6880      11.1496       0.0891    -999.2500    -999.2500      37.4552    -999.2500    -999.2500      27.0934      26.9367     833.0923       0.1589       2.3960       2.5976     -22.6250
   3368.8403      10.5371       0.0936    -999.2500    -999.2500      37.4552    -999.2500    -999.2500      27.0934      26.9367     833.0923       0.1654       2.3024       2.5839     -22.6250
   3368.9927       7.1870       0.1084    -999.2500    -999.2500      37.4552    -999.2500    -999.2500      27.0934      26.9367     833.0923       0.1992       2.2548       2.5727     -22.6250
   3369.1450       2.6474       0.1247    -999.2500    -999.2500      37.4552    -999.2500    -999.2500      27.0934      26.9367     833.0923       0.2421       2.2549       2.5663     -22.6250
   3369.2976       2.6474       0.1420    -999.2500    -999.2500      37.4552    -999.2500    -999.2500      27.0934      26.9367     833.0923       0.2421       2.2549       2.5709     -22.6250
   3369.4500       2.6474       0.1631    -999.2500    -999.2500      37.4552    -999.2500    -999.2500      27.0934      26.9367     833.0923       0.2421       2.2549       2.5921     -22.6250
   3369.6023       2.6474       0.1769    -999.2500    -999.2500      37.4552    -999.2500    -999.2500      27.0934      26.9367     833.0923       0.2421       2.2549       2.6061     -22.6250
