#------------------------------------------------------------------------------
#
#   Created by  : [OpenWorks] Log Export Utility (LEXP)
#   Created on  : 2016-05-12 18:35:20
#   Project     : CANT971
#   User        : R5K
#   Interpreter : PEP
#
#------------------------------------------------------------------------------
~VERSION INFORMATION
VERS. 2.0 : CWLS Log ASCII Standard - version 2.0
WRAP.  NO : One line per depth step
~WELL INFORMATION
#MNEMONIC   .UNIT                                           VALUE :DESCRIPTION
#------------------------------------------------------------------------------
STRT        .M                                           785.9651 :START DEPTH
STOP        .M                                          3369.6023 :STOP DEPTH
STEP        .M                                             0.1524 :STEP
NULL        .                                           -999.2500 :NULL VALUE
COMP        .                                   PEMEX EXPL & PROD :COMPANY
WELL        .                                               1021D :WELL
FLD         .                                           CANTARELL :FIELD
LOC         .                                             UNKNOWN :LOCATION
CNTY        .                                      CD. DEL CARMEN :COUNTY
STAT        .                                            CAMPECHE :STATE
CTRY        .                                              MEXICO :COUNTRY
SRVC        .                                             UNKNOWN :SERVICE COMPANY
DATE        .                                             UNKNOWN :LOG DATE
UWI         .                                         30600000913 :UNIQUE WELL ID
XCOORD      .                                       597330.910000 :SURFACE X
YCOORD      .                                      2152069.890000 :SURFACE Y
LAT         .                                           19.461891 :LATITUDE
LON         .                                          -92.072697 :LONGITUDE
ELEV        .M                                            26.5400 :SURFACE ELEV
ELEV_TYPE   .                                                  KB :ELEV TYPE
~CURVE INFORMATION
#MNEMONIC.UNIT        API CODE       : CURVE DESCRIPTION
#------------------------------------------------------------------------------
DEPTH    .M                          : Measured Depth
CALI     .inches      UNKNOWN        : CALI:registros:r1:0002:v1 
DRHO     .g/cm3       UNKNOWN        : DRHO:registros:r1:0002:v1 
DT       .us/ft       UNKNOWN        : DT:registros:r1:0002:v1 
GR-LWD   .UNKNOWN     UNKNOWN        : GR-LWD:registros:r1:0002:v1 
GR       .API         UNKNOWN        : GR:registros:r1:0002:v1 
ILD-LWD  .ohm.m       UNKNOWN        : ILD-LWD:registros:r1:0002:v1 
ILM-LWD  .UNKNOWN     UNKNOWN        : ILM-LWD:registros:r1:0002:v1 
LLD      .ohm.m       UNKNOWN        : LLD:registros:r1:0002:v1 
LLS      .ohm.m       UNKNOWN        : LLS:registros:r1:0002:v1 
MSFL     .ohm.m       UNKNOWN        : MSFL:registros:r1:0002:v1 
NPHI     .v/v_decimal UNKNOWN        : NPHI:registros:r1:0002:v1 
PEF      .UNKNOWN     UNKNOWN        : PEF:registros:r1:0002:v1 
RHOB     .g/cm3       UNKNOWN        : RHOB:registros:r1:0002:v1 
SP       .mV          UNKNOWN        : SP:registros:r1:0002:v1 
~A     DEPTH         CALI         DRHO           DT       GR-LWD           GR      ILD-LWD      ILM-LWD          LLD          LLS         MSFL         NPHI          PEF         RHOB           SP
# ...
   2347.7603    -999.2500    -999.2500    -999.2500      64.3095      27.7090       1.0520       1.1537      60.5200       0.1442       0.3931    -999.2500    -999.2500    -999.2500    -119.0935
   2347.9126    -999.2500    -999.2500    -999.2500      67.5818      27.7090       1.0832       1.2005      60.5200       0.1531       0.3931    -999.2500    -999.2500    -999.2500    -119.1734
   2348.0652    -999.2500    -999.2500    -999.2500      68.5135      27.7090       1.0890       1.1927      60.5200       0.1490       0.3931    -999.2500    -999.2500    -999.2500    -119.7817
   2348.2175    -999.2500    -999.2500    -999.2500      69.7628      27.7090       1.1160       1.0846      60.5200       0.1475       0.3931    -999.2500    -999.2500    -999.2500    -120.2670
   2348.3699    -999.2500    -999.2500    -999.2500      69.5572      27.7090       1.1944       0.9159      60.5200       0.1503       0.3931    -999.2500    -999.2500    -999.2500    -121.1428
   2348.5222    -999.2500    -999.2500    -999.2500      67.4680      27.7090       1.2384       0.8662      60.5200       0.1558       0.3931    -999.2500    -999.2500    -999.2500    -121.8587
   2348.6748    -999.2500    -999.2500    -999.2500      67.4470      27.7090       1.2086       0.9465      60.5200       0.1564       0.3931    -999.2500    -999.2500    -999.2500    -121.6721
   2348.8271    -999.2500    -999.2500    -999.2500      67.5605      27.7090       1.1963       1.0391      60.5200       0.1578       0.3931    -999.2500    -999.2500    -999.2500    -121.6238
   2348.9795    -999.2500    -999.2500    -999.2500      67.9046      27.7090       1.1822       1.1309      60.5200       0.1559       0.3931    -999.2500    -999.2500    -999.2500    -120.8578
   2349.1318    -999.2500    -999.2500    -999.2500      67.9981      27.7090       1.1682       1.2235      60.5200       0.1496       0.3931    -999.2500    -999.2500    -999.2500    -120.1238
   2349.2842    -999.2500    -999.2500    -999.2500      67.7494      27.7090       1.1578       1.3095      60.5200       0.1431       0.3931    -999.2500    -999.2500    -999.2500    -119.8446
   2349.4368    -999.2500    -999.2500    -999.2500      67.6345      27.7090       1.1603       1.3040      60.5200       0.1400       0.3931    -999.2500    -999.2500    -999.2500    -120.4550
   2349.5891    -999.2500    -999.2500    -999.2500      68.7905      27.7090       1.1863       1.2104      60.5200       0.1396       0.3931    -999.2500    -999.2500    -999.2500    -121.2959
   2349.7415    -999.2500    -999.2500    -999.2500      70.0449      27.7090       1.2307       1.1224      60.5200       0.1425       0.3931    -999.2500    -999.2500    -999.2500    -120.9380
   2349.8938    -999.2500    -999.2500    -999.2500      70.1120      27.7090       1.2550       1.0678      60.5200       0.1466       0.3931    -999.2500    -999.2500    -999.2500    -120.9201
   2350.0464    -999.2500    -999.2500    -999.2500      68.6282      27.7090       1.2004       1.0897      60.5200       0.1515       0.3931    -999.2500    -999.2500    -999.2500    -120.2811
   2350.1987    -999.2500    -999.2500    -999.2500      70.5195      27.7090       1.1568       1.1335      60.5200       0.1544       0.3931    -999.2500    -999.2500    -999.2500    -120.3763
   2350.3511    -999.2500    -999.2500    -999.2500      72.8810      27.7090       1.2009       1.1151      60.5200       0.1551       0.3931    -999.2500    -999.2500    -999.2500    -121.0635
   2350.5034    -999.2500    -999.2500    -999.2500      70.7541      27.7090       1.2524       1.1064      60.5200       0.1521       0.3931    -999.2500    -999.2500    -999.2500    -121.4217
   2350.6560    -999.2500    -999.2500    -999.2500      69.0350      27.7090       1.2993       1.1596      60.5200       0.1510       0.3931    -999.2500    -999.2500    -999.2500    -121.4064
   2350.8083    -999.2500    -999.2500    -999.2500      66.4886      27.7090       1.3126       1.2552      60.5200       0.1529       0.3931    -999.2500    -999.2500    -999.2500    -121.5943
   2350.9607    -999.2500    -999.2500    -999.2500      65.0685      27.7090       1.3059       1.3043      60.5200       0.1553       0.3931    -999.2500    -999.2500    -999.2500    -121.8593
   2351.1130    -999.2500    -999.2500    -999.2500      67.2029      27.7090       1.3259       1.3029      60.5200       0.1581       0.3931    -999.2500    -999.2500    -999.2500    -121.8283
   2351.2654    -999.2500    -999.2500    -999.2500      65.9115      27.7090       1.3063       1.3143      60.5200       0.1579       0.3931    -999.2500    -999.2500    -999.2500    -121.7173
   2351.4180    -999.2500    -999.2500    -999.2500      63.7312      27.7090       1.2951       1.3151      60.5200       0.1539       0.3931    -999.2500    -999.2500    -999.2500    -121.3914
   2351.5703    -999.2500    -999.2500    -999.2500      64.2648      27.7090       1.3565       1.3015      60.5200       0.1466       0.3931    -999.2500    -999.2500    -999.2500    -121.7968
   2351.7227    -999.2500    -999.2500    -999.2500      64.5645      27.7090       1.3365       1.3114      60.5200       0.1337       0.3931    -999.2500    -999.2500    -999.2500    -121.7658
   2351.8750    -999.2500    -999.2500    -999.2500      65.8015      27.7090       1.2171       1.3494      60.5200       0.1311       0.3931    -999.2500    -999.2500    -999.2500    -121.9701
   2352.0276    -999.2500    -999.2500    -999.2500      65.5775      27.7090       1.1566       1.3336      60.5200       0.1394       0.3931    -999.2500    -999.2500    -999.2500    -122.4375
   2352.1799    -999.2500    -999.2500    -999.2500      64.2960      27.7090       1.1610       1.2277      60.5200       0.1334       0.3931    -999.2500    -999.2500    -999.2500    -122.4690
   2352.3323    -999.2500    -999.2500    -999.2500      64.4620      27.7090       1.1521       1.1249      60.5200       0.1369       0.3931    -999.2500    -999.2500    -999.2500    -122.2474
   2352.4846    -999.2500    -999.2500    -999.2500      65.8328      27.7090       1.1576       1.0186      60.5200       0.1496       0.3931    -999.2500    -999.2500    -999.2500    -121.2022
   2352.6372    -999.2500    -999.2500    -999.2500      65.4830      27.7090       1.1560       0.9130      60.5200       0.1661       0.3931    -999.2500    -999.2500    -999.2500    -120.5767
   2352.7896    -999.2500    -999.2500    -999.2500      62.0023      27.7090       1.1671       0.8789      60.5200       0.1658       0.3931    -999.2500    -999.2500    -999.2500    -119.4831
   2352.9419    -999.2500    -999.2500    -999.2500      61.3577      27.7090       1.1863       0.9833      60.5200       0.1710       0.3931    -999.2500    -999.2500    -999.2500    -118.5916
   2353.0942    -999.2500    -999.2500    -999.2500      62.4880      27.7090       1.1662       1.1631      60.5200       0.1399       0.3931    -999.2500    -999.2500    -999.2500    -118.0023
   2353.2466    -999.2500    -999.2500    -999.2500      64.8804      27.7090       1.1387       1.2745      60.5200       0.1395       0.3931    -999.2500    -999.2500    -999.2500    -118.8604
   2353.3992    -999.2500    -999.2500    -999.2500      68.9781      27.7090       1.1320       1.2904      60.5200       0.1443       0.3931    -999.2500    -999.2500    -999.2500    -119.5175
   2353.5515    -999.2500    -999.2500    -999.2500      77.4642      27.7090       1.1076       1.2091      60.5200       0.1461       0.3931    -999.2500    -999.2500    -999.2500    -120.6259
   2353.7039    -999.2500    -999.2500    -999.2500      83.7324      27.7090       1.0664       1.0107      60.5200       0.1500       0.3931    -999.2500    -999.2500    -999.2500    -120.8582
   2353.8562    -999.2500    -999.2500    -999.2500      82.3797      27.7090       1.0859       0.7839      60.5200       0.1525       0.3931    -999.2500    -999.2500    -999.2500    -120.6424
   2354.0088    -999.2500    -999.2500    -999.2500      81.1892      27.7090       1.1056       0.7058      60.5200       0.1494       0.3931    -999.2500    -999.2500    -999.2500    -121.3128
