#------------------------------------------------------------------------------
#
#   Created by  : [OpenWorks] Log Export Utility (LEXP)
#   Created on  : 2016-05-12 18:35:20
#   Project     : CANT971
#   User        : R5K
#   Interpreter : PEP
#
#------------------------------------------------------------------------------
~VERSION INFORMATION
VERS. 2.0 : CWLS Log ASCII Standard - version 2.0
WRAP.  NO : One line per depth step
~WELL INFORMATION
#MNEMONIC   .UNIT                                           VALUE :DESCRIPTION
#------------------------------------------------------------------------------
STRT        .M                                           785.9651 :START DEPTH
STOP        .M                                          3369.6023 :STOP DEPTH
STEP        .M                                             0.1524 :STEP
NULL        .                                           -999.2500 :NULL VALUE
COMP        .                                   PEMEX EXPL & PROD :COMPANY
WELL        .                                               1021D :WELL
FLD         .                                           CANTARELL :FIELD
LOC         .                                             UNKNOWN :LOCATION
CNTY        .                                      CD. DEL CARMEN :COUNTY
STAT        .                                            CAMPECHE :STATE
CTRY        .                                              MEXICO :COUNTRY
SRVC        .                                             UNKNOWN :SERVICE COMPANY
DATE        .                                             UNKNOWN :LOG DATE
UWI         .                                         30600000913 :UNIQUE WELL ID
XCOORD      .                                       597330.910000 :SURFACE X
YCOORD      .                                      2152069.890000 :SURFACE Y
LAT         .                                           19.461891 :LATITUDE
LON         .                                          -92.072697 :LONGITUDE
ELEV        .M                                            26.5400 :SURFACE ELEV
ELEV_TYPE   .                                                  KB :ELEV TYPE
~CURVE INFORMATION
#MNEMONIC.UNIT        API CODE       : CURVE DESCRIPTION
#------------------------------------------------------------------------------
DEPTH    .M                          : Measured Depth
CALI     .inches      UNKNOWN        : CALI:registros:r1:0002:v1 
DRHO     .g/cm3       UNKNOWN        : DRHO:registros:r1:0002:v1 
DT       .us/ft       UNKNOWN        : DT:registros:r1:0002:v1 
GR-LWD   .UNKNOWN     UNKNOWN        : GR-LWD:registros:r1:0002:v1 
GR       .API         UNKNOWN        : GR:registros:r1:0002:v1 
ILD-LWD  .ohm.m       UNKNOWN        : ILD-LWD:registros:r1:0002:v1 
ILM-LWD  .UNKNOWN     UNKNOWN        : ILM-LWD:registros:r1:0002:v1 
LLD      .ohm.m       UNKNOWN        : LLD:registros:r1:0002:v1 
LLS      .ohm.m       UNKNOWN        : LLS:registros:r1:0002:v1 
MSFL     .ohm.m       UNKNOWN        : MSFL:registros:r1:0002:v1 
NPHI     .v/v_decimal UNKNOWN        : NPHI:registros:r1:0002:v1 
PEF      .UNKNOWN     UNKNOWN        : PEF:registros:r1:0002:v1 
RHOB     .g/cm3       UNKNOWN        : RHOB:registros:r1:0002:v1 
SP       .mV          UNKNOWN        : SP:registros:r1:0002:v1 
~A     DEPTH         CALI         DRHO           DT       GR-LWD           GR      ILD-LWD      ILM-LWD          LLD          LLS         MSFL         NPHI          PEF         RHOB           SP
# ...
   2418.1692    -999.2500    -999.2500    -999.2500      58.3720      27.7090       2.2269       2.1257      60.5200       0.1697       0.3931    -999.2500    -999.2500    -999.2500    -120.4866
   2418.3215    -999.2500    -999.2500    -999.2500      57.9056      27.7090       2.2016       2.2092      60.5200       0.1746       0.3931    -999.2500    -999.2500    -999.2500    -121.6242
   2418.4739    -999.2500    -999.2500    -999.2500      58.9294      27.7090       2.1000       2.2632      60.5200       0.1717       0.3931    -999.2500    -999.2500    -999.2500    -121.1555
   2418.6262    -999.2500    -999.2500    -999.2500      58.1055      27.7090       2.0626       2.2298      60.5200       0.1601       0.3931    -999.2500    -999.2500    -999.2500    -120.7015
   2418.7788    -999.2500    -999.2500    -999.2500      60.1230      27.7090       2.0281       2.0266      60.5200       0.1512       0.3931    -999.2500    -999.2500    -999.2500    -120.2979
   2418.9312    -999.2500    -999.2500    -999.2500      57.7438      27.7090       1.9809       1.8069      60.5200       0.1444       0.3931    -999.2500    -999.2500    -999.2500    -120.5778
   2419.0835    -999.2500    -999.2500    -999.2500      62.7713      27.7090       1.8392       1.6703      60.5200       0.1416       0.3931    -999.2500    -999.2500    -999.2500    -120.2171
   2419.2358    -999.2500    -999.2500    -999.2500      66.2841      27.7090       1.7310       1.5900      60.5200       0.1445       0.3931    -999.2500    -999.2500    -999.2500    -119.8779
   2419.3882    -999.2500    -999.2500    -999.2500      65.1791      27.7090       1.7205       1.4921      60.5200       0.1464       0.3931    -999.2500    -999.2500    -999.2500    -120.9386
   2419.5408    -999.2500    -999.2500    -999.2500      60.8389      27.7090       1.7388       1.3950      60.5200       0.1493       0.3931    -999.2500    -999.2500    -999.2500    -121.7839
   2419.6931    -999.2500    -999.2500    -999.2500      66.1609      27.7090       1.6695       1.4352      60.5200       0.1498       0.3931    -999.2500    -999.2500    -999.2500    -123.2190
   2419.8455    -999.2500    -999.2500    -999.2500      71.5147      27.7090       1.7019       1.3195      60.5200       0.1461       0.3931    -999.2500    -999.2500    -999.2500    -123.4543
   2419.9978    -999.2500    -999.2500    -999.2500      64.6201      27.7090       1.9094       1.1075      60.5200       0.1397       0.3931    -999.2500    -999.2500    -999.2500    -123.9223
   2420.1504    -999.2500    -999.2500    -999.2500      63.2303      27.7090       2.2116       1.0766      60.5200       0.1303       0.3931    -999.2500    -999.2500    -999.2500    -124.2039
   2420.3027    -999.2500    -999.2500    -999.2500      57.2269      27.7090       2.4437       1.6466      60.5200       0.1167       0.3931    -999.2500    -999.2500    -999.2500    -124.8609
   2420.4551    -999.2500    -999.2500    -999.2500      51.7088      27.7090       2.4119       2.6707      60.5200       0.1205       0.3931    -999.2500    -999.2500    -999.2500    -125.4207
   2420.6074    -999.2500    -999.2500    -999.2500      53.2069      27.7090       2.2019       3.7750      60.5200       0.1532       0.3931    -999.2500    -999.2500    -999.2500    -124.8422
   2420.7600    -999.2500    -999.2500    -999.2500      57.1749      27.7090       2.1775       3.8994      60.5200       0.1447       0.3931    -999.2500    -999.2500    -999.2500    -124.5012
   2420.9124    -999.2500    -999.2500    -999.2500      57.3873      27.7090       2.3081       3.0269      60.5200       0.2070       0.3931    -999.2500    -999.2500    -999.2500    -124.8278
   2421.0647    -999.2500    -999.2500    -999.2500      56.9237      27.7090       2.5108       2.3081      60.5200       0.1416       0.3931    -999.2500    -999.2500    -999.2500    -124.5458
   2421.2170    -999.2500    -999.2500    -999.2500      56.2877      27.7090       2.6281       2.0451      49.7210       0.1760       0.3931    -999.2500    -999.2500    -999.2500    -123.8254
   2421.3694    -999.2500    -999.2500    -999.2500      59.3265      27.7090       2.7057       1.9076      28.5117       0.2286       0.3931    -999.2500    -999.2500    -999.2500    -122.7483
   2421.5220    -999.2500    -999.2500    -999.2500      58.5874      27.7090       2.7286       1.7867      60.5200       0.1613       0.3931    -999.2500    -999.2500    -999.2500    -122.2818
   2421.6743    -999.2500    -999.2500    -999.2500      53.7232      27.7090       2.8617       1.9501      60.5200       0.1516       0.3931    -999.2500    -999.2500    -999.2500    -122.5310
   2421.8267    -999.2500    -999.2500    -999.2500      47.6107      27.7090       2.9351       2.6198      60.5200       0.1311       0.3931    -999.2500    -999.2500    -999.2500    -122.5636
   2421.9790    -999.2500    -999.2500    -999.2500      50.3069      27.7090       2.8461       3.8027      60.5200       0.1109       0.3931    -999.2500    -999.2500    -999.2500    -122.7484
   2422.1316    -999.2500    -999.2500    -999.2500      51.9623      27.7090       2.6301       4.5844      46.0554       0.1266       0.3931    -999.2500    -999.2500    -999.2500    -121.9833
   2422.2839    -999.2500    -999.2500    -999.2500      54.7853      27.7090       2.6541       4.4643      17.4445       0.1645       0.3931    -999.2500    -999.2500    -999.2500    -121.3907
   2422.4363    -999.2500    -999.2500    -999.2500      58.5828      27.7090       2.6111       3.5085      60.5200       0.0986       0.3931    -999.2500    -999.2500    -999.2500    -121.1382
   2422.5886    -999.2500    -999.2500    -999.2500      57.0573      27.7090       2.4739       2.8761      60.5200       0.1058       0.3931    -999.2500    -999.2500    -999.2500    -120.2815
   2422.7410    -999.2500    -999.2500    -999.2500      58.0336      27.7090       2.1646       2.5549      60.5200       0.1332       0.3931    -999.2500    -999.2500    -999.2500    -120.2646
   2422.8936    -999.2500    -999.2500    -999.2500      62.7313      27.7090       2.0010       2.2606      60.5200       0.1250       0.3931    -999.2500    -999.2500    -999.2500    -120.1890
   2423.0459    -999.2500    -999.2500    -999.2500      61.5268      27.7090       1.9291       1.7031      60.5200       0.1531       0.3931    -999.2500    -999.2500    -999.2500    -121.0005
   2423.1982    -999.2500    -999.2500    -999.2500      62.1123      27.7090       1.6323       1.5208      60.5200       0.1657       0.3931    -999.2500    -999.2500    -999.2500    -121.2033
   2423.3506    -999.2500    -999.2500    -999.2500      66.2465      27.7090       1.5357       1.4115      60.5200       0.1763       0.3931    -999.2500    -999.2500    -999.2500    -121.1081
   2423.5032    -999.2500    -999.2500    -999.2500      66.9748      27.7090       1.4738       1.1495      60.5200       0.1115       0.3931    -999.2500    -999.2500    -999.2500    -120.7504
   2423.6555    -999.2500    -999.2500    -999.2500      63.7215      27.7090       1.4429       1.0295      60.5200       0.0782       0.3931    -999.2500    -999.2500    -999.2500    -120.9375
   2423.8079    -999.2500    -999.2500    -999.2500      62.8367      27.7090       1.4066       1.0159      60.5200       0.1141       0.3931    -999.2500    -999.2500    -999.2500    -120.7642
   2423.9602    -999.2500    -999.2500    -999.2500      64.7692      27.7090       1.5249       1.0958      60.5200       0.2038       0.3931    -999.2500    -999.2500    -999.2500    -120.1712
   2424.1128    -999.2500    -999.2500    -999.2500      59.5934      27.7090       1.6098       1.2076      60.5200       0.1651       0.3931    -999.2500    -999.2500    -999.2500    -119.9061
   2424.2651    -999.2500    -999.2500    -999.2500      60.3167      27.7090       1.5429       1.3810      60.5200       0.2732       0.3931    -999.2500    -999.2500    -999.2500    -119.8597
   2424.4175    -999.2500    -999.2500    -999.2500      65.4658      27.7090       1.5940       1.5204      60.5200       0.1829       0.3931    -999.2500    -999.2500    -999.2500    -119.8582
