#------------------------------------------------------------------------------
#
#   Created by  : [OpenWorks] Log Export Utility (LEXP)
#   Created on  : 2016-05-12 18:35:20
#   Project     : CANT971
#   User        : R5K
#   Interpreter : PEP
#
#------------------------------------------------------------------------------
~VERSION INFORMATION
VERS. 2.0 : CWLS Log ASCII Standard - version 2.0
WRAP.  NO : One line per depth step
~WELL INFORMATION
#MNEMONIC   .UNIT                                           VALUE :DESCRIPTION
#------------------------------------------------------------------------------
STRT        .M                                           785.9651 :START DEPTH
STOP        .M                                          3369.6023 :STOP DEPTH
STEP        .M                                             0.1524 :STEP
NULL        .                                           -999.2500 :NULL VALUE
COMP        .                                   PEMEX EXPL & PROD :COMPANY
WELL        .                                               1021D :WELL
FLD         .                                           CANTARELL :FIELD
LOC         .                                             UNKNOWN :LOCATION
CNTY        .                                      CD. DEL CARMEN :COUNTY
STAT        .                                            CAMPECHE :STATE
CTRY        .                                              MEXICO :COUNTRY
SRVC        .                                             UNKNOWN :SERVICE COMPANY
DATE        .                                             UNKNOWN :LOG DATE
UWI         .                                         30600000913 :UNIQUE WELL ID
XCOORD      .                                       597330.910000 :SURFACE X
YCOORD      .                                      2152069.890000 :SURFACE Y
LAT         .                                           19.461891 :LATITUDE
LON         .                                          -92.072697 :LONGITUDE
ELEV        .M                                            26.5400 :SURFACE ELEV
ELEV_TYPE   .                                                  KB :ELEV TYPE
~CURVE INFORMATION
#MNEMONIC.UNIT        API CODE       : CURVE DESCRIPTION
#------------------------------------------------------------------------------
DEPTH    .M                          : Measured Depth
CALI     .inches      UNKNOWN        : CALI:registros:r1:0002:v1 
DRHO     .g/cm3       UNKNOWN        : DRHO:registros:r1:0002:v1 
DT       .us/ft       UNKNOWN        : DT:registros:r1:0002:v1 
GR-LWD   .UNKNOWN     UNKNOWN        : GR-LWD:registros:r1:0002:v1 
GR       .API         UNKNOWN        : GR:registros:r1:0002:v1 
ILD-LWD  .ohm.m       UNKNOWN        : ILD-LWD:registros:r1:0002:v1 
ILM-LWD  .UNKNOWN     UNKNOWN        : ILM-LWD:registros:r1:0002:v1 
LLD      .ohm.m       UNKNOWN        : LLD:registros:r1:0002:v1 
LLS      .ohm.m       UNKNOWN        : LLS:registros:r1:0002:v1 
MSFL     .ohm.m       UNKNOWN        : MSFL:registros:r1:0002:v1 
NPHI     .v/v_decimal UNKNOWN        : NPHI:registros:r1:0002:v1 
PEF      .UNKNOWN     UNKNOWN        : PEF:registros:r1:0002:v1 
RHOB     .g/cm3       UNKNOWN        : RHOB:registros:r1:0002:v1 
SP       .mV          UNKNOWN        : SP:registros:r1:0002:v1 
~A     DEPTH         CALI         DRHO           DT       GR-LWD           GR      ILD-LWD      ILM-LWD          LLD          LLS         MSFL         NPHI          PEF         RHOB           SP
# ...
   2687.0027      12.3367       0.0151      57.5024      36.9647      44.5891     239.7361     288.2409     396.5898     308.5332     172.2819       0.0763       3.9233       2.6764     -27.5635
   2687.1550      12.3472       0.0119      58.2738      39.5348      45.1051     237.6455     198.4404     359.4394     281.6649     171.5447       0.0801       3.8217       2.6528     -27.9060
   2687.3074      12.3721       0.0112      58.2791      42.8262      44.4753     237.6050     198.4888     333.5385     263.1915     197.0394       0.0857       3.7086       2.6358     -27.6390
   2687.4600      12.3751       0.0107      59.3747      47.3382      43.4709     237.0258     217.0609     315.8747     251.2758     220.4519       0.0927       3.6856       2.6186     -27.0150
   2687.6123      12.3353       0.0101      59.5141      40.2998      42.1174     235.5746     207.8611     291.3153     233.1212     162.9781       0.0985       3.6738       2.6128     -26.5301
   2687.7646      12.2689       0.0088      59.4816      44.4060      41.1753     237.7083     196.0724     286.1744     229.4533     161.2006       0.0991       3.7630       2.6173     -25.8891
   2687.9170      12.2404       0.0123      57.0706      44.0351      42.9928     238.9613     379.2982     309.0027     246.4695     262.6816       0.0924       3.7503       2.6439     -25.2016
   2688.0696      12.2464       0.0140      55.3959      43.2048      45.2616     243.1674     465.8682     345.5185     273.4212     253.2746       0.0776       3.9047       2.6722     -24.6404
   2688.2219      12.2607       0.0152      53.9608      44.0480      46.0697     243.2106     394.8587     361.2204     283.1814     310.5987       0.0639       3.8803       2.6855     -24.5787
   2688.3743      12.2843       0.0122      53.4391      40.1650      44.9317     243.8157     398.2979     383.2274     299.4116     347.1357       0.0547       3.9163       2.6652     -24.8598
   2688.5266      12.3115       0.0119      53.5455      41.7735      41.4368     245.3116     339.8568     415.5979     324.1092     307.0442       0.0548       3.7123       2.6523     -25.0631
   2688.6792      12.3057       0.0195      52.1495      46.3010      40.0778     243.2143     325.6742     393.0082     307.7982     152.8178       0.0608       3.6591       2.6769     -25.4236
   2688.8315      12.2506       0.0437      51.4465      50.9268      42.1610     243.8174     242.9345     360.3629     282.7162     224.6254       0.0592       3.6419       2.7469     -25.9690
   2688.9839      12.2229       0.0624      49.9638      43.4168      48.5376     245.3128     167.9419     306.1311     241.8484     390.9572       0.0506       3.6497       2.8040     -26.3302
   2689.1362      12.1795       0.0818      49.9075      34.4987      52.1343     243.1776     149.0870     251.6508     204.0744     305.6394       0.0390       3.6581       2.8451     -27.2669
   2689.2886      12.1522       0.0968      48.5780      38.3850      49.2513     243.1755     242.0226     240.4475     197.0118     424.5184       0.0378       3.6502       2.8590     -27.5929
   2689.4412      12.1488       0.0930      49.5895      51.2610      44.8233     243.1755     236.6578     231.4693     189.9668     306.6831       0.0481       3.7168       2.8506     -27.4225
   2689.5935      12.2450       0.0759      50.1374      40.3650      41.4418     243.1755     364.6692     253.8848     205.8759     238.6695       0.0566       3.7820       2.8278     -27.7815
   2689.7458      12.3708       0.0636      50.2766      38.6572      41.7626     243.1755     213.1123     293.4217     235.8304     367.6980       0.0638       3.8605       2.8116     -28.2060
   2689.8982      12.3303       0.0513      50.9263      49.3785      40.5914     243.1114     205.0075     306.9793     245.2934     381.1384       0.0613       3.9679       2.7994     -29.3766
   2690.0508      12.4264       0.0354      51.3253      50.7784      43.3955     241.8412     219.6097     308.6243     245.1557     370.9937       0.0605       4.0088       2.7686     -29.8589
   2690.2031      12.6534       0.0350      51.6517      50.8123      46.4154     237.6468     241.3721     310.6942     243.7452     279.3608       0.0543       3.9185       2.7458     -29.6722
   2690.3555      12.4215       0.0396      52.2487      51.4743      48.5374     237.6713     246.2357     319.9764     247.6551     358.3104       0.0513       3.9364       2.7261     -29.8755
   2690.5078      12.0454       0.0402      51.3708      54.2551      48.5114     238.2723     216.5436     331.3703     253.7865     289.6985       0.0512       3.8987       2.7289     -30.2992
   2690.6604      12.0778       0.0367      50.4029      54.6529      50.0212     239.6946     246.8757     355.1134     267.7083     143.7932       0.0545       4.0520       2.7398     -31.0789
   2690.8127      12.1889       0.0422      51.0107      45.6418      51.2469     236.9892     296.1828     393.9362     293.2676     183.4118       0.0575       3.9696       2.7670     -31.4383
   2690.9651      12.3175       0.0369      50.2130      40.8003      49.4456     234.9529     336.2682     437.8593     323.7022     205.6540       0.0564       3.7739       2.7645     -31.6393
   2691.1174      12.2597       0.0353      50.6019      40.5443      47.4737     235.5456     607.6899     480.1298     352.0646     406.8479       0.0536       3.5945       2.7628     -31.1565
   2691.2698      12.2285       0.0322      50.9978      40.0970      42.0885     236.9810     536.0890     427.9058     315.4521     446.8041       0.0559       3.5114       2.7497     -31.2973
   2691.4224      12.2223       0.0377      50.3747      44.2991      41.1126     234.8947     214.3484     428.3164     313.7901     375.2777       0.0619       3.7319       2.7404     -31.2175
   2691.5747      12.4441       0.0444      50.4511      55.3741      40.5837     234.2430     308.2266     418.2384     304.5284     221.4955       0.0694       3.9340       2.7519     -30.4995
   2691.7271      12.7877       0.0625      50.3073      52.9507      45.2699     231.5388     323.5261     358.3315     263.0700     343.1753       0.0667       4.1428       2.7572     -30.3125
   2691.8794      12.3304       0.0847      48.6889      42.7195      51.6287     228.3143     278.2577     344.4581     251.4732     488.4778       0.0563       4.1572       2.7683     -30.3598
   2692.0320      12.2508       0.0923      49.2515      44.3874      54.8323     224.3281     353.1969     381.4287     278.9000     162.3091       0.0433       4.0500       2.7549     -30.4843
   2692.1843      12.2801       0.0851      49.6748      50.1932      56.4874     223.6980     404.2312     369.1290     270.0328     130.0304       0.0433       3.9234       2.7590     -30.2330
   2692.3367      12.2661       0.0775      49.6000      49.0221      54.5507     221.1673     313.8809     383.2209     279.4540     300.2595       0.0472       3.8058       2.7803     -29.6408
   2692.4890      12.1988       0.0534      49.6505      39.9515      50.7181     219.2700     237.9554     415.7460     303.4836     432.6404       0.0497       3.8323       2.7780     -29.8453
   2692.6416      12.3817       0.0166      49.6359      37.3962      44.6787     219.8301     260.3402     410.5906     304.8036     512.7127       0.0469       3.8193       2.7443     -30.2336
   2692.7939      12.6827       0.0085      49.6658      42.2124      40.0061     221.2108     279.0460     379.6121     284.9915     474.3344       0.0485       3.7926       2.7279     -30.0000
   2692.9463      12.3843       0.0086      51.6787      53.2927      37.3780     220.4537     169.4147     330.8701     251.1559     307.3997       0.0561       3.6904       2.7255     -30.1890
   2693.0986      12.4012       0.0140      54.0589      37.1994      37.0649     223.6711     163.1827     283.1309     215.9477     389.2949       0.0595       3.6327       2.7211     -30.7342
   2693.2510      12.3750       0.0180      56.0408      44.2431      38.6594     220.5362     229.7341     265.2980     202.1807     138.1554       0.0684       3.4999       2.7086     -30.7033
