#------------------------------------------------------------------------------
#
#   Created by  : [OpenWorks] Log Export Utility (LEXP)
#   Created on  : 2016-05-12 18:35:20
#   Project     : CANT971
#   User        : R5K
#   Interpreter : PEP
#
#------------------------------------------------------------------------------
~VERSION INFORMATION
VERS. 2.0 : CWLS Log ASCII Standard - version 2.0
WRAP.  NO : One line per depth step
~WELL INFORMATION
#MNEMONIC   .UNIT                                           VALUE :DESCRIPTION
#------------------------------------------------------------------------------
STRT        .M                                           785.9651 :START DEPTH
STOP        .M                                          3369.6023 :STOP DEPTH
STEP        .M                                             0.1524 :STEP
NULL        .                                           -999.2500 :NULL VALUE
COMP        .                                   PEMEX EXPL & PROD :COMPANY
WELL        .                                               1021D :WELL
FLD         .                                           CANTARELL :FIELD
LOC         .                                             UNKNOWN :LOCATION
CNTY        .                                      CD. DEL CARMEN :COUNTY
STAT        .                                            CAMPECHE :STATE
CTRY        .                                              MEXICO :COUNTRY
SRVC        .                                             UNKNOWN :SERVICE COMPANY
DATE        .                                             UNKNOWN :LOG DATE
UWI         .                                         30600000913 :UNIQUE WELL ID
XCOORD      .                                       597330.910000 :SURFACE X
YCOORD      .                                      2152069.890000 :SURFACE Y
LAT         .                                           19.461891 :LATITUDE
LON         .                                          -92.072697 :LONGITUDE
ELEV        .M                                            26.5400 :SURFACE ELEV
ELEV_TYPE   .                                                  KB :ELEV TYPE
~CURVE INFORMATION
#MNEMONIC.UNIT        API CODE       : CURVE DESCRIPTION
#------------------------------------------------------------------------------
DEPTH    .M                          : Measured Depth
CALI     .inches      UNKNOWN        : CALI:registros:r1:0002:v1 
DRHO     .g/cm3       UNKNOWN        : DRHO:registros:r1:0002:v1 
DT       .us/ft       UNKNOWN        : DT:registros:r1:0002:v1 
GR-LWD   .UNKNOWN     UNKNOWN        : GR-LWD:registros:r1:0002:v1 
GR       .API         UNKNOWN        : GR:registros:r1:0002:v1 
ILD-LWD  .ohm.m       UNKNOWN        : ILD-LWD:registros:r1:0002:v1 
ILM-LWD  .UNKNOWN     UNKNOWN        : ILM-LWD:registros:r1:0002:v1 
LLD      .ohm.m       UNKNOWN        : LLD:registros:r1:0002:v1 
LLS      .ohm.m       UNKNOWN        : LLS:registros:r1:0002:v1 
MSFL     .ohm.m       UNKNOWN        : MSFL:registros:r1:0002:v1 
NPHI     .v/v_decimal UNKNOWN        : NPHI:registros:r1:0002:v1 
PEF      .UNKNOWN     UNKNOWN        : PEF:registros:r1:0002:v1 
RHOB     .g/cm3       UNKNOWN        : RHOB:registros:r1:0002:v1 
SP       .mV          UNKNOWN        : SP:registros:r1:0002:v1 
~A     DEPTH         CALI         DRHO           DT       GR-LWD           GR      ILD-LWD      ILM-LWD          LLD          LLS         MSFL         NPHI          PEF         RHOB           SP
# ...
   3231.0708      11.5097       0.0376      56.3736      31.0185      39.1131     175.4618     294.6131     170.2350     134.8339     103.6791       0.0834       3.6328       2.7837      -4.0152
   3231.2231      11.5238       0.0291      55.4438      33.6085      34.3667     178.2308     164.8680     232.8474     180.7738     165.8457       0.0628       3.6237       2.7773      -4.0637
   3231.3755      11.5412       0.0305      54.6315      38.9737      32.5651     180.5598      49.5986     246.0218     192.0168     273.0518       0.0507       3.5057       2.7773      -4.6722
   3231.5278      11.5208       0.0313      57.6678      41.2562      35.9793     181.8473      51.5516     233.7592     187.5953     274.6889       0.0514       3.4834       2.7598      -4.1186
   3231.6802      11.5131       0.0254      59.7164      42.7557      40.2565     182.9201     104.8901     226.6127     190.9405     256.6934       0.0561       3.5024       2.7349      -2.3148
   3231.8328      11.5001       0.0194      60.5722      44.6550      42.8992     185.5883     126.1302     210.2858     183.3541     140.3598       0.0717       3.4835       2.7065      -3.2983
   3231.9851      11.4730       0.0219      59.3939      49.8117      39.4903     187.9586     112.8066     222.4773     196.0241     105.3959       0.0868       3.5687       2.7061      -3.9370
   3232.1375      11.5236       0.0255      58.1774      56.8641      34.2361     189.3482     101.9894     222.7690     197.6555     105.6926       0.0914       3.6217       2.7274      -3.8761
   3232.2898      11.6112       0.0302      58.6464      54.0444      31.9219     191.2573     264.6527     193.7485     175.0622     139.8507       0.0767       3.7602       2.7483      -3.9658
   3232.4424      11.6864       0.0424      57.9668      47.5096      32.6298     195.2067     440.5335     126.5506     119.2233     177.7623       0.0602       3.5791       2.7488      -2.4147
   3232.5947      11.6742       0.0455      58.8350      45.4082      37.5244     198.7990     467.3094      81.5658      79.5985     176.6099       0.0665       3.5221       2.7169      -0.2181
   3232.7471      11.5148       0.0449      58.3260      41.4875      42.4439     199.6865     482.4030      79.3298      77.6488     190.8904       0.0954       3.4589       2.6913      -0.2999
   3232.8994      11.4806       0.0520      58.6495      34.5569      44.8819     200.5708     550.5759      79.8906      77.8163      49.2814       0.1161       3.5664       2.6996      -1.2646
   3233.0520      11.5041       0.0566      58.6011      29.2244      45.2847     201.6956     961.3393      95.1427      91.6195     104.1004       0.1198       3.5545       2.7169      -0.9691
   3233.2043      11.5911       0.0450      58.9632      25.3598      45.5740     201.9996    1484.7231     128.0384     122.3442     102.0473       0.1101       3.6204       2.7221      -1.3613
   3233.3567      11.6656       0.0325      59.2886      23.4666      51.3657     202.8950    1732.0884     128.0287     123.1550      80.5396       0.1091       3.7093       2.7151      -2.3287
   3233.5090      11.6435       0.0237      60.3308      23.7757      52.6507     205.8534    1966.4265     161.0995     151.0001      95.6056       0.1121       3.7065       2.6884      -2.5940
   3233.6614      11.5502       0.0128      61.9978      23.9886      49.9092     209.3978    1604.5105     229.6142     206.8396     118.5656       0.1092       3.5370       2.6555      -2.5929
   3233.8140      11.4774       0.0095      61.4000      23.6683      42.6518     213.0846    1107.3353     369.0463     320.0668     104.0463       0.1040       3.4372       2.6489      -2.2339
   3233.9663      11.4764       0.0163      60.9951      25.9730      37.0460     217.7298    2118.2388     575.1614     488.8268     166.9739       0.0948       3.5476       2.6817      -2.4250
   3234.1187      11.5430       0.0239      59.3460      31.1322      31.9423     234.5356    2899.9033     655.0897     556.2011     184.8047       0.0920       3.7263       2.7082      -3.9082
   3234.2710      11.5898       0.0223      57.8485      31.8333      27.5639     267.1179    2238.6045     843.9571     692.8981     200.7431       0.0923       3.7500       2.7053      -4.6256
   3234.4236      11.5731       0.0303      57.1218      25.5774      22.8085     302.6729    2723.4910    1208.5579     952.1746     274.6729       0.0907       3.6430       2.7053      -4.7336
   3234.5759      11.4967       0.0459      56.2241      29.9370      22.0497     333.8735    2785.0403    1965.2894    1429.6588     333.1161       0.0840       3.6582       2.7262      -3.9179
   3234.7283      11.4371       0.0464      56.0252      37.1984      21.8542     357.8674    1262.8745    2704.1045    1868.6296     381.8301       0.0757       3.6693       2.7336      -1.7306
   3234.8806      11.4711       0.0534      56.2515      31.5686      23.3463     371.2706     727.3928    2398.0371    1687.8932     275.2946       0.0700       3.6208       2.7343      -0.2646
   3235.0332      11.5670       0.0533      56.9781      23.9559      22.5269     370.6698    1153.5785    2065.7693    1500.1383     214.6285       0.0686       3.5254       2.7124      -0.5685
   3235.1855      11.6474       0.0450      58.3814      23.2799      21.6372     368.3195    1102.1477    2072.1052    1519.7198     224.8635       0.0675       3.4856       2.6878      -2.7520
   3235.3379      11.6309       0.0382      60.5283      25.5435      20.8046     374.0468    1119.7809    2084.8611    1541.4219     267.2800       0.0722       3.6160       2.6795      -3.5143
   3235.4902      11.5215       0.0413      62.0019      22.0978      22.2739     382.7474    1378.4204    2392.6416    1744.8531     196.6899       0.0777       3.6494       2.6963      -2.8423
   3235.6426      11.4626       0.0290      62.7263      17.5484      24.5305     393.4372    1394.9225    2390.8296    1745.5006     229.2080       0.0825       3.5995       2.6890      -1.8389
   3235.7952      11.4887       0.0173      63.3784      24.2719      25.4540     403.0123    1420.8105    1444.1066    1090.1224     201.1320       0.0882       3.5993       2.6703      -0.3757
   3235.9475      11.5389       0.0118      64.7567      33.3378      25.7507     407.0857    1307.9974     923.9381     722.3340     244.4393       0.0911       3.4580       2.6409      -1.8203
   3236.0999      11.5498       0.0110      65.9965      37.5278      23.5196     411.3675    1088.9985     786.8777     632.5275     235.8576       0.0924       3.6266       2.6284      -5.3783
   3236.2522      11.5400       0.0119      64.6737      38.6407      24.2861     419.6812     812.3104     741.2950     612.3804     231.0241       0.0948       3.5669       2.6411      -6.4842
   3236.4048      11.4897       0.0170      67.1329      40.4044      22.6755     498.7420     563.0996     881.5765     733.3071     359.8730       0.1004       3.7236       2.6601      -5.9482
   3236.5571      11.4345       0.0235      75.6264      42.7110      21.8143     633.1977     526.3547    1330.3716    1098.6718     482.7071       0.1026       3.5692       2.6833      -3.3044
   3236.7095      11.4701       0.0165      73.4793      44.2041      22.0286     730.5184     706.7394    1808.9252    1471.8295     375.5170       0.0994       3.5662       2.6722      -0.3802
   3236.8618      11.5367       0.0150      66.3029      40.4859      21.9747     822.1655     791.5580    2078.0623    1651.7997     261.6186       0.0916       3.4915       2.6710      -3.0704
   3237.0144      11.5516       0.0153      67.0989      33.7373      22.5108    1028.1868     683.8950    2221.4248    1702.4532     202.3974       0.0891       3.4613       2.6743      -5.5316
   3237.1667      11.5213       0.0167      66.1428      34.1803      21.5823    1253.9791     752.5833    1843.1370    1384.4669     305.2327       0.0830       3.3494       2.6877      -5.9080
   3237.3191      11.4446       0.0188      64.5023      32.9672      24.2700    1351.4371     679.9735    1472.0956    1068.9103     392.5878       0.0784       3.3123       2.7122      -6.8917
