#------------------------------------------------------------------------------
#
#   Created by  : [OpenWorks] Log Export Utility (LEXP)
#   Created on  : 2016-05-12 18:35:20
#   Project     : CANT971
#   User        : R5K
#   Interpreter : PEP
#
#------------------------------------------------------------------------------
~VERSION INFORMATION
VERS. 2.0 : CWLS Log ASCII Standard - version 2.0
WRAP.  NO : One line per depth step
~WELL INFORMATION
#MNEMONIC   .UNIT                                           VALUE :DESCRIPTION
#------------------------------------------------------------------------------
STRT        .M                                           785.9651 :START DEPTH
STOP        .M                                          3369.6023 :STOP DEPTH
STEP        .M                                             0.1524 :STEP
NULL        .                                           -999.2500 :NULL VALUE
COMP        .                                   PEMEX EXPL & PROD :COMPANY
WELL        .                                               1021D :WELL
FLD         .                                           CANTARELL :FIELD
LOC         .                                             UNKNOWN :LOCATION
CNTY        .                                      CD. DEL CARMEN :COUNTY
STAT        .                                            CAMPECHE :STATE
CTRY        .                                              MEXICO :COUNTRY
SRVC        .                                             UNKNOWN :SERVICE COMPANY
DATE        .                                             UNKNOWN :LOG DATE
UWI         .                                         30600000913 :UNIQUE WELL ID
XCOORD      .                                       597330.910000 :SURFACE X
YCOORD      .                                      2152069.890000 :SURFACE Y
LAT         .                                           19.461891 :LATITUDE
LON         .                                          -92.072697 :LONGITUDE
ELEV        .M                                            26.5400 :SURFACE ELEV
ELEV_TYPE   .                                                  KB :ELEV TYPE
~CURVE INFORMATION
#MNEMONIC.UNIT        API CODE       : CURVE DESCRIPTION
#------------------------------------------------------------------------------
DEPTH    .M                          : Measured Depth
CALI     .inches      UNKNOWN        : CALI:registros:r1:0002:v1 
DRHO     .g/cm3       UNKNOWN        : DRHO:registros:r1:0002:v1 
DT       .us/ft       UNKNOWN        : DT:registros:r1:0002:v1 
GR-LWD   .UNKNOWN     UNKNOWN        : GR-LWD:registros:r1:0002:v1 
GR       .API         UNKNOWN        : GR:registros:r1:0002:v1 
ILD-LWD  .ohm.m       UNKNOWN        : ILD-LWD:registros:r1:0002:v1 
ILM-LWD  .UNKNOWN     UNKNOWN        : ILM-LWD:registros:r1:0002:v1 
LLD      .ohm.m       UNKNOWN        : LLD:registros:r1:0002:v1 
LLS      .ohm.m       UNKNOWN        : LLS:registros:r1:0002:v1 
MSFL     .ohm.m       UNKNOWN        : MSFL:registros:r1:0002:v1 
NPHI     .v/v_decimal UNKNOWN        : NPHI:registros:r1:0002:v1 
PEF      .UNKNOWN     UNKNOWN        : PEF:registros:r1:0002:v1 
RHOB     .g/cm3       UNKNOWN        : RHOB:registros:r1:0002:v1 
SP       .mV          UNKNOWN        : SP:registros:r1:0002:v1 
~A     DEPTH         CALI         DRHO           DT       GR-LWD           GR      ILD-LWD      ILM-LWD          LLD          LLS         MSFL         NPHI          PEF         RHOB           SP
# ...
   2891.8284      12.3661       0.0410      48.9989      42.3273      85.2473    1017.7386    1182.7637    2284.9053     557.9731     349.6157       0.0327       3.5997       2.7063     -32.3257
   2891.9807      12.4040       0.0399      48.4986      43.2384      81.2116    1350.6345    1100.0928    2614.0581     600.5322     482.8839       0.0276       3.5615       2.7302     -31.4717
   2892.1331      12.3846       0.0462      48.2026      30.4529      76.9366    1821.2690     837.1995    3138.4343     667.6325    1059.6227       0.0220       3.5524       2.7889     -32.7663
   2892.2854      12.3871       0.0390      49.1253      39.5016      62.2861    2326.3970     823.2891    4235.1289     817.5214    1133.4390       0.0172       3.5123       2.8029     -32.9369
   2892.4380      12.3176       0.0149      49.4020      35.3950      51.0923    2438.2898    1535.6667    6157.8823    1051.6747    1037.7482       0.0163       3.4943       2.7878     -32.5606
   2892.5903      12.3286       0.0151      50.4782      35.4740      44.2467    2273.4551    2865.3796    7708.7305    1129.7235     785.0290       0.0178       3.6519       2.7876     -31.4337
   2892.7427      12.3542       0.0238      51.5975      36.9691      49.9647    2038.4008    2650.2087    9235.5664    1160.9473     652.0660       0.0181       3.7149       2.7991     -29.7815
   2892.8950      12.4242       0.0282      51.0281      39.6881      53.0082    1889.8474    2757.5571   11370.9990    1273.0118     457.5198       0.0164       3.8169       2.7983     -29.9539
   2893.0476      12.3883       0.0302      51.7219      31.7579      49.1115    1874.1106    2527.7104   11584.5762    1226.7395     418.6489       0.0155       3.8259       2.7967     -30.2821
   2893.2000      12.3524       0.0416      50.7736      38.3146      38.7862    1971.3134    2048.9600   11787.2549    1159.5726     528.7786       0.0163       4.1124       2.8178     -30.5468
   2893.3523      12.3006       0.0459      50.7023      39.5147      32.1684    2134.9702     616.6086   11682.6152    1085.9149     597.3548       0.0172       4.2454       2.8264     -30.5630
   2893.5046      12.2748       0.0458      52.1298      31.4149      32.8424    2130.7026     386.8859    8968.1611     845.8126     458.1783       0.0190       4.3560       2.8279     -30.4031
   2893.6570      12.2938       0.0486      53.5989      38.6004      34.1219    2031.3611     390.1112    7373.7534     709.4689     356.8066       0.0216       4.1693       2.8204     -29.1385
   2893.8096      12.3721       0.0468      53.1863      37.9209      33.4526    1949.9841     448.4425    6293.1001     629.3963     266.4686       0.0252       4.0681       2.8088     -28.3118
   2893.9619      12.4422       0.0374      51.7421      41.2516      31.4601    1987.2731     705.8212    5972.2393     608.9961     265.0454       0.0282       4.0119       2.7817     -27.6857
   2894.1143      12.4422       0.0251      48.7778      45.7375      31.1152    2060.3647     548.0200    6081.1006     635.4395     368.0753       0.0339       3.8755       2.7507     -27.6467
   2894.2666      12.3821       0.0206      49.8131      43.2936      33.8885    2267.6013     323.7582    6690.4121     700.4710     320.6586       0.0395       3.7486       2.7412     -30.4760
   2894.4192      12.3385       0.0262      50.9595      30.4955      35.2290    3196.8906     210.7859    7288.9575     763.0504     372.0144       0.0399       3.6420       2.7559     -32.7355
   2894.5715      12.3307       0.0274      53.1960      40.8801      37.0818    3651.4780     206.7050    7376.4131     760.6954     489.1451       0.0366       3.5390       2.7643     -33.0468
   2894.7239      12.3381       0.0244      52.7610      42.5291      36.4156    3616.2205     185.7555    6190.7485     651.2771     440.5948       0.0342       3.4949       2.7581     -31.7083
   2894.8762      12.3804       0.0322      56.2194      50.5332      37.4266    4024.9243     306.3099    4703.8188     504.4680     458.3448       0.0391       3.4582       2.7633     -26.8022
   2895.0288      12.5034       0.0364      51.6436      59.8700      37.3386    3610.1196     559.0762    3890.9688     416.5019     327.4441       0.0479       3.6407       2.7520     -23.6250
   2895.1812      13.0637       0.0270      43.8066      52.7376      39.0535    3588.2561     764.3947    3673.3184     394.6478     132.4160       0.0624       3.5985       2.7006     -22.8704
   2895.3335      14.8110       0.0305      46.8722      44.3297      40.3547    3633.6362     926.0757    3688.9546     395.4208      91.2035       0.0777       3.5119       2.6394     -20.2629
   2895.4858      15.9228       0.0601      50.9527      33.6931      41.3690    3615.9973    1068.9314    3739.2979     407.8167      35.5060       0.0913       3.4960       2.6161     -18.9667
   2895.6382      15.3679       0.0784      50.6246      39.2365      44.4615    3338.4819    1720.4788    3675.2693     418.3038      39.2525       0.0995       3.6564       2.5949     -17.7292
   2895.7908      13.8189       0.0728      50.3599      36.7746      45.9420    3329.8079    2170.2544    3631.3850     439.0847      73.5672       0.1073       3.8630       2.5572     -15.7329
   2895.9431      13.3387       0.0715      60.4007      35.4034      46.2112    3306.3083    2142.1570    3710.4229     465.9168     139.3186       0.1065       3.9007       2.5475     -15.1578
   2896.0955      13.7878       0.0581      60.0696      35.5030      44.6117    3285.2412    2494.5215    4101.8325     531.7252     236.1849       0.0897       3.7698       2.5896     -16.3956
   2896.2478      15.5474       0.0350      57.0384      34.6321      45.0518    3115.4661     725.3317    5031.9092     641.9810     239.6312       0.0604       3.8234       2.6660     -18.8510
   2896.4004      12.6170       0.0231      54.4837      30.1327      48.0052    3108.5676    1875.8127    5553.2505     690.1202     286.0094       0.0494       3.9635       2.7562     -21.9469
   2896.5527      12.2700       0.0209      56.1940      33.7511      50.1342    3102.2671    2625.4248    5908.8848     700.9861     434.2798       0.0402       4.1629       2.7749     -24.8129
   2896.7051      12.1109       0.0109      54.4829      34.0475      50.4363    3133.7632    3689.2727    5900.3398     656.7379     448.7103       0.0387       4.0642       2.7263     -24.9527
   2896.8574      12.1512       0.0094      56.1632      32.6555      47.0184    3017.6980    3858.6150    6075.3213     609.0313     157.6121       0.0445       3.8394       2.6740     -24.9703
   2897.0100      12.2958       0.0099      51.8175      32.6152      42.4964    3252.4854    3084.5847    7469.0288     649.2021     143.3625       0.0504       3.7502       2.6607     -25.8634
   2897.1624      12.4062       0.0148      49.6484      34.3838      38.7322    3212.8994    2681.6658    9722.7305     728.6211     220.6855       0.0498       3.7411       2.7028     -27.1564
   2897.3147      12.3561       0.0217      49.1496      40.9181      38.6500    3128.0918    2571.8586   13200.9922     822.9178     376.6947       0.0451       3.7768       2.7624     -27.3602
   2897.4670      12.2202       0.0192      49.1766      34.6753      39.1030    2921.4768    2850.6250   17837.7383     956.1475     578.5044       0.0397       3.8408       2.7875     -27.3879
   2897.6194      12.1656       0.0139      50.5085      42.5311      36.3477    2895.6572    3354.1006   20374.1035     997.0334     502.8816       0.0355       3.9798       2.7786     -26.2320
   2897.7720      12.1288       0.0135      53.7336      36.7881      31.1775    3037.2302    2117.7676   22928.5430    1081.3732     652.6917       0.0358       3.9626       2.7468     -25.6261
   2897.9243      12.1049       0.0108      56.6406      38.8331      25.1353    2881.4690    2300.8909   29829.5703    1273.5471     543.0935       0.0448       3.7735       2.6802     -26.2662
   2898.0767      12.1540       0.0051      57.2061      39.8079      23.1730    2754.0515    2114.3420   34457.1562    1533.1143     455.3388       0.0636       3.5570       2.5922     -26.4527
