#------------------------------------------------------------------------------
#
#   Created by  : [OpenWorks] Log Export Utility (LEXP)
#   Created on  : 2016-05-12 18:35:20
#   Project     : CANT971
#   User        : R5K
#   Interpreter : PEP
#
#------------------------------------------------------------------------------
~VERSION INFORMATION
VERS. 2.0 : CWLS Log ASCII Standard - version 2.0
WRAP.  NO : One line per depth step
~WELL INFORMATION
#MNEMONIC   .UNIT                                           VALUE :DESCRIPTION
#------------------------------------------------------------------------------
STRT        .M                                           785.9651 :START DEPTH
STOP        .M                                          3369.6023 :STOP DEPTH
STEP        .M                                             0.1524 :STEP
NULL        .                                           -999.2500 :NULL VALUE
COMP        .                                   PEMEX EXPL & PROD :COMPANY
WELL        .                                               1021D :WELL
FLD         .                                           CANTARELL :FIELD
LOC         .                                             UNKNOWN :LOCATION
CNTY        .                                      CD. DEL CARMEN :COUNTY
STAT        .                                            CAMPECHE :STATE
CTRY        .                                              MEXICO :COUNTRY
SRVC        .                                             UNKNOWN :SERVICE COMPANY
DATE        .                                             UNKNOWN :LOG DATE
UWI         .                                         30600000913 :UNIQUE WELL ID
XCOORD      .                                       597330.910000 :SURFACE X
YCOORD      .                                      2152069.890000 :SURFACE Y
LAT         .                                           19.461891 :LATITUDE
LON         .                                          -92.072697 :LONGITUDE
ELEV        .M                                            26.5400 :SURFACE ELEV
ELEV_TYPE   .                                                  KB :ELEV TYPE
~CURVE INFORMATION
#MNEMONIC.UNIT        API CODE       : CURVE DESCRIPTION
#------------------------------------------------------------------------------
DEPTH    .M                          : Measured Depth
CALI     .inches      UNKNOWN        : CALI:registros:r1:0002:v1 
DRHO     .g/cm3       UNKNOWN        : DRHO:registros:r1:0002:v1 
DT       .us/ft       UNKNOWN        : DT:registros:r1:0002:v1 
GR-LWD   .UNKNOWN     UNKNOWN        : GR-LWD:registros:r1:0002:v1 
GR       .API         UNKNOWN        : GR:registros:r1:0002:v1 
ILD-LWD  .ohm.m       UNKNOWN        : ILD-LWD:registros:r1:0002:v1 
ILM-LWD  .UNKNOWN     UNKNOWN        : ILM-LWD:registros:r1:0002:v1 
LLD      .ohm.m       UNKNOWN        : LLD:registros:r1:0002:v1 
LLS      .ohm.m       UNKNOWN        : LLS:registros:r1:0002:v1 
MSFL     .ohm.m       UNKNOWN        : MSFL:registros:r1:0002:v1 
NPHI     .v/v_decimal UNKNOWN        : NPHI:registros:r1:0002:v1 
PEF      .UNKNOWN     UNKNOWN        : PEF:registros:r1:0002:v1 
RHOB     .g/cm3       UNKNOWN        : RHOB:registros:r1:0002:v1 
SP       .mV          UNKNOWN        : SP:registros:r1:0002:v1 
~A     DEPTH         CALI         DRHO           DT       GR-LWD           GR      ILD-LWD      ILM-LWD          LLD          LLS         MSFL         NPHI          PEF         RHOB           SP
# ...
   2757.4114      12.0000       0.0650      56.8317      45.5929      64.9289     320.5574     293.8550     237.0740     175.4796      35.7111       0.0930       3.5469       2.6715     -24.6717
   2757.5640      12.1609       0.0698      58.9274      45.3798      63.9432     317.3427     252.9305     230.4806     172.2591      30.8906       0.1032       3.9241       2.6744     -24.5621
   2757.7163      12.4903       0.0735      59.9274      42.1891      63.1058     316.8994     224.2557     267.2871     196.9001      96.4235       0.1048       4.0934       2.6790     -24.3435
   2757.8687      12.8188       0.0743      60.6730      34.9374      58.7307     316.8986     201.2808     339.8629     244.2644     224.4424       0.1022       3.9734       2.6795     -24.2500
   2758.0210      12.6500       0.0677      59.9242      38.8602      55.0098     315.5507     229.6379     412.8214     291.1094     124.7663       0.0995       3.7691       2.6630     -24.1397
   2758.1736      12.2773       0.0495      59.0181      47.6180      47.4085     311.0614     328.8948     434.0369     305.5698     221.5761       0.1037       3.5592       2.6426     -23.9382
   2758.3259      12.1355       0.0349      57.1510      54.3042      45.3703     307.0042     364.3132     461.5753     321.5412     227.2072       0.0970       3.6068       2.6447     -24.6271
   2758.4783      12.1266       0.0291      57.2975      49.3929      43.2117     304.8383     425.2649     416.5576     289.2267     237.8915       0.0905       3.6737       2.6953     -25.8461
   2758.6306      12.3465       0.0223      55.8699      40.6181      40.9031     304.3674     456.7675     361.9441     246.2958     220.7996       0.0793       3.8069       2.7276     -26.7822
   2758.7832      12.9886       0.0172      54.0728      42.6228      37.5285     307.0359     362.0872     345.1925     229.1618     324.2401       0.0711       3.7248       2.7363     -26.8416
   2758.9355      13.5700       0.0140      52.2930      45.7032      34.8251     310.5862     291.1207     361.4789     233.2012     267.7644       0.0618       3.5810       2.7241     -26.2818
   2759.0879      12.9533       0.0184      43.2555      47.2488      36.9641     318.3351     321.0169     394.6182     244.4792     132.6268       0.0610       3.6499       2.7376     -27.0507
   2759.2402      12.2909       0.0380      26.2505      52.6966      42.2364     333.4747     364.2672     478.1328     287.9204     183.1813       0.0593       3.7460       2.7887     -28.7523
   2759.3926      12.0944       0.0569      26.9559      61.8829      47.7731     349.6351     287.2369     600.0348     363.0668     261.4609       0.0539       3.8591       2.8209     -29.5000
   2759.5452      12.0370       0.0422      34.5627      70.1712      48.2081     355.1225     220.5425     610.9790     383.2335     368.7744       0.0503       3.7484       2.8082     -29.2328
   2759.6975      12.0543       0.0146      52.0741      67.0359      45.3330     350.9951     225.1723     571.8159     369.1000     331.8614       0.0501       3.7110       2.7650     -28.4690
   2759.8499      12.1932       0.0140      51.9522      51.6995      44.3714     345.0187     312.3704     525.0084     343.1418     447.4254       0.0486       3.7807       2.7723     -28.7674
   2760.0022      12.5449       0.0116      52.9273      40.3417      50.3891     336.2290     375.0867     489.6290     320.4349     259.0201       0.0475       3.8287       2.7648     -29.5484
   2760.1548      12.7003       0.0060      53.4990      41.4801      51.9358     326.6664     424.9476     474.3470     312.3759     380.1139       0.0446       3.9196       2.7406     -30.1725
   2760.3071      12.3723       0.0086      53.6531      46.0312      53.3354     314.7950     401.3364     448.3431     297.8130     402.4432       0.0425       3.8337       2.7229     -30.5944
   2760.4595      12.2602       0.0184      54.4959      42.7434      50.1983     303.5678     290.7270     399.4726     270.7697     353.7842       0.0363       3.7584       2.7000     -30.8435
   2760.6118      12.1823       0.0282      53.4544      38.8673      52.9635     299.6082     275.1955     388.7734     266.2128     261.2223       0.0378       3.6513       2.6903     -31.0340
   2760.7644      12.1498       0.0234      55.2291      41.4892      52.8254     299.1725     324.5640     405.4853     279.3452     117.6781       0.0530       3.4371       2.6579     -32.2378
   2760.9167      12.2623       0.0188      56.2987      46.6962      54.5976     299.1715     347.8077     429.2510     297.0227     161.1679       0.0764       3.2999       2.6605     -33.3754
   2761.0691      12.3837       0.0224      55.7756      50.1000      49.7027     299.1715     362.7911     503.5751     344.7814     300.4809       0.0833       3.3663       2.6922     -33.4838
   2761.2214      12.4994       0.0251      55.6215      50.0992      46.2260     299.1715     306.7352     569.3379     384.1996     362.5867       0.0770       3.5098       2.7228     -33.2815
   2761.3738      12.4330       0.0214      54.5758      45.4254      40.5555     297.8854     212.9390     594.6866     398.0178     407.6134       0.0606       3.6697       2.7205     -33.3592
   2761.5264      12.3381       0.0249      54.3452      49.7354      38.9458     296.1753     146.6742     641.6442     426.4946     320.5040       0.0557       3.7642       2.7106     -33.0139
   2761.6787      12.1689       0.0357      52.7482      59.1530      36.9468     297.0338     161.7034     604.8635     408.7121     345.1302       0.0519       3.7858       2.7090     -31.9834
   2761.8311      12.0349       0.0547      52.0757      57.9230      37.3892     298.7412     268.4585     568.7493     388.9783     542.4484       0.0485       3.8421       2.7249     -31.7359
   2761.9834      12.0380       0.0586      52.3505      57.0225      36.6802     300.4722     346.4485     538.5295     370.9577     489.8536       0.0488       3.8186       2.7407     -32.4234
   2762.1360      12.0989       0.0609      53.2323      54.0529      34.8396     302.2007     380.4771     468.1501     327.9578     363.9756       0.0478       3.9954       2.7708     -32.7176
   2762.2883      12.2583       0.0599      55.3748      47.9534      34.5240     300.0445     453.6500     402.9176     286.3196     725.4705       0.0437       3.9370       2.8002     -32.0625
   2762.4407      12.4765       0.0544      54.7959      47.6171      39.0517     290.3845     371.9952     264.3857     204.7672     612.1391       0.0375       3.7877       2.7935     -32.1570
   2762.5930      12.6135       0.0385      53.5019      39.8541      49.7800     277.7205     206.9419     273.2923     212.8854     500.9890       0.0401       3.6047       2.7698     -32.6268
   2762.7456      12.2619       0.0263      53.8224      25.9920      57.1689     265.2416     244.6663     277.1494     219.8036     135.9127       0.0477       3.5960       2.7576     -32.9824
   2762.8979      12.0898       0.0262      53.2264      17.4578      60.0848     255.4425     402.1772     365.2338     278.2753     133.9374       0.0494       3.5499       2.7708     -32.2649
   2763.0503      12.0336       0.0294      54.1771      15.2250      54.3526     252.0946    3113.9158     624.8807     445.9457     361.2572       0.0469       3.3980       2.7649     -31.8115
   2763.2026      12.0514       0.0274      55.3280      21.0833      47.8206     253.9333    4219.2026     563.7488     422.7230     444.1471       0.0481       3.4135       2.7417     -31.5794
   2763.3550      12.1720       0.0281      56.1737      30.2612      42.1668     257.9673    1642.4369     361.1074     308.8896     350.6665       0.0523       3.6873       2.7228     -32.0000
   2763.5076      12.3462       0.0463      55.8253      37.3839      39.6344     259.0601     349.2936     355.3552     310.0913     247.8099       0.0532       4.0671       2.7270     -32.0000
   2763.6599      12.4033       0.0524      56.2777      34.5375      35.3890     257.9633    2812.5906     292.7467     268.0616     203.8641       0.0561       4.1603       2.7146     -31.7324
