#------------------------------------------------------------------------------
#
#   Created by  : [OpenWorks] Log Export Utility (LEXP)
#   Created on  : 2016-05-12 18:35:20
#   Project     : CANT971
#   User        : R5K
#   Interpreter : PEP
#
#------------------------------------------------------------------------------
~VERSION INFORMATION
VERS. 2.0 : CWLS Log ASCII Standard - version 2.0
WRAP.  NO : One line per depth step
~WELL INFORMATION
#MNEMONIC   .UNIT                                           VALUE :DESCRIPTION
#------------------------------------------------------------------------------
STRT        .M                                           785.9651 :START DEPTH
STOP        .M                                          3369.6023 :STOP DEPTH
STEP        .M                                             0.1524 :STEP
NULL        .                                           -999.2500 :NULL VALUE
COMP        .                                   PEMEX EXPL & PROD :COMPANY
WELL        .                                               1021D :WELL
FLD         .                                           CANTARELL :FIELD
LOC         .                                             UNKNOWN :LOCATION
CNTY        .                                      CD. DEL CARMEN :COUNTY
STAT        .                                            CAMPECHE :STATE
CTRY        .                                              MEXICO :COUNTRY
SRVC        .                                             UNKNOWN :SERVICE COMPANY
DATE        .                                             UNKNOWN :LOG DATE
UWI         .                                         30600000913 :UNIQUE WELL ID
XCOORD      .                                       597330.910000 :SURFACE X
YCOORD      .                                      2152069.890000 :SURFACE Y
LAT         .                                           19.461891 :LATITUDE
LON         .                                          -92.072697 :LONGITUDE
ELEV        .M                                            26.5400 :SURFACE ELEV
ELEV_TYPE   .                                                  KB :ELEV TYPE
~CURVE INFORMATION
#MNEMONIC.UNIT        API CODE       : CURVE DESCRIPTION
#------------------------------------------------------------------------------
DEPTH    .M                          : Measured Depth
CALI     .inches      UNKNOWN        : CALI:registros:r1:0002:v1 
DRHO     .g/cm3       UNKNOWN        : DRHO:registros:r1:0002:v1 
DT       .us/ft       UNKNOWN        : DT:registros:r1:0002:v1 
GR-LWD   .UNKNOWN     UNKNOWN        : GR-LWD:registros:r1:0002:v1 
GR       .API         UNKNOWN        : GR:registros:r1:0002:v1 
ILD-LWD  .ohm.m       UNKNOWN        : ILD-LWD:registros:r1:0002:v1 
ILM-LWD  .UNKNOWN     UNKNOWN        : ILM-LWD:registros:r1:0002:v1 
LLD      .ohm.m       UNKNOWN        : LLD:registros:r1:0002:v1 
LLS      .ohm.m       UNKNOWN        : LLS:registros:r1:0002:v1 
MSFL     .ohm.m       UNKNOWN        : MSFL:registros:r1:0002:v1 
NPHI     .v/v_decimal UNKNOWN        : NPHI:registros:r1:0002:v1 
PEF      .UNKNOWN     UNKNOWN        : PEF:registros:r1:0002:v1 
RHOB     .g/cm3       UNKNOWN        : RHOB:registros:r1:0002:v1 
SP       .mV          UNKNOWN        : SP:registros:r1:0002:v1 
~A     DEPTH         CALI         DRHO           DT       GR-LWD           GR      ILD-LWD      ILM-LWD          LLD          LLS         MSFL         NPHI          PEF         RHOB           SP
# ...
   2482.1770      15.7158      -0.0118     131.5122      69.9029      50.5116       3.1313       1.9644       2.9538       1.8273       3.3296       0.3882       3.2705       2.2537      28.3472
   2482.3296      15.5496      -0.0110     134.7970      54.3034      52.8794       3.1475       1.7821       3.0436       1.8173       3.8236       0.3886       3.2088       2.2605      29.4211
   2482.4819      15.6175      -0.0051     133.2205      51.9534      54.6900       3.1811       1.6728       2.8163       1.8072       5.7369       0.4059       3.3277       2.2695      28.9056
   2482.6343      16.1630       0.0043     132.3090      51.6107      57.1611       3.2207       2.2272       2.7697       1.7967       5.5996       0.4349       3.5978       2.2673      29.0976
   2482.7866      17.6252       0.0137     133.6312      61.5124      51.8489       3.1777       2.1379       2.7141       1.7460       7.8043       0.4135       3.8151       2.2487      30.6420
   2482.9392      19.9287       0.0345     125.7053      67.1063      46.7402       3.1275       1.9282       2.6248       1.6915       3.8343       0.3948       3.7385       2.2000      30.4631
   2483.0916      19.5345       0.0661     116.2551      66.6782      42.3471       3.1251       2.0184       2.5253       1.6507       5.9116       0.3609       3.6293       2.1525      28.4045
   2483.2439      18.0791       0.0809     103.3377    -999.2500      43.0402       3.1251       2.0723       2.4681       1.6406       6.6077       0.3768       3.4744       2.1234      27.6885
   2483.3962      16.6342       0.1116      96.1855    -999.2500      39.4829       3.1251       2.0783       2.4491       1.6442       5.1186       0.3556       3.5937       2.1565      28.1571
   2483.5486      16.5165       0.1325     105.3901      63.4787      36.1639       3.1354       2.1511       2.5217       1.6843       3.8043       0.3202       3.3549       2.1778      28.9262
   2483.7012      16.7077       0.0897     112.7131      59.3698      33.1921       3.1290       2.1606       2.7792       1.8237       4.4410       0.3340       3.0548       2.0156      30.3593
   2483.8535      16.0957       0.0250     128.7148      62.8388      34.7763       3.0587       2.1957       3.0076       1.9458       4.9624       0.4005       2.7613       1.6943      29.6988
   2484.0059      16.3486       0.0205     151.9420      67.0723      37.9915       3.0448       2.1162       3.1051       2.0043       4.7603       0.4746       2.5603       1.6435      27.7962
   2484.1582      20.0055       0.0060     140.7525      66.5335      39.2974       3.0417       1.9757       3.0241       1.9569       4.4402       0.4812       2.6356       1.6616      27.5783
   2484.3108      19.5069       0.0010     144.0249      61.2012      38.9486       3.0769       1.9624       2.6845       1.7449       4.6235       0.4851       2.7119       1.8146      28.3004
   2484.4631      17.5742       0.0007     152.9597      63.7284      42.8723       3.0766       2.2135       2.4169       1.5916       4.2683       0.4874       2.7888       1.8618      29.7305
   2484.6155      15.5196       0.0007     156.0902      57.7778      46.3728       3.1120       2.5227       2.2097       1.4348       3.5451       0.4835       2.9213       1.9348      27.9055
   2484.7678      14.1012      -0.0066     152.1845      49.2524      50.8515       3.0709       2.5410       1.9212       1.2628       2.5158       0.4372       3.0908       2.0221      27.6408
   2484.9202      13.7824      -0.0149     152.3099      46.1297      45.9586       2.9935       2.5325       1.8321       1.1789       2.1575       0.3954       3.3739       2.1031      27.8925
   2485.0728      13.6804      -0.0167     154.3307    -999.2500      43.9112       2.8946       2.6220       1.8629       1.1424       3.0935       0.3945       3.7555       2.1591      28.5629
   2485.2251      13.6620      -0.0151     151.1763    -999.2500      47.0200       2.8255       2.9087       1.7941       1.0692       5.1686       0.4523       3.8267       2.1639      28.6398
   2485.3774      13.7383      -0.0219     150.0097      48.2830      51.1080       2.8215       2.8737       1.5349       0.9675       9.0839       0.4680       3.7622       2.1388      28.2810
   2485.5298      13.4138      -0.0175     142.8812      57.0070      56.8545       2.8310       2.3435       1.4660       0.9554      52.1742       0.4475       3.4980       2.1376      28.1402
   2485.6824      13.0810      -0.0055     134.9407      73.7621      55.3676       2.8619    -999.2500       1.4442       1.0016     145.9887       0.3994       3.5198       2.1633      28.1414
   2485.8347      12.5657      -0.0004     130.2518      79.2223      57.6220       2.8564    -999.2500       1.7656       1.1285      12.5434       0.3797       3.6780       2.2082      28.7513
   2485.9871      12.7221       0.0031     131.7817      78.9313      59.1304       2.7755       1.3012       2.1014       1.2913       6.0481       0.3526       3.7852       2.2599      29.2810
   2486.1394      13.0188       0.0147     133.3424      82.3053      60.3701       2.7032       1.2028       1.9906       1.2893       9.2948       0.3490       3.8790       2.3195      28.8724
   2486.2920      13.2358       0.0159     130.4435      84.3904      59.8144       2.6058       1.0976       1.9634       1.2634      16.6736       0.3642       3.9328       2.3330      28.1103
   2486.4443      13.1061       0.0102     128.9278      72.1945      57.4361       2.5167       1.0726       1.9943       1.2449       7.2340       0.3904       3.9428       2.3150      28.8767
   2486.5967      12.8261       0.0135     131.0821      67.8192      55.4541       2.4848       1.2196       1.9991       1.2384      11.1812       0.3787       3.9552       2.3044      29.5935
   2486.7490      12.8581       0.0239     132.2614      63.0955      54.1670       2.4733       1.4870       2.0778       1.2621       1.4699       0.3600       3.9007       2.2969      29.2792
   2486.9014      13.1893       0.0346     126.0568      67.6238      58.3806       2.4821       1.9069       2.0203       1.3205       1.8487       0.3441       3.7834       2.2955      28.4830
   2487.0540      13.4909       0.0459     118.5141      69.6991      62.5193       2.4651       1.9180       1.9560       1.2929       3.0010       0.3555       3.7031       2.3084      28.1411
   2487.2063      13.2410       0.0559     112.4695      66.5881      64.0097       2.4638       1.4443       1.9618       1.3165       4.5608       0.3690       3.8232       2.3388      28.3750
   2487.3586      13.3188       0.0567     107.4494      66.4850      62.2071       2.4721       1.3772       2.0467       1.3676       7.7416       0.3659       4.1398       2.3770      28.4223
   2487.5110      13.5563       0.0449      97.5875      77.8776      58.1367       2.4904       1.6437       2.0173       1.3715       6.6450       0.3407       4.4437       2.4232      28.3260
   2487.6636      13.9898       0.0322      92.1513      71.2833      53.8540       2.5087       2.0593       2.0986       1.4009       4.7502       0.2985       4.5258       2.4695      27.6721
   2487.8159      14.0162       0.0232      89.2054      70.7308      54.1989       2.5545       2.0342       2.1503       1.4645       4.1848       0.2702       4.4482       2.5144      27.8754
   2487.9683      14.5979       0.0156      91.2605      73.1754      53.0541       2.5761       1.9080       2.2243       1.5453       4.8320       0.2574       4.4275       2.5176      28.0467
   2488.1206      14.7723       0.0174      89.8556      72.5025      52.1237       2.5688       1.9046       2.4223       1.6850       6.9503       0.2445       4.2484       2.5182      27.9842
   2488.2732      14.4961       0.0172      87.1436      65.1046      43.8879       2.5500       1.9201       2.9307       2.0281      14.5494       0.2300       4.3043       2.5070      28.0003
   2488.4255      14.1360       0.0269      85.4516      72.0451      41.6651       2.5399       1.8929       3.2099       2.2706      41.8960       0.2145       4.2641       2.5228      27.7786
