#------------------------------------------------------------------------------
#
#   Created by  : [OpenWorks] Log Export Utility (LEXP)
#   Created on  : 2016-05-12 18:35:20
#   Project     : CANT971
#   User        : R5K
#   Interpreter : PEP
#
#------------------------------------------------------------------------------
~VERSION INFORMATION
VERS. 2.0 : CWLS Log ASCII Standard - version 2.0
WRAP.  NO : One line per depth step
~WELL INFORMATION
#MNEMONIC   .UNIT                                           VALUE :DESCRIPTION
#------------------------------------------------------------------------------
STRT        .M                                           785.9651 :START DEPTH
STOP        .M                                          3369.6023 :STOP DEPTH
STEP        .M                                             0.1524 :STEP
NULL        .                                           -999.2500 :NULL VALUE
COMP        .                                   PEMEX EXPL & PROD :COMPANY
WELL        .                                               1021D :WELL
FLD         .                                           CANTARELL :FIELD
LOC         .                                             UNKNOWN :LOCATION
CNTY        .                                      CD. DEL CARMEN :COUNTY
STAT        .                                            CAMPECHE :STATE
CTRY        .                                              MEXICO :COUNTRY
SRVC        .                                             UNKNOWN :SERVICE COMPANY
DATE        .                                             UNKNOWN :LOG DATE
UWI         .                                         30600000913 :UNIQUE WELL ID
XCOORD      .                                       597330.910000 :SURFACE X
YCOORD      .                                      2152069.890000 :SURFACE Y
LAT         .                                           19.461891 :LATITUDE
LON         .                                          -92.072697 :LONGITUDE
ELEV        .M                                            26.5400 :SURFACE ELEV
ELEV_TYPE   .                                                  KB :ELEV TYPE
~CURVE INFORMATION
#MNEMONIC.UNIT        API CODE       : CURVE DESCRIPTION
#------------------------------------------------------------------------------
DEPTH    .M                          : Measured Depth
CALI     .inches      UNKNOWN        : CALI:registros:r1:0002:v1 
DRHO     .g/cm3       UNKNOWN        : DRHO:registros:r1:0002:v1 
DT       .us/ft       UNKNOWN        : DT:registros:r1:0002:v1 
GR-LWD   .UNKNOWN     UNKNOWN        : GR-LWD:registros:r1:0002:v1 
GR       .API         UNKNOWN        : GR:registros:r1:0002:v1 
ILD-LWD  .ohm.m       UNKNOWN        : ILD-LWD:registros:r1:0002:v1 
ILM-LWD  .UNKNOWN     UNKNOWN        : ILM-LWD:registros:r1:0002:v1 
LLD      .ohm.m       UNKNOWN        : LLD:registros:r1:0002:v1 
LLS      .ohm.m       UNKNOWN        : LLS:registros:r1:0002:v1 
MSFL     .ohm.m       UNKNOWN        : MSFL:registros:r1:0002:v1 
NPHI     .v/v_decimal UNKNOWN        : NPHI:registros:r1:0002:v1 
PEF      .UNKNOWN     UNKNOWN        : PEF:registros:r1:0002:v1 
RHOB     .g/cm3       UNKNOWN        : RHOB:registros:r1:0002:v1 
SP       .mV          UNKNOWN        : SP:registros:r1:0002:v1 
~A     DEPTH         CALI         DRHO           DT       GR-LWD           GR      ILD-LWD      ILM-LWD          LLD          LLS         MSFL         NPHI          PEF         RHOB           SP
# ...
   3295.0786      11.7704       0.0371      60.5915      35.0855      38.3888      71.3668     225.2346     604.3124     521.4230     609.8789       0.0862       3.5410       2.7475       9.1602
   3295.2312      11.7563       0.0349      61.6736      27.2559      44.9669      73.1123     448.8434     696.7781     605.0202     365.1242       0.0702       3.5229       2.7230      11.0692
   3295.3835      11.7822       0.0269      61.4517      24.6789      52.7832      71.5058     516.9285     604.9282     531.3646     235.1512       0.0836       3.5517       2.6839      12.7004
   3295.5359      11.8481       0.0245      62.0008      32.4419      57.1335      69.0302     388.2252     270.9605     251.2927     250.2537       0.1068       3.6137       2.6543      10.1304
   3295.6882      11.8686       0.0237      62.8551      35.9540      55.3012      70.1980     283.3145     157.9868     155.7298     129.1705       0.1244       3.6467       2.6551       5.0987
   3295.8406      11.8499       0.0261      65.0054      28.3066      51.4768      73.4642     326.7179     135.4528     138.0484      87.7403       0.1262       3.7985       2.6605       2.2867
   3295.9932      11.8307       0.0308      66.8037      26.7201      46.4231      74.8133     292.0523     100.7310     104.0961     172.9417       0.1227       3.8060       2.6530       4.6755
   3296.1455      11.7395       0.0263      67.5355      27.4187      47.0886      76.3660     227.6740      85.3520      87.5546     218.8591       0.1292       3.8911       2.6241       6.0278
   3296.2979      11.7465       0.0233      66.1547      30.7224      51.1381      77.4905     272.3140      73.0818      75.5500      69.6722       0.1403       3.8714       2.6145       3.2851
   3296.4502      11.7693       0.0277      62.6160      35.5438      51.3790      77.3652     363.3701      64.2608      67.5226      64.3993       0.1468       3.8685       2.6333      -1.5400
   3296.6028      11.7417       0.0293      60.0253      38.5491      45.7344      76.8949     289.5305      72.2029      75.9094      87.6131       0.1293       3.7402       2.6540      -3.2575
   3296.7551      11.7104       0.0261      60.0747      36.4353      34.7062      77.4428     163.6524     103.1674     106.4121     207.3902       0.1038       3.6426       2.6755       1.4219
   3296.9075      11.7040       0.0258      60.1260      29.6419      27.3887      79.3843     191.1791     192.3323     187.8571     380.5648       0.0821       3.5947       2.6980       8.0137
   3297.0598      11.7155       0.0201      60.7903      23.2076      27.2228      82.0735     241.8655     364.4268     338.1718     383.3712       0.0795       3.6564       2.7043       6.4447
   3297.2124      11.7583       0.0136      61.2328      23.6393      32.8552      84.6001     284.6071     478.3377     430.8008     334.9409       0.0930       3.5992       2.6760       3.4648
   3297.3647      11.8034       0.0101      59.8230      37.2043      35.7469      79.5864     285.0056     516.5712     453.1894     285.6498       0.1095       3.5227       2.6513       2.2814
   3297.5171      11.8267       0.0103      58.7163      77.4084      33.1068      69.8040     190.9832     464.7701     402.1405     331.1281       0.1028       3.6306       2.6442       2.9104
   3297.6694      11.8206       0.0194      57.5174     113.5348      29.2455      67.3370     108.6206     376.5737     329.0465     367.5132       0.0864       3.7140       2.6743       3.9638
   3297.8218      11.6965       0.0347      59.5296     103.9895      29.7138      67.8591      53.9752     366.7629     327.7415     272.0061       0.0709       3.8776       2.7026       1.7117
   3297.9744      11.6900       0.0402      61.1290      74.1707      36.1676      68.0800     307.3853     318.0321     291.9434     307.0763       0.0828       3.8261       2.6933      -0.1553
   3298.1267      11.7231       0.0391      61.7711      44.7384      41.6524      67.4685     719.4687     238.7867     229.2794     355.6429       0.1045       3.6830       2.6547       0.4083
   3298.2791      11.7458       0.0303      60.3965      34.2736      43.0634      66.4258     980.1212     208.5259     207.3564     257.1509       0.1316       3.5876       2.6290       1.2658
   3298.4314      11.7514       0.0265      58.8717      41.7113      36.6024      65.5281     780.2073     194.4100     197.0957     161.5188       0.1403       3.5336       2.6574       1.5809
   3298.5840      11.7373       0.0332      58.6588      51.7643      28.3061      65.3651     307.1957     186.7888     189.4194     187.7077       0.1246       3.5590       2.7116       1.4753
   3298.7363      11.6356       0.0382      61.1782      83.0951      24.2855      65.3647     206.6953     208.2192     206.6861     217.0503       0.1000       3.6243       2.7425      -1.8954
   3298.8887      11.6463       0.0308      63.9158     123.1182      26.6303      65.3647     112.5912     238.1655     232.7975     247.1484       0.0869       3.5713       2.6953      -3.8897
   3299.0410      11.6738       0.0176      69.4738     128.7582      39.0219      65.0980      66.0706     165.9988     167.8219     230.4271       0.1151       3.6384       2.6009      -3.1996
   3299.1936      11.6750       0.0108      69.3275     133.7285      65.4454      64.6957      40.0904      42.6814      48.7934     164.9352       0.1862       3.7815       2.5301      -1.7779
   3299.3459      11.6415       0.0108      69.7725      99.8500      76.0102      64.6166      78.7039      36.6899      42.5818      31.3905       0.2340       3.9363       2.5225      -0.4041
   3299.4983      11.5855       0.0151      67.9158      37.4849      70.5258      65.1514     232.9338      39.1896      45.8121     102.5925       0.2274       3.8835       2.5587       0.2471
   3299.6506      11.5902       0.0233      64.5262      23.7940      48.6168      65.9628     443.8484      67.7846      74.9507     250.7091       0.1710       3.7318       2.6081      -0.5596
   3299.8030      11.6107       0.0284      64.5083      21.8790      39.3018      66.6688     628.1329     213.3191     220.3258     323.0794       0.1272       3.7682       2.6260       0.8962
   3299.9556      11.6414       0.0345      64.8177      30.7837      40.3704      67.5008     469.7678     416.0036     429.7377     301.6580       0.1143       3.7776       2.6401       2.8639
   3300.1079      11.6338       0.0430      69.8964      69.1121      52.8524      67.6615     142.2303     335.5195     363.2670     174.1959       0.1088       3.6014       2.6433       3.7787
   3300.2603      11.5913       0.0368      73.3862     149.4451      76.7433      67.6618      65.2117     194.2744     213.9047     172.7188       0.1150       3.3256       2.5963       2.9391
   3300.4126      11.5613       0.0200      77.4273     200.3966      99.7676      67.3872      32.4660      90.7057      99.3475     145.7688       0.1437       3.1272       2.5077       3.8631
   3300.5652      11.5464       0.0164      77.6700     157.4449     109.9881      66.6959      19.8269      51.9042      53.7679      91.9438       0.1976       3.1644       2.4391       5.5530
   3300.7175      11.5443       0.0176      74.9079      78.2992      89.2632      66.2008      60.5128      41.1973      42.9937      63.9430       0.2594       3.4075       2.4421       8.1144
   3300.8699      11.5520       0.0258      68.2062      53.5772      59.5579      66.1217      99.3632      44.5363      47.2148      85.2909       0.2479       3.7116       2.4999      10.5803
   3301.0222      11.5611       0.0371      61.1728      53.4736      30.7542      66.1216     217.7007      54.2619      58.1350     247.0640       0.1977       3.7031       2.5878      11.5328
   3301.1748      11.5466       0.0347      60.0702      45.1381      23.0278      66.1216     451.9804      82.6885      87.1023     296.2173       0.1283       3.5273       2.6334      12.3786
   3301.3271      11.5268       0.0245      59.5216      43.1009      29.2898      66.1216     439.4033     184.7350     190.1192     328.4326       0.1051       3.3824       2.6546      13.5943
