#------------------------------------------------------------------------------
#
#   Created by  : [OpenWorks] Log Export Utility (LEXP)
#   Created on  : 2016-05-12 18:35:20
#   Project     : CANT971
#   User        : R5K
#   Interpreter : PEP
#
#------------------------------------------------------------------------------
~VERSION INFORMATION
VERS. 2.0 : CWLS Log ASCII Standard - version 2.0
WRAP.  NO : One line per depth step
~WELL INFORMATION
#MNEMONIC   .UNIT                                           VALUE :DESCRIPTION
#------------------------------------------------------------------------------
STRT        .M                                           785.9651 :START DEPTH
STOP        .M                                          3369.6023 :STOP DEPTH
STEP        .M                                             0.1524 :STEP
NULL        .                                           -999.2500 :NULL VALUE
COMP        .                                   PEMEX EXPL & PROD :COMPANY
WELL        .                                               1021D :WELL
FLD         .                                           CANTARELL :FIELD
LOC         .                                             UNKNOWN :LOCATION
CNTY        .                                      CD. DEL CARMEN :COUNTY
STAT        .                                            CAMPECHE :STATE
CTRY        .                                              MEXICO :COUNTRY
SRVC        .                                             UNKNOWN :SERVICE COMPANY
DATE        .                                             UNKNOWN :LOG DATE
UWI         .                                         30600000913 :UNIQUE WELL ID
XCOORD      .                                       597330.910000 :SURFACE X
YCOORD      .                                      2152069.890000 :SURFACE Y
LAT         .                                           19.461891 :LATITUDE
LON         .                                          -92.072697 :LONGITUDE
ELEV        .M                                            26.5400 :SURFACE ELEV
ELEV_TYPE   .                                                  KB :ELEV TYPE
~CURVE INFORMATION
#MNEMONIC.UNIT        API CODE       : CURVE DESCRIPTION
#------------------------------------------------------------------------------
DEPTH    .M                          : Measured Depth
CALI     .inches      UNKNOWN        : CALI:registros:r1:0002:v1 
DRHO     .g/cm3       UNKNOWN        : DRHO:registros:r1:0002:v1 
DT       .us/ft       UNKNOWN        : DT:registros:r1:0002:v1 
GR-LWD   .UNKNOWN     UNKNOWN        : GR-LWD:registros:r1:0002:v1 
GR       .API         UNKNOWN        : GR:registros:r1:0002:v1 
ILD-LWD  .ohm.m       UNKNOWN        : ILD-LWD:registros:r1:0002:v1 
ILM-LWD  .UNKNOWN     UNKNOWN        : ILM-LWD:registros:r1:0002:v1 
LLD      .ohm.m       UNKNOWN        : LLD:registros:r1:0002:v1 
LLS      .ohm.m       UNKNOWN        : LLS:registros:r1:0002:v1 
MSFL     .ohm.m       UNKNOWN        : MSFL:registros:r1:0002:v1 
NPHI     .v/v_decimal UNKNOWN        : NPHI:registros:r1:0002:v1 
PEF      .UNKNOWN     UNKNOWN        : PEF:registros:r1:0002:v1 
RHOB     .g/cm3       UNKNOWN        : RHOB:registros:r1:0002:v1 
SP       .mV          UNKNOWN        : SP:registros:r1:0002:v1 
~A     DEPTH         CALI         DRHO           DT       GR-LWD           GR      ILD-LWD      ILM-LWD          LLD          LLS         MSFL         NPHI          PEF         RHOB           SP
# ...
   2616.5940      12.2883       0.0253      55.0272      41.7553      52.2957     276.1967     244.2912     231.6722     185.5751     158.2639       0.0656       4.1448       2.6914     -31.5468
   2616.7463      11.9910       0.0219      55.2722      35.8032      50.9711     277.8361     270.1553     240.6801     192.5180      97.6023       0.0674       3.9283       2.6762     -31.4685
   2616.8987      12.1132       0.0213      54.0504      41.9536      49.4803     279.1422     230.5933     245.4571     196.0605     220.0193       0.0729       3.9030       2.6848     -31.2805
   2617.0510      12.3407       0.0228      54.4776      49.9198      47.9545     281.0564     229.6435     255.1276     201.4939     289.1260       0.0753       3.8552       2.6928     -31.1104
   2617.2034      12.4146       0.0183      55.1738      50.7808      50.6877     281.3036     212.8525     235.0731     186.9771     201.2910       0.0747       3.9185       2.6860     -31.4060
   2617.3560      12.2810       0.0174      54.6994      53.2732      58.1005     281.3038     233.3505     222.6244     175.9775     272.6895       0.0725       4.0284       2.6752     -31.3911
   2617.5083      12.1146       0.0237      54.3244      48.7557      63.9654     279.2072     338.4015     257.3766     200.4955     245.5000       0.0755       4.1127       2.6858     -31.6880
   2617.6606      11.9851       0.0324      54.1505      42.0039      60.6111     275.3834     374.9564     274.0852     212.3827      42.5277       0.0759       3.9732       2.7070     -31.8119
   2617.8130      11.9969       0.0389      54.2242      42.6856      51.6630     273.8737     422.8277     283.2369     217.1616     158.7858       0.0738       3.9759       2.7359     -31.6408
   2617.9656      12.0838       0.0414      54.3789      49.3629      41.9905     273.0167     289.5389     351.1262     262.4916     376.3725       0.0690       3.9365       2.7598     -31.6247
   2618.1179      12.1903       0.0338      55.4748      45.2466      42.6385     274.6652     251.3690     312.5708     237.5756     317.3549       0.0690       3.9532       2.7558     -31.4375
   2618.2703      12.3191       0.0199      55.0470      44.1173      44.8691     274.8997     285.1151     263.5761     203.2171     236.3114       0.0687       3.8498       2.7306     -31.3745
   2618.4226      12.3194       0.0136      53.6213      43.4755      48.3499     275.9342     409.2428     254.2723     196.1625     288.5335       0.0663       3.8597       2.7125     -31.0930
   2618.5752      12.1048       0.0170      52.2728      35.1341      44.7187     277.8477     611.5311     282.7025     216.5776     269.5431       0.0619       3.9354       2.7157     -30.8596
   2618.7275      11.9814       0.0251      51.6000      34.3593      40.3339     278.0831     449.6360     315.1884     239.6487     188.8590       0.0596       4.0398       2.7319     -30.8899
   2618.8799      12.0072       0.0280      51.3984      39.3413      36.5909     278.0836     346.7574     350.7623     265.5498     235.4830       0.0504       4.0242       2.7421     -30.5625
   2619.0322      12.0919       0.0305      50.8000      42.6869      35.0161     278.0836     334.6531     375.9449     285.2965     203.6101       0.0399       3.9903       2.7538     -30.4836
   2619.1846      12.2887       0.0286      50.9766      43.6146      38.0422     279.1237     318.2620     342.3340     261.4495     215.7613       0.0311       3.7720       2.7568     -30.3289
   2619.3372      12.4157       0.0289      51.6258      44.3532      39.9696     281.0710     304.9535     308.9347     236.4628     150.8414       0.0344       3.7355       2.7474     -30.3581
   2619.4895      12.3575       0.0377      52.5289      49.7719      43.4310     281.3034     230.8952     265.3133     205.2545     230.5901       0.0416       3.7418       2.7501     -29.6555
   2619.6418      12.2457       0.0476      54.1000      47.3094      44.3627     282.3550     241.7619     259.7982     199.2614     327.7093       0.0499       3.8053       2.7513     -29.1543
   2619.7942      12.1327       0.0550      54.1000      46.3705      48.2355     284.3316     261.0037     262.4565     199.2384     187.9346       0.0552       3.7916       2.7578     -28.4369
   2619.9468      12.1631       0.0622      54.0495      57.0039      49.1571     284.5612     291.1424     264.8889     201.3518     197.4490       0.0565       3.8213       2.7584     -28.3914
   2620.0991      12.2174       0.0662      53.2958      60.1563      49.2239     284.5613     282.4871     301.6431     228.2088     240.8406       0.0539       3.8233       2.7607     -28.8282
   2620.2515      12.2921       0.0636      51.5756      54.6746      48.4092     284.5613     356.3715     329.5987     248.9450     250.2702       0.0532       3.7229       2.7606     -28.9065
   2620.4038      12.4413       0.0615      51.4465      54.6922      52.2649     283.5179     454.5575     354.2304     267.5062     155.4197       0.0515       3.7520       2.7740     -29.0315
   2620.5564      12.5217       0.0700      50.5262      48.1528      55.8403     281.5308     375.3706     348.9867     264.8481     191.8156       0.0476       3.8945       2.8021     -29.1407
   2620.7087      12.3587       0.0637      51.0258      46.1965      56.1918     282.3474     281.0002     351.0944     266.9199     281.6219       0.0438       3.8889       2.8087     -29.2190
   2620.8611      12.2782       0.0469      51.4756      49.2357      54.2285     284.3381     337.5923     364.9613     277.4372     312.7507       0.0465       3.5841       2.7905     -29.3282
   2621.0134      12.2390       0.0327      51.8262      50.5885      52.2377     283.5211    -999.2500     349.4799     266.2452     249.7827       0.0511       3.4228       2.7772     -29.2961
   2621.1658      12.2181       0.0290      52.4271    -999.2500      51.9939     280.4962    -999.2500     340.7693     259.3525     210.9628       0.0520       3.4879       2.7767     -29.1887
   2621.3184      12.3020       0.0180      53.2257    -999.2500      51.0690     278.3018    -999.2500     343.8042     260.8557     182.2966       0.0522       3.6692       2.7664     -29.5468
   2621.4707      12.5168       0.0215      53.8519    -999.2500      50.1412     279.1107     171.9364     328.1402     250.1959     175.7315       0.0528       3.7194       2.7572     -29.4685
   2621.6230      12.5823       0.0267      54.5748    -999.2500      49.0437     282.1256     260.4603     320.9046     245.1765     213.1467       0.0520       3.6917       2.7518     -29.2962
   2621.7754      12.4161       0.0342      54.6263    -999.2500      49.8567     284.3462     290.6323     321.3835     245.3592     269.6507       0.0506       3.6528       2.7547     -29.1886
   2621.9280      12.3598       0.0381      54.9242      36.9657      48.3380     285.6075     331.7288     330.3423     250.6126     314.1876       0.0490       3.6792       2.7501     -29.4682
   2622.0803      12.3833       0.0488      54.8259      41.1098      43.0524     287.6398     311.7555     330.7812     251.8989     211.5893       0.0483       3.8338       2.7525     -29.1246
   2622.2327      12.2572       0.0495      54.9479      45.7717      37.4035     287.8564     309.0359     340.2133     258.4795     109.6587       0.0519       3.8409       2.7406     -28.8430
   2622.3850      12.3451       0.0488      53.9223      46.2462      37.3619     288.9106    -999.2500     360.2832     273.4640     159.2814       0.0539       3.8578       2.7310     -28.5467
   2622.5376      12.5979       0.0477      52.8980    -999.2500      40.1877     292.0367    -999.2500     364.9709     277.0048     205.9875       0.0560       3.8346       2.7357     -28.5000
   2622.6899      13.0286       0.0495      52.4761    -999.2500      42.7736     294.3443     252.1033     377.7412     281.1657     148.4541       0.0491       3.9775       2.7459     -28.3899
   2622.8423      13.0942       0.0416      53.7056      49.8702      44.8765     294.5617     264.3234     354.5828     260.2474     154.5574       0.0430       4.1058       2.7391     -27.9838
