#------------------------------------------------------------------------------
#
#   Created by  : [OpenWorks] Log Export Utility (LEXP)
#   Created on  : 2016-05-12 18:35:20
#   Project     : CANT971
#   User        : R5K
#   Interpreter : PEP
#
#------------------------------------------------------------------------------
~VERSION INFORMATION
VERS. 2.0 : CWLS Log ASCII Standard - version 2.0
WRAP.  NO : One line per depth step
~WELL INFORMATION
#MNEMONIC   .UNIT                                           VALUE :DESCRIPTION
#------------------------------------------------------------------------------
STRT        .M                                           785.9651 :START DEPTH
STOP        .M                                          3369.6023 :STOP DEPTH
STEP        .M                                             0.1524 :STEP
NULL        .                                           -999.2500 :NULL VALUE
COMP        .                                   PEMEX EXPL & PROD :COMPANY
WELL        .                                               1021D :WELL
FLD         .                                           CANTARELL :FIELD
LOC         .                                             UNKNOWN :LOCATION
CNTY        .                                      CD. DEL CARMEN :COUNTY
STAT        .                                            CAMPECHE :STATE
CTRY        .                                              MEXICO :COUNTRY
SRVC        .                                             UNKNOWN :SERVICE COMPANY
DATE        .                                             UNKNOWN :LOG DATE
UWI         .                                         30600000913 :UNIQUE WELL ID
XCOORD      .                                       597330.910000 :SURFACE X
YCOORD      .                                      2152069.890000 :SURFACE Y
LAT         .                                           19.461891 :LATITUDE
LON         .                                          -92.072697 :LONGITUDE
ELEV        .M                                            26.5400 :SURFACE ELEV
ELEV_TYPE   .                                                  KB :ELEV TYPE
~CURVE INFORMATION
#MNEMONIC.UNIT        API CODE       : CURVE DESCRIPTION
#------------------------------------------------------------------------------
DEPTH    .M                          : Measured Depth
CALI     .inches      UNKNOWN        : CALI:registros:r1:0002:v1 
DRHO     .g/cm3       UNKNOWN        : DRHO:registros:r1:0002:v1 
DT       .us/ft       UNKNOWN        : DT:registros:r1:0002:v1 
GR-LWD   .UNKNOWN     UNKNOWN        : GR-LWD:registros:r1:0002:v1 
GR       .API         UNKNOWN        : GR:registros:r1:0002:v1 
ILD-LWD  .ohm.m       UNKNOWN        : ILD-LWD:registros:r1:0002:v1 
ILM-LWD  .UNKNOWN     UNKNOWN        : ILM-LWD:registros:r1:0002:v1 
LLD      .ohm.m       UNKNOWN        : LLD:registros:r1:0002:v1 
LLS      .ohm.m       UNKNOWN        : LLS:registros:r1:0002:v1 
MSFL     .ohm.m       UNKNOWN        : MSFL:registros:r1:0002:v1 
NPHI     .v/v_decimal UNKNOWN        : NPHI:registros:r1:0002:v1 
PEF      .UNKNOWN     UNKNOWN        : PEF:registros:r1:0002:v1 
RHOB     .g/cm3       UNKNOWN        : RHOB:registros:r1:0002:v1 
SP       .mV          UNKNOWN        : SP:registros:r1:0002:v1 
~A     DEPTH         CALI         DRHO           DT       GR-LWD           GR      ILD-LWD      ILM-LWD          LLD          LLS         MSFL         NPHI          PEF         RHOB           SP
# ...
   2955.8362      11.7802       0.0218      55.6463     129.5157      34.2917      90.4425      34.3632     388.2446     182.2774     246.5699       0.0780       4.1281       2.6915     -10.3682
   2955.9888      11.8724       0.0310      54.6758     138.5728      34.7030      86.8318      27.9223     595.5947     273.6911     273.8153       0.0663       3.7299       2.6541      -8.1564
   2956.1411      11.9199       0.0439      54.9504     127.0196      40.0324      81.4890      25.1558     566.7779     264.2326     271.6742       0.0580       3.5523       2.6633      -9.0054
   2956.2935      11.9047       0.0493      55.5287     125.8305      56.3445      79.0484      23.7439     211.1775     104.8862     275.6795       0.0544       3.6724       2.6892     -11.0924
   2956.4458      11.8677       0.0498      55.8782     121.6146      81.1780      78.8733      19.7486     114.7598      58.9582     269.4390       0.0541       3.9686       2.7193     -10.1830
   2956.5984      11.8668       0.0459      50.6335     111.6591     111.1127      80.2582      10.5203      84.6061      44.9830     182.3033       0.0595       4.1793       2.7256      -8.2279
   2956.7507      11.8644       0.0268      41.7164     110.3890     124.2540      82.1325       7.9744      74.6597      40.7879      37.3853       0.0681       4.0580       2.6964      -6.0451
   2956.9031      11.8795       0.0185      36.5184     111.8773     125.4496      85.8373       6.8371      80.2402      43.9643      39.7986       0.0825       3.9798       2.6938      -5.8171
   2957.0554      11.8834       0.0295      48.4121     111.4075     122.7108      89.5500       6.2840      82.9528      47.0798      64.3932       0.0905       3.6866       2.7330      -7.7682
   2957.2080      11.8706       0.0230      76.4922     102.2845     122.0599      92.4164       6.4738      78.1450      47.4231      84.5858       0.0902       3.7987       2.7439      -8.7991
   2957.3604      11.8427       0.0210      34.2253     121.5155     128.5488      93.9548       7.2735      76.5552      49.4191      72.8523       0.0793       3.7690       2.7531      -9.3899
   2957.5127      11.7724       0.0266      37.5246     112.5775     126.9830      93.7507      12.6897      76.3267      51.4668      51.0071       0.0726       3.9821       2.7530      -8.7948
   2957.6650      11.7484       0.0287      47.7307     100.3228     118.7791      92.4175      22.4877      57.1560      40.2961      46.7596       0.0753       4.2271       2.7524      -7.6373
   2957.8174      11.7709       0.0357      52.2656      84.8965     106.6050      89.4389      25.1417      41.3347      29.6022      42.9364       0.0881       4.2489       2.7308      -6.7359
   2957.9700      11.8667       0.0865      58.0153      58.7841      98.3980      84.9229      30.2567      28.9666      21.0742      17.4319       0.1058       3.7220       2.6951      -7.5171
   2958.1223      11.9220       0.1142      52.3673      50.4895     102.1082      82.4891      32.2687      20.1150      14.9946       5.6699       0.1261       3.4846       2.5961      -8.3597
   2958.2747      11.9221       0.1348      53.2026      40.6094     100.8943      82.8354      29.0798      18.0154      13.2648       4.7181       0.1669       3.3269       2.4821      -8.2951
   2958.4270      11.9266       0.1704      53.6133      25.1527     101.9919      82.8944     243.0922      19.8427      14.3650       4.3626       0.2183       3.4177       2.4530      -7.1035
   2958.5796      12.1914       0.1644      62.8768      22.7424     101.9641      83.1955    1216.2545      22.4084      16.1996      15.3152       0.2616       3.5705       2.4948      -4.8858
   2958.7319      12.8750       0.1381      55.2816      19.0513     107.1502      84.4063    2471.3723      27.5186      19.9204      46.8361       0.2299       3.9868       2.6239      -3.7521
   2958.8843      12.8433       0.1272      52.3147      14.9317     108.6266      86.3093    2756.2432      35.9885      25.8481      37.6345       0.1652       4.1645       2.7930      -4.6245
   2959.0366      12.4310       0.1010      58.2553      17.6531     104.6674      88.9800    3291.2280      46.6720      32.3606      26.8857       0.1072       4.1434       2.8532      -4.0116
   2959.1892      12.8444       0.0465      60.2286      20.4104      91.8907      92.3463    4122.7983      57.8737      38.5702      33.7674       0.0962       3.8470       2.7803      -2.3399
   2959.3416      11.7731       0.0407      61.7687      14.9046      70.9926      94.9861    3438.0994      63.1311      41.0065     106.1865       0.1146       3.6602       2.7354      -1.3608
   2959.4939      11.7737       0.0424      63.7145      15.5919      47.2848      98.2564    2950.2424      69.5631      43.3297     180.6181       0.1225       3.4647       2.6793      -1.8106
   2959.6462      11.7270       0.0416      64.5883      15.9846      30.1312     101.3309    3129.7566      88.8329      52.3872     142.6169       0.1323       3.4131       2.6352      -0.9206
   2959.7986      11.8931       0.0471      64.6352      18.9265      19.7947     104.1530    3527.7837     127.1305      70.1554     178.5568       0.1350       3.4431       2.6225      -0.2635
   2959.9512      11.8976       0.0593      63.6969      24.7063      14.6588     107.7343    3069.2014     238.4563     117.2776     217.2825       0.1343       3.4234       2.6298       1.0032
   2960.1035      11.7508       0.0658      63.1021      23.4863      13.3419     111.5197    2824.5879     713.3648     314.5471     224.5040       0.1301       3.4152       2.6221       2.7032
   2960.2559      11.7295       0.0612      63.8487      23.8985      13.7715     115.4380    2359.2761    2174.4243     946.5489     249.7123       0.1245       3.5114       2.6128       2.9391
   2960.4082      11.6869       0.0577      63.3747      25.7781      15.5027     119.0515    2390.0356    4653.3350    2092.0540     226.4492       0.1213       3.6878       2.6105       3.8946
   2960.5608      11.6211       0.0579      63.7805      22.8716      16.0980     121.4621    2650.2832    7155.8706    3311.2295     195.7187       0.1145       3.6491       2.6154       5.4412
   2960.7131      11.5779       0.0535      65.2759      18.9660      16.7934     122.9665    2597.0647    9062.4102    4273.7720     197.4980       0.1074       3.4461       2.6174       5.9176
   2960.8655      11.6392       0.0517      65.3110      19.4608      15.6726     124.8548    2627.6807    9206.0410    4619.8091     246.9057       0.1059       3.3737       2.6324       3.2281
   2961.0178      11.7798       0.0573      64.8131      18.6499      15.7672     127.1868    2823.7412    9084.3252    4708.4917     287.6261       0.1097       3.5023       2.6664       0.5116
   2961.1702      11.8295       0.0484      64.6461      19.4526      16.3011     127.8154    3004.9753    9172.2764    4816.0308     237.8877       0.1125       3.6922       2.6657      -0.5607
   2961.3228      11.8037       0.0263      63.5495      17.2060      17.4316     127.0235    3656.6653    9467.8633    5005.3721     212.3963       0.1083       3.6505       2.6323       0.5188
   2961.4751      11.7266       0.0110      63.3496      17.5600      17.8950     126.9201    3891.5071   12147.6006    5453.6416     214.1311       0.1012       3.6516       2.5961       2.4876
   2961.6274      11.6492       0.0114      62.8216      19.4106      17.8671     126.9198    3809.0281   15892.8828    6347.1045     264.1390       0.0976       3.6450       2.5954       3.8446
   2961.7798      11.6347       0.0174      61.7253      16.7906      18.3854     127.3917    3624.4082   17510.4883    6908.2891     251.3289       0.1023       3.7465       2.6142       4.1408
   2961.9324      11.7079       0.0266      61.5727      13.7801      18.7916     129.2437    4269.7163   16328.3477    6932.1162     233.6566       0.1064       3.6925       2.6386       4.0461
   2962.0847      11.8380       0.0320      60.7993      14.8359      18.7706     132.6509    4465.0913   16025.8838    7055.4414     232.5073       0.1049       3.5750       2.6521       3.5306
