#------------------------------------------------------------------------------
#
#   Created by  : [OpenWorks] Log Export Utility (LEXP)
#   Created on  : 2016-05-12 18:35:20
#   Project     : CANT971
#   User        : R5K
#   Interpreter : PEP
#
#------------------------------------------------------------------------------
~VERSION INFORMATION
VERS. 2.0 : CWLS Log ASCII Standard - version 2.0
WRAP.  NO : One line per depth step
~WELL INFORMATION
#MNEMONIC   .UNIT                                           VALUE :DESCRIPTION
#------------------------------------------------------------------------------
STRT        .M                                           785.9651 :START DEPTH
STOP        .M                                          3369.6023 :STOP DEPTH
STEP        .M                                             0.1524 :STEP
NULL        .                                           -999.2500 :NULL VALUE
COMP        .                                   PEMEX EXPL & PROD :COMPANY
WELL        .                                               1021D :WELL
FLD         .                                           CANTARELL :FIELD
LOC         .                                             UNKNOWN :LOCATION
CNTY        .                                      CD. DEL CARMEN :COUNTY
STAT        .                                            CAMPECHE :STATE
CTRY        .                                              MEXICO :COUNTRY
SRVC        .                                             UNKNOWN :SERVICE COMPANY
DATE        .                                             UNKNOWN :LOG DATE
UWI         .                                         30600000913 :UNIQUE WELL ID
XCOORD      .                                       597330.910000 :SURFACE X
YCOORD      .                                      2152069.890000 :SURFACE Y
LAT         .                                           19.461891 :LATITUDE
LON         .                                          -92.072697 :LONGITUDE
ELEV        .M                                            26.5400 :SURFACE ELEV
ELEV_TYPE   .                                                  KB :ELEV TYPE
~CURVE INFORMATION
#MNEMONIC.UNIT        API CODE       : CURVE DESCRIPTION
#------------------------------------------------------------------------------
DEPTH    .M                          : Measured Depth
CALI     .inches      UNKNOWN        : CALI:registros:r1:0002:v1 
DRHO     .g/cm3       UNKNOWN        : DRHO:registros:r1:0002:v1 
DT       .us/ft       UNKNOWN        : DT:registros:r1:0002:v1 
GR-LWD   .UNKNOWN     UNKNOWN        : GR-LWD:registros:r1:0002:v1 
GR       .API         UNKNOWN        : GR:registros:r1:0002:v1 
ILD-LWD  .ohm.m       UNKNOWN        : ILD-LWD:registros:r1:0002:v1 
ILM-LWD  .UNKNOWN     UNKNOWN        : ILM-LWD:registros:r1:0002:v1 
LLD      .ohm.m       UNKNOWN        : LLD:registros:r1:0002:v1 
LLS      .ohm.m       UNKNOWN        : LLS:registros:r1:0002:v1 
MSFL     .ohm.m       UNKNOWN        : MSFL:registros:r1:0002:v1 
NPHI     .v/v_decimal UNKNOWN        : NPHI:registros:r1:0002:v1 
PEF      .UNKNOWN     UNKNOWN        : PEF:registros:r1:0002:v1 
RHOB     .g/cm3       UNKNOWN        : RHOB:registros:r1:0002:v1 
SP       .mV          UNKNOWN        : SP:registros:r1:0002:v1 
~A     DEPTH         CALI         DRHO           DT       GR-LWD           GR      ILD-LWD      ILM-LWD          LLD          LLS         MSFL         NPHI          PEF         RHOB           SP
# ...
   2552.5859      15.7244       0.0907      86.4020      94.7897      82.3639       3.8888       2.8962       2.8906       2.4672       4.0214       0.2627       4.4133       2.4968      23.8734
   2552.7383      15.7764       0.0842      87.3252      97.7133      75.3362       3.9214       2.8732       2.9961       2.4531       4.1734       0.2525       4.3553       2.4653      23.0620
   2552.8906      15.6545       0.0758      86.9121      93.2766      69.2285       3.9490       2.8925       3.3372       2.4692       4.2206       0.2288       4.3031       2.4423      23.0643
   2553.0430      15.4053       0.0699      85.3868      92.2824      68.1368       3.9376       2.9127       3.2903       2.5140       4.3797       0.2271       4.3108       2.4502      23.6250
   2553.1956      15.3973       0.0761      85.7662      93.8088      66.1067       3.8986       2.8914       2.9459       2.5288       3.9416       0.2162       4.1752       2.4585      23.7350
   2553.3479      15.3597       0.0714      87.3481      94.2506      66.2344       3.8888       2.8349       3.0929       2.4687       3.9438       0.2289       4.2506       2.4243      24.1727
   2553.5002      15.6724       0.0647      88.9460      88.0377      65.4933       3.8860       2.8466       3.0055       2.3932       3.7913       0.2386       4.2993       2.4091      24.5946
   2553.6526      16.1554       0.0568      94.2832      84.3589      68.2263       3.8712       2.7986       2.9491       2.3121       3.9384       0.2523       4.3753       2.4179      24.9696
   2553.8052      16.2165       0.0528      89.0959      91.4742      72.1105       3.8475    -999.2500       2.9438       2.2802       4.3142       0.2507       4.3010       2.4491      25.4071
   2553.9575      16.1292       0.0484      88.4791      95.3832      75.1478       3.8267    -999.2500       3.1368       2.2851       4.0680       0.2343       4.2954       2.4614      25.9694
   2554.1099      15.8964       0.0282      88.6368      93.5116      77.2062       3.8205       2.5136       2.8181       2.2842       4.0129       0.2249       4.2119       2.4422      26.1870
   2554.2622      15.5095       0.0218      85.3130      88.1458      76.9824       3.8205       2.6318       2.7970       2.2688       3.9100       0.2256       4.1286       2.4419      25.8582
   2554.4148      15.2647       0.0186      88.3542      87.9884      80.7736       3.8205       2.6738       2.8789       2.3020       3.8786       0.2479       4.1444       2.4452      25.5003
   2554.5671      15.2230       0.0135      86.9446      90.3629      87.9135       3.8205       2.6849       2.9108       2.2483       3.7127       0.2588       4.2856       2.4405      25.5617
   2554.7195      15.4584       0.0133      90.0992      91.7573      86.5461       3.8205       2.6897       2.7242       2.1262       2.7237       0.2666       4.2882       2.4271      25.2190
   2554.8718      15.3476       0.0267      89.2952      87.1588      82.9843       3.8205       2.6815       2.6661       2.0793       2.3247       0.2717       4.1948       2.4281      25.1705
   2555.0242      15.6531       0.0360      87.1692      83.8239      77.3698       3.8205       2.6398       2.6913       2.0617       2.7857       0.2792       4.0866       2.4314      24.6238
   2555.1768      15.2974       0.0438      85.5012      93.5904      77.5410       3.8205    -999.2500       2.6139       2.0602       3.7999       0.2607       3.9532       2.4396      24.2028
   2555.3291      15.3464       0.0515      86.5660     105.9672      78.3023       3.8205    -999.2500       2.7802       2.0931       3.8833       0.2413       3.8485       2.4519      24.1255
   2555.4814      15.6854       0.0472      86.4743     110.8962      82.8713       3.8205       2.0985       2.7952       2.2310       3.9504       0.2491       3.9034       2.4763      24.2021
   2555.6338      15.9242       0.0456      83.1610     115.0885      89.3982       3.8205       2.3052       3.0341       2.4099       4.7699       0.2500       4.2513       2.5003      23.9538
   2555.7864      15.8474       0.0527      85.5170     122.5228      87.5386       3.8205       2.5357       2.9769       2.4171       4.7766       0.2368       4.7037       2.5095      24.1247
   2555.9387      15.8834       0.0672      84.2196     118.0390      79.9531       3.8205       2.7336       3.0305       2.3734       3.9085       0.1977       4.9631       2.4952      24.2207
   2556.0911      15.8229       0.0793      88.0946     106.3041      73.8569       3.8205       2.8833       3.0420       2.3917       3.9317       0.1939       4.8184       2.4976      24.8734
   2556.2434      15.7187       0.0933      89.1103     101.5235      73.6127       3.8379       2.9025       3.0865       2.3749       4.7427       0.2159       4.4294       2.5066      24.4228
   2556.3960      15.6799       0.0820      85.3059      93.2735      76.8510       3.8587       2.7553       3.0218       2.3137       3.4719       0.2361       4.0839       2.4964      24.8599
   2556.5483      15.7247       0.0700      87.3768      87.5465      75.7014       3.8649       2.6819       2.7401       2.2250       3.3382       0.2496       3.9368       2.4877      25.2504
   2556.7007      15.6043       0.0504      88.9308      84.3118      76.8688       3.8475       2.7409       2.7769       2.1762       3.3062       0.2538       3.9083       2.4810      25.4060
   2556.8530      15.3367       0.0456      90.6836      81.5424      72.0989       3.8095       2.7816       2.8443       2.2157       3.3851       0.2597       4.0865       2.4753      25.3756
   2557.0054      15.5479       0.0414      89.1808      91.4716      72.9991       3.8000       2.6900       2.8697       2.2715       3.9909       0.2609       4.1736       2.4551      25.4206
   2557.1580      15.6065       0.0518      87.7587      96.4761      70.3234       3.7971       2.6464       2.8603       2.2876       3.9788       0.2555       4.3780       2.4479      24.9057
   2557.3103      15.6353       0.0665      84.9933      90.7094      72.2234       3.7999       2.6850       2.9121       2.2990       3.4198       0.2487       4.3954       2.4551      24.5463
   2557.4626      15.5472       0.0744      81.8712      85.8930      72.2952       3.8143       2.7204       2.9872       2.3565       2.8386       0.2381       4.3975       2.4675      24.2810
   2557.6150      15.8368       0.0778      80.9031      86.4229      70.0096       3.8205       2.7088       2.9993       2.4775       2.9128       0.2579       4.2753       2.4710      24.1875
   2557.7676      16.3784       0.0871      81.7495      85.3369      67.9045       3.8379       2.7743       3.0716       2.5627       3.1834       0.2607       4.0749       2.4938      24.1875
   2557.9199      17.0122       0.0825      82.2294      78.0847      66.1286       3.8587       3.0504       3.1408       2.5870       3.5255       0.2721       4.0208       2.5005      24.1088
   2558.0723      16.3010       0.0731      83.8605      78.8806      66.5930       3.8649       3.2443       3.1421       2.6022       3.5407       0.2533       3.8951       2.5148      23.6859
   2558.2246      15.4051       0.0697      82.7460      84.8296      67.7223       3.8649       3.1947       3.1926       2.6306       3.8071       0.2565       4.1084       2.5383      22.9202
   2558.3772      15.3104       0.0590      80.8852      88.5282      67.0688       3.8649       3.1248       3.3064       2.7435       4.1305       0.2472       4.4049       2.5583      22.4695
   2558.5295      15.4946       0.0465      78.2080      90.8213      64.5912       3.8475       3.1352       3.5345       2.9469       4.3823       0.2344       4.6377       2.5514      22.9847
   2558.6819      15.7001       0.0360      75.6968      80.7360      61.8685       3.8267       3.1715       3.7547       3.1646       4.1711       0.2266       4.5853       2.5155      23.0305
   2558.8342      15.8575       0.0322      75.7870      72.2235      57.3456       3.8379       3.2833       3.8111       3.2792       3.7734       0.2262       4.4653       2.4706      22.7658
