#------------------------------------------------------------------------------
#
#   Created by  : [OpenWorks] Log Export Utility (LEXP)
#   Created on  : 2016-05-12 18:35:20
#   Project     : CANT971
#   User        : R5K
#   Interpreter : PEP
#
#------------------------------------------------------------------------------
~VERSION INFORMATION
VERS. 2.0 : CWLS Log ASCII Standard - version 2.0
WRAP.  NO : One line per depth step
~WELL INFORMATION
#MNEMONIC   .UNIT                                           VALUE :DESCRIPTION
#------------------------------------------------------------------------------
STRT        .M                                           785.9651 :START DEPTH
STOP        .M                                          3369.6023 :STOP DEPTH
STEP        .M                                             0.1524 :STEP
NULL        .                                           -999.2500 :NULL VALUE
COMP        .                                   PEMEX EXPL & PROD :COMPANY
WELL        .                                               1021D :WELL
FLD         .                                           CANTARELL :FIELD
LOC         .                                             UNKNOWN :LOCATION
CNTY        .                                      CD. DEL CARMEN :COUNTY
STAT        .                                            CAMPECHE :STATE
CTRY        .                                              MEXICO :COUNTRY
SRVC        .                                             UNKNOWN :SERVICE COMPANY
DATE        .                                             UNKNOWN :LOG DATE
UWI         .                                         30600000913 :UNIQUE WELL ID
XCOORD      .                                       597330.910000 :SURFACE X
YCOORD      .                                      2152069.890000 :SURFACE Y
LAT         .                                           19.461891 :LATITUDE
LON         .                                          -92.072697 :LONGITUDE
ELEV        .M                                            26.5400 :SURFACE ELEV
ELEV_TYPE   .                                                  KB :ELEV TYPE
~CURVE INFORMATION
#MNEMONIC.UNIT        API CODE       : CURVE DESCRIPTION
#------------------------------------------------------------------------------
DEPTH    .M                          : Measured Depth
CALI     .inches      UNKNOWN        : CALI:registros:r1:0002:v1 
DRHO     .g/cm3       UNKNOWN        : DRHO:registros:r1:0002:v1 
DT       .us/ft       UNKNOWN        : DT:registros:r1:0002:v1 
GR-LWD   .UNKNOWN     UNKNOWN        : GR-LWD:registros:r1:0002:v1 
GR       .API         UNKNOWN        : GR:registros:r1:0002:v1 
ILD-LWD  .ohm.m       UNKNOWN        : ILD-LWD:registros:r1:0002:v1 
ILM-LWD  .UNKNOWN     UNKNOWN        : ILM-LWD:registros:r1:0002:v1 
LLD      .ohm.m       UNKNOWN        : LLD:registros:r1:0002:v1 
LLS      .ohm.m       UNKNOWN        : LLS:registros:r1:0002:v1 
MSFL     .ohm.m       UNKNOWN        : MSFL:registros:r1:0002:v1 
NPHI     .v/v_decimal UNKNOWN        : NPHI:registros:r1:0002:v1 
PEF      .UNKNOWN     UNKNOWN        : PEF:registros:r1:0002:v1 
RHOB     .g/cm3       UNKNOWN        : RHOB:registros:r1:0002:v1 
SP       .mV          UNKNOWN        : SP:registros:r1:0002:v1 
~A     DEPTH         CALI         DRHO           DT       GR-LWD           GR      ILD-LWD      ILM-LWD          LLD          LLS         MSFL         NPHI          PEF         RHOB           SP
# ...
   3160.6619      12.6963       0.0189      58.5832      28.5831      45.7398      85.1663      85.6062      69.1415      46.8763      99.0473       0.0745       3.5581       2.7267      -6.9081
   3160.8142      12.6932       0.0255      56.6839      29.2447      46.5254      84.6430      84.1269      72.8583      49.4977      72.8050       0.0764       3.5540       2.7252      -7.6887
   3160.9668      12.7710       0.0349      55.4230      31.1000      45.3913      82.8169      83.7441      79.7534      54.0836      95.8293       0.0699       3.5144       2.7489      -7.9836
   3161.1191      12.7837       0.0524      54.4449      35.3671      42.5818      81.8246      84.6288      87.0969      59.0966     143.5430       0.0618       3.7199       2.7833      -7.5456
   3161.2715      12.7477       0.0605      52.1172      34.9363      41.9450      80.1863      90.5585      94.4110      64.3014     137.4317       0.0554       3.8309       2.7898      -6.8273
   3161.4238      12.7725       0.0475      49.3262      33.3204      44.3757      79.2738      87.2807     101.1305      68.9389     104.8044       0.0516       4.1231       2.7738      -6.6420
   3161.5762      12.6627       0.0408      49.5484      31.7152      44.3792      78.5927      98.4507     108.7531      74.1445     155.8847       0.0493       3.9734       2.7903      -7.2675
   3161.7288      12.5015       0.0389      49.3274      33.8061      41.9028      78.8092     110.0420     118.0349      80.3934     326.2527       0.0452       3.7064       2.8243      -7.8278
   3161.8811      12.5756       0.0312      50.0504      47.9090      36.0717      79.4950      95.3440     126.1071      86.0019     555.5454       0.0391       3.5431       2.8549      -7.5301
   3162.0334      12.6672       0.0169      50.3892      35.9026      33.6429      79.5021      88.9334     129.9016      88.9412     428.8888       0.0283       3.4887       2.8510      -6.6368
   3162.1858      12.8077       0.0146      50.9626      36.0050      32.2820      79.7224      71.7057     130.6551      90.0236     373.5340       0.0246       3.5694       2.8387      -5.3434
   3162.3384      12.8097       0.0175      51.2530      39.5257      33.2568      80.4166      86.1290     127.3783      88.2795     327.2129       0.0243       3.5819       2.8245      -5.4868
   3162.4907      12.4607       0.0255      51.8735      36.4075      34.5044      80.4223      99.7336     127.4152      88.5303     208.6761       0.0302       3.6813       2.8258      -6.3763
   3162.6431      12.3701       0.0285      51.7269      35.9948      35.1164      80.6457      95.1448     133.8689      92.7108     152.4655       0.0370       3.7696       2.8234      -7.0636
   3162.7954      12.4331       0.0323      52.7282      27.2246      35.7529      81.3472     100.7126     139.5954      96.3814     196.5553       0.0460       3.6739       2.8260      -7.4848
   3162.9480      12.5278       0.0339      53.4724      40.7507      36.6828      81.3437     126.1700     140.6970      97.0105     352.5509       0.0480       3.7450       2.8148      -7.4988
   3163.1003      12.5684       0.0307      52.6230      47.6654      37.5256      81.1773     129.8827     133.7419      92.4152     319.6001       0.0496       3.6080       2.8064      -6.8419
   3163.2527      12.5305       0.0284      51.8984      44.4069      39.7017      80.8154     112.2393     124.2180      85.8586     146.3681       0.0510       3.7119       2.7892      -5.9685
   3163.4050      12.4591       0.0333      51.3883      45.1860      40.0948      81.3528     132.9049     121.0903      83.1278     138.7353       0.0587       3.7197       2.7976      -6.3324
   3163.5574      12.3381       0.0373      51.5615      39.9534      40.4025      81.5847     174.6345     122.5385      83.4755     161.0605       0.0602       3.8626       2.8122      -8.0029
   3163.7100      12.2825       0.0355      51.3758      44.5996      38.0374      82.5242     164.6875     131.7096      88.7753     177.1141       0.0568       3.9090       2.8302      -8.8275
   3163.8623      12.2766       0.0432      51.5496      48.3538      38.4700      83.2416     143.5909     143.1790      96.0518     204.0991       0.0470       3.7661       2.8449      -8.4843
   3164.0146      12.3390       0.0412      51.2991      41.5349      40.6682      83.2471     138.2991     150.1286     100.8399     188.3979       0.0399       3.7281       2.8269      -8.4690
   3164.1670      12.4151       0.0411      50.4695      44.9150      45.9086      83.4818     106.7445     157.2898     105.6261     147.4430       0.0335       3.7423       2.8093      -8.3415
   3164.3196      12.4261       0.0369      48.8747      50.3687      50.4184      84.2109      80.2932     173.5486     116.0908     120.7085       0.0317       3.9120       2.7951      -7.5770
   3164.4719      12.3605       0.0476      48.4965      56.2295      51.0514      84.4476      67.2440     188.4735     125.8314     165.6117       0.0314       3.9877       2.8145      -7.5332
   3164.6243      12.2441       0.0496      47.7765      61.9106      47.8572      85.1808      43.8047     203.6501     135.9351     329.4486       0.0327       3.9009       2.8283      -8.3592
   3164.7766      12.1398       0.0496      48.4767      62.1504      42.5661      85.1817      44.1567     226.9424     150.8155     525.1437       0.0321       3.9694       2.8363      -8.1547
   3164.9292      12.1338       0.0519      49.3919      60.3251      39.6351      85.1857      44.1583     235.5349     156.1051     420.8676       0.0323       3.8600       2.8445      -7.3246
   3165.0815      12.1748       0.0582      51.2705      57.6305      38.0150      85.4229      44.2438     211.2594     140.6598     466.8099       0.0353       3.8428       2.8418      -5.8097
   3165.2339      12.2159       0.0501      53.9040      53.5254      38.9914      85.9223      44.6643     178.4142     118.0822     419.4182       0.0392       3.7153       2.8222      -4.7677
   3165.3862      12.2309       0.0486      55.6271      52.6003      42.0951      85.1824      44.8687     152.8777     101.0890     248.1407       0.0442       3.9198       2.7982      -6.0041
   3165.5386      12.2772       0.0506      56.3505      51.9155      49.4105      85.1817      43.2973     103.3413      69.4593     116.6141       0.0509       4.0708       2.7788      -7.2494
   3165.6912      12.2660       0.0493      56.4495      58.1005      60.7761      85.1817      40.4041      76.5631      51.2058      73.3448       0.0606       4.3200       2.7421      -6.9368
   3165.8435      12.2289       0.0516      55.4941      57.9553      71.0740      84.9482      35.1032      67.8416      44.3886      27.8719       0.0705       4.1950       2.7151      -6.2792
   3165.9958      12.2212       0.0622      53.2766      61.4413      71.8112      84.4416      33.2124      62.3094      40.2772      25.9902       0.0785       3.9955       2.7200      -5.0119
   3166.1482      12.1976       0.0626      53.5474      46.5040      64.8196      85.1812      38.7165      66.1626      41.5960      56.8122       0.0863       3.8029       2.7402      -3.7974
   3166.3008      12.2019       0.0656      52.4711      45.2152      55.3161      85.1817      35.3202      71.2643      44.1931      80.8718       0.0848       3.9369       2.7874      -4.0164
   3166.4531      12.2081       0.0656      51.4621      42.5339      48.5364      85.1817      30.6555      72.3568      45.1203      78.1504       0.0730       4.2724       2.8221      -4.1399
   3166.6055      12.2360       0.0619      51.3878      54.1804      43.7344      85.1817      29.9389      72.4697      45.8081      79.8595       0.0566       4.1824       2.8396      -3.6234
   3166.7578      12.2710       0.0482      51.7272      57.7984      41.9052      85.1817      30.9100      73.2248      46.3834      82.3069       0.0458       3.9339       2.8199      -2.9678
   3166.9104      12.2754       0.0468      52.6023      57.7448      42.3707      85.1817      33.7910      72.4421      45.7051      84.6111       0.0450       3.9741       2.8189      -2.3562
