#------------------------------------------------------------------------------
#
#   Created by  : [OpenWorks] Log Export Utility (LEXP)
#   Created on  : 2016-05-24 12:12:04
#   Project     : CANT971
#   User        : R5K
#   Interpreter : PEP
#
#------------------------------------------------------------------------------
~VERSION INFORMATION
VERS. 2.0 : CWLS Log ASCII Standard - version 2.0
WRAP.  NO : One line per depth step
~WELL INFORMATION
#MNEMONIC   .UNIT                                           VALUE :DESCRIPTION
#------------------------------------------------------------------------------
STRT        .M                                          1605.0770 :START DEPTH
STOP        .M                                          2483.6631 :STOP DEPTH
STEP        .M                                             0.1524 :STEP
NULL        .                                           -999.2500 :NULL VALUE
COMP        .                                   PEMEX EXPL & PROD :COMPANY
WELL        .                                                1023 :WELL
FLD         .                                           CANTARELL :FIELD
LOC         .                                             UNKNOWN :LOCATION
CNTY        .                                      CD. DEL CARMEN :COUNTY
STAT        .                                            CAMPECHE :STATE
CTRY        .                                              MEXICO :COUNTRY
SRVC        .                                             UNKNOWN :SERVICE COMPANY
DATE        .                                             UNKNOWN :LOG DATE
UWI         .                                          3060000489 :UNIQUE WELL ID
XCOORD      .                                       598527.650000 :SURFACE X
YCOORD      .                                      2152011.600000 :SURFACE Y
LAT         .                                           19.461305 :LATITUDE
LON         .                                          -92.061299 :LONGITUDE
ELEV        .M                                            27.9700 :SURFACE ELEV
ELEV_TYPE   .                                                  KB :ELEV TYPE
~CURVE INFORMATION
#MNEMONIC.UNIT        API CODE       : CURVE DESCRIPTION
#------------------------------------------------------------------------------
DEPTH    .M                          : Measured Depth
CALI     .inches      UNKNOWN        : CALI:registros:rC:NONE:v0 (auto-composite)
DRHO     .g/cm3       UNKNOWN        : DRHO:registros:rC:NONE:v0 (auto-composite)
DT       .us/ft       UNKNOWN        : DT:registros:rC:NONE:v0 (auto-composite)
GR       .API         UNKNOWN        : GR:registros:rC:NONE:v0 (auto-composite)
ILD      .ohm.m       UNKNOWN        : ILD:registros:rC:NONE:v0 (auto-composite)
ILM      .ohm.m       UNKNOWN        : ILM:registros:rC:NONE:v0 (auto-composite)
LLD      .ohm.m       UNKNOWN        : LLD:registros:rC:NONE:v0 (auto-composite)
LLS      .ohm.m       UNKNOWN        : LLS:registros:rC:NONE:v0 (auto-composite)
MSFL     .ohm.m       UNKNOWN        : MSFL:registros:rC:NONE:v0 (auto-composite)
NPHI     .UNKNOWN     UNKNOWN        : NPHI:registros:rC:NONE:v0 (auto-composite)
PEF      .UNKNOWN     UNKNOWN        : PEF:registros:rC:NONE:v0 (auto-composite)
RHOB     .g/cm3       UNKNOWN        : RHOB:registros:rC:NONE:v0 (auto-composite)
SP       .mV          UNKNOWN        : SP:registros:rC:NONE:v0 (auto-composite)
~A     DEPTH         CALI         DRHO           DT           GR          ILD          ILM          LLD          LLS         MSFL         NPHI          PEF         RHOB           SP
# ...
   2362.8098       9.5940       0.0430      92.2500      71.3900    -999.2500    -999.2500       3.1950       2.5970       4.0350       0.2086       3.8760       2.5320       6.7990
   2362.9622       9.6426       0.0425      91.8063      68.9382    -999.2500    -999.2500       3.2682       2.6321       4.7746       0.2084       4.1282       2.5315       6.6787
   2363.1147       9.6910       0.0420      91.3650      66.5000    -999.2500    -999.2500       3.3410       2.6670       5.5100       0.2061       4.3790       2.5310       6.5590
   2363.2671       9.6900       0.0400      90.1307      67.1438    -999.2500    -999.2500       3.7129       2.8087       5.2929       0.1934       4.3775       2.5290       6.5590
   2363.4194       9.6890       0.0380      88.9090      67.7810    -999.2500    -999.2500       4.0810       2.9490       5.0780       0.1805       4.3760       2.5270       6.5590
   2363.5718       9.6584       0.0305      88.4675      67.6766    -999.2500    -999.2500       4.0790       3.1356       5.0885       0.1777       4.3193       2.5245       6.5640
   2363.7241       9.6280       0.0230      88.0290      67.5730    -999.2500    -999.2500       4.0770       3.3210       5.0990       0.1804       4.2630       2.5220       6.5690
   2363.8767       9.6185       0.0205      87.4510      63.9675    -999.2500    -999.2500       4.0074       3.3506       5.4777       0.1904       4.0105       2.5175       6.7518
   2364.0291       9.6090       0.0180      86.8750      60.3750    -999.2500    -999.2500       3.9380       3.3800       5.8550       0.1993       3.7590       2.5130       6.9340
   2364.1814       9.6055       0.0175      87.0382      59.5280    -999.2500    -999.2500       3.8662       3.3132       5.0637       0.1980       3.9046       2.5160       6.9340
   2364.3337       9.6020       0.0170      87.2000      58.6880    -999.2500    -999.2500       3.7950       3.2470       4.2790       0.1930       4.0490       2.5190       6.9340
   2364.4863       9.6302       0.0200      87.9352      60.1655    -999.2500    -999.2500       3.6788       3.1781       4.6318       0.1874       4.2025       2.5150       7.1725
   2364.6387       9.6580       0.0230      88.6610      61.6240    -999.2500    -999.2500       3.5640       3.1100       4.9800       0.1849       4.3540       2.5110       7.4080
   2364.7910       9.7414       0.0356      89.6794      64.2305    -999.2500    -999.2500       3.4977       2.9985       4.5454       0.1921       4.3515       2.5015       7.3969
   2364.9434       9.8240       0.0480      90.6880      66.8120    -999.2500    -999.2500       3.4320       2.8880       4.1150       0.2052       4.3490       2.4920       7.3860
   2365.0959       9.8190       0.0646      90.5782      66.1695    -999.2500    -999.2500       3.2013       2.7756       4.1687       0.2267       4.1830       2.4388       7.3098
   2365.2483       9.8140       0.0810      90.4690      65.5310    -999.2500    -999.2500       2.9720       2.6640       4.2220       0.2459       4.0180       2.3860       7.2340
   2365.4006       9.7920       0.1346      91.8156      66.7057    -999.2500    -999.2500       2.9735       2.5367       3.6798       0.2504       4.2390       2.3885       6.6261
   2365.5530       9.7700       0.1880      93.1560      67.8750    -999.2500    -999.2500       2.9750       2.4100       3.1400       0.2490       4.4590       2.3910       6.0210
   2365.7053       9.7410       0.1875      93.1310      67.6637    -999.2500    -999.2500       2.9970       2.4140       3.1590       0.2443       4.4435       2.4276       6.0330
   2365.8579       9.7120       0.1870      93.1060      67.4530    -999.2500    -999.2500       3.0190       2.4180       3.1780       0.2361       4.4280       2.4640       6.0450
   2366.0103       9.6939       0.1750      92.7239      64.2169    -999.2500    -999.2500       3.0220       2.4827       3.4984       0.2204       4.1873       2.4866       6.2250
   2366.1626       9.6760       0.1630      92.3440      61.0000    -999.2500    -999.2500       3.0250       2.5470       3.8170       0.2035       3.9480       2.5090       6.4040
   2366.3149       9.6474       0.1414      91.5459      60.3591    -999.2500    -999.2500       3.2837       2.7203       3.8964       0.1906       4.1077       2.5507       6.6265
   2366.4675       9.6190       0.1200      90.7550      59.7240    -999.2500    -999.2500       3.5400       2.8920       3.9750       0.1800       4.2660       2.5920       6.8470
   2366.6199       9.5969       0.0844      89.8131      57.7749    -999.2500    -999.2500       3.7899       3.1550       4.3995       0.1726       4.1902       2.5779       7.2776
   2366.7722       9.5750       0.0490      88.8780      55.8400    -999.2500    -999.2500       4.0380       3.4160       4.8210       0.1665       4.1150       2.5640       7.7050
   2366.9246       9.5605       0.0400      87.2244      54.8513    -999.2500    -999.2500       4.1819       3.5504       5.0607       0.1615       4.1225       2.5680       7.7952
   2367.0771       9.5460       0.0310      85.5800      53.8680    -999.2500    -999.2500       4.3250       3.6840       5.2990       0.1579       4.1300       2.5720       7.8850
   2367.2295       9.5395       0.0255      84.4868      51.9909    -999.2500    -999.2500       4.4336       3.7321       5.6219       0.1575       4.2056       2.5700       8.0342
   2367.3818       9.5330       0.0200      83.3960      50.1180    -999.2500    -999.2500       4.5420       3.7800       5.9440       0.1586       4.2810       2.5680       8.1830
   2367.5342       9.5285       0.0180      83.1238      48.2415    -999.2500    -999.2500       4.5229       3.7935       6.0789       0.1608       4.3136       2.5600       8.4517
   2367.6865       9.5240       0.0160      82.8530      46.3750    -999.2500    -999.2500       4.5040       3.8070       6.2130       0.1598       4.3460       2.5520       8.7190
   2367.8391       9.4768       0.0195      82.5214      46.8458    -999.2500    -999.2500       5.1110       4.3557       6.8507       0.1485       4.5224       2.5706       8.8210
   2367.9915       9.4300       0.0230      82.1930      47.3120    -999.2500    -999.2500       5.7120       4.8990       7.4820       0.1371       4.6970       2.5890       8.9220
   2368.1438       9.4305       0.0205      81.2627      46.8571    -999.2500    -999.2500       5.7080       4.8965       7.4679       0.1352       4.6814       2.5870       8.7965
   2368.2961       9.4310       0.0180      80.3400      46.4060    -999.2500    -999.2500       5.7040       4.8940       7.4540       0.1394       4.6660       2.5850       8.6720
   2368.4487       9.4380       0.0205      79.1516      47.0877    -999.2500    -999.2500       5.6589       4.8694       7.3056       0.1514       4.4966       2.5655       8.6073
   2368.6011       9.4450       0.0230      77.9690      47.7660    -999.2500    -999.2500       5.6140       4.8450       7.1580       0.1658       4.3280       2.5460       8.5430
   2368.7534       9.4625       0.0295      79.6328      51.2838    -999.2500    -999.2500       4.8729       4.2740       6.8558       0.1791       4.3315       2.5385       8.5505
   2368.9058       9.4800       0.0360      81.2940      54.7960    -999.2500    -999.2500       4.1330       3.7040       6.5540       0.1913       4.3350       2.5310       8.5580
   2369.0581       9.4735       0.0536      83.3715      57.6881    -999.2500    -999.2500       3.8461       3.3930       5.7334       0.2017       4.4403       2.5385       8.6739
   2369.2107       9.4670       0.0710      85.4360      60.5620    -999.2500    -999.2500       3.5610       3.0840       4.9180       0.2075       4.5450       2.5460       8.7890
   2369.3630       9.4549       0.0881      86.0222      62.4397    -999.2500    -999.2500       3.4645       3.1292       4.5952       0.2022       4.3233       2.5364       8.7443
