#------------------------------------------------------------------------------
#
#   Created by  : [OpenWorks] Log Export Utility (LEXP)
#   Created on  : 2016-05-24 12:12:04
#   Project     : CANT971
#   User        : R5K
#   Interpreter : PEP
#
#------------------------------------------------------------------------------
~VERSION INFORMATION
VERS. 2.0 : CWLS Log ASCII Standard - version 2.0
WRAP.  NO : One line per depth step
~WELL INFORMATION
#MNEMONIC   .UNIT                                           VALUE :DESCRIPTION
#------------------------------------------------------------------------------
STRT        .M                                          1605.0770 :START DEPTH
STOP        .M                                          2483.6631 :STOP DEPTH
STEP        .M                                             0.1524 :STEP
NULL        .                                           -999.2500 :NULL VALUE
COMP        .                                   PEMEX EXPL & PROD :COMPANY
WELL        .                                                1023 :WELL
FLD         .                                           CANTARELL :FIELD
LOC         .                                             UNKNOWN :LOCATION
CNTY        .                                      CD. DEL CARMEN :COUNTY
STAT        .                                            CAMPECHE :STATE
CTRY        .                                              MEXICO :COUNTRY
SRVC        .                                             UNKNOWN :SERVICE COMPANY
DATE        .                                             UNKNOWN :LOG DATE
UWI         .                                          3060000489 :UNIQUE WELL ID
XCOORD      .                                       598527.650000 :SURFACE X
YCOORD      .                                      2152011.600000 :SURFACE Y
LAT         .                                           19.461305 :LATITUDE
LON         .                                          -92.061299 :LONGITUDE
ELEV        .M                                            27.9700 :SURFACE ELEV
ELEV_TYPE   .                                                  KB :ELEV TYPE
~CURVE INFORMATION
#MNEMONIC.UNIT        API CODE       : CURVE DESCRIPTION
#------------------------------------------------------------------------------
DEPTH    .M                          : Measured Depth
CALI     .inches      UNKNOWN        : CALI:registros:rC:NONE:v0 (auto-composite)
DRHO     .g/cm3       UNKNOWN        : DRHO:registros:rC:NONE:v0 (auto-composite)
DT       .us/ft       UNKNOWN        : DT:registros:rC:NONE:v0 (auto-composite)
GR       .API         UNKNOWN        : GR:registros:rC:NONE:v0 (auto-composite)
ILD      .ohm.m       UNKNOWN        : ILD:registros:rC:NONE:v0 (auto-composite)
ILM      .ohm.m       UNKNOWN        : ILM:registros:rC:NONE:v0 (auto-composite)
LLD      .ohm.m       UNKNOWN        : LLD:registros:rC:NONE:v0 (auto-composite)
LLS      .ohm.m       UNKNOWN        : LLS:registros:rC:NONE:v0 (auto-composite)
MSFL     .ohm.m       UNKNOWN        : MSFL:registros:rC:NONE:v0 (auto-composite)
NPHI     .UNKNOWN     UNKNOWN        : NPHI:registros:rC:NONE:v0 (auto-composite)
PEF      .UNKNOWN     UNKNOWN        : PEF:registros:rC:NONE:v0 (auto-composite)
RHOB     .g/cm3       UNKNOWN        : RHOB:registros:rC:NONE:v0 (auto-composite)
SP       .mV          UNKNOWN        : SP:registros:rC:NONE:v0 (auto-composite)
~A     DEPTH         CALI         DRHO           DT           GR          ILD          ILM          LLD          LLS         MSFL         NPHI          PEF         RHOB           SP
# ...
   2463.3938       8.2810       0.0090      55.6780      59.4380    -999.2500    -999.2500    1124.2729     745.4840    1214.3929       0.0491       3.2090       2.7030     -42.2030
   2463.5461       8.2810       0.0085      54.8837      59.4380    -999.2500    -999.2500    1114.3007     750.6505    1082.0330       0.0503       3.1844       2.6910     -42.2030
   2463.6987       8.2810       0.0080      54.0940      59.4380    -999.2500    -999.2500    1104.3860     755.7870     950.4380       0.0514       3.1600       2.6790     -42.2030
   2463.8511       8.2880       0.0055      54.4393      59.4380    -999.2500    -999.2500    1146.1954     764.0560     620.5659       0.0518       3.1520       2.6885     -42.2100
   2464.0034       8.2950       0.0030      54.7810      59.4380    -999.2500    -999.2500    1187.5699     772.2390     294.1250       0.0516       3.1440       2.6980     -42.2170
   2464.1558       8.3402       0.0020      54.6872      59.4380    -999.2500    -999.2500    1535.3792     900.8905     998.8130       0.0504       3.1284       2.6834     -42.2255
   2464.3081       8.3850       0.0010      54.5940      59.4380    -999.2500    -999.2500    1880.7200    1028.6290    1698.5000       0.0490       3.1130       2.6690     -42.2340
   2464.4607       8.3945       0.0030      56.9264      59.4380    -999.2500    -999.2500    1617.6487     882.4894     943.1147       0.0476       3.1280       2.6760     -42.2265
   2464.6130       8.4040       0.0050      59.2500      59.4380    -999.2500    -999.2500    1355.5750     736.9040     190.5940       0.0462       3.1430       2.6830     -42.2190
   2464.7654       8.4065       0.0150      58.7439      59.4380    -999.2500    -999.2500    1232.7192     665.3666     217.8183       0.0448       3.1711       2.7337     -42.2265
   2464.9177       8.4090       0.0250      58.2420      59.4380    -999.2500    -999.2500    1110.9041     594.4350     244.8120       0.0438       3.1990       2.7840     -42.2340
   2465.0703       8.4518       0.0507      55.0059      59.4380    -999.2500    -999.2500    1080.7576     569.1352     225.0755       0.0438       3.1311       2.6924     -42.2340
   2465.2227       8.4940       0.0760      51.8120      59.4380    -999.2500    -999.2500    1051.0050     544.1660     205.5970       0.0442       3.0640       2.6020     -42.2340
   2465.3750       8.5257       0.1222      54.6544      59.4380    -999.2500    -999.2500    1064.6331     544.5971     120.5510       0.0444       3.0339       2.5236     -42.2255
   2465.5273       8.5570       0.1680      57.4690      59.4380    -999.2500    -999.2500    1078.1281     545.0240      36.3360       0.0441       3.0040       2.4460     -42.2170
   2465.6799       8.6172       0.1650      57.4003      59.4380    -999.2500    -999.2500    1079.7101     546.3127      39.1767       0.0421       3.0326       2.5413     -42.2095
   2465.8323       8.6770       0.1620      57.3320      59.4380    -999.2500    -999.2500    1081.2820     547.5930      41.9990       0.0397       3.0610       2.6360     -42.2020
   2465.9846       8.8309       0.1264      56.6018      59.4380    -999.2500    -999.2500    1081.4429     548.2426     119.3557       0.0375       2.9507       2.6405     -42.1950
   2466.1370       8.9840       0.0910      55.8750      59.4380    -999.2500    -999.2500    1081.6030     548.8890     196.3440       0.0365       2.8410       2.6450     -42.1880
   2466.2893       8.8253       0.0585      55.4659      59.4380    -999.2500    -999.2500    1081.9540     548.6376     141.1355       0.0387       2.6833       2.5043     -42.2025
   2466.4419       8.6670       0.0260      55.0580      59.4380    -999.2500    -999.2500    1082.3040     548.3870      86.0950       0.0415       2.5260       2.3640     -42.2170
   2466.5942       8.6454       0.0315      54.9978      59.4380    -999.2500    -999.2500    1081.6008     548.3103      52.5699       0.0426       2.7010       2.4202     -42.2255
   2466.7466       8.6240       0.0370      54.9380      59.4380    -999.2500    -999.2500    1080.9020     548.2340      19.2500       0.0434       2.8750       2.4760     -42.2340
   2466.8989       8.4889       0.0290      55.0319      59.4380    -999.2500    -999.2500    1081.3164     548.0944      46.1301       0.0454       2.9468       2.5569     -42.2280
   2467.0515       8.3550       0.0210      55.1250      59.4380    -999.2500    -999.2500    1081.7271     547.9560      72.7640       0.0471       3.0180       2.6370     -42.2220
   2467.2039       8.3610       0.0220      55.0588      59.4380    -999.2500    -999.2500    1082.9395     547.5329     105.4582       0.0472       2.9457       2.6646     -42.2205
   2467.3562       8.3670       0.0230      54.9930      59.4380    -999.2500    -999.2500    1084.1429     547.1130     137.9090       0.0468       2.8740       2.6920     -42.2190
   2467.5085       8.3454       0.0380      54.5227      59.4380    -999.2500    -999.2500    1082.6501     546.3508      78.2952       0.0471       3.0375       2.6273     -42.2110
   2467.6611       8.3240       0.0530      54.0550      59.4380    -999.2500    -999.2500    1081.1660     545.5930      19.0230       0.0476       3.2000       2.5630     -42.2030
   2467.8135       8.3435       0.0435      53.1669      59.4380    -999.2500    -999.2500    1081.5599     545.6566     110.8959       0.0484       3.4944       2.6446     -42.2185
   2467.9658       8.3630       0.0340      52.2810      59.4380    -999.2500    -999.2500    1081.9530     545.7200     202.5470       0.0491       3.7880       2.7260     -42.2340
   2468.1182       8.3114       0.0345      52.2870      59.4380    -999.2500    -999.2500    1079.9159     546.2098     199.8230       0.0492       3.7810       2.7255     -42.2340
   2468.2705       8.2600       0.0350      52.2930      59.4380    -999.2500    -999.2500    1077.8900     546.6970     197.1140       0.0487       3.7740       2.7250     -42.2340
   2468.4231       8.2002       0.0536      52.4126      59.4380    -999.2500    -999.2500    1077.3840     547.5066     154.2933       0.0471       3.6293       2.7215     -42.2340
   2468.5754       8.1410       0.0720      52.5310      59.4380    -999.2500    -999.2500    1076.8831     548.3080     111.9060       0.0456       3.4860       2.7180     -42.2340
   2468.7278       8.0792       0.1066      52.5310      59.4380    -999.2500    -999.2500    1068.2603     549.8179     444.3512       0.0455       3.4463       2.7306     -42.2501
   2468.8801       8.0180       0.1410      52.5310      59.4380    -999.2500    -999.2500    1059.7100     551.3150     774.0000       0.0460       3.4070       2.7430     -42.2660
   2469.0327       7.9639       0.1585      52.4999      59.4380    -999.2500    -999.2500   16022.4443     324.3786     484.0865       0.0466       3.3564       2.7340     -42.2580
   2469.1851       7.9100       0.1760      52.4690      59.4380    -999.2500    -999.2500   30908.8418      98.6000     195.6520       0.0472       3.3060       2.7250     -42.2500
   2469.3374       7.8845       0.1875      52.4690      59.4380    -999.2500    -999.2500   46547.5820      98.6000     130.7119       0.0477       3.2555       2.7250     -42.2685
   2469.4897       7.8590       0.1990      52.4690      59.4380    -999.2500    -999.2500   62158.3398      98.6000      65.8880       0.0480       3.2050       2.7250     -42.2870
   2469.6423       7.8590       0.2070      52.4374      59.4380    -999.2500    -999.2500   62158.3398      98.6000      47.6952       0.0481       3.3525       2.7275     -42.2995
   2469.7947       7.8590       0.2150      52.4060      59.4380    -999.2500    -999.2500   62158.3398      98.6000      29.6200       0.0481       3.4990       2.7300     -42.3120
   2469.9470       7.8590       0.2225      52.4557      59.4380    -999.2500    -999.2500   62158.3398      98.6000      26.8202       0.0481       3.3824       2.7365     -42.3281
