#------------------------------------------------------------------------------
#
#   Created by  : [OpenWorks] Log Export Utility (LEXP)
#   Created on  : 2016-05-24 12:12:04
#   Project     : CANT971
#   User        : R5K
#   Interpreter : PEP
#
#------------------------------------------------------------------------------
~VERSION INFORMATION
VERS. 2.0 : CWLS Log ASCII Standard - version 2.0
WRAP.  NO : One line per depth step
~WELL INFORMATION
#MNEMONIC   .UNIT                                           VALUE :DESCRIPTION
#------------------------------------------------------------------------------
STRT        .M                                          1605.0770 :START DEPTH
STOP        .M                                          2483.6631 :STOP DEPTH
STEP        .M                                             0.1524 :STEP
NULL        .                                           -999.2500 :NULL VALUE
COMP        .                                   PEMEX EXPL & PROD :COMPANY
WELL        .                                                1023 :WELL
FLD         .                                           CANTARELL :FIELD
LOC         .                                             UNKNOWN :LOCATION
CNTY        .                                      CD. DEL CARMEN :COUNTY
STAT        .                                            CAMPECHE :STATE
CTRY        .                                              MEXICO :COUNTRY
SRVC        .                                             UNKNOWN :SERVICE COMPANY
DATE        .                                             UNKNOWN :LOG DATE
UWI         .                                          3060000489 :UNIQUE WELL ID
XCOORD      .                                       598527.650000 :SURFACE X
YCOORD      .                                      2152011.600000 :SURFACE Y
LAT         .                                           19.461305 :LATITUDE
LON         .                                          -92.061299 :LONGITUDE
ELEV        .M                                            27.9700 :SURFACE ELEV
ELEV_TYPE   .                                                  KB :ELEV TYPE
~CURVE INFORMATION
#MNEMONIC.UNIT        API CODE       : CURVE DESCRIPTION
#------------------------------------------------------------------------------
DEPTH    .M                          : Measured Depth
CALI     .inches      UNKNOWN        : CALI:registros:rC:NONE:v0 (auto-composite)
DRHO     .g/cm3       UNKNOWN        : DRHO:registros:rC:NONE:v0 (auto-composite)
DT       .us/ft       UNKNOWN        : DT:registros:rC:NONE:v0 (auto-composite)
GR       .API         UNKNOWN        : GR:registros:rC:NONE:v0 (auto-composite)
ILD      .ohm.m       UNKNOWN        : ILD:registros:rC:NONE:v0 (auto-composite)
ILM      .ohm.m       UNKNOWN        : ILM:registros:rC:NONE:v0 (auto-composite)
LLD      .ohm.m       UNKNOWN        : LLD:registros:rC:NONE:v0 (auto-composite)
LLS      .ohm.m       UNKNOWN        : LLS:registros:rC:NONE:v0 (auto-composite)
MSFL     .ohm.m       UNKNOWN        : MSFL:registros:rC:NONE:v0 (auto-composite)
NPHI     .UNKNOWN     UNKNOWN        : NPHI:registros:rC:NONE:v0 (auto-composite)
PEF      .UNKNOWN     UNKNOWN        : PEF:registros:rC:NONE:v0 (auto-composite)
RHOB     .g/cm3       UNKNOWN        : RHOB:registros:rC:NONE:v0 (auto-composite)
SP       .mV          UNKNOWN        : SP:registros:rC:NONE:v0 (auto-composite)
~A     DEPTH         CALI         DRHO           DT           GR          ILD          ILM          LLD          LLS         MSFL         NPHI          PEF         RHOB           SP
# ...
   2349.3987       8.8590       0.0530      98.3750      59.2030    -999.2500    -999.2500       2.7300       2.0700       3.2040       0.2568       3.7550       2.4560      11.6760
   2349.5510       8.8494       0.0460      98.3484      61.9763    -999.2500    -999.2500       2.6727       2.0182       2.9808       0.2507       3.6595       2.4605      11.7720
   2349.7034       8.8400       0.0390      98.3220      64.7190    -999.2500    -999.2500       2.6160       1.9670       2.7600       0.2432       3.5650       2.4650      11.8670
   2349.8557       8.8008       0.0450      97.7814      62.0647    -999.2500    -999.2500       2.5713       1.9294       3.1415       0.2299       3.5334       2.4655      12.0447
   2350.0083       8.7620       0.0510      97.2450      59.4310    -999.2500    -999.2500       2.5270       1.8920       3.5200       0.2145       3.5020       2.4660      12.2210
   2350.1606       8.6658       0.0971      95.8925      55.7699    -999.2500    -999.2500       3.3929       2.3515       8.0656       0.1954       3.5877       2.4850      12.4881
   2350.3130       8.5700       0.1430      94.5460      52.1250    -999.2500    -999.2500       4.2550       2.8090      12.5910       0.1812       3.6730       2.5040      12.7540
   2350.4653       8.6736       0.1425      92.7235      55.4109    -999.2500    -999.2500       3.8610       2.6318       8.2802       0.1900       3.8758       2.5225      12.9207
   2350.6179       8.7770       0.1420      90.9060      58.6880    -999.2500    -999.2500       3.4680       2.4550       3.9810       0.2051       4.0780       2.5410      13.0870
   2350.7703       8.9064       0.1370      91.0650      58.1158    -999.2500    -999.2500       3.4775       2.4595       4.2092       0.2221       3.9687       2.5174      13.1392
   2350.9226       9.0350       0.1320      91.2230      57.5470    -999.2500    -999.2500       3.4870       2.4640       4.4360       0.2366       3.8600       2.4940      13.1910
   2351.0750       9.0345       0.1049      93.2766      60.1053    -999.2500    -999.2500       3.4157       2.5017       3.9770       0.2393       3.9549       2.4940      13.1835
   2351.2275       9.0340       0.0780      95.3120      62.6410    -999.2500    -999.2500       3.3450       2.5390       3.5220       0.2378       4.0490       2.4940      13.1760
   2351.3799       9.0189       0.0690      95.3080      62.6345    -999.2500    -999.2500       3.3475       2.5556       3.5270       0.2316       4.0465       2.5005      13.1815
   2351.5322       9.0040       0.0600      95.3040      62.6280    -999.2500    -999.2500       3.3500       2.5720       3.5320       0.2250       4.0440       2.5070      13.1870
   2351.6846       9.0020       0.0515      95.1671      62.4149    -999.2500    -999.2500       3.4508       2.6236       3.7100       0.2215       3.9658       2.5075      13.3770
   2351.8369       9.0000       0.0430      95.0310      62.2030    -999.2500    -999.2500       3.5510       2.6750       3.8870       0.2212       3.8880       2.5080      13.5660
   2351.9895       9.0050       0.0415      94.8904      63.6200    -999.2500    -999.2500       3.3878       2.6149       3.7559       0.2299       3.9145       2.4955      13.6816
   2352.1418       9.0100       0.0400      94.7500      65.0340    -999.2500    -999.2500       3.2250       2.5550       3.6250       0.2417       3.9410       2.4830      13.7970
   2352.2942       9.0912       0.0580      95.8122      67.0532    -999.2500    -999.2500       2.8360       2.2968       3.4475       0.2561       3.9590       2.4439      13.4170
   2352.4465       9.1720       0.0760      96.8690      69.0620    -999.2500    -999.2500       2.4490       2.0400       3.2710       0.2680       3.9770       2.4050      13.0390
   2352.5991       9.1544       0.0750      99.5883      66.2985    -999.2500    -999.2500       2.4746       2.0601       2.8017       0.2676       4.1247       2.4085      13.0405
   2352.7515       9.1370       0.0740     102.2810      63.5620    -999.2500    -999.2500       2.5000       2.0800       2.3370       0.2646       4.2710       2.4120      13.0420
   2352.9038       9.1782       0.0700     102.0400      64.3783    -999.2500    -999.2500       2.7154       2.3345       2.9625       0.2631       4.2459       2.4356      13.0967
   2353.0562       9.2190       0.0660     101.8010      65.1880    -999.2500    -999.2500       2.9290       2.5870       3.5830       0.2612       4.2210       2.4590      13.1510
   2353.2087       9.2185       0.0595     100.0684      65.1444    -999.2500    -999.2500       2.8478       2.4622       3.2342       0.2564       4.0336       2.4550      13.4748
   2353.3611       9.2180       0.0530      98.3440      65.1010    -999.2500    -999.2500       2.7670       2.3380       2.8870       0.2504       3.8470       2.4510      13.7970
   2353.5134       9.2105       0.0535      98.3610      64.4855    -999.2500    -999.2500       2.7705       2.3415       2.8890       0.2430       3.8565       2.4520      13.7930
   2353.6658       9.2030       0.0540      98.3780      63.8710    -999.2500    -999.2500       2.7740       2.3450       2.8910       0.2346       3.8660       2.4530      13.7890
   2353.8181       9.1719       0.0645      98.6428      63.7240    -999.2500    -999.2500       2.8322       2.3992       2.9256       0.2240       4.0145       2.4716      13.7283
   2353.9707       9.1410       0.0750      98.9060      63.5780    -999.2500    -999.2500       2.8900       2.4530       2.9600       0.2123       4.1620       2.4900      13.6680
   2354.1230       9.1410       0.0815      97.1812      63.2930    -999.2500    -999.2500       2.9946       2.5395       3.6256       0.1989       4.1077       2.4965      13.5524
   2354.2754       9.1410       0.0880      95.4750      63.0110    -999.2500    -999.2500       3.0980       2.6250       4.2840       0.1878       4.0540       2.5030      13.4380
   2354.4277       9.1887       0.0920      93.4208      60.7290    -999.2500    -999.2500       3.4995       2.9316       3.9302       0.1867       3.9586       2.5186      13.3095
   2354.5803       9.2360       0.0960      91.3820      58.4640    -999.2500    -999.2500       3.8980       3.2360       3.5790       0.1913       3.8640       2.5340      13.1820
   2354.7327       9.3377       0.0835      88.0280      54.5910    -999.2500    -999.2500       3.8359       3.1704       4.5200       0.2068       3.7488       2.5165      13.1239
   2354.8850       9.4390       0.0710      84.6880      50.7340    -999.2500    -999.2500       3.7740       3.1050       5.4570       0.2198       3.6340       2.4990      13.0660
   2355.0374       9.5088       0.0620      85.8260      55.7798    -999.2500    -999.2500       3.5219       2.9734       4.5786       0.2122       3.7796       2.5030      13.1509
   2355.1899       9.5780       0.0530      86.9540      60.7810    -999.2500    -999.2500       3.2720       2.8430       3.7080       0.2016       3.9240       2.5070      13.2350
   2355.3423       9.4622       0.0636      89.9028      60.6612    -999.2500    -999.2500       3.6908       3.0036       4.0422       0.2003       4.0252       2.5000      13.4973
   2355.4946       9.3480       0.0740      92.8120      60.5430    -999.2500    -999.2500       4.1040       3.1620       4.3720       0.2052       4.1250       2.4930      13.7560
   2355.6470       9.3937       0.1067      91.7285      59.7284    -999.2500    -999.2500       3.6427       3.2218       4.6404       0.2237       3.9979       2.4860      13.9002
   2355.7993       9.4390       0.1390      90.6560      58.9220    -999.2500    -999.2500       3.1860       3.2810       4.9060       0.2417       3.8720       2.4790      14.0430
   2355.9519       9.4626       0.1375      91.8476      60.0057    -999.2500    -999.2500       3.1890       2.9634       4.2141       0.2446       3.8359       2.4840      14.0390
