#------------------------------------------------------------------------------
#
#   Created by  : [OpenWorks] Log Export Utility (LEXP)
#   Created on  : 2016-05-24 12:12:04
#   Project     : CANT971
#   User        : R5K
#   Interpreter : PEP
#
#------------------------------------------------------------------------------
~VERSION INFORMATION
VERS. 2.0 : CWLS Log ASCII Standard - version 2.0
WRAP.  NO : One line per depth step
~WELL INFORMATION
#MNEMONIC   .UNIT                                           VALUE :DESCRIPTION
#------------------------------------------------------------------------------
STRT        .M                                          1605.0770 :START DEPTH
STOP        .M                                          2483.6631 :STOP DEPTH
STEP        .M                                             0.1524 :STEP
NULL        .                                           -999.2500 :NULL VALUE
COMP        .                                   PEMEX EXPL & PROD :COMPANY
WELL        .                                                1023 :WELL
FLD         .                                           CANTARELL :FIELD
LOC         .                                             UNKNOWN :LOCATION
CNTY        .                                      CD. DEL CARMEN :COUNTY
STAT        .                                            CAMPECHE :STATE
CTRY        .                                              MEXICO :COUNTRY
SRVC        .                                             UNKNOWN :SERVICE COMPANY
DATE        .                                             UNKNOWN :LOG DATE
UWI         .                                          3060000489 :UNIQUE WELL ID
XCOORD      .                                       598527.650000 :SURFACE X
YCOORD      .                                      2152011.600000 :SURFACE Y
LAT         .                                           19.461305 :LATITUDE
LON         .                                          -92.061299 :LONGITUDE
ELEV        .M                                            27.9700 :SURFACE ELEV
ELEV_TYPE   .                                                  KB :ELEV TYPE
~CURVE INFORMATION
#MNEMONIC.UNIT        API CODE       : CURVE DESCRIPTION
#------------------------------------------------------------------------------
DEPTH    .M                          : Measured Depth
CALI     .inches      UNKNOWN        : CALI:registros:rC:NONE:v0 (auto-composite)
DRHO     .g/cm3       UNKNOWN        : DRHO:registros:rC:NONE:v0 (auto-composite)
DT       .us/ft       UNKNOWN        : DT:registros:rC:NONE:v0 (auto-composite)
GR       .API         UNKNOWN        : GR:registros:rC:NONE:v0 (auto-composite)
ILD      .ohm.m       UNKNOWN        : ILD:registros:rC:NONE:v0 (auto-composite)
ILM      .ohm.m       UNKNOWN        : ILM:registros:rC:NONE:v0 (auto-composite)
LLD      .ohm.m       UNKNOWN        : LLD:registros:rC:NONE:v0 (auto-composite)
LLS      .ohm.m       UNKNOWN        : LLS:registros:rC:NONE:v0 (auto-composite)
MSFL     .ohm.m       UNKNOWN        : MSFL:registros:rC:NONE:v0 (auto-composite)
NPHI     .UNKNOWN     UNKNOWN        : NPHI:registros:rC:NONE:v0 (auto-composite)
PEF      .UNKNOWN     UNKNOWN        : PEF:registros:rC:NONE:v0 (auto-composite)
RHOB     .g/cm3       UNKNOWN        : RHOB:registros:rC:NONE:v0 (auto-composite)
SP       .mV          UNKNOWN        : SP:registros:rC:NONE:v0 (auto-composite)
~A     DEPTH         CALI         DRHO           DT           GR          ILD          ILM          LLD          LLS         MSFL         NPHI          PEF         RHOB           SP
# ...
   2416.4546       8.4340       0.0160      57.2830      36.3750    -999.2500    -999.2500     616.6060     517.5410     492.6190       0.1146       3.2890       2.6050     -41.2660
   2416.6069       8.4566       0.0175      58.9917      36.9089    -999.2500    -999.2500     590.6047     498.7389     277.5149       0.1277       3.3573       2.5628     -41.4935
   2416.7595       8.4790       0.0190      60.6850      37.4380    -999.2500    -999.2500     564.8390     480.1070      64.3590       0.1393       3.4250       2.5210     -41.7190
   2416.9119       8.5257       0.0315      61.7996      37.4802    -999.2500    -999.2500     546.5112     467.7642      65.9835       0.1449       3.4099       2.5250     -41.7140
   2417.0642       8.5720       0.0440      62.9060      37.5220    -999.2500    -999.2500     528.3180     455.5120      67.5960       0.1481       3.3950       2.5290     -41.7090
   2417.2166       8.5790       0.0565      62.9060      38.8899    -999.2500    -999.2500     503.8050     430.5427      90.8790       0.1528       3.2651       2.4984     -41.6589
   2417.3691       8.5860       0.0690      62.9060      40.2500    -999.2500    -999.2500     479.4300     405.7140     114.0310       0.1579       3.1360       2.4680     -41.6090
   2417.5215       8.7287       0.0820      62.6727      39.9582    -999.2500    -999.2500     446.0925     375.4000      82.7528       0.1626       3.0299       2.4915     -41.9379
   2417.6738       8.8710       0.0950      62.4400      39.6670    -999.2500    -999.2500     412.8320     345.1560      51.5470       0.1638       2.9240       2.5150     -42.2660
   2417.8262       8.8204       0.0880      61.6945      39.2308    -999.2500    -999.2500     409.0668     347.6442      68.9695       0.1586       3.0047       2.5551     -42.5793
   2417.9785       8.7700       0.0810      60.9530      38.7970    -999.2500    -999.2500     405.3220     350.1190      86.2980       0.1504       3.0850       2.5950     -42.8910
   2418.1311       8.6187       0.0589      60.3671      38.8523    -999.2500    -999.2500     434.3786     374.2047     173.1150       0.1428       3.1478       2.6010     -43.0860
   2418.2834       8.4690       0.0370      59.7870      38.9070    -999.2500    -999.2500     463.1440     398.0490     259.0620       0.1351       3.2100       2.6070     -43.2790
   2418.4358       8.5001       0.0270      59.1097      40.5333    -999.2500    -999.2500     512.0115     435.8887     175.9201       0.1269       3.2537       2.5960     -43.5536
   2418.5881       8.5310       0.0170      58.4380      42.1460    -999.2500    -999.2500     560.4730     473.4140      93.4690       0.1182       3.2970       2.5850     -43.8260
   2418.7407       8.5265       0.0345      58.8450      42.9029    -999.2500    -999.2500     544.7322     460.5448     192.7327       0.1093       3.1702       2.5905     -44.1247
   2418.8931       8.5220       0.0520      59.2500      43.6560    -999.2500    -999.2500     529.0700     447.7400     291.5000       0.1039       3.0440       2.5960     -44.4220
   2419.0454       8.5150       0.0365      58.6860      43.5964    -999.2500    -999.2500     544.5876     463.4488     210.8224       0.1058       2.9394       2.6170     -44.2464
   2419.1978       8.5080       0.0210      58.1230      43.5370    -999.2500    -999.2500     560.0790     479.1310     130.2810       0.1099       2.8350       2.6380     -44.0710
   2419.3503       8.4819       0.0210      57.6630      43.0800    -999.2500    -999.2500     558.0626     477.3282     131.7512       0.1111       2.8410       2.6435     -43.8648
   2419.5027       8.4560       0.0210      57.2060      42.6260    -999.2500    -999.2500     556.0590     475.5370     133.2120       0.1100       2.8470       2.6490     -43.6600
   2419.6550       8.4429       0.0245      57.0713      41.9815    -999.2500    -999.2500     517.1498     440.8706     172.6350       0.1070       2.9762       2.6555     -43.3754
   2419.8074       8.4300       0.0280      56.9380      41.3440    -999.2500    -999.2500     478.6680     406.5850     211.6250       0.1032       3.1040       2.6620     -43.0940
   2419.9597       8.4300       0.0355      55.5261      41.8595    -999.2500    -999.2500     464.3244     398.4277     198.6532       0.0997       3.1557       2.6379     -42.5248
   2420.1123       8.4300       0.0430      54.1250      42.3710    -999.2500    -999.2500     450.0910     390.3330     185.7810       0.0959       3.2070       2.6140     -41.9600
   2420.2646       8.4315       0.0435      56.0978      42.9367    -999.2500    -999.2500     470.4431     408.9277     319.6526       0.0911       3.1594       2.6315     -41.6278
   2420.4170       8.4330       0.0440      58.0620      43.5000    -999.2500    -999.2500     490.7060     427.4410     452.9380       0.0879       3.1120       2.6490     -41.2970
   2420.5693       8.4350       0.0380      57.0727      43.4309    -999.2500    -999.2500     541.2437     467.6840     382.1249       0.0888       3.1015       2.6465     -41.3280
   2420.7219       8.4370       0.0320      56.0860      43.3620    -999.2500    -999.2500     591.6470     507.8200     311.5000       0.0944       3.0910       2.6440     -41.3590
   2420.8743       8.4390       0.0445      55.5566      40.4674    -999.2500    -999.2500     574.1794     486.2664     314.9818       0.1052       3.0664       2.5823     -41.3986
   2421.0266       8.4410       0.0570      55.0310      37.5940    -999.2500    -999.2500     556.8400     464.8710     318.4380       0.1146       3.0420       2.5210     -41.4380
   2421.1790       8.4666       0.0791      56.3267      39.7537    -999.2500    -999.2500     573.5159     471.0907     172.5612       0.1159       3.0968       2.5411     -41.2415
   2421.3315       8.4920       0.1010      57.6090      41.8910    -999.2500    -999.2500     590.0190     477.2460      28.1950       0.1133       3.1510       2.5610     -41.0470
   2421.4839       8.4875       0.0930      55.8689      41.8493    -999.2500    -999.2500     627.0704     502.6016     139.2006       0.1111       3.1510       2.5991     -41.1052
   2421.6362       8.4830       0.0850      54.1410      41.8080    -999.2500    -999.2500     663.8600     527.7780     249.4220       0.1093       3.1510       2.6370     -41.1630
   2421.7886       8.4564       0.0670      52.8716      41.5593    -999.2500    -999.2500     678.1046     541.7358     527.0784       0.1081       3.1485       2.6445     -41.3239
   2421.9409       8.4300       0.0490      51.6090      41.3120    -999.2500    -999.2500     692.2730     555.6190     803.2500       0.1070       3.1460       2.6520     -41.4840
   2422.0935       8.4550       0.0405      52.1956      42.1569    -999.2500    -999.2500     719.4636     580.5508     490.9174       0.1053       3.1070       2.6575     -41.4059
   2422.2458       8.4800       0.0320      52.7810      43.0000    -999.2500    -999.2500     746.5990     605.4320     179.2190       0.1022       3.0680       2.6630     -41.3280
   2422.3982       8.5722       0.0275      52.8391      45.1475    -999.2500    -999.2500     713.5119     575.4373     227.7962       0.0965       3.0800       2.6605     -41.5160
   2422.5505       8.6640       0.0230      52.8970      47.2840    -999.2500    -999.2500     680.5940     545.5960     276.1250       0.0922       3.0920       2.6580     -41.7030
   2422.7031       8.6057       0.0275      52.9814      48.0206    -999.2500    -999.2500     608.3998     489.0928     263.9472       0.0931       3.1699       2.6399     -41.6497
   2422.8555       8.5480       0.0320      53.0650      48.7500    -999.2500    -999.2500     536.9090     433.1400     251.8880       0.0969       3.2470       2.6220     -41.5970
   2423.0078       8.5264       0.0235      53.8115      47.7696    -999.2500    -999.2500     551.1431     423.6685     183.7640       0.1011       3.1391       2.5884     -41.1823
