#------------------------------------------------------------------------------
#
#   Created by  : [OpenWorks] Log Export Utility (LEXP)
#   Created on  : 2016-05-24 12:12:04
#   Project     : CANT971
#   User        : R5K
#   Interpreter : PEP
#
#------------------------------------------------------------------------------
~VERSION INFORMATION
VERS. 2.0 : CWLS Log ASCII Standard - version 2.0
WRAP.  NO : One line per depth step
~WELL INFORMATION
#MNEMONIC   .UNIT                                           VALUE :DESCRIPTION
#------------------------------------------------------------------------------
STRT        .M                                          1605.0770 :START DEPTH
STOP        .M                                          2483.6631 :STOP DEPTH
STEP        .M                                             0.1524 :STEP
NULL        .                                           -999.2500 :NULL VALUE
COMP        .                                   PEMEX EXPL & PROD :COMPANY
WELL        .                                                1023 :WELL
FLD         .                                           CANTARELL :FIELD
LOC         .                                             UNKNOWN :LOCATION
CNTY        .                                      CD. DEL CARMEN :COUNTY
STAT        .                                            CAMPECHE :STATE
CTRY        .                                              MEXICO :COUNTRY
SRVC        .                                             UNKNOWN :SERVICE COMPANY
DATE        .                                             UNKNOWN :LOG DATE
UWI         .                                          3060000489 :UNIQUE WELL ID
XCOORD      .                                       598527.650000 :SURFACE X
YCOORD      .                                      2152011.600000 :SURFACE Y
LAT         .                                           19.461305 :LATITUDE
LON         .                                          -92.061299 :LONGITUDE
ELEV        .M                                            27.9700 :SURFACE ELEV
ELEV_TYPE   .                                                  KB :ELEV TYPE
~CURVE INFORMATION
#MNEMONIC.UNIT        API CODE       : CURVE DESCRIPTION
#------------------------------------------------------------------------------
DEPTH    .M                          : Measured Depth
CALI     .inches      UNKNOWN        : CALI:registros:rC:NONE:v0 (auto-composite)
DRHO     .g/cm3       UNKNOWN        : DRHO:registros:rC:NONE:v0 (auto-composite)
DT       .us/ft       UNKNOWN        : DT:registros:rC:NONE:v0 (auto-composite)
GR       .API         UNKNOWN        : GR:registros:rC:NONE:v0 (auto-composite)
ILD      .ohm.m       UNKNOWN        : ILD:registros:rC:NONE:v0 (auto-composite)
ILM      .ohm.m       UNKNOWN        : ILM:registros:rC:NONE:v0 (auto-composite)
LLD      .ohm.m       UNKNOWN        : LLD:registros:rC:NONE:v0 (auto-composite)
LLS      .ohm.m       UNKNOWN        : LLS:registros:rC:NONE:v0 (auto-composite)
MSFL     .ohm.m       UNKNOWN        : MSFL:registros:rC:NONE:v0 (auto-composite)
NPHI     .UNKNOWN     UNKNOWN        : NPHI:registros:rC:NONE:v0 (auto-composite)
PEF      .UNKNOWN     UNKNOWN        : PEF:registros:rC:NONE:v0 (auto-composite)
RHOB     .g/cm3       UNKNOWN        : RHOB:registros:rC:NONE:v0 (auto-composite)
SP       .mV          UNKNOWN        : SP:registros:rC:NONE:v0 (auto-composite)
~A     DEPTH         CALI         DRHO           DT           GR          ILD          ILM          LLD          LLS         MSFL         NPHI          PEF         RHOB           SP
# ...
   2476.8049       7.8590       0.2600      40.0000       0.0000    -999.2500    -999.2500       0.2000       0.2000       0.2000       0.0481       3.2440       2.7870       0.0000
   2476.9575       7.8590       0.2600      40.0000       0.0000    -999.2500    -999.2500       0.2000       0.2000       0.2000       0.0481       3.2440       2.7870       0.0000
   2477.1099       7.8590       0.2600      40.0000       0.0000    -999.2500    -999.2500       0.2000       0.2000       0.2000       0.0481       3.2440       2.7870       0.0000
   2477.2622       7.8590       0.2600      40.0000       0.0000    -999.2500    -999.2500       0.2000       0.2000       0.2000       0.0481       3.2440       2.7870       0.0000
   2477.4146       7.8590       0.2600      40.0000       0.0000    -999.2500    -999.2500       0.2000       0.2000       0.2000       0.0481       3.2440       2.7870       0.0000
   2477.5671       7.8590       0.2600      40.0000       0.0000    -999.2500    -999.2500       0.2000       0.2000       0.2000       0.0481       3.2440       2.7870       0.0000
   2477.7195       7.8590       0.2600      40.0000       0.0000    -999.2500    -999.2500       0.2000       0.2000       0.2000       0.0481       3.2440       2.7870       0.0000
   2477.8718       7.8590       0.2600      40.0000       0.0000    -999.2500    -999.2500       0.2000       0.2000       0.2000       0.0481       3.2440       2.7870       0.0000
   2478.0242       7.8590       0.2600      40.0000       0.0000    -999.2500    -999.2500       0.2000       0.2000       0.2000       0.0481       3.2440       2.7870       0.0000
   2478.1765       7.8590       0.2600      40.0000       0.0000    -999.2500    -999.2500       0.2000       0.2000       0.2000       0.0481       3.2440       2.7870       0.0000
   2478.3291       7.8590       0.2600      40.0000       0.0000    -999.2500    -999.2500       0.2000       0.2000       0.2000       0.0481       3.2440       2.7870       0.0000
   2478.4814       7.8590       0.2600      40.0000       0.0000    -999.2500    -999.2500       0.2000       0.2000       0.2000       0.0481       3.2440       2.7870       0.0000
   2478.6338       7.8590       0.2600      40.0000       0.0000    -999.2500    -999.2500       0.2000       0.2000       0.2000       0.0481       3.2440       2.7870       0.0000
   2478.7861       7.8590       0.2600      40.0000       0.0000    -999.2500    -999.2500       0.2000       0.2000       0.2000       0.0481       3.2440       2.7870       0.0000
   2478.9387       7.8590       0.2600      40.0000       0.0000    -999.2500    -999.2500       0.2000       0.2000       0.2000       0.0481       3.2440       2.7870       0.0000
   2479.0911       7.8590       0.2600      40.0000       0.0000    -999.2500    -999.2500       0.2000       0.2000       0.2000       0.0481       3.2440       2.7870       0.0000
   2479.2434       7.8590       0.2600      40.0000       0.0000    -999.2500    -999.2500       0.2000       0.2000       0.2000       0.0481       3.2440       2.7870       0.0000
   2479.3958       7.8590       0.2600      40.0000       0.0000    -999.2500    -999.2500       0.2000       0.2000       0.2000       0.0481       3.2440       2.7870       0.0000
   2479.5483       7.8590       0.2600      40.0000       0.0000    -999.2500    -999.2500       0.2000       0.2000       0.2000       0.0481       3.2440       2.7870       0.0000
   2479.7007       7.8590       0.2600      40.0000       0.0000    -999.2500    -999.2500       0.2000       0.2000       0.2000       0.0481       3.2440       2.7870       0.0000
   2479.8530       7.8590       0.2600      40.0000       0.0000    -999.2500    -999.2500       0.2000       0.2000       0.2000       0.0481       3.2440       2.7870       0.0000
   2480.0054       7.8590       0.2600      40.0000       0.0000    -999.2500    -999.2500       0.2000       0.2000       0.2000       0.0481       3.2440       2.7870       0.0000
   2480.1577       7.8590       0.2600      40.0000       0.0000    -999.2500    -999.2500       0.2000       0.2000       0.2000       0.0481       3.2440       2.7870       0.0000
   2480.3103       7.8590       0.2600      40.0000       0.0000    -999.2500    -999.2500       0.2000       0.2000       0.2000       0.0481       3.2440       2.7870       0.0000
   2480.4626       7.8590       0.2600      40.0000       0.0000    -999.2500    -999.2500       0.2000       0.2000       0.2000       0.0481       3.2440       2.7870       0.0000
   2480.6150       7.8590       0.2600      40.0000       0.0000    -999.2500    -999.2500       0.2000       0.2000       0.2000       0.0481       3.2440       2.7870       0.0000
   2480.7673       7.8590       0.2600      40.0000       0.0000    -999.2500    -999.2500       0.2000       0.2000       0.2000       0.0481       3.2440       2.7870       0.0000
   2480.9199       7.8590       0.2600      40.0000       0.0000    -999.2500    -999.2500       0.2000       0.2000       0.2000       0.0481       3.2440       2.7870       0.0000
   2481.0723       7.8590       0.2600      40.0000       0.0000    -999.2500    -999.2500       0.2000       0.2000       0.2000       0.0481       3.2440       2.7870       0.0000
   2481.2246       7.8590       0.2600      40.0000       0.0000    -999.2500    -999.2500       0.2000       0.2000       0.2000       0.0481       3.2440       2.7870       0.0000
   2481.3770       7.8590       0.2600      40.0000       0.0000    -999.2500    -999.2500       0.2000       0.2000       0.2000       0.0481       3.2440       2.7870       0.0000
   2481.5295       7.8590       0.2600      40.0000       0.0000    -999.2500    -999.2500       0.2000       0.2000       0.2000       0.0481       3.2440       2.7870       0.0000
   2481.6819       7.8590       0.2600      40.0000       0.0000    -999.2500    -999.2500       0.2000       0.2000       0.2000       0.0481       3.2440       2.7870       0.0000
   2481.8342       7.8590       0.2600      40.0000       0.0000    -999.2500    -999.2500       0.2000       0.2000       0.2000       0.0481       3.2440       2.7870       0.0000
   2481.9866       7.8590       0.2600      40.0000       0.0000    -999.2500    -999.2500       0.2000       0.2000       0.2000       0.0481       3.2440       2.7870       0.0000
   2482.1389       7.8590       0.2600      40.0000       0.0000    -999.2500    -999.2500       0.2000       0.2000       0.2000       0.0481       3.2440       2.7870       0.0000
   2482.2915       7.8590       0.2600      40.0000       0.0000    -999.2500    -999.2500       0.2000       0.2000       0.2000       0.0481       3.2440       2.7870       0.0000
   2482.4438       7.8590       0.2600      40.0000       0.0000    -999.2500    -999.2500       0.2000       0.2000       0.2000       0.0481       3.2440       2.7870       0.0000
   2482.5962       7.8590       0.2600      40.0000       0.0000    -999.2500    -999.2500       0.2000       0.2000       0.2000       0.0481       3.2440       2.7870       0.0000
   2482.7485       7.8590       0.2600      40.0000       0.0000    -999.2500    -999.2500       0.2000       0.2000       0.2000       0.0481       3.2440       2.7870       0.0000
   2482.9011       7.8590       0.2600      40.0000       0.0000    -999.2500    -999.2500       0.2000       0.2000       0.2000       0.0481       3.2440       2.7870       0.0000
   2483.0535       7.8590       0.2600      40.0000       0.0000    -999.2500    -999.2500       0.2000       0.2000       0.2000       0.0481       3.2440       2.7870       0.0000
   2483.2058       7.8590       0.2600      40.0000       0.0000    -999.2500    -999.2500       0.2000       0.2000       0.2000       0.0481       3.2440       2.7870       0.0000
   2483.3582       7.8590       0.2600      40.0000       0.0000    -999.2500    -999.2500       0.2000       0.2000       0.2000       0.0481       3.2440       2.7870       0.0000
