#------------------------------------------------------------------------------
#
#   Created by  : [OpenWorks] Log Export Utility (LEXP)
#   Created on  : 2016-05-24 12:12:04
#   Project     : CANT971
#   User        : R5K
#   Interpreter : PEP
#
#------------------------------------------------------------------------------
~VERSION INFORMATION
VERS. 2.0 : CWLS Log ASCII Standard - version 2.0
WRAP.  NO : One line per depth step
~WELL INFORMATION
#MNEMONIC   .UNIT                                           VALUE :DESCRIPTION
#------------------------------------------------------------------------------
STRT        .M                                          1605.0770 :START DEPTH
STOP        .M                                          2483.6631 :STOP DEPTH
STEP        .M                                             0.1524 :STEP
NULL        .                                           -999.2500 :NULL VALUE
COMP        .                                   PEMEX EXPL & PROD :COMPANY
WELL        .                                                1023 :WELL
FLD         .                                           CANTARELL :FIELD
LOC         .                                             UNKNOWN :LOCATION
CNTY        .                                      CD. DEL CARMEN :COUNTY
STAT        .                                            CAMPECHE :STATE
CTRY        .                                              MEXICO :COUNTRY
SRVC        .                                             UNKNOWN :SERVICE COMPANY
DATE        .                                             UNKNOWN :LOG DATE
UWI         .                                          3060000489 :UNIQUE WELL ID
XCOORD      .                                       598527.650000 :SURFACE X
YCOORD      .                                      2152011.600000 :SURFACE Y
LAT         .                                           19.461305 :LATITUDE
LON         .                                          -92.061299 :LONGITUDE
ELEV        .M                                            27.9700 :SURFACE ELEV
ELEV_TYPE   .                                                  KB :ELEV TYPE
~CURVE INFORMATION
#MNEMONIC.UNIT        API CODE       : CURVE DESCRIPTION
#------------------------------------------------------------------------------
DEPTH    .M                          : Measured Depth
CALI     .inches      UNKNOWN        : CALI:registros:rC:NONE:v0 (auto-composite)
DRHO     .g/cm3       UNKNOWN        : DRHO:registros:rC:NONE:v0 (auto-composite)
DT       .us/ft       UNKNOWN        : DT:registros:rC:NONE:v0 (auto-composite)
GR       .API         UNKNOWN        : GR:registros:rC:NONE:v0 (auto-composite)
ILD      .ohm.m       UNKNOWN        : ILD:registros:rC:NONE:v0 (auto-composite)
ILM      .ohm.m       UNKNOWN        : ILM:registros:rC:NONE:v0 (auto-composite)
LLD      .ohm.m       UNKNOWN        : LLD:registros:rC:NONE:v0 (auto-composite)
LLS      .ohm.m       UNKNOWN        : LLS:registros:rC:NONE:v0 (auto-composite)
MSFL     .ohm.m       UNKNOWN        : MSFL:registros:rC:NONE:v0 (auto-composite)
NPHI     .UNKNOWN     UNKNOWN        : NPHI:registros:rC:NONE:v0 (auto-composite)
PEF      .UNKNOWN     UNKNOWN        : PEF:registros:rC:NONE:v0 (auto-composite)
RHOB     .g/cm3       UNKNOWN        : RHOB:registros:rC:NONE:v0 (auto-composite)
SP       .mV          UNKNOWN        : SP:registros:rC:NONE:v0 (auto-composite)
~A     DEPTH         CALI         DRHO           DT           GR          ILD          ILM          LLD          LLS         MSFL         NPHI          PEF         RHOB           SP
# ...
   2376.2209       9.3950       0.0950      84.2190      63.7810    -999.2500    -999.2500       3.8140       2.8870       3.5290       0.2048       3.8620       2.5150       6.5390
   2376.3735       9.3379       0.0760      81.6003      63.2411    -999.2500    -999.2500       3.9117       3.0708       4.0754       0.1864       4.0183       2.5315       6.2806
   2376.5259       9.2810       0.0570      78.9900      62.7030    -999.2500    -999.2500       4.0090       3.2540       4.6200       0.1687       4.1740       2.5480       6.0230
   2376.6782       9.2810       0.0369      74.4025      63.3495    -999.2500    -999.2500       6.8635       5.3010       7.6240       0.1524       4.1469       2.5410       5.1633
   2376.8306       9.2810       0.0170      69.8440      63.9920    -999.2500    -999.2500       9.7000       7.3350      10.6090       0.1468       4.1200       2.5340       4.3090
   2376.9829       9.3734       0.0311      70.2429      65.9888    -999.2500    -999.2500       9.0886       6.9331      10.2538       0.1674       3.8387       2.4747       4.4441
   2377.1355       9.4650       0.0450      70.6380      67.9670    -999.2500    -999.2500       8.4830       6.5350       9.9020       0.1904       3.5600       2.4160       4.5780
   2377.2878       9.3024       0.0550      74.0039      74.7284    -999.2500    -999.2500       6.6595       5.2290       7.5771       0.1937       3.9816       2.4828       4.5514
   2377.4402       9.1410       0.0650      77.3440      81.4380    -999.2500    -999.2500       4.8500       3.9330       5.2700       0.1851       4.4000       2.5490       4.5250
   2377.5925       9.1410       0.0635      77.1801      81.3483    -999.2500    -999.2500       4.9252       3.9896       7.6051       0.1655       4.3935       2.5485       4.3226
   2377.7451       9.1410       0.0620      77.0170      81.2590    -999.2500    -999.2500       5.0000       4.0460       9.9300       0.1470       4.3870       2.5480       4.1210
   2377.8975       9.1410       0.0385      74.6273      79.8418    -999.2500    -999.2500       6.3457       5.0475       9.9090       0.1420       4.2824       2.5425       2.7558
   2378.0498       9.1410       0.0150      72.2400      78.4260    -999.2500    -999.2500       7.6900       6.0480       9.8880       0.1433       4.1780       2.5370       1.3920
   2378.2021       9.1410       0.0125      70.7252      75.9404    -999.2500    -999.2500       7.9252       6.3208       9.5796       0.1472       3.9890       2.5365       1.1633
   2378.3547       9.1410       0.0100      69.2190      73.4690    -999.2500    -999.2500       8.1590       6.5920       9.2730       0.1504       3.8010       2.5360       0.9360
   2378.5071       9.1410       0.0100      70.0458      70.2831    -999.2500    -999.2500       7.7202       6.3427       9.0051       0.1492       3.8161       2.5345       0.6747
   2378.6594       9.1410       0.0100      70.8640      67.1300    -999.2500    -999.2500       7.2860       6.0960       8.7400       0.1466       3.8310       2.5330       0.4160
   2378.8118       9.1410       0.0140      70.9478      63.2153    -999.2500    -999.2500       7.0903       6.0177       8.4118       0.1445       3.9650       2.5290       0.5741
   2378.9641       9.1410       0.0180      71.0310      59.3280    -999.2500    -999.2500       6.8960       5.9400       8.0860       0.1422       4.0980       2.5250       0.7310
   2379.1167       9.1410       0.0215      71.1878      58.5060    -999.2500    -999.2500       7.0282       6.0682       8.1852       0.1391       4.3064       2.5440       0.9910
   2379.2690       9.1410       0.0250      71.3440      57.6870    -999.2500    -999.2500       7.1600       6.1960       8.2840       0.1359       4.5140       2.5630       1.2500
   2379.4214       9.1410       0.0180      71.1944      57.5042    -999.2500    -999.2500       7.3558       6.3753       8.4130       0.1336       4.3699       2.5525       1.2113
   2379.5737       9.1410       0.0110      71.0460      57.3230    -999.2500    -999.2500       7.5500       6.5530       8.5410       0.1317       4.2270       2.5420       1.1730
   2379.7263       9.1410       0.0060      70.5679      56.3980    -999.2500    -999.2500       7.7609       6.8358       8.9955       0.1302       4.4117       2.5425       0.7664
   2379.8787       9.1410       0.0010      70.0960      55.4850    -999.2500    -999.2500       7.9690       7.1150       9.4440       0.1280       4.5940       2.5430       0.3650
   2380.0310       9.1410       0.0020      69.5720      53.0195    -999.2500    -999.2500       8.0725       7.2361       9.8806       0.1239       4.4453       2.5475      -0.3319
   2380.1833       9.1410       0.0030      69.0530      50.5780    -999.2500    -999.2500       8.1750       7.3560      10.3130       0.1196       4.2980       2.5520      -1.0220
   2380.3359       9.1410       0.0080      68.9988      52.0984    -999.2500    -999.2500       8.1253       7.3811       9.9975       0.1170       4.2338       2.5600      -1.3892
   2380.4883       9.1410       0.0130      68.9450      53.6090    -999.2500    -999.2500       8.0760       7.4060       9.6840       0.1146       4.1700       2.5680      -1.7540
   2380.6406       9.1410       0.0145      68.8162      53.2647    -999.2500    -999.2500       8.3020       7.6225      10.2283       0.1110       4.0973       2.5725      -2.0512
   2380.7930       9.1410       0.0160      68.6880      52.9220    -999.2500    -999.2500       8.5270       7.8380      10.7700       0.1077       4.0250       2.5770      -2.3470
   2380.9453       9.1300       0.0140      68.4246      53.4538    -999.2500    -999.2500       8.7854       8.1139      10.9192       0.1061       4.0535       2.5790      -2.7611
   2381.0979       9.1190       0.0120      68.1620      53.9840    -999.2500    -999.2500       9.0430       8.3890      11.0680       0.1065       4.0820       2.5810      -3.1740
   2381.2502       9.0979       0.0100      67.6419      53.3260    -999.2500    -999.2500       8.9462       8.3268      11.1397       0.1102       4.1196       2.5765      -3.5707
   2381.4026       9.0770       0.0080      67.1250      52.6720    -999.2500    -999.2500       8.8500       8.2650      11.2110       0.1156       4.1570       2.5720      -3.9650
   2381.5549       9.0499       0.0080      67.5313      54.7047    -999.2500    -999.2500       8.6195       8.0782      11.1090       0.1219       4.1957       2.5625      -4.2588
   2381.7075       9.0230       0.0080      67.9340      56.7190    -999.2500    -999.2500       8.3910       7.8930      11.0080       0.1287       4.2340       2.5530      -4.5500
   2381.8599       9.0250       0.0110      68.4303      55.0564    -999.2500    -999.2500       8.0723       7.6034      10.6406       0.1360       4.1893       2.5415      -4.8622
   2382.0122       9.0270       0.0140      68.9230      53.4060    -999.2500    -999.2500       7.7560       7.3160      10.2760       0.1408       4.1450       2.5300      -5.1720
   2382.1646       9.0135       0.0095      69.5468      54.0719    -999.2500    -999.2500       7.4752       7.0698       9.6106       0.1396       4.3526       2.5335      -4.9915
   2382.3171       9.0000       0.0050      70.1670      54.7340    -999.2500    -999.2500       7.1960       6.8250       8.9490       0.1375       4.5590       2.5370      -4.8120
   2382.4695       9.0000       0.0050      70.3082      54.2204    -999.2500    -999.2500       7.1364       6.7764       9.1212       0.1391       4.4123       2.5330      -4.9977
   2382.6218       9.0000       0.0050      70.4490      53.7080    -999.2500    -999.2500       7.0770       6.7280       9.2930       0.1414       4.2660       2.5290      -5.1830
   2382.7742       9.0000       0.0055      70.5026      53.3716    -999.2500    -999.2500       7.0790       6.7315       9.0844       0.1419       4.2560       2.5295      -5.2522
