#------------------------------------------------------------------------------
#
#   Created by  : [OpenWorks] Log Export Utility (LEXP)
#   Created on  : 2016-05-24 12:12:04
#   Project     : CANT971
#   User        : R5K
#   Interpreter : PEP
#
#------------------------------------------------------------------------------
~VERSION INFORMATION
VERS. 2.0 : CWLS Log ASCII Standard - version 2.0
WRAP.  NO : One line per depth step
~WELL INFORMATION
#MNEMONIC   .UNIT                                           VALUE :DESCRIPTION
#------------------------------------------------------------------------------
STRT        .M                                          1605.0770 :START DEPTH
STOP        .M                                          2483.6631 :STOP DEPTH
STEP        .M                                             0.1524 :STEP
NULL        .                                           -999.2500 :NULL VALUE
COMP        .                                   PEMEX EXPL & PROD :COMPANY
WELL        .                                                1023 :WELL
FLD         .                                           CANTARELL :FIELD
LOC         .                                             UNKNOWN :LOCATION
CNTY        .                                      CD. DEL CARMEN :COUNTY
STAT        .                                            CAMPECHE :STATE
CTRY        .                                              MEXICO :COUNTRY
SRVC        .                                             UNKNOWN :SERVICE COMPANY
DATE        .                                             UNKNOWN :LOG DATE
UWI         .                                          3060000489 :UNIQUE WELL ID
XCOORD      .                                       598527.650000 :SURFACE X
YCOORD      .                                      2152011.600000 :SURFACE Y
LAT         .                                           19.461305 :LATITUDE
LON         .                                          -92.061299 :LONGITUDE
ELEV        .M                                            27.9700 :SURFACE ELEV
ELEV_TYPE   .                                                  KB :ELEV TYPE
~CURVE INFORMATION
#MNEMONIC.UNIT        API CODE       : CURVE DESCRIPTION
#------------------------------------------------------------------------------
DEPTH    .M                          : Measured Depth
CALI     .inches      UNKNOWN        : CALI:registros:rC:NONE:v0 (auto-composite)
DRHO     .g/cm3       UNKNOWN        : DRHO:registros:rC:NONE:v0 (auto-composite)
DT       .us/ft       UNKNOWN        : DT:registros:rC:NONE:v0 (auto-composite)
GR       .API         UNKNOWN        : GR:registros:rC:NONE:v0 (auto-composite)
ILD      .ohm.m       UNKNOWN        : ILD:registros:rC:NONE:v0 (auto-composite)
ILM      .ohm.m       UNKNOWN        : ILM:registros:rC:NONE:v0 (auto-composite)
LLD      .ohm.m       UNKNOWN        : LLD:registros:rC:NONE:v0 (auto-composite)
LLS      .ohm.m       UNKNOWN        : LLS:registros:rC:NONE:v0 (auto-composite)
MSFL     .ohm.m       UNKNOWN        : MSFL:registros:rC:NONE:v0 (auto-composite)
NPHI     .UNKNOWN     UNKNOWN        : NPHI:registros:rC:NONE:v0 (auto-composite)
PEF      .UNKNOWN     UNKNOWN        : PEF:registros:rC:NONE:v0 (auto-composite)
RHOB     .g/cm3       UNKNOWN        : RHOB:registros:rC:NONE:v0 (auto-composite)
SP       .mV          UNKNOWN        : SP:registros:rC:NONE:v0 (auto-composite)
~A     DEPTH         CALI         DRHO           DT           GR          ILD          ILM          LLD          LLS         MSFL         NPHI          PEF         RHOB           SP
# ...
   2389.6323       8.4300       0.0080      72.3570      58.0780    -999.2500    -999.2500      10.5940      10.3390      15.9880       0.1915       3.4570       2.4670     -36.6880
   2389.7847       8.4300       0.0035      73.2899      58.0595    -999.2500    -999.2500      10.9507      10.5369      15.9845       0.1911       3.4515       2.4610     -36.6880
   2389.9370       8.4300      -0.0010      74.2190      58.0410    -999.2500    -999.2500      11.3060      10.7340      15.9810       0.1945       3.4460       2.4550     -36.6880
   2390.0894       8.4300      -0.0010      74.1959      57.7005    -999.2500    -999.2500      11.2929      10.7310      15.9042       0.2038       3.3692       2.4550     -36.6880
   2390.2419       8.4300      -0.0010      74.1730      57.3630    -999.2500    -999.2500      11.2800      10.7280      15.8280       0.2131       3.2930       2.4550     -36.6880
   2390.3943       8.4300      -0.0005      73.8186      56.1891    -999.2500    -999.2500      11.0852      10.6751      15.4193       0.2169       3.2769       2.4580     -36.6880
   2390.5466       8.4300       0.0000      73.4690      55.0310    -999.2500    -999.2500      10.8930      10.6230      15.0160       0.2164       3.2610       2.4610     -36.6880
   2390.6990       8.4104       0.0040      72.9840      55.1948    -999.2500    -999.2500      11.1880      10.8346      15.4793       0.2118       3.2188       2.4716     -36.7503
   2390.8513       8.3910       0.0080      72.5040      55.3570    -999.2500    -999.2500      11.4800      11.0440      15.9380       0.2074       3.1770       2.4820     -36.8120
   2391.0039       8.4050       0.0090      72.0173      56.5420    -999.2500    -999.2500      11.9280      11.3370      16.8667       0.2072       3.2011       2.4765     -36.6946
   2391.1562       8.4190       0.0100      71.5340      57.7190    -999.2500    -999.2500      12.3730      11.6280      17.7890       0.2090       3.2250       2.4710     -36.5780
   2391.3086       8.4235       0.0080      71.3891      57.5922    -999.2500    -999.2500      12.1640      11.4851      17.1860       0.2110       3.2370       2.4700     -36.6206
   2391.4609       8.4280       0.0060      71.2450      57.4660    -999.2500    -999.2500      11.9560      11.3430      16.5860       0.2119       3.2490       2.4690     -36.6630
   2391.6135       8.4290       0.0050      71.0899      57.3824    -999.2500    -999.2500      11.6012      11.0688      16.6345       0.2101       3.2910       2.4715     -36.9878
   2391.7659       8.4300       0.0040      70.9350      57.2990    -999.2500    -999.2500      11.2470      10.7950      16.6830       0.2082       3.3330       2.4740     -37.3120
   2391.9182       8.4300       0.0065      70.6784      57.1256    -999.2500    -999.2500      11.4410      11.0200      17.0519       0.2088       3.2739       2.4785     -37.1245
   2392.0706       8.4300       0.0090      70.4230      56.9530    -999.2500    -999.2500      11.6340      11.2440      17.4190       0.2097       3.2150       2.4830     -36.9380
   2392.2231       8.4300       0.0135      69.1901      59.4102    -999.2500    -999.2500      12.0495      11.5349      18.3901       0.2089       3.2255       2.4951     -37.1259
   2392.3755       8.4300       0.0180      67.9690      61.8440    -999.2500    -999.2500      12.4610      11.8230      19.3520       0.2093       3.2360       2.5070     -37.3120
   2392.5278       8.4300       0.0135      68.0915      61.6412    -999.2500    -999.2500      12.1377      11.5725      18.9745       0.2140       3.1818       2.4960     -37.0811
   2392.6802       8.4300       0.0090      68.2130      61.4400    -999.2500    -999.2500      11.8170      11.3240      18.6000       0.2193       3.1280       2.4850     -36.8520
   2392.8325       8.4340       0.0080      69.5154      59.2857    -999.2500    -999.2500      11.5374      11.0805      17.2480       0.2217       3.1155       2.4735     -36.3940
   2392.9851       8.4380       0.0070      70.8120      57.1410    -999.2500    -999.2500      11.2590      10.8380      15.9020       0.2213       3.1030       2.4620     -35.9380
   2393.1375       8.4650       0.0090      70.9371      56.9219    -999.2500    -999.2500      11.5206      11.0716      16.5529       0.2176       3.1355       2.4475     -35.8830
   2393.2898       8.4920       0.0110      71.0620      56.7030    -999.2500    -999.2500      11.7820      11.3050      17.2030       0.2139       3.1680       2.4330     -35.8280
   2393.4421       8.5156       0.0125      70.0495      56.7572    -999.2500    -999.2500      12.4264      11.8371      16.4919       0.2139       3.2402       2.4345     -36.0376
   2393.5947       8.5390       0.0140      69.0430      56.8110    -999.2500    -999.2500      13.0670      12.3660      15.7850       0.2142       3.3120       2.4360     -36.2460
   2393.7471       8.5038       0.0110      68.4363      57.3925    -999.2500    -999.2500      13.5103      12.7852      19.6195       0.2112       3.3396       2.4420     -36.7295
   2393.8994       8.4690       0.0080      67.8360      57.9680    -999.2500    -999.2500      13.9490      13.2000      23.4140       0.2059       3.3670       2.4480     -37.2080
   2394.0518       8.4494       0.0085      67.4622      58.3112    -999.2500    -999.2500      14.1211      13.3696      21.3988       0.1986       3.4122       2.4590     -37.8899
   2394.2043       8.4300       0.0090      67.0910      58.6520    -999.2500    -999.2500      14.2920      13.5380      19.3980       0.1888       3.4570       2.4700     -38.5670
   2394.3567       8.4320       0.0150      66.3110      59.0688    -999.2500    -999.2500      14.5109      13.6953      20.4696       0.1755       3.3443       2.5016     -39.4978
   2394.5090       8.4340       0.0210      65.5340      59.4840    -999.2500    -999.2500      14.7290      13.8520      21.5370       0.1645       3.2320       2.5330     -40.4250
   2394.6614       8.4320       0.0245      64.6206      57.8601    -999.2500    -999.2500      14.8731      13.9514      21.7163       0.1622       3.2395       2.5476     -40.9347
   2394.8137       8.4300       0.0280      63.7150      56.2500    -999.2500    -999.2500      15.0160      14.0500      21.8940       0.1634       3.2470       2.5620     -41.4400
   2394.9663       8.4300       0.0315      63.6838      56.2837    -999.2500    -999.2500      15.1051      14.0867      21.9770       0.1637       3.3009       2.5620     -41.7425
   2395.1187       8.4300       0.0350      63.6530      56.3170    -999.2500    -999.2500      15.1930      14.1230      22.0590       0.1624       3.3540       2.5620     -42.0410
   2395.2710       8.4300       0.0385      63.2937      57.0059    -999.2500    -999.2500      15.2950      14.1928      22.9398       0.1587       3.3862       2.5595     -42.3028
   2395.4233       8.4300       0.0420      62.9380      57.6880    -999.2500    -999.2500      15.3960      14.2620      23.8120       0.1542       3.4180       2.5570     -42.5620
   2395.5759       8.4300       0.0470      62.6646      59.1693    -999.2500    -999.2500      15.8465      14.5540      22.6010       0.1506       3.4386       2.5766     -42.8805
   2395.7283       8.4300       0.0520      62.3930      60.6410    -999.2500    -999.2500      16.2940      14.8440      21.3980       0.1484       3.4590       2.5960     -43.1970
   2395.8806       8.4300       0.0420      62.3063      59.8431    -999.2500    -999.2500      17.0137      15.3993      23.4539       0.1484       3.3643       2.5875     -43.3408
   2396.0330       8.4300       0.0320      62.2200      59.0490    -999.2500    -999.2500      17.7300      15.9520      25.5000       0.1506       3.2700       2.5790     -43.4840
   2396.1855       8.4160       0.0220      61.9846      57.5532    -999.2500    -999.2500      18.1667      16.2244      24.2205       0.1551       3.1769       2.5620     -43.1835
