#------------------------------------------------------------------------------
#
#   Created by  : [OpenWorks] Log Export Utility (LEXP)
#   Created on  : 2016-05-24 12:12:04
#   Project     : CANT971
#   User        : R5K
#   Interpreter : PEP
#
#------------------------------------------------------------------------------
~VERSION INFORMATION
VERS. 2.0 : CWLS Log ASCII Standard - version 2.0
WRAP.  NO : One line per depth step
~WELL INFORMATION
#MNEMONIC   .UNIT                                           VALUE :DESCRIPTION
#------------------------------------------------------------------------------
STRT        .M                                          1605.0770 :START DEPTH
STOP        .M                                          2483.6631 :STOP DEPTH
STEP        .M                                             0.1524 :STEP
NULL        .                                           -999.2500 :NULL VALUE
COMP        .                                   PEMEX EXPL & PROD :COMPANY
WELL        .                                                1023 :WELL
FLD         .                                           CANTARELL :FIELD
LOC         .                                             UNKNOWN :LOCATION
CNTY        .                                      CD. DEL CARMEN :COUNTY
STAT        .                                            CAMPECHE :STATE
CTRY        .                                              MEXICO :COUNTRY
SRVC        .                                             UNKNOWN :SERVICE COMPANY
DATE        .                                             UNKNOWN :LOG DATE
UWI         .                                          3060000489 :UNIQUE WELL ID
XCOORD      .                                       598527.650000 :SURFACE X
YCOORD      .                                      2152011.600000 :SURFACE Y
LAT         .                                           19.461305 :LATITUDE
LON         .                                          -92.061299 :LONGITUDE
ELEV        .M                                            27.9700 :SURFACE ELEV
ELEV_TYPE   .                                                  KB :ELEV TYPE
~CURVE INFORMATION
#MNEMONIC.UNIT        API CODE       : CURVE DESCRIPTION
#------------------------------------------------------------------------------
DEPTH    .M                          : Measured Depth
CALI     .inches      UNKNOWN        : CALI:registros:rC:NONE:v0 (auto-composite)
DRHO     .g/cm3       UNKNOWN        : DRHO:registros:rC:NONE:v0 (auto-composite)
DT       .us/ft       UNKNOWN        : DT:registros:rC:NONE:v0 (auto-composite)
GR       .API         UNKNOWN        : GR:registros:rC:NONE:v0 (auto-composite)
ILD      .ohm.m       UNKNOWN        : ILD:registros:rC:NONE:v0 (auto-composite)
ILM      .ohm.m       UNKNOWN        : ILM:registros:rC:NONE:v0 (auto-composite)
LLD      .ohm.m       UNKNOWN        : LLD:registros:rC:NONE:v0 (auto-composite)
LLS      .ohm.m       UNKNOWN        : LLS:registros:rC:NONE:v0 (auto-composite)
MSFL     .ohm.m       UNKNOWN        : MSFL:registros:rC:NONE:v0 (auto-composite)
NPHI     .UNKNOWN     UNKNOWN        : NPHI:registros:rC:NONE:v0 (auto-composite)
PEF      .UNKNOWN     UNKNOWN        : PEF:registros:rC:NONE:v0 (auto-composite)
RHOB     .g/cm3       UNKNOWN        : RHOB:registros:rC:NONE:v0 (auto-composite)
SP       .mV          UNKNOWN        : SP:registros:rC:NONE:v0 (auto-composite)
~A     DEPTH         CALI         DRHO           DT           GR          ILD          ILM          LLD          LLS         MSFL         NPHI          PEF         RHOB           SP
# ...
   2436.5715       8.5710       0.0090      50.0940      39.9600    -999.2500    -999.2500     388.9010     199.4030     136.1250       0.0712       3.1340       2.6590     -47.2830
   2436.7239       8.5830       0.0150      50.0880      44.1616    -999.2500    -999.2500     404.6953     210.9470     137.6736       0.0744       3.1385       2.6595     -47.0682
   2436.8762       8.5950       0.0210      50.0820      48.3330    -999.2500    -999.2500     420.3760     222.4080     139.2110       0.0781       3.1430       2.6600     -46.8550
   2437.0286       8.7549       0.0310      49.8845      49.9991    -999.2500    -999.2500     468.4441     242.1310     217.9461       0.0810       3.2909       2.6760     -46.5126
   2437.1809       8.9140       0.0410      49.6880      51.6560    -999.2500    -999.2500     516.2490     261.7460     296.2500       0.0800       3.4380       2.6920     -46.1720
   2437.3335      10.5753       0.0245      49.4923      49.5067    -999.2500    -999.2500     402.2430     205.8742     518.8652       0.0716       3.3849       2.4327     -46.1720
   2437.4858      12.2330       0.0080      49.2970      47.3620    -999.2500    -999.2500     288.4830     150.1230     741.0000       0.0686       3.3320       2.1740     -46.1720
   2437.6382      10.6514       0.0020      63.7173      41.5407    -999.2500    -999.2500     233.3194     122.5046     411.1825       0.0845       3.2062       1.8507     -46.1640
   2437.7905       9.0780      -0.0040      78.0620      35.7500    -999.2500    -999.2500     178.4450      95.0310      83.0940       0.1086       3.0810       1.5290     -46.1560
   2437.9431       9.2232       0.0186      77.8535      38.4589    -999.2500    -999.2500     179.5665     101.0226     164.5741       0.1307       2.7825       1.5607     -46.3917
   2438.0955       9.3670       0.0410      77.6470      41.1410    -999.2500    -999.2500     180.6770     106.9550     245.2500       0.1537       2.4870       1.5920     -46.6250
   2438.2478       9.3610       0.0912      75.5198      39.6113    -999.2500    -999.2500     174.0896     104.2821     126.2597       0.1803       2.4996       1.7286     -46.6205
   2438.4001       9.3550       0.1410      73.4100      38.0940    -999.2500    -999.2500     167.5560     101.6310       8.2400       0.2012       2.5120       1.8640     -46.6160
   2438.5527       9.3149       0.1405      65.1851      38.1562    -999.2500    -999.2500     144.2831      87.3379       6.5173       0.2063       2.5676       2.0028     -46.5965
   2438.7051       9.2750       0.1400      57.0000      38.2180    -999.2500    -999.2500     121.1230      73.1140       4.8030       0.1966       2.6230       2.1410     -46.5770
   2438.8574       9.0578       0.1275      57.0525      39.3284    -999.2500    -999.2500     122.6967      74.0417       5.1698       0.1709       2.7031       2.2421     -46.5610
   2439.0098       8.8410       0.1150      57.1050      40.4370    -999.2500    -999.2500     124.2680      74.9680       5.5360       0.1400       2.7830       2.3430     -46.5450
   2439.1621       8.6996       0.1005      57.9145      44.0267    -999.2500    -999.2500     154.2085      92.5311      27.1868       0.1144       2.9766       2.4895     -46.4126
   2439.3147       8.5590       0.0860      58.7190      47.5940    -999.2500    -999.2500     183.9630     109.9850      48.7030       0.0951       3.1690       2.6350     -46.2810
   2439.4670       8.5178       0.0659      57.7779      46.0305    -999.2500    -999.2500     276.1422     162.3451      45.5529       0.0840       3.2142       2.6335     -46.0603
   2439.6194       8.4770       0.0460      56.8470      44.4840    -999.2500    -999.2500     367.3230     214.1380      42.4370       0.0787       3.2590       2.6320     -45.8420
   2439.7717       8.4534       0.0294      53.6771      45.0280    -999.2500    -999.2500     402.7544     233.2243      62.5326       0.0774       3.1335       2.6506     -45.6076
   2439.9243       8.4300       0.0130      50.5310      45.5680    -999.2500    -999.2500     437.9190     252.1670      82.4770       0.0778       3.0090       2.6690     -45.3750
   2440.0767       8.4300       0.0080      51.7681      50.9985    -999.2500    -999.2500     385.3584     222.6416      93.8014       0.0779       3.0290       2.6915     -45.1946
   2440.2290       8.4300       0.0030      53.0000      56.4060    -999.2500    -999.2500     333.0200     193.2410     105.0780       0.0779       3.0490       2.7140     -45.0150
   2440.3813       8.4260       0.0030      51.6233      53.2460    -999.2500    -999.2500     337.3294     184.1010     165.6774       0.0782       3.0350       2.6930     -44.9339
   2440.5339       8.4220       0.0030      50.2500      50.0940    -999.2500    -999.2500     341.6280     174.9840     226.1250       0.0792       3.0210       2.6720     -44.8530
   2440.6863       8.4290       0.0055      51.6229      52.4851    -999.2500    -999.2500     394.7413     201.2539     175.9292       0.0816       3.1173       2.6394     -44.7772
   2440.8386       8.4360       0.0080      52.9860      54.8590    -999.2500    -999.2500     447.4730     227.3350     126.0940       0.0839       3.2130       2.6070     -44.7020
   2440.9910       8.4591       0.0110      53.3152      50.1867    -999.2500    -999.2500     496.0337     259.0081     323.3031       0.0850       3.2577       2.6462     -44.6477
   2441.1433       8.4820       0.0140      53.6410      45.5620    -999.2500    -999.2500     544.0990     290.3580     518.5000       0.0840       3.3020       2.6850     -44.5940
   2441.2959       8.5066       0.0115      52.6757      45.6368    -999.2500    -999.2500     572.7390     310.9396     425.3029       0.0800       3.2343       2.6845     -44.7972
   2441.4482       8.5310       0.0090      51.7170      45.7110    -999.2500    -999.2500     601.1810     331.3790     332.7500       0.0751       3.1670       2.6840     -44.9990
   2441.6006       8.5506       0.0100      51.1225      46.5061    -999.2500    -999.2500     617.2658     347.6046     340.1442       0.0710       3.2051       2.6795     -45.0777
   2441.7529       8.5700       0.0110      50.5310      47.2970    -999.2500    -999.2500     633.2670     363.7460     347.5000       0.0700       3.2430       2.6750     -45.1560
   2441.9055       8.5700       0.0110      50.3278      45.7956    -999.2500    -999.2500     596.7823     350.9515     319.2970       0.0748       3.1905       2.6595     -45.5213
   2442.0579       8.5700       0.0110      50.1250      44.2970    -999.2500    -999.2500     560.3660     338.1810     291.1470       0.0809       3.1380       2.6440     -45.8860
   2442.2102       8.5700       0.0100      50.5230      44.5125    -999.2500    -999.2500     503.9807     309.2497     211.5325       0.0835       3.0879       2.6500     -46.1612
   2442.3625       8.5700       0.0090      50.9190      44.7270    -999.2500    -999.2500     447.8750     280.4620     132.3130       0.0832       3.0380       2.6560     -46.4350
   2442.5151       8.9056       0.0075      51.0878      45.7745    -999.2500    -999.2500     406.1339     260.7877     139.2392       0.0798       3.0501       2.6555     -46.8525
   2442.6675       9.2380       0.0060      51.2550      46.8120    -999.2500    -999.2500     364.7930     241.3020     146.0990       0.0773       3.0620       2.6550     -47.2660
   2442.8198       9.0086       0.0050      51.4101      44.9376    -999.2500    -999.2500     370.0537     245.1522     211.2531       0.0803       2.9676       2.6490     -47.1455
   2442.9722       8.7810       0.0040      51.5640      43.0780    -999.2500    -999.2500     375.2730     248.9720     275.8940       0.0840       2.8740       2.6430     -47.0260
   2443.1245       8.8497       0.0065      52.3323      44.2447    -999.2500    -999.2500     393.7637     259.0906     431.0513       0.0837       2.8930       2.6395     -46.9468
