#------------------------------------------------------------------------------
#
#   Created by  : [OpenWorks] Log Export Utility (LEXP)
#   Created on  : 2016-05-24 12:12:04
#   Project     : CANT971
#   User        : R5K
#   Interpreter : PEP
#
#------------------------------------------------------------------------------
~VERSION INFORMATION
VERS. 2.0 : CWLS Log ASCII Standard - version 2.0
WRAP.  NO : One line per depth step
~WELL INFORMATION
#MNEMONIC   .UNIT                                           VALUE :DESCRIPTION
#------------------------------------------------------------------------------
STRT        .M                                          1605.0770 :START DEPTH
STOP        .M                                          2483.6631 :STOP DEPTH
STEP        .M                                             0.1524 :STEP
NULL        .                                           -999.2500 :NULL VALUE
COMP        .                                   PEMEX EXPL & PROD :COMPANY
WELL        .                                                1023 :WELL
FLD         .                                           CANTARELL :FIELD
LOC         .                                             UNKNOWN :LOCATION
CNTY        .                                      CD. DEL CARMEN :COUNTY
STAT        .                                            CAMPECHE :STATE
CTRY        .                                              MEXICO :COUNTRY
SRVC        .                                             UNKNOWN :SERVICE COMPANY
DATE        .                                             UNKNOWN :LOG DATE
UWI         .                                          3060000489 :UNIQUE WELL ID
XCOORD      .                                       598527.650000 :SURFACE X
YCOORD      .                                      2152011.600000 :SURFACE Y
LAT         .                                           19.461305 :LATITUDE
LON         .                                          -92.061299 :LONGITUDE
ELEV        .M                                            27.9700 :SURFACE ELEV
ELEV_TYPE   .                                                  KB :ELEV TYPE
~CURVE INFORMATION
#MNEMONIC.UNIT        API CODE       : CURVE DESCRIPTION
#------------------------------------------------------------------------------
DEPTH    .M                          : Measured Depth
CALI     .inches      UNKNOWN        : CALI:registros:rC:NONE:v0 (auto-composite)
DRHO     .g/cm3       UNKNOWN        : DRHO:registros:rC:NONE:v0 (auto-composite)
DT       .us/ft       UNKNOWN        : DT:registros:rC:NONE:v0 (auto-composite)
GR       .API         UNKNOWN        : GR:registros:rC:NONE:v0 (auto-composite)
ILD      .ohm.m       UNKNOWN        : ILD:registros:rC:NONE:v0 (auto-composite)
ILM      .ohm.m       UNKNOWN        : ILM:registros:rC:NONE:v0 (auto-composite)
LLD      .ohm.m       UNKNOWN        : LLD:registros:rC:NONE:v0 (auto-composite)
LLS      .ohm.m       UNKNOWN        : LLS:registros:rC:NONE:v0 (auto-composite)
MSFL     .ohm.m       UNKNOWN        : MSFL:registros:rC:NONE:v0 (auto-composite)
NPHI     .UNKNOWN     UNKNOWN        : NPHI:registros:rC:NONE:v0 (auto-composite)
PEF      .UNKNOWN     UNKNOWN        : PEF:registros:rC:NONE:v0 (auto-composite)
RHOB     .g/cm3       UNKNOWN        : RHOB:registros:rC:NONE:v0 (auto-composite)
SP       .mV          UNKNOWN        : SP:registros:rC:NONE:v0 (auto-composite)
~A     DEPTH         CALI         DRHO           DT           GR          ILD          ILM          LLD          LLS         MSFL         NPHI          PEF         RHOB           SP
# ...
   2403.0435       8.4300      -0.0040      65.1050      60.6880    -999.2500    -999.2500      28.7220      27.1380      31.3000       0.1538       3.0030       2.5480     -39.9840
   2403.1958       8.4300      -0.0015      64.0452      61.1253    -999.2500    -999.2500      30.5219      28.7923      33.4237       0.1500       3.0497       2.5515     -40.0312
   2403.3481       8.4300       0.0010      62.9940      61.5590    -999.2500    -999.2500      32.3070      30.4330      35.5300       0.1462       3.0960       2.5550     -40.0780
   2403.5007       8.4300       0.0050      62.4767      63.0411    -999.2500    -999.2500      37.6906      35.1545      42.9516       0.1422       3.1140       2.5530     -40.0078
   2403.6531       8.4300       0.0090      61.9620      64.5160    -999.2500    -999.2500      43.0480      39.8530      50.3370       0.1378       3.1320       2.5510     -39.9380
   2403.8054       8.4300       0.0120      58.9316      64.2188    -999.2500    -999.2500      59.7961      50.4978      64.6882       0.1329       3.1190       2.5595     -40.0471
   2403.9578       8.4300       0.0150      55.9060      63.9220    -999.2500    -999.2500      76.5180      61.1260      79.0170       0.1275       3.1060       2.5680     -40.1560
   2404.1101       8.4300       0.0125      58.6019      63.9782    -999.2500    -999.2500      76.2527      65.3326      98.1151       0.1212       3.1286       2.5866     -40.1068
   2404.2627       8.4300       0.0100      61.2810      64.0340    -999.2500    -999.2500      75.9890      69.5130     117.0940       0.1171       3.1510       2.6050     -40.0580
   2404.4150       8.4320       0.0120      60.4922      65.0224    -999.2500    -999.2500      72.7499      67.1120      89.5460       0.1183       3.1012       2.6135     -40.0334
   2404.5674       8.4340       0.0140      59.7120      66.0000    -999.2500    -999.2500      69.5460      64.7370      62.2970       0.1210       3.0520       2.6220     -40.0090
   2404.7197       8.4335       0.0140      58.8277      64.6906    -999.2500    -999.2500      68.6597      63.6298      65.7947       0.1216       3.0932       2.6195     -39.8379
   2404.8723       8.4330       0.0140      57.9500      63.3910    -999.2500    -999.2500      67.7800      62.5310      69.2660       0.1203       3.1340       2.6170     -39.6680
   2405.0247       8.4315       0.0120      57.8498      65.3557    -999.2500    -999.2500      59.5831      55.4059      68.6006       0.1172       3.2367       2.6240     -39.6465
   2405.1770       8.4300       0.0100      57.7500      67.3120    -999.2500    -999.2500      51.4210      48.3110      67.9380       0.1137       3.3390       2.6310     -39.6250
   2405.3293       8.4180       0.0080      57.4216      70.3789    -999.2500    -999.2500      49.3248      46.6414      80.0939       0.1114       3.2128       2.6230     -39.3842
   2405.4819       8.4060       0.0060      57.0940      73.4380    -999.2500    -999.2500      47.2340      44.9760      92.2190       0.1092       3.0870       2.6150     -39.1440
   2405.6343       8.4160       0.0055      57.6430      72.1202    -999.2500    -999.2500      51.5762      48.9669      88.0259       0.1061       3.0995       2.6185     -38.9578
   2405.7866       8.4260       0.0050      58.1880      70.8120    -999.2500    -999.2500      55.8870      52.9290      83.8630       0.1030       3.1120       2.6220     -38.7730
   2405.9390       8.4280       0.0055      57.6704      71.9207    -999.2500    -999.2500      57.5822      54.4739      77.0059       0.1010       3.1351       2.6321     -38.6594
   2406.0913       8.4300       0.0060      57.1580      73.0180    -999.2500    -999.2500      59.2600      56.0030      70.2190       0.0998       3.1580       2.6420     -38.5470
   2406.2439       8.4300       0.0065      56.3106      73.8870    -999.2500    -999.2500      62.5188      58.6161      71.4031       0.0989       3.2558       2.6550     -38.4687
   2406.3962       8.4300       0.0070      55.4690      74.7500    -999.2500    -999.2500      65.7550      61.2110      72.5790       0.1010       3.3530       2.6680     -38.3910
   2406.5486       8.4300       0.0080      56.1904      70.5515    -999.2500    -999.2500      71.1982      65.8626      85.2285       0.1087       3.1780       2.6530     -38.6527
   2406.7009       8.4300       0.0090      56.9080      66.3750    -999.2500    -999.2500      76.6130      70.4900      97.8120       0.1165       3.0040       2.6380     -38.9130
   2406.8535       8.4300       0.0090      58.0801      66.1678    -999.2500    -999.2500      84.4179      77.9571      96.8426       0.1188       3.1596       2.6165     -39.1127
   2407.0059       8.4300       0.0090      59.2500      65.9610    -999.2500    -999.2500      92.2080      85.4100      95.8750       0.1175       3.3150       2.5950     -39.3120
   2407.1582       8.4300       0.0090      59.1848      62.4563    -999.2500    -999.2500      92.0416      85.2742     100.9321       0.1147       3.3145       2.5960     -39.4809
   2407.3105       8.4300       0.0090      59.1200      58.9690    -999.2500    -999.2500      91.8760      85.1390     105.9640       0.1113       3.3140       2.5970     -39.6490
   2407.4631       8.4300       0.0075      57.7564      56.0248    -999.2500    -999.2500      88.5400      82.3998     162.5194       0.1081       3.2989       2.6166     -39.7389
   2407.6155       8.4300       0.0060      56.4060      53.1090    -999.2500    -999.2500      85.2360      79.6870     218.5310       0.1066       3.2840       2.6360     -39.8280
   2407.7678       8.4300       0.0060      55.7474      57.1188    -999.2500    -999.2500      78.0270      73.1793     191.7271       0.1080       3.1660       2.6420     -39.7979
   2407.9202       8.4300       0.0060      55.0940      61.0970    -999.2500    -999.2500      70.8750      66.7230     165.1350       0.1100       3.0490       2.6480     -39.7680
   2408.0725       8.4300       0.0060      55.8723      61.5886    -999.2500    -999.2500      70.5923      66.9064     127.1678       0.1101       3.0440       2.6365     -39.7475
   2408.2251       8.4300       0.0060      56.6470      62.0780    -999.2500    -999.2500      70.3110      67.0890      89.3750       0.1087       3.0390       2.6250     -39.7270
   2408.3774       8.4300       0.0065      57.2329      61.9094    -999.2500    -999.2500      73.4340      70.3211      98.5884       0.1058       3.0250       2.6275     -39.6605
   2408.5298       8.4300       0.0070      57.8180      61.7410    -999.2500    -999.2500      76.5530      73.5490     107.7900       0.1041       3.0110       2.6300     -39.5940
   2408.6821       8.4300       0.0055      58.0036      60.5625    -999.2500    -999.2500      78.2791      75.0114     126.3408       0.1057       3.1023       2.6320     -39.5780
   2408.8347       8.4300       0.0040      58.1880      59.3910    -999.2500    -999.2500      79.9950      76.4650     144.7810       0.1076       3.1930       2.6340     -39.5620
   2408.9871       8.4300       0.0025      57.7009      60.2546    -999.2500    -999.2500      84.7421      79.6433     114.7471       0.1064       3.0683       2.6305     -39.5886
   2409.1394       8.4300       0.0010      57.2190      61.1090    -999.2500    -999.2500      89.4390      82.7880      85.0310       0.1053       2.9450       2.6270     -39.6150
   2409.2917       8.4300       0.0045      57.2411      60.4145    -999.2500    -999.2500     105.6379      95.1816     102.1558       0.1073       2.9616       2.6315     -39.7590
   2409.4443       8.4300       0.0080      57.2630      59.7250    -999.2500    -999.2500     121.7190     107.4850     119.1560       0.1098       2.9780       2.6360     -39.9020
   2409.5967       8.4300       0.0090      57.3973      55.5652    -999.2500    -999.2500     155.9825     134.6620     128.8002       0.1101       3.0762       2.6245     -39.9822
