#------------------------------------------------------------------------------
#
#   Created by  : [OpenWorks] Log Export Utility (LEXP)
#   Created on  : 2016-05-24 12:12:04
#   Project     : CANT971
#   User        : R5K
#   Interpreter : PEP
#
#------------------------------------------------------------------------------
~VERSION INFORMATION
VERS. 2.0 : CWLS Log ASCII Standard - version 2.0
WRAP.  NO : One line per depth step
~WELL INFORMATION
#MNEMONIC   .UNIT                                           VALUE :DESCRIPTION
#------------------------------------------------------------------------------
STRT        .M                                          1605.0770 :START DEPTH
STOP        .M                                          2483.6631 :STOP DEPTH
STEP        .M                                             0.1524 :STEP
NULL        .                                           -999.2500 :NULL VALUE
COMP        .                                   PEMEX EXPL & PROD :COMPANY
WELL        .                                                1023 :WELL
FLD         .                                           CANTARELL :FIELD
LOC         .                                             UNKNOWN :LOCATION
CNTY        .                                      CD. DEL CARMEN :COUNTY
STAT        .                                            CAMPECHE :STATE
CTRY        .                                              MEXICO :COUNTRY
SRVC        .                                             UNKNOWN :SERVICE COMPANY
DATE        .                                             UNKNOWN :LOG DATE
UWI         .                                          3060000489 :UNIQUE WELL ID
XCOORD      .                                       598527.650000 :SURFACE X
YCOORD      .                                      2152011.600000 :SURFACE Y
LAT         .                                           19.461305 :LATITUDE
LON         .                                          -92.061299 :LONGITUDE
ELEV        .M                                            27.9700 :SURFACE ELEV
ELEV_TYPE   .                                                  KB :ELEV TYPE
~CURVE INFORMATION
#MNEMONIC.UNIT        API CODE       : CURVE DESCRIPTION
#------------------------------------------------------------------------------
DEPTH    .M                          : Measured Depth
CALI     .inches      UNKNOWN        : CALI:registros:rC:NONE:v0 (auto-composite)
DRHO     .g/cm3       UNKNOWN        : DRHO:registros:rC:NONE:v0 (auto-composite)
DT       .us/ft       UNKNOWN        : DT:registros:rC:NONE:v0 (auto-composite)
GR       .API         UNKNOWN        : GR:registros:rC:NONE:v0 (auto-composite)
ILD      .ohm.m       UNKNOWN        : ILD:registros:rC:NONE:v0 (auto-composite)
ILM      .ohm.m       UNKNOWN        : ILM:registros:rC:NONE:v0 (auto-composite)
LLD      .ohm.m       UNKNOWN        : LLD:registros:rC:NONE:v0 (auto-composite)
LLS      .ohm.m       UNKNOWN        : LLS:registros:rC:NONE:v0 (auto-composite)
MSFL     .ohm.m       UNKNOWN        : MSFL:registros:rC:NONE:v0 (auto-composite)
NPHI     .UNKNOWN     UNKNOWN        : NPHI:registros:rC:NONE:v0 (auto-composite)
PEF      .UNKNOWN     UNKNOWN        : PEF:registros:rC:NONE:v0 (auto-composite)
RHOB     .g/cm3       UNKNOWN        : RHOB:registros:rC:NONE:v0 (auto-composite)
SP       .mV          UNKNOWN        : SP:registros:rC:NONE:v0 (auto-composite)
~A     DEPTH         CALI         DRHO           DT           GR          ILD          ILM          LLD          LLS         MSFL         NPHI          PEF         RHOB           SP
# ...
   2275.6370       8.5700      -0.9340      70.6880       9.3400       7.2710       7.0620       0.1400       0.2540       0.5750       0.2066      83.6560       2.2010      -7.1290
   2275.7893       8.5700      -0.9060      61.2672      11.0416       7.5595       6.9585       0.1695       0.2981       0.7062       0.2098      49.8606       2.1845      -5.0468
   2275.9419       8.5700      -0.8780      51.8750      12.7380       7.8480       6.8550       0.1990       0.3420       0.8370       0.2110      16.1680       2.1680      -2.9710
   2276.0942       8.6658      -0.6252      61.5320      12.3934       7.9435       7.6139       0.1338       0.2176       0.6745       0.1917      11.9215       2.1389      -1.9148
   2276.2466       8.7610      -0.3740      71.1300      12.0510       8.0390       8.3730       0.0690       0.0940       0.5130       0.1701       7.7010       2.1100      -0.8650
   2276.3989       8.9554      -0.2283      79.0704      12.9577       8.0840       9.0549       0.2322       0.3075       0.5135       0.1493       8.4359       2.1321      -0.6576
   2276.5515       9.1480      -0.0840      86.9380      13.8560       8.1290       9.7360       0.3940       0.5190       0.5140       0.1304       9.1640       2.1540      -0.4520
   2276.7039       9.4903       0.0400      83.7225      14.4321       8.1225       9.8816      32.6692      10.7446       2.7287       0.1245       7.9796       2.3236      -0.3346
   2276.8562       9.8300       0.1630      80.5310      15.0040       8.1160      10.0270      64.7040      20.8940       4.9270       0.1236       6.8040       2.4920      -0.2180
   2277.0085      11.1277       0.1404      71.3331      16.8272       8.0985       8.3697      40.8316      18.4590       8.4827       0.1516       5.6507       2.5146      -0.0741
   2277.1611      12.4180       0.1180      62.1880      18.6400       8.0810       6.7140      17.0960      16.0380      12.0180       0.1769       4.5040       2.5370       0.0690
   2277.3135      12.2243       0.1035      68.9617      20.1658       8.0775       6.1648      11.2314      11.1546       9.3623       0.1505       4.6276       2.5340      -0.0642
   2277.4658      12.0310       0.0890      75.7190      21.6880       8.0740       5.6160       5.3810       6.2830       6.7130       0.1214       4.7510       2.5310      -0.1970
   2277.6182      12.0325       0.0499      75.5876      20.0189       8.0565       5.5155       7.4542       7.7205     154.1994       0.1200       4.8763       2.5155      -0.2150
   2277.7705      12.0340       0.0110      75.4570      18.3590       8.0390       5.4150       9.5160       9.1500     300.8750       0.1233       5.0010       2.5000      -0.2330
   2277.9231      12.0511       0.0115      71.9136      18.6580       8.0390       5.3930       9.4155       9.0254     300.2137       0.1393       5.3010       2.4070      -0.3119
   2278.0754      12.0680       0.0120      68.4060      18.9540       8.0390       5.3710       9.3160       8.9020     299.5590       0.1600       5.5980       2.3150      -0.3900
   2278.2278      12.2593       0.0210      68.6726      27.6576       8.0390       5.3670       7.1127       6.4196     264.4312       0.2114       5.6161       2.3150      -0.4774
   2278.3801      12.4490       0.0300      68.9370      36.2880       8.0390       5.3630       4.9280       3.9580     229.5990       0.2633       5.6340       2.3150      -0.5640
   2278.5327      12.5763       0.0460      78.1325      40.7333       8.0390       5.3610       3.4648       2.8687     115.4217       0.2920       5.9603       2.3255      -0.5755
   2278.6851      12.7030       0.0620      87.2810      45.1560       8.0390       5.3590       2.0090       1.7850       1.8270       0.3174       6.2850       2.3360      -0.5870
   2278.8374      12.7540       0.0540      93.8644      46.3010       8.0390       5.3590       2.5710       1.7870       1.7715       0.3362       5.6825       2.3180      -0.6621
   2278.9897      12.8050       0.0460     100.4360      47.4440       8.0390       5.3590       3.1320       1.7890       1.7160       0.3539       5.0810       2.3000      -0.7370
   2279.1423      12.3400       0.0505     109.6854      49.4941       8.0390       5.3590       3.4189       1.7579       1.4777       0.3679       4.1149       2.2724      -0.6357
   2279.2947      11.8780       0.0550     118.8750      51.5310       8.0390       5.3590       3.7040       1.7270       1.2410       0.3750       3.1550       2.2450      -0.5350
   2279.4470      11.1134       0.0605     117.4080      50.1705       8.0390       5.3590       3.7673       1.8385       1.3149       0.3217       3.1831       2.2862      -0.5958
   2279.5994      10.3560       0.0660     115.9550      48.8230       8.0390       5.3590       3.8300       1.9490       1.3880       0.2677       3.2110       2.3270      -0.6560
   2279.7517       9.7501       0.0640     105.6014      46.0278       8.0390       5.3590       4.4705       2.1968       1.9798       0.2628       3.3294       2.3817      -0.5903
   2279.9043       9.1480       0.0620      95.3120      43.2500       8.0390       5.3590       5.1070       2.4430       2.5680       0.2630       3.4470       2.4360      -0.5250
   2280.0566       9.2031       0.0540      95.4844      41.7070       8.0390       5.3590       5.0930       2.5522       2.4061       0.2619       3.5663       2.4681      -0.6558
   2280.2090       9.2580       0.0460      95.6560      40.1710       8.0390       5.3590       5.0790       2.6610       2.2450       0.2594       3.6850       2.5000      -0.7860
   2280.3613       9.2575       0.0375      95.6194      38.7310       8.0390       5.3595       4.8657       2.6765       2.2570       0.2440       3.6820       2.4995      -0.7835
   2280.5139       9.2570       0.0290      95.5830      37.2950       8.0390       5.3600       4.6530       2.6920       2.2690       0.2279       3.6790       2.4990      -0.7810
   2280.6663       9.2475       0.0240      95.0244      37.1626       8.0410       5.3615       4.3130       2.7085       2.4671       0.2191       3.6379       2.4940      -0.7369
   2280.8186       9.2380       0.0190      94.4690      37.0310       8.0430       5.3630       3.9750       2.7250       2.6640       0.2120       3.5970       2.4890      -0.6930
   2280.9709       9.4067       0.0205      94.3264      36.7879       8.0450       5.3630       3.5034       2.5050       2.7519       0.2152       3.5915       2.4960      -0.8577
   2281.1235       9.5740       0.0220      94.1850      36.5470       8.0470       5.3630       3.0360       2.2870       2.8390       0.2202       3.5860       2.5030      -1.0210
   2281.2759       9.4977       0.0315      93.9356      39.6090       8.0470       5.3630       3.0817       2.2569       2.8591       0.2343       3.4656       2.4739      -1.0210
   2281.4282       9.4220       0.0410      93.6880      42.6490       8.0470       5.3630       3.1270       2.2270       2.8790       0.2495       3.3460       2.4450      -1.0210
   2281.5806       9.9133       0.0520      95.1370      43.6297       8.0470       5.3645       3.0849       2.1508       2.7436       0.2687       3.3064       2.3678      -1.0210
   2281.7329      10.4020       0.0630      96.5780      44.6050       8.0470       5.3660       3.0430       2.0750       2.6090       0.2901       3.2670       2.2910      -1.0210
   2281.8855      10.2143       0.0870      99.0151      46.3203       8.0470       5.3675       2.9184       1.9218       2.2461       0.3315       3.1854       2.3050      -1.0210
   2282.0378      10.0270       0.1110     101.4470      48.0320       8.0470       5.3690       2.7940       1.7690       1.8840       0.3696       3.1040       2.3190      -1.0210
   2282.1902      10.1057       0.0935     104.5817      50.8278       8.0470       5.3735       2.4090       1.5113       1.9166       0.3518       3.1596       2.3005      -1.0210
