#------------------------------------------------------------------------------
#
#   Created by  : [OpenWorks] Log Export Utility (LEXP)
#   Created on  : 2016-05-24 12:12:04
#   Project     : CANT971
#   User        : R5K
#   Interpreter : PEP
#
#------------------------------------------------------------------------------
~VERSION INFORMATION
VERS. 2.0 : CWLS Log ASCII Standard - version 2.0
WRAP.  NO : One line per depth step
~WELL INFORMATION
#MNEMONIC   .UNIT                                           VALUE :DESCRIPTION
#------------------------------------------------------------------------------
STRT        .M                                          1605.0770 :START DEPTH
STOP        .M                                          2483.6631 :STOP DEPTH
STEP        .M                                             0.1524 :STEP
NULL        .                                           -999.2500 :NULL VALUE
COMP        .                                   PEMEX EXPL & PROD :COMPANY
WELL        .                                                1023 :WELL
FLD         .                                           CANTARELL :FIELD
LOC         .                                             UNKNOWN :LOCATION
CNTY        .                                      CD. DEL CARMEN :COUNTY
STAT        .                                            CAMPECHE :STATE
CTRY        .                                              MEXICO :COUNTRY
SRVC        .                                             UNKNOWN :SERVICE COMPANY
DATE        .                                             UNKNOWN :LOG DATE
UWI         .                                          3060000489 :UNIQUE WELL ID
XCOORD      .                                       598527.650000 :SURFACE X
YCOORD      .                                      2152011.600000 :SURFACE Y
LAT         .                                           19.461305 :LATITUDE
LON         .                                          -92.061299 :LONGITUDE
ELEV        .M                                            27.9700 :SURFACE ELEV
ELEV_TYPE   .                                                  KB :ELEV TYPE
~CURVE INFORMATION
#MNEMONIC.UNIT        API CODE       : CURVE DESCRIPTION
#------------------------------------------------------------------------------
DEPTH    .M                          : Measured Depth
CALI     .inches      UNKNOWN        : CALI:registros:rC:NONE:v0 (auto-composite)
DRHO     .g/cm3       UNKNOWN        : DRHO:registros:rC:NONE:v0 (auto-composite)
DT       .us/ft       UNKNOWN        : DT:registros:rC:NONE:v0 (auto-composite)
GR       .API         UNKNOWN        : GR:registros:rC:NONE:v0 (auto-composite)
ILD      .ohm.m       UNKNOWN        : ILD:registros:rC:NONE:v0 (auto-composite)
ILM      .ohm.m       UNKNOWN        : ILM:registros:rC:NONE:v0 (auto-composite)
LLD      .ohm.m       UNKNOWN        : LLD:registros:rC:NONE:v0 (auto-composite)
LLS      .ohm.m       UNKNOWN        : LLS:registros:rC:NONE:v0 (auto-composite)
MSFL     .ohm.m       UNKNOWN        : MSFL:registros:rC:NONE:v0 (auto-composite)
NPHI     .UNKNOWN     UNKNOWN        : NPHI:registros:rC:NONE:v0 (auto-composite)
PEF      .UNKNOWN     UNKNOWN        : PEF:registros:rC:NONE:v0 (auto-composite)
RHOB     .g/cm3       UNKNOWN        : RHOB:registros:rC:NONE:v0 (auto-composite)
SP       .mV          UNKNOWN        : SP:registros:rC:NONE:v0 (auto-composite)
~A     DEPTH         CALI         DRHO           DT           GR          ILD          ILM          LLD          LLS         MSFL         NPHI          PEF         RHOB           SP
# ...
   2335.9873       8.9490       0.0790      63.6560      28.6140    -999.2500    -999.2500      55.1560      56.0030     198.9870       0.1275       4.0900       2.5640       4.1050
   2336.1399       8.9405       0.0925      63.0368      39.8618    -999.2500    -999.2500      33.7853      34.5485     101.1773       0.1325       4.1527       2.5780       4.1652
   2336.2922       8.9320       0.1060      62.4220      51.0310    -999.2500    -999.2500      12.5640      13.2440       4.0510       0.1292       4.2150       2.5920       4.2250
   2336.4446       8.8819       0.1060      62.4220      51.0310    -999.2500    -999.2500       8.7259       9.1527       4.0510       0.1184       4.2150       2.5920       4.2250
   2336.5969       8.8320       0.1060      62.4220      51.0310    -999.2500    -999.2500       4.9080       5.0830       4.0510       0.1054       4.2150       2.5920       4.2250
   2336.7495       8.6934       0.0985      62.9926      46.1983    -999.2500    -999.2500       4.6087       4.8943      17.7539       0.0870       4.0639       2.5920       4.0333
   2336.9019       8.5550       0.0910      63.5620      41.3750    -999.2500    -999.2500       4.3100       4.7060      31.4300       0.0706       3.9130       2.5920       3.8420
   2337.0542       8.5565       0.0910      63.9851      35.3714    -999.2500    -999.2500       6.5877       7.2118      33.5378       0.0718       3.6393       2.5745       3.7748
   2337.2065       8.5580       0.0910      64.4060      29.3980    -999.2500    -999.2500       8.8540       9.7050      35.6350       0.0854       3.3670       2.5570       3.7080
   2337.3591       8.6927       0.0654      62.2707      31.5439    -999.2500    -999.2500      10.0754       9.5101     143.1496       0.1530       3.2233       2.4007       3.9617
   2337.5115       8.8260       0.0400      60.1560      33.6690    -999.2500    -999.2500      11.2850       9.3170     249.6250       0.2237       3.0810       2.2460       4.2130
   2337.6638       8.9234       0.0651      69.2808      44.7947    -999.2500    -999.2500       7.5356       6.4541     125.5119       0.2604       3.2647       2.2857       4.0293
   2337.8162       9.0200       0.0900      78.3330      55.8320    -999.2500    -999.2500       3.8160       3.6140       2.3860       0.2859       3.4470       2.3250       3.8470
   2337.9685       8.7829       0.0860      93.5614      58.4531    -999.2500    -999.2500       3.0367       2.8457       2.5018       0.2828       3.6229       2.3661       4.4805
   2338.1211       8.5470       0.0820     108.7190      61.0620    -999.2500    -999.2500       2.2610       2.0810       2.6170       0.2718       3.7980       2.4070       5.1110
   2338.2734       8.5555       0.1155     108.0400      58.7154    -999.2500    -999.2500       2.8849       2.3587       2.5144       0.2447       3.7515       2.4390       5.2241
   2338.4258       8.5640       0.1490     107.3620      56.3720    -999.2500    -999.2500       3.5080       2.6360       2.4120       0.2188       3.7050       2.4710       5.3370
   2338.5781       8.6377       0.1485     100.4883      53.3113    -999.2500    -999.2500       3.4945       2.8923       3.3533       0.2151       3.7050       2.4906       5.8260
   2338.7307       8.7110       0.1480      93.6560      50.2690    -999.2500    -999.2500       3.4810       3.1470       4.2890       0.2155       3.7050       2.5100       6.3120
   2338.8831       8.7100       0.1415      93.6811      48.5237    -999.2500    -999.2500       3.2483       3.0500       3.8125       0.2170       3.7151       2.4984       6.0607
   2339.0354       8.7090       0.1350      93.7060      46.7970    -999.2500    -999.2500       3.0180       2.9540       3.3410       0.2188       3.7250       2.4870       5.8120
   2339.1877       8.6759       0.1169      94.4417      46.8201    -999.2500    -999.2500       3.0245       2.9540       3.3505       0.2213       4.0121       2.4875       5.8160
   2339.3403       8.6430       0.0990      95.1720      46.8430    -999.2500    -999.2500       3.0310       2.9540       3.3600       0.2238       4.2970       2.4880       5.8200
   2339.4927       8.6240       0.0965      95.4305      47.6186    -999.2500    -999.2500       3.2509       2.9610       3.7147       0.2254       4.3000       2.4895       5.9412
   2339.6450       8.6050       0.0940      95.6880      48.3910    -999.2500    -999.2500       3.4700       2.9680       4.0680       0.2268       4.3030       2.4910       6.0620
   2339.7974       8.5894       0.0960      95.3114      47.9355    -999.2500    -999.2500       3.2325       2.9128       3.7175       0.2272       4.1107       2.4910       5.9535
   2339.9497       8.5740       0.0980      94.9380      47.4840    -999.2500    -999.2500       2.9970       2.8580       3.3700       0.2237       3.9200       2.4910       5.8460
   2340.1023       8.5448       0.0874      95.7715      45.1721    -999.2500    -999.2500       3.6035       3.3367       3.3076       0.2004       3.9915       2.5257       5.9980
   2340.2546       8.5160       0.0770      96.5940      42.8910    -999.2500    -999.2500       4.2020       3.8090       3.2460       0.1779       4.0620       2.5600       6.1480
   2340.4070       8.5180       0.0695      91.5844      43.3704    -999.2500    -999.2500       4.1472       3.7763       6.4410       0.1779       3.9399       2.4952       6.0787
   2340.5593       8.5200       0.0620      86.6250      43.8450    -999.2500    -999.2500       4.0930       3.7440       9.6040       0.1869       3.8190       2.4310       6.0100
   2340.7119       8.4864       0.0916      86.6877      45.5392    -999.2500    -999.2500       3.8652       3.4470       6.4579       0.2203       3.8315       2.4310       6.0391
   2340.8643       8.4530       0.1210      86.7500      47.2220    -999.2500    -999.2500       3.6390       3.1520       3.3330       0.2523       3.8440       2.4310       6.0680
   2341.0166       8.5021       0.1075      90.3370      48.0741    -999.2500    -999.2500       3.4069       3.1565       3.3866       0.2538       3.8460       2.4340       6.1848
   2341.1689       8.5510       0.0940      93.9060      48.9220    -999.2500    -999.2500       3.1760       3.1610       3.4400       0.2410       3.8480       2.4370       6.3010
   2341.3215       8.5470       0.0945      93.5262      48.6338    -999.2500    -999.2500       3.2716       3.3186       4.7791       0.1848       3.8915       2.4715       6.2965
   2341.4739       8.5430       0.0950      93.1470      48.3460    -999.2500    -999.2500       3.3670       3.4760       6.1160       0.1227       3.9350       2.5060       6.2920
   2341.6262       8.4864       0.0965      87.3252      43.9360    -999.2500    -999.2500       5.7863       5.8136      26.1090       0.0730       4.0949       2.6062       6.2228
   2341.7786       8.4300       0.0980      81.5310      39.5470    -999.2500    -999.2500       8.1940       8.1400      46.0070       0.0327       4.2540       2.7060       6.1540
   2341.9309       8.4672       0.0885      72.5122      37.6235    -999.2500    -999.2500      36.0161      35.4889      49.9746       0.0266       4.4158       2.7020       5.8636
   2342.0835       8.5040       0.0790      63.5780      35.7180    -999.2500    -999.2500      63.5770      62.5810      53.9050       0.0276       4.5760       2.6980       5.5760
   2342.2358       8.5371       0.0795      58.3630      33.7304    -999.2500    -999.2500      73.3149      75.4920      69.6158       0.0299       4.4746       2.6950       5.2201
   2342.3882       8.5700       0.0800      53.1880      31.7580    -999.2500    -999.2500      82.9780      88.3040      85.2060       0.0320       4.3740       2.6920       4.8670
   2342.5405       8.5685       0.0780      53.2000      33.3199    -999.2500    -999.2500      70.1851      77.2594     120.9625       0.0323       4.1265       2.6990       4.7803
