#------------------------------------------------------------------------------
#
#   Created by  : [OpenWorks] Log Export Utility (LEXP)
#   Created on  : 2016-05-24 12:12:04
#   Project     : CANT971
#   User        : R5K
#   Interpreter : PEP
#
#------------------------------------------------------------------------------
~VERSION INFORMATION
VERS. 2.0 : CWLS Log ASCII Standard - version 2.0
WRAP.  NO : One line per depth step
~WELL INFORMATION
#MNEMONIC   .UNIT                                           VALUE :DESCRIPTION
#------------------------------------------------------------------------------
STRT        .M                                          1605.0770 :START DEPTH
STOP        .M                                          2483.6631 :STOP DEPTH
STEP        .M                                             0.1524 :STEP
NULL        .                                           -999.2500 :NULL VALUE
COMP        .                                   PEMEX EXPL & PROD :COMPANY
WELL        .                                                1023 :WELL
FLD         .                                           CANTARELL :FIELD
LOC         .                                             UNKNOWN :LOCATION
CNTY        .                                      CD. DEL CARMEN :COUNTY
STAT        .                                            CAMPECHE :STATE
CTRY        .                                              MEXICO :COUNTRY
SRVC        .                                             UNKNOWN :SERVICE COMPANY
DATE        .                                             UNKNOWN :LOG DATE
UWI         .                                          3060000489 :UNIQUE WELL ID
XCOORD      .                                       598527.650000 :SURFACE X
YCOORD      .                                      2152011.600000 :SURFACE Y
LAT         .                                           19.461305 :LATITUDE
LON         .                                          -92.061299 :LONGITUDE
ELEV        .M                                            27.9700 :SURFACE ELEV
ELEV_TYPE   .                                                  KB :ELEV TYPE
~CURVE INFORMATION
#MNEMONIC.UNIT        API CODE       : CURVE DESCRIPTION
#------------------------------------------------------------------------------
DEPTH    .M                          : Measured Depth
CALI     .inches      UNKNOWN        : CALI:registros:rC:NONE:v0 (auto-composite)
DRHO     .g/cm3       UNKNOWN        : DRHO:registros:rC:NONE:v0 (auto-composite)
DT       .us/ft       UNKNOWN        : DT:registros:rC:NONE:v0 (auto-composite)
GR       .API         UNKNOWN        : GR:registros:rC:NONE:v0 (auto-composite)
ILD      .ohm.m       UNKNOWN        : ILD:registros:rC:NONE:v0 (auto-composite)
ILM      .ohm.m       UNKNOWN        : ILM:registros:rC:NONE:v0 (auto-composite)
LLD      .ohm.m       UNKNOWN        : LLD:registros:rC:NONE:v0 (auto-composite)
LLS      .ohm.m       UNKNOWN        : LLS:registros:rC:NONE:v0 (auto-composite)
MSFL     .ohm.m       UNKNOWN        : MSFL:registros:rC:NONE:v0 (auto-composite)
NPHI     .UNKNOWN     UNKNOWN        : NPHI:registros:rC:NONE:v0 (auto-composite)
PEF      .UNKNOWN     UNKNOWN        : PEF:registros:rC:NONE:v0 (auto-composite)
RHOB     .g/cm3       UNKNOWN        : RHOB:registros:rC:NONE:v0 (auto-composite)
SP       .mV          UNKNOWN        : SP:registros:rC:NONE:v0 (auto-composite)
~A     DEPTH         CALI         DRHO           DT           GR          ILD          ILM          LLD          LLS         MSFL         NPHI          PEF         RHOB           SP
# ...
   2262.2258    -999.2500    -999.2500    -999.2500      26.0550       1.1630       1.1940    -999.2500       0.1490       0.4350    -999.2500    -999.2500    -999.2500      12.7000
   2262.3782    -999.2500    -999.2500    -999.2500      26.6972       1.1295       1.1515    -999.2500       0.1490       0.4721    -999.2500    -999.2500    -999.2500      12.9452
   2262.5305    -999.2500    -999.2500    -999.2500      27.3360       1.0960       1.1090    -999.2500       0.1490       0.5090    -999.2500    -999.2500    -999.2500      13.1890
   2262.6831    -999.2500    -999.2500    -999.2500      28.7455       1.0630       1.0925    -999.2500       0.1490       0.4271    -999.2500    -999.2500    -999.2500      13.3629
   2262.8354    -999.2500    -999.2500    -999.2500      30.1410       1.0300       1.0760    -999.2500       0.1490       0.3460    -999.2500    -999.2500    -999.2500      13.5350
   2262.9878    -999.2500    -999.2500    -999.2500      30.1350       0.9980       1.0530    -999.2500       0.1495       0.3470    -999.2500    -999.2500    -999.2500      13.4938
   2263.1401    -999.2500    -999.2500    -965.1080      30.1290       0.9660       1.0300    -999.2500       0.1500       0.3480    -999.2500    -999.2500    -999.2500      13.4530
   2263.2927    -999.2500    -999.2500    -461.1936      29.9561       0.9410       0.9860    -999.2500       0.1500       0.3826    -999.2500    -999.2500    -999.2500      13.4530
   2263.4451    -999.2500    -999.2500      40.2140      29.7840       0.9160       0.9420    -999.2500       0.1500       0.4170    -999.2500    -999.2500    -999.2500      13.4530
   2263.5974    -999.2500    -999.2500      43.3406      29.7054       0.9160       0.9425    -999.2500       0.1495       0.4165    -999.2500    -999.2500    -999.2500      13.4575
   2263.7498    -999.2500    -999.2500      46.4620      29.6270       0.9160       0.9430    -999.2500       0.1490       0.4160    -999.2500    -999.2500    -999.2500      13.4620
   2263.9023    -999.2500    -999.2500      48.3931      29.2302       0.9185       0.9560    -999.2500       0.1485       0.4045    -999.2500    -999.2500    -999.2500      13.6361
   2264.0547    -999.2500    -999.2500      50.3120      28.8360       0.9210       0.9690    -999.2500       0.1480       0.3930    -999.2500    -999.2500    -999.2500      13.8090
   2264.2070    -999.2500    -999.2500      53.5176      28.2970       0.9270       0.9875    -999.2500       0.1485       0.3995    -999.2500    -999.2500    -999.2500      13.7894
   2264.3594    -999.2500    -999.2500      56.6880      27.7640       0.9330       1.0060    -999.2500       0.1490       0.4060    -999.2500    -999.2500    -999.2500      13.7700
   2264.5117    -999.2500    -999.2500      56.4170      26.9765       0.9485       1.0265    -999.2500       0.1490       0.4206    -999.2500    -999.2500    -999.2500      13.6641
   2264.6643    -999.2500    -999.2500      56.1480      26.1950       0.9640       1.0470    -999.2500       0.1490       0.4350    -999.2500    -999.2500    -999.2500      13.5590
   2264.8167    -999.2500    -999.2500      54.4608      26.6335       0.9695       1.0470    -999.2500       0.1495       0.4420    -999.2500    -999.2500    -999.2500      13.5901
   2264.9690    -999.2500    -999.2500      52.7810      27.0700       0.9750       1.0470    -999.2500       0.1500       0.4490    -999.2500    -999.2500    -999.2500      13.6210
   2265.1213    -999.2500    -999.2500      54.8542      28.2235       0.9140       1.0160    -999.2500       0.1495       0.5226    -999.2500    -999.2500    -999.2500      13.9319
   2265.2739    -999.2500    -999.2500      56.9220      29.3740       0.8530       0.9850    -999.2500       0.1490       0.5960    -999.2500    -999.2500    -999.2500      14.2420
   2265.4263    -999.2500    -999.2500      52.7819      30.5975       0.8535       0.9510    -999.2500       0.1495       0.5935    -999.2500    -999.2500    -999.2500      14.2365
   2265.5786    -999.2500    -999.2500      48.6720      31.8120       0.8540       0.9170    -999.2500       0.1500       0.5910    -999.2500    -999.2500    -999.2500      14.2310
   2265.7310    -999.2500    -999.2500      52.6611      31.7552       0.8690       0.9195    -999.2500       0.1495       0.5206    -999.2500    -999.2500    -999.2500      14.0667
   2265.8835    -999.2500    -999.2500      56.6090      31.6990       0.8840       0.9220    -999.2500       0.1490       0.4510    -999.2500    -999.2500    -999.2500      13.9040
   2266.0359    -999.2500    -999.2500      56.5929      29.9037       0.9850       1.0140    -999.2500       0.1490       0.4465    -999.2500    -999.2500    -999.2500      13.8563
   2266.1882    -999.2500    -999.2500      56.5770      28.1210       1.0860       1.1060    -999.2500       0.1490       0.4420    -999.2500    -999.2500    -999.2500      13.8090
   2266.3406    -999.2500    -999.2500      55.9824      23.8892       1.3461       1.4966    -999.2500       0.1500       0.4209    -999.2500    -999.2500    -999.2500      13.5368
   2266.4929    -999.2500    -999.2500      55.3910      19.6800       1.6060       1.8870    -999.2500       0.1510       0.4000    -999.2500    -999.2500    -999.2500      13.2660
   2266.6455    -999.2500    -999.2500      55.8344      16.1955       2.0441       2.5341    -999.2500       0.1495       0.4435    -999.2500    -999.2500    -999.2500      12.6143
   2266.7979    -999.2500    -999.2500      56.2770      12.7180       2.4820       3.1810    -999.2500       0.1480       0.4870    -999.2500    -999.2500    -999.2500      11.9640
   2266.9502    -999.2500    -999.2500      56.5322      11.4397       4.2883       4.8697    -999.2500       0.1485       0.4294    -999.2500    -999.2500    -999.2500      10.8752
   2267.1025    -999.2500    -999.2500      56.7860      10.1680       6.0940       6.5580    -999.2500       0.1490       0.3720    -999.2500    -999.2500    -999.2500       9.7920
   2267.2551    -999.2500    -999.2500      56.9091      10.3996      14.5202       9.8233       7.9440       0.1495       0.4519    -999.2500    -999.2500    -999.2500       8.7394
   2267.4075    -232.9980      -0.2500      57.0310      10.6290      22.9450      13.0880       7.9440       0.1500       0.5310    -999.2500    -232.9980    -231.5030       7.6970
   2267.5598    -111.7286      -0.6094      56.8427      10.2937      19.6539      14.1770       4.0846       0.1490       0.4813      -1.1285     -20.9001    -114.1016       6.4109
   2267.7122       8.5700      -0.9660      56.6560       9.9610      16.3630      15.2660       0.2560       0.1480       0.4320       0.0160     189.5000       2.3600       5.1350
   2267.8647       8.5700      -0.9700      56.8439      10.8842      13.3691      11.1722       0.2620       0.1485       0.4616       0.1864     120.5492       2.3500       5.2367
   2268.0171       8.5700      -0.9740      57.0310      11.8030      10.3750       7.0780       0.2680       0.1490       0.4910       0.1946      51.9220       2.3400       5.3380
   2268.1694       8.5700      -0.9865      57.0170      13.3791       9.6426       7.1190       0.2670       0.1490       0.4900       0.2132      61.4631       2.3125       5.3160
   2268.3218       8.5700      -0.9990      57.0030      14.9530       8.9100       7.1600       0.2660       0.1490       0.4890       0.2337      70.9910       2.2850       5.2940
   2268.4741       8.5700      -1.0095      56.7899      15.2820       8.5686       7.7829       0.2570       0.1490       0.4750       0.2556     217.3219       2.2619       4.9575
   2268.6267       8.5700      -1.0200      56.5780      15.6090       8.2270       8.4060       0.2480       0.1490       0.4610       0.2753     362.7660       2.2390       4.6230
   2268.7791       8.5700      -1.0301      56.7821      13.4032       8.2075       8.5690       0.2535       0.1490       0.4268       0.2801     249.6188       2.2154       2.9486
