#------------------------------------------------------------------------------
#
#   Created by  : [OpenWorks] Log Export Utility (LEXP)
#   Created on  : 2016-05-24 12:12:04
#   Project     : CANT971
#   User        : R5K
#   Interpreter : PEP
#
#------------------------------------------------------------------------------
~VERSION INFORMATION
VERS. 2.0 : CWLS Log ASCII Standard - version 2.0
WRAP.  NO : One line per depth step
~WELL INFORMATION
#MNEMONIC   .UNIT                                           VALUE :DESCRIPTION
#------------------------------------------------------------------------------
STRT        .M                                          1605.0770 :START DEPTH
STOP        .M                                          2483.6631 :STOP DEPTH
STEP        .M                                             0.1524 :STEP
NULL        .                                           -999.2500 :NULL VALUE
COMP        .                                   PEMEX EXPL & PROD :COMPANY
WELL        .                                                1023 :WELL
FLD         .                                           CANTARELL :FIELD
LOC         .                                             UNKNOWN :LOCATION
CNTY        .                                      CD. DEL CARMEN :COUNTY
STAT        .                                            CAMPECHE :STATE
CTRY        .                                              MEXICO :COUNTRY
SRVC        .                                             UNKNOWN :SERVICE COMPANY
DATE        .                                             UNKNOWN :LOG DATE
UWI         .                                          3060000489 :UNIQUE WELL ID
XCOORD      .                                       598527.650000 :SURFACE X
YCOORD      .                                      2152011.600000 :SURFACE Y
LAT         .                                           19.461305 :LATITUDE
LON         .                                          -92.061299 :LONGITUDE
ELEV        .M                                            27.9700 :SURFACE ELEV
ELEV_TYPE   .                                                  KB :ELEV TYPE
~CURVE INFORMATION
#MNEMONIC.UNIT        API CODE       : CURVE DESCRIPTION
#------------------------------------------------------------------------------
DEPTH    .M                          : Measured Depth
CALI     .inches      UNKNOWN        : CALI:registros:rC:NONE:v0 (auto-composite)
DRHO     .g/cm3       UNKNOWN        : DRHO:registros:rC:NONE:v0 (auto-composite)
DT       .us/ft       UNKNOWN        : DT:registros:rC:NONE:v0 (auto-composite)
GR       .API         UNKNOWN        : GR:registros:rC:NONE:v0 (auto-composite)
ILD      .ohm.m       UNKNOWN        : ILD:registros:rC:NONE:v0 (auto-composite)
ILM      .ohm.m       UNKNOWN        : ILM:registros:rC:NONE:v0 (auto-composite)
LLD      .ohm.m       UNKNOWN        : LLD:registros:rC:NONE:v0 (auto-composite)
LLS      .ohm.m       UNKNOWN        : LLS:registros:rC:NONE:v0 (auto-composite)
MSFL     .ohm.m       UNKNOWN        : MSFL:registros:rC:NONE:v0 (auto-composite)
NPHI     .UNKNOWN     UNKNOWN        : NPHI:registros:rC:NONE:v0 (auto-composite)
PEF      .UNKNOWN     UNKNOWN        : PEF:registros:rC:NONE:v0 (auto-composite)
RHOB     .g/cm3       UNKNOWN        : RHOB:registros:rC:NONE:v0 (auto-composite)
SP       .mV          UNKNOWN        : SP:registros:rC:NONE:v0 (auto-composite)
~A     DEPTH         CALI         DRHO           DT           GR          ILD          ILM          LLD          LLS         MSFL         NPHI          PEF         RHOB           SP
# ...
   2322.5762       8.5160       0.0610      53.5050      27.4790    -999.2500    -999.2500     111.6660     126.0480     154.8300       0.0503       4.3160       2.6010     -20.1580
   2322.7285       8.5386       0.0635      54.6471      30.9503    -999.2500    -999.2500      98.2677     111.8224      85.2519       0.0487       4.2458       2.6095     -19.8754
   2322.8811       8.5610       0.0660      55.7840      34.4060    -999.2500    -999.2500      84.9300      97.6610      15.9880       0.0455       4.1760       2.6180     -19.5940
   2323.0334       8.5655       0.0675      56.3533      31.9180    -999.2500    -999.2500      88.4151     101.7640      35.6718       0.0366       4.2776       2.6430     -18.9056
   2323.1858       8.5700       0.0690      56.9220      29.4330    -999.2500    -999.2500      91.8960     105.8620      55.3320       0.0280       4.3790       2.6680     -18.2180
   2323.3381       8.5720       0.0735      55.3639      27.1011    -999.2500    -999.2500     102.7680     117.7991      85.1221       0.0284       4.5846       2.6494     -16.7587
   2323.4907       8.5740       0.0780      53.8150      24.7830    -999.2500    -999.2500     113.5760     129.6660     114.7370       0.0295       4.7890       2.6310     -15.3080
   2323.6431       8.5700       0.0805      53.1384      21.6169    -999.2500    -999.2500     162.3014     172.8186     700.1929       0.0302       4.8559       2.6597     -13.4362
   2323.7954       8.5660       0.0830      52.4690      18.4840    -999.2500    -999.2500     210.5150     215.5180    1279.5000       0.0307       4.9220       2.6880     -11.5840
   2323.9478       8.5680       0.0559      52.6185      18.7735    -999.2500    -999.2500     208.2654     212.7882    1197.2957       0.0315       4.8267       2.6629     -10.8704
   2324.1003       8.5700       0.0290      52.7670      19.0610    -999.2500    -999.2500     206.0320     210.0780    1115.6830       0.0323       4.7320       2.6380     -10.1620
   2324.2527       8.5700       0.0250      53.0090      20.8034    -999.2500    -999.2500     193.4600     195.0357     801.2918       0.0330       4.5296       2.6280      -9.6720
   2324.4050       8.5700       0.0210      53.2500      22.5390    -999.2500    -999.2500     180.9370     180.0520     488.1250       0.0339       4.3280       2.6180      -9.1840
   2324.5574       8.5328       0.0406      53.6105      24.3593    -999.2500    -999.2500     162.4407     161.4664     339.7170       0.0358       4.4390       2.6326      -8.6783
   2324.7097       8.4960       0.0600      53.9680      26.1640    -999.2500    -999.2500     144.1030     143.0400     192.5810       0.0377       4.5490       2.6470      -8.1770
   2324.8623       8.5217       0.0640      54.2005      26.0895    -999.2500    -999.2500     137.3178     134.5617     151.4320       0.0387       4.4126       2.6455      -8.0673
   2325.0146       8.5470       0.0680      54.4300      26.0160    -999.2500    -999.2500     130.6220     126.1950     110.8250       0.0394       4.2780       2.6440      -7.9590
   2325.1670       8.5586       0.0580      54.8345      26.4632    -999.2500    -999.2500     115.2888     110.7151      98.0394       0.0385       3.8313       2.6485      -7.7615
   2325.3193       8.5700       0.0480      55.2350      26.9060    -999.2500    -999.2500     100.1070      95.3880      85.3800       0.0373       3.3890       2.6530      -7.5660
   2325.4719       8.5645       0.0405      55.5561      26.5614    -999.2500    -999.2500     100.3167      92.1167      72.6637       0.0339       3.5059       2.6731      -7.8650
   2325.6243       8.5590       0.0330      55.8750      26.2190    -999.2500    -999.2500     100.5250      88.8670      60.0310       0.0311       3.6220       2.6930      -8.1620
   2325.7766       8.5570       0.0370      54.6846      27.1748    -999.2500    -999.2500     113.4635      97.5962     246.3907       0.0350       4.0074       2.6679      -8.8888
   2325.9290       8.5550       0.0410      53.5000      28.1260    -999.2500    -999.2500     126.3390     106.2830     431.8440       0.0393       4.3910       2.6430      -9.6120
   2326.0815       8.5565       0.0595      53.5666      28.9668    -999.2500    -999.2500     109.0103      90.3384     282.6194       0.0395       4.6354       2.6460     -10.3977
   2326.2339       8.5580       0.0780      53.6330      29.8050    -999.2500    -999.2500      91.7360      74.4440     133.8640       0.0393       4.8790       2.6490     -11.1810
   2326.3862       8.5645       0.0780      53.9625      26.9286    -999.2500    -999.2500      93.3861      75.1026     117.0326       0.0393       4.8529       2.6380     -11.8626
   2326.5386       8.5710       0.0780      54.2900      24.0700    -999.2500    -999.2500      95.0260      75.7570     100.3060       0.0394       4.8270       2.6270     -12.5400
   2326.6909       8.5785       0.0775      54.5874      24.1162    -999.2500    -999.2500     106.7824      82.1129      80.2476       0.0397       4.5065       2.6290     -13.1850
   2326.8435       8.5860       0.0770      54.8820      24.1620    -999.2500    -999.2500     118.4300      88.4100      60.3750       0.0403       4.1890       2.6310     -13.8240
   2326.9958       8.5855       0.0715      54.9939      25.5091    -999.2500    -999.2500     118.3291      88.3247      60.7605       0.0431       4.1970       2.6305     -14.5683
   2327.1482       8.5850       0.0660      55.1050      26.8460    -999.2500    -999.2500     118.2290      88.2400      61.1430       0.0460       4.2050       2.6300     -15.3070
   2327.3005       8.5775       0.0540      55.3031      27.6674    -999.2500    -999.2500     114.9249      85.4549      77.4315       0.0474       4.4743       2.6230     -15.7994
   2327.4531       8.5700       0.0420      55.5000      28.4840    -999.2500    -999.2500     111.6400      82.6860      93.6250       0.0481       4.7420       2.6160     -16.2890
   2327.6055       8.5700       0.0395      55.7974      27.1413    -999.2500    -999.2500     108.6793      79.9455      83.5809       0.0455       4.6829       2.6180     -16.4807
   2327.7578       8.5700       0.0370      56.0940      25.8020    -999.2500    -999.2500     105.7260      77.2120      73.5620       0.0430       4.6240       2.6200     -16.6720
   2327.9102       8.5700       0.0435      55.5144      24.2131    -999.2500    -999.2500     104.7367      75.9755     128.0666       0.0448       4.5989       2.6320     -16.3977
   2328.0627       8.5700       0.0500      54.9380      22.6330    -999.2500    -999.2500     103.7530      74.7460     182.2660       0.0467       4.5740       2.6440     -16.1250
   2328.2151       8.5700       0.0495      56.1472      23.9090    -999.2500    -999.2500      97.5870      75.2853     120.7953       0.0455       4.6167       2.6264     -15.3631
   2328.3674       8.5700       0.0490      57.3440      25.1720    -999.2500    -999.2500      91.4840      75.8190      59.9530       0.0433       4.6590       2.6090     -14.6090
   2328.5198       8.5700       0.0360      57.2437      25.4204    -999.2500    -999.2500      99.4486      84.9340      81.8804       0.0360       4.6761       2.6241     -13.3717
   2328.6721       8.5700       0.0230      57.1440      25.6670    -999.2500    -999.2500     107.3580      93.9860     103.6560       0.0289       4.6930       2.6390     -12.1430
   2328.8247       8.5700       0.0240      55.9759      27.8915    -999.2500    -999.2500     105.6128      92.7247     103.0634       0.0293       4.7175       2.6490     -10.6769
   2328.9771       8.5700       0.0250      54.8120      30.1080    -999.2500    -999.2500     103.8740      91.4680     102.4730       0.0324       4.7420       2.6590      -9.2160
   2329.1294       8.5730       0.0406      54.9536      30.6713    -999.2500    -999.2500      81.8497      74.5192      94.5532       0.0502       4.7776       2.6570      -6.8878
