#------------------------------------------------------------------------------
#
#   Created by  : [OpenWorks] Log Export Utility (LEXP)
#   Created on  : 2016-05-24 12:12:04
#   Project     : CANT971
#   User        : R5K
#   Interpreter : PEP
#
#------------------------------------------------------------------------------
~VERSION INFORMATION
VERS. 2.0 : CWLS Log ASCII Standard - version 2.0
WRAP.  NO : One line per depth step
~WELL INFORMATION
#MNEMONIC   .UNIT                                           VALUE :DESCRIPTION
#------------------------------------------------------------------------------
STRT        .M                                          1605.0770 :START DEPTH
STOP        .M                                          2483.6631 :STOP DEPTH
STEP        .M                                             0.1524 :STEP
NULL        .                                           -999.2500 :NULL VALUE
COMP        .                                   PEMEX EXPL & PROD :COMPANY
WELL        .                                                1023 :WELL
FLD         .                                           CANTARELL :FIELD
LOC         .                                             UNKNOWN :LOCATION
CNTY        .                                      CD. DEL CARMEN :COUNTY
STAT        .                                            CAMPECHE :STATE
CTRY        .                                              MEXICO :COUNTRY
SRVC        .                                             UNKNOWN :SERVICE COMPANY
DATE        .                                             UNKNOWN :LOG DATE
UWI         .                                          3060000489 :UNIQUE WELL ID
XCOORD      .                                       598527.650000 :SURFACE X
YCOORD      .                                      2152011.600000 :SURFACE Y
LAT         .                                           19.461305 :LATITUDE
LON         .                                          -92.061299 :LONGITUDE
ELEV        .M                                            27.9700 :SURFACE ELEV
ELEV_TYPE   .                                                  KB :ELEV TYPE
~CURVE INFORMATION
#MNEMONIC.UNIT        API CODE       : CURVE DESCRIPTION
#------------------------------------------------------------------------------
DEPTH    .M                          : Measured Depth
CALI     .inches      UNKNOWN        : CALI:registros:rC:NONE:v0 (auto-composite)
DRHO     .g/cm3       UNKNOWN        : DRHO:registros:rC:NONE:v0 (auto-composite)
DT       .us/ft       UNKNOWN        : DT:registros:rC:NONE:v0 (auto-composite)
GR       .API         UNKNOWN        : GR:registros:rC:NONE:v0 (auto-composite)
ILD      .ohm.m       UNKNOWN        : ILD:registros:rC:NONE:v0 (auto-composite)
ILM      .ohm.m       UNKNOWN        : ILM:registros:rC:NONE:v0 (auto-composite)
LLD      .ohm.m       UNKNOWN        : LLD:registros:rC:NONE:v0 (auto-composite)
LLS      .ohm.m       UNKNOWN        : LLS:registros:rC:NONE:v0 (auto-composite)
MSFL     .ohm.m       UNKNOWN        : MSFL:registros:rC:NONE:v0 (auto-composite)
NPHI     .UNKNOWN     UNKNOWN        : NPHI:registros:rC:NONE:v0 (auto-composite)
PEF      .UNKNOWN     UNKNOWN        : PEF:registros:rC:NONE:v0 (auto-composite)
RHOB     .g/cm3       UNKNOWN        : RHOB:registros:rC:NONE:v0 (auto-composite)
SP       .mV          UNKNOWN        : SP:registros:rC:NONE:v0 (auto-composite)
~A     DEPTH         CALI         DRHO           DT           GR          ILD          ILM          LLD          LLS         MSFL         NPHI          PEF         RHOB           SP
# ...
   2449.9827      11.1600      -0.0130      54.1250      46.7520    -999.2500    -999.2500     708.3490     506.8720     411.1250       0.1058       3.0420       2.3990     -45.9490
   2450.1350      11.0746       0.0071      55.0806      45.5381    -999.2500    -999.2500     597.8682     421.0828     249.9693       0.2307       2.8390       1.9704     -46.2967
   2450.2874      10.9900       0.0270      56.0270      44.3360    -999.2500    -999.2500     488.4530     336.1210      90.3680       0.3514       2.6380       1.5460     -46.6410
   2450.4399      10.5320       0.0200      57.5228      40.8208    -999.2500    -999.2500     364.3459     245.7971      47.2220       0.3746       2.6525       1.5671     -46.6265
   2450.5923      10.0770       0.0130      59.0090      37.3280    -999.2500    -999.2500     241.0270     156.0470       4.3500       0.3424       2.6670       1.5880     -46.6120
   2450.7446       9.2571       0.0295      61.9724      37.5215    -999.2500    -999.2500     245.4347     158.7803       4.6106       0.2783       3.0153       1.6978     -46.5484
   2450.8970       8.4410       0.0460      64.9220      37.7140    -999.2500    -999.2500     249.8220     161.5010       4.8700       0.2062       3.3620       1.8070     -46.4850
   2451.0493       8.4420       0.0450      64.8158      40.4940    -999.2500    -999.2500     337.7506     215.2363      15.9587       0.1470       3.3590       2.1510     -46.3683
   2451.2019       8.4430       0.0440      64.7100      43.2660    -999.2500    -999.2500     425.4230     268.8150      27.0150       0.1044       3.3560       2.4940     -46.2520
   2451.3542       8.4580       0.0280      63.0846      44.2299    -999.2500    -999.2500     543.7034     337.4547     106.8717       0.0874       3.3094       2.5667     -46.0238
   2451.5066       8.4730       0.0120      61.4690      45.1880    -999.2500    -999.2500     661.2750     405.6830     186.2500       0.0831       3.2630       2.6390     -45.7970
   2451.6589       8.4514       0.0070      55.8185      48.2800    -999.2500    -999.2500     659.1760     395.6427     221.0959       0.0829       3.1636       2.6300     -45.4193
   2451.8115       8.4300       0.0020      50.2190      51.3440    -999.2500    -999.2500     657.0960     385.6930     255.6270       0.0837       3.0650       2.6210     -45.0450
   2451.9639       8.4300       0.0025      50.5577      46.2785    -999.2500    -999.2500     729.7920     407.0261     261.1266       0.0826       3.1358       2.6426     -44.2516
   2452.1162       8.4300       0.0030      50.8940      41.2500    -999.2500    -999.2500     801.9560     428.2030     266.5860       0.0799       3.2060       2.6640     -43.4640
   2452.2686       8.4300       0.0060      52.3967      42.4519    -999.2500    -999.2500     833.2281     434.2956     406.4348       0.0756       3.2576       2.6770     -42.8006
   2452.4211       8.4300       0.0090      53.8910      43.6470    -999.2500    -999.2500     864.3250     440.3540     545.5000       0.0717       3.3090       2.6900     -42.1410
   2452.5735       8.4300       0.0150      51.7871      49.9712    -999.2500    -999.2500     797.3985     405.7700     412.0349       0.0706       3.1969       2.6965     -41.6324
   2452.7258       8.4300       0.0210      49.6880      56.2810    -999.2500    -999.2500     730.6250     371.2650     278.8750       0.0723       3.0850       2.7030     -41.1250
   2452.8782       8.4300       0.0300      49.6880      53.8003    -999.2500    -999.2500     681.4529     351.1906     315.8493       0.0779       3.1261       2.7175     -41.1320
   2453.0305       8.4300       0.0390      49.6880      51.3330    -999.2500    -999.2500     632.5450     331.2240     352.6250       0.0848       3.1670       2.7320     -41.1390
   2453.1831       8.4360       0.0320      49.0438      50.4516    -999.2500    -999.2500     557.2014     301.1502     292.5749       0.0908       3.0544       2.7119     -41.3913
   2453.3354       8.4420       0.0250      48.4060      49.5790    -999.2500    -999.2500     482.6110     271.3770     233.1250       0.0925       2.9430       2.6920     -41.6410
   2453.4878       8.4977       0.0215      49.4729      47.7128    -999.2500    -999.2500     450.5296     260.2213     234.4876       0.0850       2.9530       2.7020     -41.9458
   2453.6401       8.5530       0.0180      50.5310      45.8620    -999.2500    -999.2500     418.7140     249.1580     235.8390       0.0753       2.9630       2.7120     -42.2480
   2453.7927       8.5635       0.0120      49.3170      40.9107    -999.2500    -999.2500     368.6420     221.9438     251.4899       0.0696       3.0703       2.7195     -42.4916
   2453.9451       8.5740       0.0060      48.1090      35.9840    -999.2500    -999.2500     318.8190     194.8650     267.0630       0.0663       3.1770       2.7270     -42.7340
   2454.0974       8.6486       0.0085      49.7939      36.9613    -999.2500    -999.2500     295.6407     183.3539     280.8554       0.0646       3.2736       2.7300     -43.0112
   2454.2498       8.7230       0.0110      51.4760      37.9370    -999.2500    -999.2500     272.5010     171.8620     294.6250       0.0643       3.3700       2.7330     -43.2880
   2454.4023       8.5760       0.0205      52.0503      40.8848    -999.2500    -999.2500     281.1304     177.1041     254.8745       0.0657       3.2682       2.7159     -43.3943
   2454.5547       8.4300       0.0300      52.6210      43.8140    -999.2500    -999.2500     289.7050     182.3130     215.3760       0.0700       3.1670       2.6990     -43.5000
   2454.7070       8.4300       0.0456      52.7985      46.1935    -999.2500    -999.2500     316.7240     197.9728     182.8136       0.0795       3.1745       2.6809     -43.4527
   2454.8594       8.4300       0.0610      52.9740      48.5470    -999.2500    -999.2500     343.4470     213.4610     150.6080       0.0861       3.1820       2.6630     -43.4060
   2455.0117       8.4330       0.0500      53.2792      47.9276    -999.2500    -999.2500     398.2658     256.1840     115.4665       0.0805       3.3120       2.6414     -43.5325
   2455.1643       8.4360       0.0390      53.5820      47.3130    -999.2500    -999.2500     452.6650     298.5800      80.5940       0.0783       3.4410       2.6200     -43.6580
   2455.3167       8.4415       0.0621      54.6839      45.5587    -999.2500    -999.2500     471.5997     295.2523     201.4506       0.0969       3.1799       2.4782     -43.7748
   2455.4690       8.4470       0.0850      55.7810      43.8120    -999.2500    -999.2500     490.4520     291.9390     321.7810       0.1173       2.9200       2.3370     -43.8910
   2455.6213       8.4991       0.0960      54.6555      44.2140    -999.2500    -999.2500     470.2184     272.2526     176.5273       0.1211       2.9255       2.3605     -43.8840
   2455.7739       8.5510       0.1070      53.5330      44.6150    -999.2500    -999.2500     450.0380     252.6180      31.6560       0.1142       2.9310       2.3840     -43.8770
   2455.9263       8.5480       0.1050      53.0738      47.5196    -999.2500    -999.2500     464.9791     254.3960      33.0797       0.0973       2.9747       2.5526     -43.8288
   2456.0786       8.5450       0.1030      52.6180      50.4030    -999.2500    -999.2500     479.8110     256.1610      34.4930       0.0782       3.0180       2.7200     -43.7810
   2456.2310       8.4872       0.0548      52.2290      51.3393    -999.2500    -999.2500     577.2045     298.6570     117.6761       0.0636       3.1215       2.7406     -43.7735
   2456.3835       8.4300       0.0070      51.8440      52.2660    -999.2500    -999.2500     673.5920     340.7140     200.0000       0.0527       3.2240       2.7610     -43.7660
   2456.5359       8.4260       0.0200      43.0631      56.3830    -999.2500    -999.2500     894.7217     455.0042     694.6619       0.0464       3.2255       2.7560     -43.8679
