#------------------------------------------------------------------------------
#
#   Created by  : [OpenWorks] Log Export Utility (LEXP)
#   Created on  : 2016-05-24 12:12:04
#   Project     : CANT971
#   User        : R5K
#   Interpreter : PEP
#
#------------------------------------------------------------------------------
~VERSION INFORMATION
VERS. 2.0 : CWLS Log ASCII Standard - version 2.0
WRAP.  NO : One line per depth step
~WELL INFORMATION
#MNEMONIC   .UNIT                                           VALUE :DESCRIPTION
#------------------------------------------------------------------------------
STRT        .M                                          1605.0770 :START DEPTH
STOP        .M                                          2483.6631 :STOP DEPTH
STEP        .M                                             0.1524 :STEP
NULL        .                                           -999.2500 :NULL VALUE
COMP        .                                   PEMEX EXPL & PROD :COMPANY
WELL        .                                                1023 :WELL
FLD         .                                           CANTARELL :FIELD
LOC         .                                             UNKNOWN :LOCATION
CNTY        .                                      CD. DEL CARMEN :COUNTY
STAT        .                                            CAMPECHE :STATE
CTRY        .                                              MEXICO :COUNTRY
SRVC        .                                             UNKNOWN :SERVICE COMPANY
DATE        .                                             UNKNOWN :LOG DATE
UWI         .                                          3060000489 :UNIQUE WELL ID
XCOORD      .                                       598527.650000 :SURFACE X
YCOORD      .                                      2152011.600000 :SURFACE Y
LAT         .                                           19.461305 :LATITUDE
LON         .                                          -92.061299 :LONGITUDE
ELEV        .M                                            27.9700 :SURFACE ELEV
ELEV_TYPE   .                                                  KB :ELEV TYPE
~CURVE INFORMATION
#MNEMONIC.UNIT        API CODE       : CURVE DESCRIPTION
#------------------------------------------------------------------------------
DEPTH    .M                          : Measured Depth
CALI     .inches      UNKNOWN        : CALI:registros:rC:NONE:v0 (auto-composite)
DRHO     .g/cm3       UNKNOWN        : DRHO:registros:rC:NONE:v0 (auto-composite)
DT       .us/ft       UNKNOWN        : DT:registros:rC:NONE:v0 (auto-composite)
GR       .API         UNKNOWN        : GR:registros:rC:NONE:v0 (auto-composite)
ILD      .ohm.m       UNKNOWN        : ILD:registros:rC:NONE:v0 (auto-composite)
ILM      .ohm.m       UNKNOWN        : ILM:registros:rC:NONE:v0 (auto-composite)
LLD      .ohm.m       UNKNOWN        : LLD:registros:rC:NONE:v0 (auto-composite)
LLS      .ohm.m       UNKNOWN        : LLS:registros:rC:NONE:v0 (auto-composite)
MSFL     .ohm.m       UNKNOWN        : MSFL:registros:rC:NONE:v0 (auto-composite)
NPHI     .UNKNOWN     UNKNOWN        : NPHI:registros:rC:NONE:v0 (auto-composite)
PEF      .UNKNOWN     UNKNOWN        : PEF:registros:rC:NONE:v0 (auto-composite)
RHOB     .g/cm3       UNKNOWN        : RHOB:registros:rC:NONE:v0 (auto-composite)
SP       .mV          UNKNOWN        : SP:registros:rC:NONE:v0 (auto-composite)
~A     DEPTH         CALI         DRHO           DT           GR          ILD          ILM          LLD          LLS         MSFL         NPHI          PEF         RHOB           SP
# ...
   2302.4595       8.5720       0.0530      61.3120      24.0230    -999.2500    -999.2500      40.8430      40.3840      85.2810       0.0741       4.7710       2.5590     -23.1320
   2302.6118       8.5941       0.0530      61.3010      24.0481    -999.2500    -999.2500      40.7652      40.1390      85.2604       0.0720       4.6746       2.5726     -22.0657
   2302.7642       8.6160       0.0530      61.2900      24.0730    -999.2500    -999.2500      40.6880      39.8960      85.2400       0.0698       4.5790       2.5860     -21.0080
   2302.9167       8.6636       0.0510      60.8941      24.9290    -999.2500    -999.2500      39.5022      38.8972      84.5404       0.0635       4.3906       2.6166     -19.8022
   2303.0691       8.7110       0.0490      60.5000      25.7810    -999.2500    -999.2500      38.3220      37.9030      83.8440       0.0572       4.2030       2.6470     -18.6020
   2303.2214       8.7110       0.0435      58.7488      27.3095    -999.2500    -999.2500      40.7241      39.6092      65.9684       0.0567       4.1945       2.6430     -18.1077
   2303.3738       8.7110       0.0380      57.0000      28.8360    -999.2500    -999.2500      43.1230      41.3130      48.1170       0.0563       4.1860       2.6390     -17.6140
   2303.5261       8.6759       0.0310      62.2814      30.0938    -999.2500    -999.2500      39.7899      38.4398      91.5646       0.0818       4.0902       2.5648     -17.0759
   2303.6787       8.6410       0.0240      67.5310      31.3440    -999.2500    -999.2500      36.4770      35.5840     134.7500       0.1068       3.9950       2.4910     -16.5410
   2303.8311       8.6631       0.0351      63.1954      29.8279    -999.2500    -999.2500      40.9347      39.5557      88.5941       0.0846       3.9970       2.5463     -16.2897
   2303.9834       8.6850       0.0460      58.9060      28.3280    -999.2500    -999.2500      45.3450      43.4850      42.9300       0.0631       3.9990       2.6010     -16.0410
   2304.1357       8.7216       0.0375      60.0196      29.4295    -999.2500    -999.2500      44.2645      42.4206      74.9733       0.0765       4.0221       2.5754     -15.6912
   2304.2883       8.7580       0.0290      61.1250      30.5230    -999.2500    -999.2500      43.1920      41.3640     106.7810       0.0898       4.0450       2.5500     -15.3440
   2304.4407       8.7530       0.0325      60.7367      30.5005    -999.2500    -999.2500      35.3712      33.6739      62.6372       0.0891       4.1262       2.5510     -15.3680
   2304.5930       8.7480       0.0360      60.3500      30.4780    -999.2500    -999.2500      27.5820      26.0150      18.6720       0.0884       4.2070       2.5520     -15.3920
   2304.7454       8.6792       0.0355      54.1721      30.0988    -999.2500    -999.2500      27.8728      26.2726      19.8637       0.0790       4.4832       2.5711     -15.8128
   2304.8977       8.6110       0.0350      48.0480      29.7230    -999.2500    -999.2500      28.1610      26.5280      21.0450       0.0698       4.7570       2.5900     -16.2300
   2305.0503       8.5904       0.0295      37.1071      28.7928    -999.2500    -999.2500      33.4714      31.1709      76.5170       0.0644       4.8547       2.6046     -17.4592
   2305.2026       8.5700       0.0240      26.3120      27.8750    -999.2500    -999.2500      38.7110      35.7520     131.2500       0.0589       4.9510       2.6190     -18.6720
   2305.3550       8.6233       0.0270      40.3986      25.9041    -999.2500    -999.2500      45.8201      42.4345     101.8918       0.0565       4.7224       2.6441     -20.1042
   2305.5073       8.6760       0.0300      54.3440      23.9530    -999.2500    -999.2500      52.8580      49.0500      72.8280       0.0542       4.4960       2.6690     -21.5220
   2305.6599       8.6670       0.0225      54.3124      25.0507    -999.2500    -999.2500      61.8994      56.4655     153.6862       0.0601       4.3199       2.6570     -23.2563
   2305.8123       8.6580       0.0150      54.2810      26.1410    -999.2500    -999.2500      70.8800      63.8310     234.0000       0.0662       4.1450       2.6450     -24.9790
   2305.9646       8.6139       0.0140      54.9096      28.4082    -999.2500    -999.2500      64.9090      58.5934     158.7487       0.0800       4.1756       2.6244     -25.8883
   2306.1169       8.5700       0.0130      55.5350      30.6640    -999.2500    -999.2500      58.9680      53.3820      83.8750       0.0936       4.2060       2.6040     -26.7930
   2306.2695       8.5700       0.0165      57.2460      28.2299    -999.2500    -999.2500      56.3047      49.5077      86.7214       0.0934       4.3471       2.5780     -27.6177
   2306.4219       8.5700       0.0200      58.9540      25.8000    -999.2500    -999.2500      53.6460      45.6400      89.5630       0.0926       4.4880       2.5520     -28.4410
   2306.5742       8.6151       0.0325      61.2169      23.4178    -999.2500    -999.2500      52.5223      46.1372      86.7433       0.0827       4.6058       2.5595     -29.3447
   2306.7266       8.6600       0.0450      63.4690      21.0470    -999.2500    -999.2500      51.4040      46.6320      83.9370       0.0730       4.7230       2.5670     -30.2440
   2306.8789       8.6148       0.0390      60.6271      22.6958    -999.2500    -999.2500      47.7905      43.6555      99.6520       0.0783       4.7471       2.5700     -30.3646
   2307.0315       8.5700       0.0330      57.8120      24.3290    -999.2500    -999.2500      44.2110      40.7070     115.2190       0.0838       4.7710       2.5730     -30.4840
   2307.1838       8.5710       0.0315      57.8798      25.5813    -999.2500    -999.2500      40.4786      36.9154      92.4398       0.0837       4.5376       2.5805     -29.9163
   2307.3362       8.5720       0.0300      57.9470      26.8240    -999.2500    -999.2500      36.7750      33.1530      69.8360       0.0835       4.3060       2.5880     -29.3530
   2307.4885       8.5790       0.0300      58.6626      28.1374    -999.2500    -999.2500      33.1656      30.1429      54.9518       0.0816       4.2799       2.6005     -28.6084
   2307.6411       8.5860       0.0300      59.3750      29.4450    -999.2500    -999.2500      29.5720      27.1460      40.1330       0.0796       4.2540       2.6130     -27.8670
   2307.7935       8.6445       0.0290      58.9228      28.9527    -999.2500    -999.2500      33.9188      30.9340     115.5289       0.0758       4.3956       2.6115     -28.9071
   2307.9458       8.7030       0.0280      58.4710      28.4610    -999.2500    -999.2500      38.2610      34.7180     190.8440       0.0722       4.5370       2.6100     -29.9460
   2308.0981       8.6524       0.0275      58.0468      27.4802    -999.2500    -999.2500      49.3233      44.1105     147.2782       0.0742       4.3620       2.6005     -30.9454
   2308.2507       8.6020       0.0270      57.6250      26.5050    -999.2500    -999.2500      60.3220      53.4490     103.9630       0.0761       4.1880       2.5910     -31.9390
   2308.4031       8.5859       0.0350      58.0070      26.2637    -999.2500    -999.2500      63.6201      56.5908      76.3462       0.0721       4.1930       2.6000     -32.6371
   2308.5554       8.5700       0.0430      58.3850      26.0250    -999.2500    -999.2500      66.8840      59.7000      49.0160       0.0682       4.1980       2.6090     -33.3280
   2308.7078       8.5740       0.0565      58.5496      25.8910    -999.2500    -999.2500      56.2981      50.1241      67.6835       0.0736       4.2738       2.6060     -33.3099
   2308.8601       8.5780       0.0700      58.7130      25.7580    -999.2500    -999.2500      45.7870      40.6160      86.2190       0.0792       4.3490       2.6030     -33.2920
   2309.0127       8.5369       0.0445      59.6082      26.6111    -999.2500    -999.2500      36.6172      32.6655      70.9362       0.0819       4.5644       2.5739     -32.8642
