#------------------------------------------------------------------------------
#
#   Created by  : [OpenWorks] Log Export Utility (LEXP)
#   Created on  : 2016-05-24 12:12:04
#   Project     : CANT971
#   User        : R5K
#   Interpreter : PEP
#
#------------------------------------------------------------------------------
~VERSION INFORMATION
VERS. 2.0 : CWLS Log ASCII Standard - version 2.0
WRAP.  NO : One line per depth step
~WELL INFORMATION
#MNEMONIC   .UNIT                                           VALUE :DESCRIPTION
#------------------------------------------------------------------------------
STRT        .M                                          1605.0770 :START DEPTH
STOP        .M                                          2483.6631 :STOP DEPTH
STEP        .M                                             0.1524 :STEP
NULL        .                                           -999.2500 :NULL VALUE
COMP        .                                   PEMEX EXPL & PROD :COMPANY
WELL        .                                                1023 :WELL
FLD         .                                           CANTARELL :FIELD
LOC         .                                             UNKNOWN :LOCATION
CNTY        .                                      CD. DEL CARMEN :COUNTY
STAT        .                                            CAMPECHE :STATE
CTRY        .                                              MEXICO :COUNTRY
SRVC        .                                             UNKNOWN :SERVICE COMPANY
DATE        .                                             UNKNOWN :LOG DATE
UWI         .                                          3060000489 :UNIQUE WELL ID
XCOORD      .                                       598527.650000 :SURFACE X
YCOORD      .                                      2152011.600000 :SURFACE Y
LAT         .                                           19.461305 :LATITUDE
LON         .                                          -92.061299 :LONGITUDE
ELEV        .M                                            27.9700 :SURFACE ELEV
ELEV_TYPE   .                                                  KB :ELEV TYPE
~CURVE INFORMATION
#MNEMONIC.UNIT        API CODE       : CURVE DESCRIPTION
#------------------------------------------------------------------------------
DEPTH    .M                          : Measured Depth
CALI     .inches      UNKNOWN        : CALI:registros:rC:NONE:v0 (auto-composite)
DRHO     .g/cm3       UNKNOWN        : DRHO:registros:rC:NONE:v0 (auto-composite)
DT       .us/ft       UNKNOWN        : DT:registros:rC:NONE:v0 (auto-composite)
GR       .API         UNKNOWN        : GR:registros:rC:NONE:v0 (auto-composite)
ILD      .ohm.m       UNKNOWN        : ILD:registros:rC:NONE:v0 (auto-composite)
ILM      .ohm.m       UNKNOWN        : ILM:registros:rC:NONE:v0 (auto-composite)
LLD      .ohm.m       UNKNOWN        : LLD:registros:rC:NONE:v0 (auto-composite)
LLS      .ohm.m       UNKNOWN        : LLS:registros:rC:NONE:v0 (auto-composite)
MSFL     .ohm.m       UNKNOWN        : MSFL:registros:rC:NONE:v0 (auto-composite)
NPHI     .UNKNOWN     UNKNOWN        : NPHI:registros:rC:NONE:v0 (auto-composite)
PEF      .UNKNOWN     UNKNOWN        : PEF:registros:rC:NONE:v0 (auto-composite)
RHOB     .g/cm3       UNKNOWN        : RHOB:registros:rC:NONE:v0 (auto-composite)
SP       .mV          UNKNOWN        : SP:registros:rC:NONE:v0 (auto-composite)
~A     DEPTH         CALI         DRHO           DT           GR          ILD          ILM          LLD          LLS         MSFL         NPHI          PEF         RHOB           SP
# ...
   2289.0483       9.6090       0.0790      94.3890      44.5940    -999.2500    -999.2500       2.8650       1.6730       2.9520       0.2804       3.6190       2.4430       8.5340
   2289.2007       9.4998       0.0494      95.3995      42.8661    -999.2500    -999.2500       2.6616       1.5963       2.6720       0.2867       3.6010       2.4570       8.0260
   2289.3530       9.3910       0.0200      96.4060      41.1450    -999.2500    -999.2500       2.4590       1.5200       2.3930       0.2914       3.5830       2.4710       7.5200
   2289.5054       9.4397       0.0275      96.2523      39.4246    -999.2500    -999.2500       2.5002       1.5461       2.5597       0.2711       3.6533       2.4404       7.5853
   2289.6577       9.4880       0.0350      96.1000      37.7190    -999.2500    -999.2500       2.5410       1.5720       2.7250       0.2507       3.7230       2.4100       7.6500
   2289.8103       9.5368       0.0697      93.2970      38.0396    -999.2500    -999.2500       2.8244       1.7305       2.9052       0.2534       3.6913       2.3889       7.6419
   2289.9626       9.5850       0.1040      90.5310      38.3560    -999.2500    -999.2500       3.1040       1.8870       3.0830       0.2606       3.6600       2.3680       7.6340
   2290.1150      10.1920       0.1377      90.6883      41.2021    -999.2500    -999.2500       3.0809       1.8744       3.0438       0.3281       3.2851       2.2997       7.2496
   2290.2673      10.7930       0.1710      90.8440      44.0200    -999.2500    -999.2500       3.0580       1.8620       3.0050       0.3947       2.9140       2.2320       6.8690
   2290.4199      10.7845       0.1700      95.7362      49.8573    -999.2500    -999.2500       2.5047       1.5615       2.2069       0.3974       2.9225       2.2255       6.8765
   2290.5723      10.7760       0.1690     100.5960      55.6560    -999.2500    -999.2500       1.9550       1.2630       1.4140       0.3957       2.9310       2.2190       6.8840
   2290.7246      10.4848       0.1344     109.6010      55.6560    -999.2500    -999.2500       1.8056       1.1848       1.4000       0.3733       3.2247       2.1939       7.1351
   2290.8770      10.1950       0.1000     118.5620      55.6560    -999.2500    -999.2500       1.6570       1.1070       1.3860       0.3472       3.5170       2.1690       7.3850
   2291.0295       9.6982       0.1165     113.6507      50.2494    -999.2500    -999.2500       2.0005       1.3554       1.5402       0.2657       3.9652       2.3052       7.5598
   2291.1819       9.2030       0.1330     108.7550      44.8600    -999.2500    -999.2500       2.3430       1.6030       1.6940       0.1862       4.4120       2.4410       7.7340
   2291.3342       9.1072       0.1435      93.4858      40.2436    -999.2500    -999.2500       3.1736       2.1943       4.2821       0.2025       4.1492       2.5167       7.8087
   2291.4866       9.0120       0.1540      78.3120      35.6560    -999.2500    -999.2500       3.9990       2.7820       6.8540       0.2225       3.8880       2.5920       7.8830
   2291.6389       9.1491       0.1460      84.2460      37.5870    -999.2500    -999.2500       3.3510       2.4746       6.2944       0.2231       3.6705       2.5438       7.6258
   2291.7915       9.2850       0.1380      90.1250      39.5000    -999.2500    -999.2500       2.7090       2.1700       5.7400       0.2226       3.4550       2.4960       7.3710
   2291.9438       9.1891       0.1219      88.6193      39.8363    -999.2500    -999.2500       2.7793       2.1785       4.3899       0.2191       3.4861       2.4970       7.6405
   2292.0962       9.0940       0.1060      87.1250      40.1700    -999.2500    -999.2500       2.8490       2.1870       3.0500       0.2157       3.5170       2.4980       7.9080
   2292.2485       9.1251       0.1035      87.9243      42.4748    -999.2500    -999.2500       2.7863       2.2221       3.4326       0.2173       3.6439       2.5361       7.9035
   2292.4011       9.1560       0.1010      88.7190      44.7660    -999.2500    -999.2500       2.7240       2.2570       3.8130       0.2190       3.7700       2.5740       7.8990
   2292.5535       9.1530       0.0980      88.6865      44.6258    -999.2500    -999.2500       2.7310       2.2745       3.7990       0.2186       3.8296       2.5730       7.8184
   2292.7058       9.1500       0.0950      88.6540      44.4860    -999.2500    -999.2500       2.7380       2.2920       3.7850       0.2180       3.8890       2.5720       7.7380
   2292.8582       9.1044       0.0785      88.1536      42.3385    -999.2500    -999.2500       2.8498       2.4013       3.5804       0.2119       3.9848       2.5539       7.4472
   2293.0107       9.0590       0.0620      87.6560      40.2030    -999.2500    -999.2500       2.9610       2.5100       3.3770       0.2053       4.0800       2.5360       7.1580
   2293.1631       9.0500       0.0550      87.0147      38.8702    -999.2500    -999.2500       3.0464       2.7311       3.4157       0.1922       3.9614       2.5365       7.0494
   2293.3154       9.0410       0.0480      86.3800      37.5510    -999.2500    -999.2500       3.1310       2.9500       3.4540       0.1790       3.8440       2.5370       6.9420
   2293.4678       8.9813       0.0540      83.6340      33.5310    -999.2500    -999.2500       3.7863       3.5832       3.9191       0.1698       3.7457       2.5631       6.2596
   2293.6201       8.9220       0.0600      80.9070      29.5390    -999.2500    -999.2500       4.4370       4.2120       4.3810       0.1618       3.6480       2.5890       5.5820
   2293.7727       8.9886       0.0640      77.1026      31.0457    -999.2500    -999.2500       4.8442       4.6603       5.3387       0.1815       3.8208       2.5780       4.7475
   2293.9250       9.0550       0.0680      73.3120      32.5470    -999.2500    -999.2500       5.2500       5.1070       6.2930       0.2018       3.9930       2.5670       3.9160
   2294.0774       9.0274       0.0856      76.0845      35.7262    -999.2500    -999.2500       4.4110       4.3268       5.2903       0.2122       4.1025       2.5524       4.2885
   2294.2297       9.0000       0.1030      78.8340      38.8790    -999.2500    -999.2500       3.5790       3.5530       4.2960       0.2215       4.2110       2.5380       4.6580
   2294.3823       9.0629       0.1136      82.4091      40.0959    -999.2500    -999.2500       3.0657       3.0910       4.4490       0.2087       4.1239       2.5123       5.2961
   2294.5347       9.1250       0.1240      85.9380      41.2970    -999.2500    -999.2500       2.5590       2.6350       4.6000       0.1945       4.0380       2.4870       5.9260
   2294.6870       8.9034       0.1094      81.7076      34.7746    -999.2500    -999.2500       4.4722       4.6949      81.0583       0.1550       4.6419       2.5222       3.7068
   2294.8394       8.6840       0.0950      77.5180      28.3150    -999.2500    -999.2500       6.3670       6.7350     156.7810       0.1161       5.2400       2.5570       1.5090
   2294.9919       8.6850       0.0574      73.1005      22.2784    -999.2500    -999.2500      19.1565      18.3397     151.3619       0.1121       5.2144       2.5204      -3.6157
   2295.1443       8.6860       0.0200      68.7110      16.2800    -999.2500    -999.2500      31.8650      29.8710     145.9770       0.1092       5.1890       2.4840      -8.7080
   2295.2966       8.6985       0.0175      67.3368      15.3153    -999.2500    -999.2500      42.3777      42.5227     107.0237       0.1071       5.0482       2.4795     -13.2765
   2295.4490       8.7110       0.0150      65.9690      14.3550    -999.2500    -999.2500      52.8420      55.1160      68.2500       0.1051       4.9080       2.4750     -17.8240
   2295.6013       8.6524       0.0140      65.9395      13.9424    -999.2500    -999.2500      45.0002      47.8435      71.1917       0.1016       4.8599       2.4765     -20.7327
