#------------------------------------------------------------------------------
#
#   Created by  : [OpenWorks] Log Export Utility (LEXP)
#   Created on  : 2016-05-24 12:12:05
#   Project     : CANT971
#   User        : R5K
#   Interpreter : PEP
#
#------------------------------------------------------------------------------
~VERSION INFORMATION
VERS. 2.0 : CWLS Log ASCII Standard - version 2.0
WRAP.  NO : One line per depth step
~WELL INFORMATION
#MNEMONIC   .UNIT                                           VALUE :DESCRIPTION
#------------------------------------------------------------------------------
STRT        .M                                           752.7670 :START DEPTH
STOP        .M                                          3519.8938 :STOP DEPTH
STEP        .M                                             0.1524 :STEP
NULL        .                                           -999.2500 :NULL VALUE
COMP        .                                   PEMEX EXPL & PROD :COMPANY
WELL        .                                                1025 :WELL
FLD         .                                           CANTARELL :FIELD
LOC         .                                             UNKNOWN :LOCATION
CNTY        .                                      CD. DEL CARMEN :COUNTY
STAT        .                                            CAMPECHE :STATE
CTRY        .                                              MEXICO :COUNTRY
SRVC        .                                             UNKNOWN :SERVICE COMPANY
DATE        .                                             UNKNOWN :LOG DATE
UWI         .                                          3060000656 :UNIQUE WELL ID
XCOORD      .                                       598529.300000 :SURFACE X
YCOORD      .                                      2152013.390000 :SURFACE Y
LAT         .                                           19.461322 :LATITUDE
LON         .                                          -92.061283 :LONGITUDE
ELEV        .M                                            27.9700 :SURFACE ELEV
ELEV_TYPE   .                                                  KB :ELEV TYPE
~CURVE INFORMATION
#MNEMONIC.UNIT        API CODE       : CURVE DESCRIPTION
#------------------------------------------------------------------------------
DEPTH    .M                          : Measured Depth
CALI     .inches      UNKNOWN        : CALI:registros:rC:NONE:v0 (auto-composite)
CGR      .API         UNKNOWN        : CGR:registros:rC:NONE:v0 (auto-composite)
DRHO     .g/cm3       UNKNOWN        : DRHO:registros:rC:NONE:v0 (auto-composite)
DT       .us/ft       UNKNOWN        : DT:registros:rC:NONE:v0 (auto-composite)
GR       .API         UNKNOWN        : GR:registros:rC:NONE:v0 (auto-composite)
ILD      .ohm.m       UNKNOWN        : ILD:registros:rC:NONE:v0 (auto-composite)
ILM      .ohm.m       UNKNOWN        : ILM:registros:rC:NONE:v0 (auto-composite)
LLD      .ohm.m       UNKNOWN        : LLD:registros:rC:NONE:v0 (auto-composite)
LLS      .ohm.m       UNKNOWN        : LLS:registros:rC:NONE:v0 (auto-composite)
MSFL     .ohm.m       UNKNOWN        : MSFL:registros:rC:NONE:v0 (auto-composite)
NPHI     .UNKNOWN     UNKNOWN        : NPHI:registros:rC:NONE:v0 (auto-composite)
PEF      .UNKNOWN     UNKNOWN        : PEF:registros:rC:NONE:v0 (auto-composite)
POTA     .UNKNOWN     UNKNOWN        : POTA:registros:rC:NONE:v0 (auto-composite)
RHOB     .g/cm3       UNKNOWN        : RHOB:registros:rC:NONE:v0 (auto-composite)
THOR     .ppm         UNKNOWN        : THOR:registros:rC:NONE:v0 (auto-composite)
URAN     .ppm         UNKNOWN        : URAN:registros:rC:NONE:v0 (auto-composite)
~A     DEPTH         CALI          CGR         DRHO           DT           GR          ILD          ILM          LLD          LLS         MSFL         NPHI          PEF         POTA         RHOB         THOR         URAN
# ...
   2585.3770      14.3821       0.5705       0.0482      57.6445      31.4646    -999.2500    -999.2500    4175.2812     399.2431     332.7290       0.0874       3.0496       0.0020       2.6290      -0.6566       4.3067
   2585.5293      14.4196       0.9838       0.0252      53.6042      31.9659    -999.2500    -999.2500    4776.3955     435.6674     168.9563       0.0770       2.9941       0.0020       2.6525      -0.5947       4.3192
   2585.6819      14.4311       1.3357       0.0077      50.1849      32.3974    -999.2500    -999.2500    4843.5620     448.2933      57.1909       0.0705       2.9743       0.0020       2.6655      -0.5390       4.3250
   2585.8342      14.3806       1.5411       0.0032      48.2457      32.6628    -999.2500    -999.2500    3637.9573     404.1914      69.3956       0.0701       3.0398       0.0020       2.6535      -0.4986       4.3151
   2585.9866      14.3180       1.9377       0.0012      47.7669      33.1233    -999.2500    -999.2500    2937.8625     386.7382     151.4200       0.0697       3.0966       0.0021       2.6536      -0.4579       4.3164
   2586.1389      14.2263       2.7919       0.0052      50.7833      34.0506    -999.2500    -999.2500    3447.7661     433.0721     400.5662       0.0691       3.1327       0.0026       2.6826      -0.4168       4.3450
   2586.2913      14.1689       4.7718       0.0092      53.5197      36.5001    -999.2500    -999.2500    3494.0146     435.6732     490.3352       0.0817       3.1714       0.0036       2.6996      -0.2540       4.4232
   2586.4438      14.1919       9.3958       0.0132      55.5983      42.5250    -999.2500    -999.2500    2451.2214     335.5545     205.7566       0.1193       3.2164       0.0056       2.6881       0.1948       4.6181
   2586.5962      14.1434      15.1371       0.0212      56.5970      50.0401    -999.2500    -999.2500    1753.7211     271.7343      77.2616       0.1515       3.1998       0.0080       2.6540       0.7811       4.8651
   2586.7485      13.9265      23.5134       0.0387      55.0487      61.0698    -999.2500    -999.2500    1870.6051     293.5254     316.8951       0.1659       3.0379       0.0115       2.5665       1.6917       5.2350
   2586.9009      13.7307      26.2304       0.0520      54.4859      63.7426    -999.2500    -999.2500    3125.5378     370.7137     425.8886       0.1585       2.9083       0.0127       2.4896       2.0154       5.2288
   2587.0535      13.5847      15.5440       0.0555      56.2571      46.6235    -999.2500    -999.2500    7075.7173     579.0997     225.4867       0.1137       2.8553       0.0082       2.4376       0.9488       4.3322
   2587.2058      13.5082       7.2143       0.0587      56.7885      33.3345    -999.2500    -999.2500    9109.3408     690.4114     163.9325       0.0836       2.8592       0.0046       2.4300       0.1448       3.6410
   2587.3582      13.5966       4.4892       0.0612      54.3715      29.1542    -999.2500    -999.2500    6585.1416     570.8672     432.5768       0.0903       2.9986       0.0031       2.5279      -0.0350       3.4382
   2587.5105      13.6459       2.4447       0.0678      52.4345      25.9331    -999.2500    -999.2500    4536.0488     466.2271     536.8561       0.0944       3.1158       0.0020       2.5894      -0.2122       3.2723
   2587.6631      13.6015       2.0384       0.0843      51.6529      25.0205    -999.2500    -999.2500    3630.3044     397.4532     245.5899       0.0852       3.1798       0.0020       2.5634      -0.3831       3.1948
   2587.8154      13.5389       1.8267       0.1108      51.5812      24.2431    -999.2500    -999.2500    2771.1907     329.6237      41.1420       0.0787       3.2329       0.0021       2.5424      -0.5169       3.1277
   2587.9678      13.4326       2.0854       0.1615      53.2253      23.7923    -999.2500    -999.2500    2024.7625     264.0760      46.4959       0.0802       3.2600       0.0026       2.5333      -0.5610       3.0856
   2588.1201      13.3678       2.5331       0.2048      54.6302      24.1019    -999.2500    -999.2500    1409.8466     209.1627      82.9010       0.0809       3.2474       0.0030       2.5488      -0.5126       3.0918
   2588.2725      13.4008       3.4252       0.2307      55.4723      26.2005    -999.2500    -999.2500    1104.3855     179.2726     192.3712       0.0786       3.1414       0.0030       2.6217      -0.2462       3.2117
   2588.4250      13.4877       3.8662       0.2336      56.3577      27.9644    -999.2500    -999.2500     881.9949     157.8313     246.8400       0.0787       3.0768       0.0027       2.6827      -0.0095       3.3267
   2588.5774      13.7019       3.2415       0.1816      57.3455      28.9377    -999.2500    -999.2500     855.8826     156.3526     171.3521       0.0839       3.1098       0.0017       2.7151       0.1567       3.4301
   2588.7297      13.9329       2.5759       0.1258      58.2632      29.0801    -999.2500    -999.2500     869.0051     161.2856     109.8737       0.0917       3.1489       0.0009       2.7166       0.3048       3.5171
   2588.8821      14.2038       1.8128       0.0609      59.0134      27.2359    -999.2500    -999.2500     975.9344     181.5484      81.8907       0.1035       3.2029       0.0004       2.6442       0.4093       3.5651
   2589.0347      14.2045       1.5426       0.0123      59.4088      26.2395    -999.2500    -999.2500    1143.6674     207.0030     105.1155       0.1146       3.2574       0.0001       2.5735       0.4335       3.5636
   2589.1870      13.5567       2.4561       0.0033      58.9526      27.2784    -999.2500    -999.2500    1457.3815     244.9226     251.2832       0.1228       3.3130       0.0006       2.5074       0.2650       3.4433
   2589.3394      13.0972       3.2841      -0.0036      58.7305      27.9367    -999.2500    -999.2500    1736.2954     277.1004     407.8708       0.1236       3.3273       0.0011       2.5005       0.1627       3.3393
   2589.4917      13.0777       3.9118      -0.0056      59.0561      27.7055    -999.2500    -999.2500    1933.8489     295.8543     588.8192       0.1107       3.2449       0.0016       2.6323       0.2151       3.2733
   2589.6443      13.0497       4.5714      -0.0077      59.4397      27.7297    -999.2500    -999.2500    2119.1738     313.0087     618.6679       0.1034       3.1572       0.0021       2.6571       0.2661       3.2230
   2589.7966      13.0018       5.3066      -0.0102      59.9605      28.3579    -999.2500    -999.2500    2275.5703     326.3795     291.0704       0.1102       3.0567       0.0026       2.4287       0.3136       3.2095
   2589.9490      12.9853       6.0941      -0.0101      59.8262      28.6367    -999.2500    -999.2500    2331.2727     328.3157     204.0333       0.1181       3.0236       0.0030       2.3423       0.3754       3.1791
   2590.1013      13.0438       7.0057      -0.0036      58.1360      28.0854    -999.2500    -999.2500    2147.7825     303.0901     688.4340       0.1252       3.1506       0.0030       2.5932       0.4714       3.1087
   2590.2537      13.1693       7.1639      -0.0000      56.6883      27.0558    -999.2500    -999.2500    1970.0642     280.8389     901.8538       0.1274       3.2149       0.0031       2.7427       0.4472       2.9982
   2590.4062      13.4547       5.5251      -0.0035      55.8191      24.8853    -999.2500    -999.2500    1806.1140     265.6824     468.8982       0.1202       3.1299       0.0036       2.6502       0.1363       2.7923
   2590.5586      13.6187       4.7706      -0.0047      56.0583      23.2886    -999.2500    -999.2500    1682.7490     253.9947     224.2491       0.1164       3.0865       0.0041       2.6012      -0.1034       2.6232
   2590.7109      13.4919       6.1343      -0.0002      58.9520      23.0667    -999.2500    -999.2500    1656.5955     250.6156     430.6394       0.1213       3.1426       0.0046       2.6563      -0.1725       2.5426
   2590.8633      13.4331       8.7578       0.0037      61.3443      24.6815    -999.2500    -999.2500    1583.9059     241.1294     503.7990       0.1214       3.1753       0.0056       2.6908       0.0120       2.4320
