#------------------------------------------------------------------------------
#
#   Created by  : [OpenWorks] Log Export Utility (LEXP)
#   Created on  : 2016-05-24 12:12:05
#   Project     : CANT971
#   User        : R5K
#   Interpreter : PEP
#
#------------------------------------------------------------------------------
~VERSION INFORMATION
VERS. 2.0 : CWLS Log ASCII Standard - version 2.0
WRAP.  NO : One line per depth step
~WELL INFORMATION
#MNEMONIC   .UNIT                                           VALUE :DESCRIPTION
#------------------------------------------------------------------------------
STRT        .M                                           752.7670 :START DEPTH
STOP        .M                                          3519.8938 :STOP DEPTH
STEP        .M                                             0.1524 :STEP
NULL        .                                           -999.2500 :NULL VALUE
COMP        .                                   PEMEX EXPL & PROD :COMPANY
WELL        .                                                1025 :WELL
FLD         .                                           CANTARELL :FIELD
LOC         .                                             UNKNOWN :LOCATION
CNTY        .                                      CD. DEL CARMEN :COUNTY
STAT        .                                            CAMPECHE :STATE
CTRY        .                                              MEXICO :COUNTRY
SRVC        .                                             UNKNOWN :SERVICE COMPANY
DATE        .                                             UNKNOWN :LOG DATE
UWI         .                                          3060000656 :UNIQUE WELL ID
XCOORD      .                                       598529.300000 :SURFACE X
YCOORD      .                                      2152013.390000 :SURFACE Y
LAT         .                                           19.461322 :LATITUDE
LON         .                                          -92.061283 :LONGITUDE
ELEV        .M                                            27.9700 :SURFACE ELEV
ELEV_TYPE   .                                                  KB :ELEV TYPE
~CURVE INFORMATION
#MNEMONIC.UNIT        API CODE       : CURVE DESCRIPTION
#------------------------------------------------------------------------------
DEPTH    .M                          : Measured Depth
CALI     .inches      UNKNOWN        : CALI:registros:rC:NONE:v0 (auto-composite)
CGR      .API         UNKNOWN        : CGR:registros:rC:NONE:v0 (auto-composite)
DRHO     .g/cm3       UNKNOWN        : DRHO:registros:rC:NONE:v0 (auto-composite)
DT       .us/ft       UNKNOWN        : DT:registros:rC:NONE:v0 (auto-composite)
GR       .API         UNKNOWN        : GR:registros:rC:NONE:v0 (auto-composite)
ILD      .ohm.m       UNKNOWN        : ILD:registros:rC:NONE:v0 (auto-composite)
ILM      .ohm.m       UNKNOWN        : ILM:registros:rC:NONE:v0 (auto-composite)
LLD      .ohm.m       UNKNOWN        : LLD:registros:rC:NONE:v0 (auto-composite)
LLS      .ohm.m       UNKNOWN        : LLS:registros:rC:NONE:v0 (auto-composite)
MSFL     .ohm.m       UNKNOWN        : MSFL:registros:rC:NONE:v0 (auto-composite)
NPHI     .UNKNOWN     UNKNOWN        : NPHI:registros:rC:NONE:v0 (auto-composite)
PEF      .UNKNOWN     UNKNOWN        : PEF:registros:rC:NONE:v0 (auto-composite)
POTA     .UNKNOWN     UNKNOWN        : POTA:registros:rC:NONE:v0 (auto-composite)
RHOB     .g/cm3       UNKNOWN        : RHOB:registros:rC:NONE:v0 (auto-composite)
THOR     .ppm         UNKNOWN        : THOR:registros:rC:NONE:v0 (auto-composite)
URAN     .ppm         UNKNOWN        : URAN:registros:rC:NONE:v0 (auto-composite)
~A     DEPTH         CALI          CGR         DRHO           DT           GR          ILD          ILM          LLD          LLS         MSFL         NPHI          PEF         POTA         RHOB         THOR         URAN
# ...
   3431.1970       8.9601       9.6672      -0.0063      47.1386      11.1017    -999.2500    -999.2500     344.3566     275.6559     315.8845       0.0413       3.3479       0.0027       2.8150       1.2998       0.0106
   3431.3494       8.9938      10.0803      -0.0077      47.7920      12.0418    -999.2500    -999.2500     283.8496     239.3909     358.8516       0.0449       3.3819       0.0030       2.8032       1.3062       0.0765
   3431.5017       9.0464       8.8239      -0.0097      48.1856      11.4672    -999.2500    -999.2500     263.3438     222.4455     269.7892       0.0481       3.6270       0.0030       2.7862       1.1618       0.1698
   3431.6541       9.0575       8.0757      -0.0113      48.5819      10.8184    -999.2500    -999.2500     251.5992     242.6873     242.6873       0.0518       3.7585       0.0030       2.7748       1.0929       0.2107
   3431.8066       8.9890       8.2991      -0.0123      48.9832      10.0277    -999.2500    -999.2500     256.5980     333.9973     333.9973       0.0554       3.6725       0.0030       2.7743       1.1684       0.1518
   3431.9590       8.9673       8.3227      -0.0118      48.9920       9.3359    -999.2500    -999.2500     256.9525     354.7243     354.7243       0.0570       3.5621       0.0028       2.7788       1.2137       0.1005
   3432.1113       9.0353       7.9629      -0.0083      48.2478       8.8336    -999.2500    -999.2500     248.3972     240.0429     240.0429       0.0555       3.4046       0.0023       2.7928       1.2012       0.0640
   3432.2637       9.0694       7.3978      -0.0062      48.0350       8.1965    -999.2500    -999.2500     242.3193     180.7865     209.8151       0.0521       3.2699       0.0018       2.8013       1.1478       0.0610
   3432.4163       9.0385       6.4375      -0.0067      48.8455       7.2996    -999.2500    -999.2500     241.0124     228.2680     342.2283       0.0484       3.1790       0.0013       2.7993       1.0154       0.1224
   3432.5686       8.9966       6.3794      -0.0077      49.0668       7.2247    -999.2500    -999.2500     254.8683     282.2728     392.1157       0.0457       3.1962       0.0012       2.8004       1.0337       0.1445
   3432.7209       8.9337       8.0782      -0.0097      48.1407       8.7506    -999.2500    -999.2500     298.2471     348.9790     281.3201       0.0452       3.4236       0.0017       2.8074       1.3450       0.0900
   3432.8733       8.8811       9.5473      -0.0113      47.2400      10.1113    -999.2500    -999.2500     330.9615     413.7711     264.3618       0.0460       3.5653       0.0023       2.8106       1.5391       0.0482
   3433.0259       8.8491      10.5677      -0.0123      46.3892      11.1492    -999.2500    -999.2500     342.8314     474.8218     430.8168       0.0487       3.5398       0.0033       2.8066       1.5040       0.0312
   3433.1782       8.7979      12.7300      -0.0125      46.0667      13.5835    -999.2500    -999.2500     326.5007     542.2645     461.6432       0.0555       3.5844       0.0045       2.8025       1.6753       0.0556
   3433.3306       8.7105      17.0701      -0.0110      46.7519      18.6808    -999.2500    -999.2500     256.3925     621.8966     233.8306       0.0704       3.7628       0.0060       2.7980       2.2400       0.1590
   3433.4829       8.6624      29.6466      -0.0073      47.2908      33.3057    -999.2500    -999.2500     178.0794     709.9889      70.5173       0.1003       3.8474       0.0103       2.7780       3.7675       0.4050
   3433.6353       8.6899      57.9896       0.0007      47.5494      66.1692    -999.2500    -999.2500      84.0598     814.2764      30.6739       0.1402       3.7526       0.0197       2.7286       7.1378       0.9239
   3433.7878       8.7318      74.3905       0.0057      47.9214      85.2110    -999.2500    -999.2500      20.3076     965.9492       4.0282       0.1621       3.6076       0.0253       2.6572       9.0678       1.2176
   3433.9402       8.8018      67.6789       0.0047      48.5127      77.5029    -999.2500    -999.2500      15.1343    1209.3306       2.9252       0.1524       3.3657       0.0233       2.5432       8.2102       1.0757
   3434.0925       8.9682      55.3595       0.0069      49.5191      63.3253    -999.2500    -999.2500      12.2801    1201.9413     234.4933       0.1263       3.2097       0.0193       2.4940       6.6822       0.8509
   3434.2449       9.3221      32.1451       0.0154      51.3324      36.5789    -999.2500    -999.2500      13.9314     707.3449     918.1041       0.0988       3.2207       0.0113       2.5705       3.8520       0.4651
   3434.3975       9.3966      14.9451       0.0162      54.4891      16.9297    -999.2500    -999.2500      27.4470     501.2879    1266.8776       0.0859       3.2605       0.0053       2.6385       1.7560       0.2007
   3434.5498       8.9263       9.4754       0.0022      60.2661      11.1226    -999.2500    -999.2500      64.1021     857.9807     962.6046       0.0927       3.3562       0.0033       2.6901       1.0922       0.1731
   3434.7021       8.6166       5.6445      -0.0080      61.1305       7.1173    -999.2500    -999.2500     201.8079     964.9626     692.8535       0.1020       3.4076       0.0018       2.7156       0.6592       0.1498
   3434.8545       8.6126       4.9319      -0.0110      52.6470       6.5405    -999.2500    -999.2500     531.7985     596.7805     488.7925       0.1029       3.3747       0.0013       2.6911       0.6657       0.1349
   3435.0071       8.5985       4.4886      -0.0125      47.3243       6.3054    -999.2500    -999.2500     716.3904     366.8586     366.8586       0.0955       3.3463       0.0010       2.6786       0.6953       0.1346
   3435.1594       8.5651       4.5636      -0.0110      48.0825       6.7278    -999.2500    -999.2500     621.2665     402.9196     402.9196       0.0829       3.3268       0.0010       2.6891       0.7693       0.1626
   3435.3118       8.5773       4.8797      -0.0091      49.0761       7.3131    -999.2500    -999.2500     531.0539     448.6391     373.0299       0.0745       3.3345       0.0010       2.7025       0.9026       0.1878
   3435.4641       8.6777       5.6613      -0.0066      50.5245       8.2132    -999.2500    -999.2500     450.3257     513.0114     215.7773       0.0742       3.3944       0.0010       2.7215       1.1505       0.2078
   3435.6165       8.7003       6.2538      -0.0040      50.8274       8.6841    -999.2500    -999.2500     399.6247     573.1500     165.2009       0.0754       3.4843       0.0010       2.7381       1.3276       0.1979
   3435.7690       8.5720       6.4795      -0.0010      48.9098       8.3231    -999.2500    -999.2500     407.1349     625.0815     321.4298       0.0739       3.6321       0.0010       2.7501       1.3675       0.1300
   3435.9214       8.5111       6.6124       0.0017      47.7413       8.1563    -999.2500    -999.2500     419.9620     680.3629     439.0730       0.0701       3.6931       0.0012       2.7572       1.3696       0.0869
   3436.0737       8.5822       6.5633       0.0037      48.0411       8.3704    -999.2500    -999.2500     443.2104     742.2103     481.0855       0.0652       3.5838       0.0017       2.7546       1.2974       0.0924
   3436.2261       8.5926       6.3232       0.0081      48.4048       8.3231    -999.2500    -999.2500     485.5935     807.9713     551.8147       0.0633       3.5199       0.0018       2.7537       1.2047       0.1061
   3436.3787       8.4867       5.7179       0.0171      48.8906       7.7758    -999.2500    -999.2500     564.5674     881.2162     677.4584       0.0655       3.5429       0.0013       2.7557       1.0728       0.1356
   3436.5310       8.4425       5.1952       0.0221      49.2196       7.3431    -999.2500    -999.2500     612.6292     980.6389     708.3291       0.0675       3.4880       0.0010       2.7587       0.9588       0.1627
   3436.6833       8.5170       4.8309       0.0196      49.2476       7.1302    -999.2500    -999.2500     601.3510    1130.3132     557.2709       0.0672       3.2836       0.0010       2.7637       0.8793       0.1852
