#------------------------------------------------------------------------------
#
#   Created by  : [OpenWorks] Log Export Utility (LEXP)
#   Created on  : 2016-05-24 12:12:05
#   Project     : CANT971
#   User        : R5K
#   Interpreter : PEP
#
#------------------------------------------------------------------------------
~VERSION INFORMATION
VERS. 2.0 : CWLS Log ASCII Standard - version 2.0
WRAP.  NO : One line per depth step
~WELL INFORMATION
#MNEMONIC   .UNIT                                           VALUE :DESCRIPTION
#------------------------------------------------------------------------------
STRT        .M                                           752.7670 :START DEPTH
STOP        .M                                          3519.8938 :STOP DEPTH
STEP        .M                                             0.1524 :STEP
NULL        .                                           -999.2500 :NULL VALUE
COMP        .                                   PEMEX EXPL & PROD :COMPANY
WELL        .                                                1025 :WELL
FLD         .                                           CANTARELL :FIELD
LOC         .                                             UNKNOWN :LOCATION
CNTY        .                                      CD. DEL CARMEN :COUNTY
STAT        .                                            CAMPECHE :STATE
CTRY        .                                              MEXICO :COUNTRY
SRVC        .                                             UNKNOWN :SERVICE COMPANY
DATE        .                                             UNKNOWN :LOG DATE
UWI         .                                          3060000656 :UNIQUE WELL ID
XCOORD      .                                       598529.300000 :SURFACE X
YCOORD      .                                      2152013.390000 :SURFACE Y
LAT         .                                           19.461322 :LATITUDE
LON         .                                          -92.061283 :LONGITUDE
ELEV        .M                                            27.9700 :SURFACE ELEV
ELEV_TYPE   .                                                  KB :ELEV TYPE
~CURVE INFORMATION
#MNEMONIC.UNIT        API CODE       : CURVE DESCRIPTION
#------------------------------------------------------------------------------
DEPTH    .M                          : Measured Depth
CALI     .inches      UNKNOWN        : CALI:registros:rC:NONE:v0 (auto-composite)
CGR      .API         UNKNOWN        : CGR:registros:rC:NONE:v0 (auto-composite)
DRHO     .g/cm3       UNKNOWN        : DRHO:registros:rC:NONE:v0 (auto-composite)
DT       .us/ft       UNKNOWN        : DT:registros:rC:NONE:v0 (auto-composite)
GR       .API         UNKNOWN        : GR:registros:rC:NONE:v0 (auto-composite)
ILD      .ohm.m       UNKNOWN        : ILD:registros:rC:NONE:v0 (auto-composite)
ILM      .ohm.m       UNKNOWN        : ILM:registros:rC:NONE:v0 (auto-composite)
LLD      .ohm.m       UNKNOWN        : LLD:registros:rC:NONE:v0 (auto-composite)
LLS      .ohm.m       UNKNOWN        : LLS:registros:rC:NONE:v0 (auto-composite)
MSFL     .ohm.m       UNKNOWN        : MSFL:registros:rC:NONE:v0 (auto-composite)
NPHI     .UNKNOWN     UNKNOWN        : NPHI:registros:rC:NONE:v0 (auto-composite)
PEF      .UNKNOWN     UNKNOWN        : PEF:registros:rC:NONE:v0 (auto-composite)
POTA     .UNKNOWN     UNKNOWN        : POTA:registros:rC:NONE:v0 (auto-composite)
RHOB     .g/cm3       UNKNOWN        : RHOB:registros:rC:NONE:v0 (auto-composite)
THOR     .ppm         UNKNOWN        : THOR:registros:rC:NONE:v0 (auto-composite)
URAN     .ppm         UNKNOWN        : URAN:registros:rC:NONE:v0 (auto-composite)
~A     DEPTH         CALI          CGR         DRHO           DT           GR          ILD          ILM          LLD          LLS         MSFL         NPHI          PEF         POTA         RHOB         THOR         URAN
# ...
   2669.9590      17.0998       9.3321       0.0065      65.6434      14.7247    -999.2500    -999.2500     153.2845      93.0420     467.0929       0.1307       3.1788       0.0024       2.6149       1.6317       0.7614
   2670.1113      17.3114       8.8821       0.0153      67.9145      14.2138    -999.2500    -999.2500     172.8369     104.1983     202.8092       0.1331       3.3018       0.0021       2.6169       1.5825       0.7450
   2670.2637      16.4619       6.3102       0.0128      61.1608      13.2789    -999.2500    -999.2500     196.2780     118.1337      95.1060       0.1570       3.2344       0.0026       2.4866       0.8034       0.9817
   2670.4163      16.0637       4.7113       0.0107      58.5325      12.8481    -999.2500    -999.2500     214.9862     129.4079      26.2704       0.1819       3.1799       0.0030       2.4030       0.2557       1.1300
   2670.5686      16.7319       5.4120       0.0097      65.6549      13.6088    -999.2500    -999.2500     222.5080     134.3922      49.3025       0.1967       3.1559       0.0030       2.4300       0.2547       1.0695
   2670.7209      17.3072       5.9549       0.0063      71.0453      14.0401    -999.2500    -999.2500     223.0351     138.1802     124.1444       0.1954       3.1154       0.0030       2.4660       0.2943       1.0231
   2670.8733      17.6620       6.1234      -0.0027      72.3247      13.6898    -999.2500    -999.2500     206.9610     139.1288     321.9520       0.1747       3.0360       0.0030       2.5235       0.4302       1.0102
   2671.0259      17.4693       6.3501      -0.0060      72.9597      13.5856    -999.2500    -999.2500     198.4332     142.6126     397.5158       0.1617       2.9995       0.0029       2.5486       0.5579       1.0062
   2671.1782      15.9714       6.7160       0.0040      72.0585      14.0678    -999.2500    -999.2500     207.8901     152.1385     181.7410       0.1697       3.0655       0.0024       2.4967       0.6659       1.0237
   2671.3306      14.6894       6.6535       0.0128      69.7353      13.9993    -999.2500    -999.2500     222.9045     165.2690      28.7944       0.1821       3.2097       0.0019       2.4566       0.7221       1.0237
   2671.4829      13.9239       5.5658       0.0188      64.0085      12.6126    -999.2500    -999.2500     251.2188     187.0258      26.2068       0.1904       3.5414       0.0014       2.4451       0.6544       0.9822
   2671.6353      13.4019       4.8596       0.0211      60.6688      11.7566    -999.2500    -999.2500     274.9354     206.1565      69.6571       0.1867       3.7031       0.0010       2.4488       0.6428       0.9623
   2671.7878      13.4519       5.0490       0.0146      62.9348      12.1469    -999.2500    -999.2500     287.8548     219.1199     221.2221       0.1676       3.4657       0.0010       2.4883       0.7628       0.9932
   2671.9402      13.5040       4.7544       0.0079      64.5998      11.9903    -999.2500    -999.2500     285.0093     220.0344     292.2766       0.1554       3.2780       0.0009       2.5257       0.8186       1.0137
   2672.0925      13.5609       3.3185       0.0009      64.8477      10.5439    -999.2500    -999.2500     244.9886     192.5363     173.4789       0.1618       3.2075       0.0004       2.5582       0.7231       1.0092
   2672.2449      13.5841       2.5966      -0.0030      65.6180      10.5404    -999.2500    -999.2500     210.9722     169.5011      79.6178       0.1768       3.1745       0.0003       2.5665       0.6266       1.1131
   2672.3975      13.5271       3.5652       0.0005      67.6251      13.9534    -999.2500    -999.2500     191.1733     157.0335      44.8033       0.1955       3.2299       0.0013       2.5175       0.5277       1.4740
   2672.5498      13.4484       4.5582       0.0021      68.8449      16.6776    -999.2500    -999.2500     184.9016     154.1950      78.8298       0.2051       3.3629       0.0021       2.4528       0.4120       1.6699
   2672.7021      13.3181       5.6094      -0.0009      68.1927      17.7637    -999.2500    -999.2500     210.7937     174.2518     276.5390       0.1980       3.6800       0.0026       2.3510       0.2567       1.4736
   2672.8545      13.2520       5.8490      -0.0034      68.3561      17.5919    -999.2500    -999.2500     307.0060     229.4680     370.9801       0.1844       3.8312       0.0027       2.3235       0.1778       1.3274
   2673.0071      13.3404       4.1357      -0.0049      70.4816      14.3933    -999.2500    -999.2500     572.4134     369.2802     216.9517       0.1689       3.5833       0.0017       2.4749       0.2828       1.3014
   2673.1594      13.3600       3.1804      -0.0060      70.3492      12.4225    -999.2500    -999.2500     920.2668     520.9014     161.6936       0.1589       3.3800       0.0011       2.5788       0.3140       1.2909
   2673.3118      13.2131       4.0563      -0.0060      64.7612      13.4182    -999.2500    -999.2500    1467.3193     701.0548     345.0759       0.1586       3.2842       0.0016       2.5677       0.1671       1.3180
   2673.4641      13.1136       4.3914      -0.0044      60.0574      13.7570    -999.2500    -999.2500    1883.2423     831.4966     498.5118       0.1595       3.2106       0.0021       2.5484       0.0156       1.3208
   2673.6165      13.1256       3.4541       0.0011      57.4336      12.5500    -999.2500    -999.2500    1990.6678     844.9859     581.4950       0.1579       3.1891       0.0026       2.5094      -0.1467       1.2663
   2673.7690      13.1222       2.6871       0.0063      56.2402      11.7605    -999.2500    -999.2500    2117.1042     864.0476     600.1553       0.1549       3.1775       0.0029       2.4887      -0.2736       1.2404
   2673.9214      13.0822       2.3258       0.0108      58.4517      11.9649    -999.2500    -999.2500    2288.7979     896.3746     465.6908       0.1507       3.1895       0.0024       2.5111      -0.3160       1.2824
   2674.0737      13.0729       2.2085       0.0152      60.5753      12.1974    -999.2500    -999.2500    2470.2200     929.2644     431.7686       0.1450       3.1888       0.0021       2.5351      -0.3272       1.3184
   2674.2261      13.1371       2.6748       0.0192      62.4886      12.4973    -999.2500    -999.2500    2674.8982     963.4993     638.1888       0.1380       3.1577       0.0026       2.5627      -0.2635       1.3399
   2674.3787      13.1673       3.0396       0.0240      62.9897      12.7124    -999.2500    -999.2500    2592.1697     931.0864     699.9740       0.1340       3.1402       0.0028       2.5843      -0.1957       1.3463
   2674.5310      13.1183       3.1680       0.0304      60.2034      12.7304    -999.2500    -999.2500    1840.3838     743.5234     425.0623       0.1354       3.1542       0.0024       2.5917      -0.1183       1.3173
   2674.6833      13.0677       3.2875       0.0366      58.7980      12.6481    -999.2500    -999.2500    1205.0128     568.1261     224.1709       0.1387       3.1411       0.0020       2.5937      -0.0591       1.2852
   2674.8357      13.0133       3.3859       0.0421      60.6202      12.3315    -999.2500    -999.2500     841.7616     421.1663     196.3022       0.1420       3.0647       0.0020       2.5827      -0.0426       1.2457
   2674.9883      12.9909       3.6056       0.0429      62.2429      12.2559    -999.2500    -999.2500     549.0574     298.4755     185.5242       0.1420       3.0037       0.0021       2.5760      -0.0276       1.2138
   2675.1406      13.0444       4.1124       0.0324      63.3934      12.7502    -999.2500    -999.2500     423.2108     233.1857     215.1689       0.1368       2.9792       0.0026       2.5795      -0.0161       1.1998
   2675.2930      13.0750       4.6172       0.0217      63.6475      13.0694    -999.2500    -999.2500     316.0414     176.2832     222.1206       0.1296       2.9733       0.0030       2.5839       0.0349       1.1835
   2675.4453      13.0515       5.1175       0.0107      61.7728      12.9730    -999.2500    -999.2500     253.2305     139.3007     175.1764       0.1222       3.0112       0.0030       2.5904       0.1799       1.1615
