#------------------------------------------------------------------------------
#
#   Created by  : [OpenWorks] Log Export Utility (LEXP)
#   Created on  : 2016-05-24 12:12:05
#   Project     : CANT971
#   User        : R5K
#   Interpreter : PEP
#
#------------------------------------------------------------------------------
~VERSION INFORMATION
VERS. 2.0 : CWLS Log ASCII Standard - version 2.0
WRAP.  NO : One line per depth step
~WELL INFORMATION
#MNEMONIC   .UNIT                                           VALUE :DESCRIPTION
#------------------------------------------------------------------------------
STRT        .M                                           752.7670 :START DEPTH
STOP        .M                                          3519.8938 :STOP DEPTH
STEP        .M                                             0.1524 :STEP
NULL        .                                           -999.2500 :NULL VALUE
COMP        .                                   PEMEX EXPL & PROD :COMPANY
WELL        .                                                1025 :WELL
FLD         .                                           CANTARELL :FIELD
LOC         .                                             UNKNOWN :LOCATION
CNTY        .                                      CD. DEL CARMEN :COUNTY
STAT        .                                            CAMPECHE :STATE
CTRY        .                                              MEXICO :COUNTRY
SRVC        .                                             UNKNOWN :SERVICE COMPANY
DATE        .                                             UNKNOWN :LOG DATE
UWI         .                                          3060000656 :UNIQUE WELL ID
XCOORD      .                                       598529.300000 :SURFACE X
YCOORD      .                                      2152013.390000 :SURFACE Y
LAT         .                                           19.461322 :LATITUDE
LON         .                                          -92.061283 :LONGITUDE
ELEV        .M                                            27.9700 :SURFACE ELEV
ELEV_TYPE   .                                                  KB :ELEV TYPE
~CURVE INFORMATION
#MNEMONIC.UNIT        API CODE       : CURVE DESCRIPTION
#------------------------------------------------------------------------------
DEPTH    .M                          : Measured Depth
CALI     .inches      UNKNOWN        : CALI:registros:rC:NONE:v0 (auto-composite)
CGR      .API         UNKNOWN        : CGR:registros:rC:NONE:v0 (auto-composite)
DRHO     .g/cm3       UNKNOWN        : DRHO:registros:rC:NONE:v0 (auto-composite)
DT       .us/ft       UNKNOWN        : DT:registros:rC:NONE:v0 (auto-composite)
GR       .API         UNKNOWN        : GR:registros:rC:NONE:v0 (auto-composite)
ILD      .ohm.m       UNKNOWN        : ILD:registros:rC:NONE:v0 (auto-composite)
ILM      .ohm.m       UNKNOWN        : ILM:registros:rC:NONE:v0 (auto-composite)
LLD      .ohm.m       UNKNOWN        : LLD:registros:rC:NONE:v0 (auto-composite)
LLS      .ohm.m       UNKNOWN        : LLS:registros:rC:NONE:v0 (auto-composite)
MSFL     .ohm.m       UNKNOWN        : MSFL:registros:rC:NONE:v0 (auto-composite)
NPHI     .UNKNOWN     UNKNOWN        : NPHI:registros:rC:NONE:v0 (auto-composite)
PEF      .UNKNOWN     UNKNOWN        : PEF:registros:rC:NONE:v0 (auto-composite)
POTA     .UNKNOWN     UNKNOWN        : POTA:registros:rC:NONE:v0 (auto-composite)
RHOB     .g/cm3       UNKNOWN        : RHOB:registros:rC:NONE:v0 (auto-composite)
THOR     .ppm         UNKNOWN        : THOR:registros:rC:NONE:v0 (auto-composite)
URAN     .ppm         UNKNOWN        : URAN:registros:rC:NONE:v0 (auto-composite)
~A     DEPTH         CALI          CGR         DRHO           DT           GR          ILD          ILM          LLD          LLS         MSFL         NPHI          PEF         POTA         RHOB         THOR         URAN
# ...
   2247.0491    -999.2500    -999.2500      -0.9924      54.6046      22.8115      67.9973      67.9973    -999.2500    -999.2500    -999.2500       0.3062    -999.2500    -999.2500       2.2098    -999.2500    -999.2500
   2247.2014    -999.2500    -999.2500      -1.0039      56.4908      22.3861      67.8570      67.8570    -999.2500    -999.2500    -999.2500       0.3508    -999.2500    -999.2500       2.1618    -999.2500    -999.2500
   2247.3538    -999.2500    -999.2500      -1.0136      57.7911      22.0411      66.7994      66.7994    -999.2500    -999.2500    -999.2500       0.3739    -999.2500    -999.2500       2.1231    -999.2500    -999.2500
   2247.5061    -999.2500    -999.2500      -1.0191      57.6896      21.8886      63.5473      63.5473    -999.2500    -999.2500    -999.2500       0.3501    -999.2500    -999.2500       2.1066    -999.2500    -999.2500
   2247.6584    -999.2500    -999.2500      -1.0153      58.0615      22.0769      59.0076      59.0076    -999.2500    -999.2500    -999.2500       0.3101    -999.2500    -999.2500       2.1180    -999.2500    -999.2500
   2247.8110    -999.2500    -999.2500      -0.9893      59.5707      23.0837      51.3739      51.3739    -999.2500    -999.2500    -999.2500       0.2758    -999.2500    -999.2500       2.1962    -999.2500    -999.2500
   2247.9634    -999.2500    -999.2500      -0.9670      60.2400      23.9656      45.2944      45.2944    -999.2500    -999.2500    -999.2500       0.2519    -999.2500    -999.2500       2.2594    -999.2500    -999.2500
   2248.1157    -999.2500    -999.2500      -0.9535      58.9440      24.5553      42.8509      42.8509    -999.2500    -999.2500    -999.2500       0.2434    -999.2500    -999.2500       2.2874    -999.2500    -999.2500
   2248.2681    -999.2500    -999.2500      -0.9485      57.7954      24.8013      40.4058      40.4058    -999.2500    -999.2500    -999.2500       0.2570    -999.2500    -999.2500       2.2822    -999.2500    -999.2500
   2248.4207    -999.2500    -999.2500      -0.9635      56.9929      24.2395      37.9568      37.9568    -999.2500    -999.2500    -999.2500       0.2878    -999.2500    -999.2500       2.1994    -999.2500    -999.2500
   2248.5730    -999.2500    -999.2500      -0.9759      56.3620      23.8353      35.7109      35.7109    -999.2500    -999.2500    -999.2500       0.3030    -999.2500    -999.2500       2.1358    -999.2500    -999.2500
   2248.7253    -999.2500    -999.2500      -0.9824      56.1391      23.8058      33.9477      33.9477    -999.2500    -999.2500    -999.2500       0.2857    -999.2500    -999.2500       2.1183    -999.2500    -999.2500
   2248.8777    -999.2500    -999.2500      -0.9833      57.3789      23.6162      32.8167      32.8167    -999.2500    -999.2500    -999.2500       0.2581    -999.2500    -999.2500       2.1239    -999.2500    -999.2500
   2249.0303    -999.2500    -999.2500      -0.9708      62.1104      23.0444      33.1950      33.1950    -999.2500    -999.2500    -999.2500       0.2392    -999.2500    -999.2500       2.1843    -999.2500    -999.2500
   2249.1826    -999.2500    -999.2500      -0.9605      67.9797      22.6479      33.3095      33.3095    -999.2500    -999.2500    -999.2500       0.2424    -999.2500    -999.2500       2.2328    -999.2500    -999.2500
   2249.3350    -999.2500    -999.2500      -0.9555      76.5765      22.6715      32.7916      32.7916    -999.2500    -999.2500    -999.2500       0.2749    -999.2500    -999.2500       2.2523    -999.2500    -999.2500
   2249.4873    -999.2500    -999.2500      -0.9577      81.3051      22.6880      32.4420      32.4420    -999.2500    -999.2500    -999.2500       0.3267    -999.2500    -999.2500       2.2426    -999.2500    -999.2500
   2249.6396    -999.2500    -999.2500      -0.9767      77.0044      22.6880      32.4855      32.4855    -999.2500    -999.2500    -999.2500       0.3857    -999.2500    -999.2500       2.1647    -999.2500    -999.2500
   2249.7922    -999.2500    -999.2500      -0.9927      74.7943      22.6880      32.3742      32.3742    -999.2500    -999.2500    -999.2500       0.4325    -999.2500    -999.2500       2.0966    -999.2500    -999.2500
   2249.9446    -999.2500    -999.2500      -1.0017      77.5216      22.6880      31.8974      31.8974    -999.2500    -999.2500    -999.2500       0.4495    -999.2500    -999.2500       2.0516    -999.2500    -999.2500
   2250.0969    -999.2500    -999.2500      -1.0043      78.9199      22.6880    -999.2500    -999.2500    -999.2500    -999.2500    -999.2500       0.4230    -999.2500    -999.2500       2.0339    -999.2500    -999.2500
   2250.2493    -999.2500    -999.2500      -0.9918      77.1661    -999.2500    -999.2500    -999.2500    -999.2500    -999.2500    -999.2500       0.3554    -999.2500    -999.2500       2.0809    -999.2500    -999.2500
   2250.4019      10.9092      10.4962      -0.9762      75.5135    -999.2500    -999.2500    -999.2500    -999.2500       0.0000       0.6718       0.2907    -999.2500       0.0050       2.1357       0.7696       1.9914
   2250.5542      10.9167      10.7369      -0.9532      74.1017    -999.2500    -999.2500    -999.2500    -999.2500       0.0000       0.8471       0.2605    -999.2500       0.0050       2.2091       0.7177       2.0128
   2250.7065      10.9254      10.6957      -0.9361      73.4886    -999.2500    -999.2500    -999.2500    -999.2500       0.0000       0.9363       0.2675    -999.2500       0.0050       2.2491       0.6947       2.0167
   2250.8589      10.9369       9.9752      -0.9331      74.8003    -999.2500    -999.2500    -999.2500    -999.2500       0.0000       0.8180       0.3063    -999.2500       0.0050       2.2085       0.7413       1.9781
   2251.0115      10.9466       9.7192      -0.9335      74.9782    -999.2500    -999.2500    -999.2500    -999.2500       0.0000       0.7228       0.3498    -999.2500       0.0050       2.1579       0.8072       1.9610
   2251.1638      10.9521      10.5534      -0.9420      72.4958    -999.2500    -999.2500    -999.2500    -999.2500       0.0000       0.6818       0.3752    -999.2500       0.0050       2.0839       0.9181       1.9945
   2251.3162      10.9597      11.3047      -0.9420      71.0499    -999.2500    -999.2500    -999.2500    -999.2500       0.0000       0.6396       0.3689    -999.2500       0.0050       2.0387       1.0597       2.0146
   2251.4685      10.9722      11.8610      -0.9221      72.0465    -999.2500    -999.2500    -999.2500    -999.2500       0.0000       0.5946       0.3303    -999.2500       0.0050       2.0612       1.2736       2.0031
   2251.6208      10.9862      12.3940      -0.8978      72.4083    -999.2500    -999.2500    -999.2500    -999.2500       0.0000       0.5879       0.2904    -999.2500       0.0050       2.0997       1.3826       1.9882
   2251.7734      11.0037      12.8719      -0.8633      71.2682    -999.2500    -999.2500    -999.2500    -999.2500       0.0000       0.6718       0.2768    -999.2500       0.0050       2.1761       1.2433       1.9652
   2251.9258      11.0159      13.9172      -0.8381      69.1762    -999.2500    -999.2500    -999.2500    -999.2500       0.0000       0.7082       0.3105    -999.2500       0.0053       2.2210       1.2497       1.9826
   2252.0781      11.0154      16.3212      -0.8351      64.8051    -999.2500    -999.2500    -999.2500    -999.2500       0.0000       0.6307       0.3922    -999.2500       0.0063       2.1905       1.6050       2.0965
   2252.2305      11.0150      18.2794      -0.8396      63.3509    -999.2500    -999.2500    -999.2500    -999.2500       0.0000       0.5518       0.4706    -999.2500       0.0071       2.1568       1.8875       2.1963
   2252.3831      11.0150      19.1659      -0.8622      68.9098    -999.2500    -999.2500    -999.2500    -999.2500       0.0000       0.4696       0.5058    -999.2500       0.0076       2.1152       1.9948       2.2620
   2252.5354      11.0152      18.2837      -0.8743      74.2583    -999.2500    -999.2500    -999.2500    -999.2500       0.0000       0.4341       0.4836    -999.2500       0.0073       2.0903       1.9484       2.2325
