#------------------------------------------------------------------------------
#
#   Created by  : [OpenWorks] Log Export Utility (LEXP)
#   Created on  : 2016-05-24 12:12:05
#   Project     : CANT971
#   User        : R5K
#   Interpreter : PEP
#
#------------------------------------------------------------------------------
~VERSION INFORMATION
VERS. 2.0 : CWLS Log ASCII Standard - version 2.0
WRAP.  NO : One line per depth step
~WELL INFORMATION
#MNEMONIC   .UNIT                                           VALUE :DESCRIPTION
#------------------------------------------------------------------------------
STRT        .M                                           752.7670 :START DEPTH
STOP        .M                                          3519.8938 :STOP DEPTH
STEP        .M                                             0.1524 :STEP
NULL        .                                           -999.2500 :NULL VALUE
COMP        .                                   PEMEX EXPL & PROD :COMPANY
WELL        .                                                1025 :WELL
FLD         .                                           CANTARELL :FIELD
LOC         .                                             UNKNOWN :LOCATION
CNTY        .                                      CD. DEL CARMEN :COUNTY
STAT        .                                            CAMPECHE :STATE
CTRY        .                                              MEXICO :COUNTRY
SRVC        .                                             UNKNOWN :SERVICE COMPANY
DATE        .                                             UNKNOWN :LOG DATE
UWI         .                                          3060000656 :UNIQUE WELL ID
XCOORD      .                                       598529.300000 :SURFACE X
YCOORD      .                                      2152013.390000 :SURFACE Y
LAT         .                                           19.461322 :LATITUDE
LON         .                                          -92.061283 :LONGITUDE
ELEV        .M                                            27.9700 :SURFACE ELEV
ELEV_TYPE   .                                                  KB :ELEV TYPE
~CURVE INFORMATION
#MNEMONIC.UNIT        API CODE       : CURVE DESCRIPTION
#------------------------------------------------------------------------------
DEPTH    .M                          : Measured Depth
CALI     .inches      UNKNOWN        : CALI:registros:rC:NONE:v0 (auto-composite)
CGR      .API         UNKNOWN        : CGR:registros:rC:NONE:v0 (auto-composite)
DRHO     .g/cm3       UNKNOWN        : DRHO:registros:rC:NONE:v0 (auto-composite)
DT       .us/ft       UNKNOWN        : DT:registros:rC:NONE:v0 (auto-composite)
GR       .API         UNKNOWN        : GR:registros:rC:NONE:v0 (auto-composite)
ILD      .ohm.m       UNKNOWN        : ILD:registros:rC:NONE:v0 (auto-composite)
ILM      .ohm.m       UNKNOWN        : ILM:registros:rC:NONE:v0 (auto-composite)
LLD      .ohm.m       UNKNOWN        : LLD:registros:rC:NONE:v0 (auto-composite)
LLS      .ohm.m       UNKNOWN        : LLS:registros:rC:NONE:v0 (auto-composite)
MSFL     .ohm.m       UNKNOWN        : MSFL:registros:rC:NONE:v0 (auto-composite)
NPHI     .UNKNOWN     UNKNOWN        : NPHI:registros:rC:NONE:v0 (auto-composite)
PEF      .UNKNOWN     UNKNOWN        : PEF:registros:rC:NONE:v0 (auto-composite)
POTA     .UNKNOWN     UNKNOWN        : POTA:registros:rC:NONE:v0 (auto-composite)
RHOB     .g/cm3       UNKNOWN        : RHOB:registros:rC:NONE:v0 (auto-composite)
THOR     .ppm         UNKNOWN        : THOR:registros:rC:NONE:v0 (auto-composite)
URAN     .ppm         UNKNOWN        : URAN:registros:rC:NONE:v0 (auto-composite)
~A     DEPTH         CALI          CGR         DRHO           DT           GR          ILD          ILM          LLD          LLS         MSFL         NPHI          PEF         POTA         RHOB         THOR         URAN
# ...
   2500.7949      14.3781       9.9107       0.0039      55.9958      67.7239    -999.2500    -999.2500    2725.6409     308.3792     623.9424       0.0594       3.1860       0.0030       2.8338       1.5063       8.0589
   2500.9473      14.0986       8.2713       0.0064      57.2736      62.8572    -999.2500    -999.2500    2430.7000     289.0476      98.2685       0.0763       3.1228       0.0029       2.7729       1.2178       7.5931
   2501.0999      13.8862       6.6480       0.0079      57.8954      52.4118    -999.2500    -999.2500    2386.7778     286.0989     196.1722       0.0934       3.1487       0.0024       2.6185       0.8355       6.3106
   2501.2522      13.9657       5.1912       0.0094      57.9114      43.4763    -999.2500    -999.2500    2435.5066     292.3862     241.0482       0.1011       3.1834       0.0021       2.5304       0.5114       5.2469
   2501.4045      14.7339       4.1272       0.0109      56.4985      38.1032    -999.2500    -999.2500    2702.7959     320.4611     160.8333       0.0970       3.2383       0.0026       2.5989       0.3244       4.6992
   2501.5569      15.0985       3.2932       0.0105      55.9284      34.2066    -999.2500    -999.2500    2823.5273     333.8754     205.3054       0.0961       3.2543       0.0027       2.6601       0.1862       4.3094
   2501.7095      14.5072       3.0044       0.0055      57.3548      33.8078    -999.2500    -999.2500    2597.1023     312.5626     545.1287       0.1052       3.1778       0.0017       2.7040       0.1632       4.2939
   2501.8618      14.0289       3.7510       0.0030      58.1408      34.6903    -999.2500    -999.2500    2397.0872     294.5117     682.3151       0.1122       3.1351       0.0013       2.7155       0.2837       4.3127
   2502.0142      13.8192       6.9605       0.0065      57.4037      38.6204    -999.2500    -999.2500    2259.8901     284.2193     337.5152       0.1105       3.1725       0.0023       2.6496       0.7457       4.4131
   2502.1665      13.6807       8.2613       0.0134      56.1174      39.4024    -999.2500    -999.2500    2241.5527     287.6350     130.9256       0.1079       3.2025       0.0029       2.6067       0.9137       4.3408
   2502.3188      13.7137       4.9677       0.0284      53.5090      32.6068    -999.2500    -999.2500    2509.3047     324.0453     257.0022       0.1084       3.2145       0.0024       2.6192       0.3744       3.8530
   2502.4714      13.7333       2.3530       0.0399      52.1868      27.2898    -999.2500    -999.2500    2483.8977     327.2625     300.4110       0.1075       3.2019       0.0019       2.6345      -0.0526       3.4765
   2502.6238      13.7208       1.3793       0.0429      53.9733      25.5465    -999.2500    -999.2500    1749.9225     250.2515     144.0109       0.1080       3.1297       0.0014       2.6565      -0.2086       3.3687
   2502.7761      13.7431       1.0769       0.0566      55.5076      24.9171    -999.2500    -999.2500    1175.7682     189.9743      49.2758       0.1296       3.1400       0.0011       2.6555      -0.2435       3.3228
   2502.9285      13.8476       2.3544       0.0956      56.4487      26.9092    -999.2500    -999.2500     977.7492     169.0798      99.6681       0.1780       3.3444       0.0016       2.6000       0.0064       3.4228
   2503.0811      14.0196       2.9054       0.1243      58.1595      27.8478    -999.2500    -999.2500     848.9894     156.1627     117.3979       0.2245       3.6019       0.0019       2.5258       0.1388       3.4982
   2503.2334      14.3512       1.7399       0.1288      61.6891      26.2967    -999.2500    -999.2500     883.9044     162.0979      57.9392       0.2461       3.9849       0.0014       2.4075      -0.0065       3.5157
   2503.3857      14.4589       1.3918       0.1261      63.3141      25.9842    -999.2500    -999.2500     943.1288     170.3977      32.3926       0.2320       4.3005       0.0011       2.3495      -0.0652       3.5501
   2503.5381      14.0310       2.9986       0.1061      60.3844      28.6336    -999.2500    -999.2500    1060.4856     184.3522      87.9416       0.1842       4.4550       0.0016       2.4360       0.0832       3.6251
   2503.6907      13.8651       4.3236       0.0783      57.9215      30.9244    -999.2500    -999.2500    1219.2828     201.3954     138.8389       0.1372       4.3445       0.0021       2.5069       0.2072       3.7097
   2503.8430      14.3278       4.9719       0.0317      56.5798      32.3544    -999.2500    -999.2500    1477.5914     225.8557     178.5661       0.1126       3.5979       0.0026       2.5405       0.2723       3.8175
   2503.9954      14.6174       5.5565      -0.0020      55.5569      33.7554    -999.2500    -999.2500    1741.3341     250.8098     241.1555       0.1010       3.1043       0.0030       2.5721       0.3412       3.9306
   2504.1477      14.5020       5.9924      -0.0055      55.2795      35.0888    -999.2500    -999.2500    2017.7837     276.9185     357.2054       0.0956       3.2023       0.0030       2.5991       0.4187       4.0560
   2504.3000      14.4580       6.2434      -0.0079      54.8580      36.3251    -999.2500    -999.2500    2299.3418     300.6637     400.3707       0.0958       3.2535       0.0030       2.6398       0.4799       4.1601
   2504.4526      14.5818       6.0606      -0.0074      54.0979      37.3334    -999.2500    -999.2500    2592.8943     318.8593     272.4020       0.0992       3.1951       0.0030       2.7127       0.5028       4.2140
   2504.6050      14.5976       5.7506      -0.0074      53.1979      37.6748    -999.2500    -999.2500    2840.5374     333.9923     401.9437       0.0995       3.1373       0.0030       2.7455       0.4844       4.2624
   2504.7573      14.3567       5.1384      -0.0089      51.9655      36.4318    -999.2500    -999.2500    2979.1050     341.8489    1143.3000       0.0942       3.0808       0.0030       2.6830       0.3674       4.2973
   2504.9097      14.2373       4.9550      -0.0082      51.2718      36.0266    -999.2500    -999.2500    3094.5818     350.2462    1444.4691       0.0901       3.0612       0.0029       2.6608       0.3285       4.3499
   2505.0623      14.4078       5.7946      -0.0022      51.8635      37.6199    -999.2500    -999.2500    3154.9692     359.9335     695.4591       0.0913       3.1297       0.0024       2.7348       0.4760       4.4444
   2505.2146      14.4522       6.9813       0.0035      52.4631      39.6452    -999.2500    -999.2500    3065.8865     356.2575     225.9478       0.0951       3.1951       0.0023       2.7632       0.6606       4.5538
   2505.3669      14.1947       8.9993       0.0085      53.0813      42.7052    -999.2500    -999.2500    2618.7207     320.5672     426.0276       0.0994       3.2532       0.0033       2.6826       0.9341       4.6991
   2505.5193      13.9667       9.4734       0.0133      53.9659      43.5618    -999.2500    -999.2500    2314.9124     294.9484     502.0282       0.1029       3.2785       0.0037       2.6223       1.0083       4.7524
   2505.6719      13.8083       6.3183       0.0178      55.4767      39.2387    -999.2500    -999.2500    2348.1140     293.0062     286.3394       0.1051       3.2265       0.0027       2.6098       0.6140       4.5894
   2505.8242      13.7522       3.7991       0.0232      56.7999      35.7014    -999.2500    -999.2500    2426.7109     297.7147     172.2951       0.1086       3.1775       0.0019       2.6067       0.3001       4.4475
   2505.9766      13.9376       2.7810       0.0307      57.6800      34.0191    -999.2500    -999.2500    2612.4651     318.1224     298.1888       0.1135       3.1355       0.0014       2.6256       0.1762       4.3550
   2506.1289      14.0762       2.5248       0.0327      58.5287      33.4714    -999.2500    -999.2500    2706.8474     331.0630     336.4791       0.1145       3.1380       0.0011       2.6212       0.1618       4.3149
   2506.2812      14.1036       4.0747       0.0217      59.3029      35.6130    -999.2500    -999.2500    2584.6465     326.3040     167.1197       0.1095       3.2460       0.0016       2.5612       0.4072       4.3989
