#------------------------------------------------------------------------------
#
#   Created by  : [OpenWorks] Log Export Utility (LEXP)
#   Created on  : 2016-05-24 12:12:05
#   Project     : CANT971
#   User        : R5K
#   Interpreter : PEP
#
#------------------------------------------------------------------------------
~VERSION INFORMATION
VERS. 2.0 : CWLS Log ASCII Standard - version 2.0
WRAP.  NO : One line per depth step
~WELL INFORMATION
#MNEMONIC   .UNIT                                           VALUE :DESCRIPTION
#------------------------------------------------------------------------------
STRT        .M                                           752.7670 :START DEPTH
STOP        .M                                          3519.8938 :STOP DEPTH
STEP        .M                                             0.1524 :STEP
NULL        .                                           -999.2500 :NULL VALUE
COMP        .                                   PEMEX EXPL & PROD :COMPANY
WELL        .                                                1025 :WELL
FLD         .                                           CANTARELL :FIELD
LOC         .                                             UNKNOWN :LOCATION
CNTY        .                                      CD. DEL CARMEN :COUNTY
STAT        .                                            CAMPECHE :STATE
CTRY        .                                              MEXICO :COUNTRY
SRVC        .                                             UNKNOWN :SERVICE COMPANY
DATE        .                                             UNKNOWN :LOG DATE
UWI         .                                          3060000656 :UNIQUE WELL ID
XCOORD      .                                       598529.300000 :SURFACE X
YCOORD      .                                      2152013.390000 :SURFACE Y
LAT         .                                           19.461322 :LATITUDE
LON         .                                          -92.061283 :LONGITUDE
ELEV        .M                                            27.9700 :SURFACE ELEV
ELEV_TYPE   .                                                  KB :ELEV TYPE
~CURVE INFORMATION
#MNEMONIC.UNIT        API CODE       : CURVE DESCRIPTION
#------------------------------------------------------------------------------
DEPTH    .M                          : Measured Depth
CALI     .inches      UNKNOWN        : CALI:registros:rC:NONE:v0 (auto-composite)
CGR      .API         UNKNOWN        : CGR:registros:rC:NONE:v0 (auto-composite)
DRHO     .g/cm3       UNKNOWN        : DRHO:registros:rC:NONE:v0 (auto-composite)
DT       .us/ft       UNKNOWN        : DT:registros:rC:NONE:v0 (auto-composite)
GR       .API         UNKNOWN        : GR:registros:rC:NONE:v0 (auto-composite)
ILD      .ohm.m       UNKNOWN        : ILD:registros:rC:NONE:v0 (auto-composite)
ILM      .ohm.m       UNKNOWN        : ILM:registros:rC:NONE:v0 (auto-composite)
LLD      .ohm.m       UNKNOWN        : LLD:registros:rC:NONE:v0 (auto-composite)
LLS      .ohm.m       UNKNOWN        : LLS:registros:rC:NONE:v0 (auto-composite)
MSFL     .ohm.m       UNKNOWN        : MSFL:registros:rC:NONE:v0 (auto-composite)
NPHI     .UNKNOWN     UNKNOWN        : NPHI:registros:rC:NONE:v0 (auto-composite)
PEF      .UNKNOWN     UNKNOWN        : PEF:registros:rC:NONE:v0 (auto-composite)
POTA     .UNKNOWN     UNKNOWN        : POTA:registros:rC:NONE:v0 (auto-composite)
RHOB     .g/cm3       UNKNOWN        : RHOB:registros:rC:NONE:v0 (auto-composite)
THOR     .ppm         UNKNOWN        : THOR:registros:rC:NONE:v0 (auto-composite)
URAN     .ppm         UNKNOWN        : URAN:registros:rC:NONE:v0 (auto-composite)
~A     DEPTH         CALI          CGR         DRHO           DT           GR          ILD          ILM          LLD          LLS         MSFL         NPHI          PEF         POTA         RHOB         THOR         URAN
# ...
   3515.7791       6.3911      59.4370      -1.0757    -999.2500      72.7550    -999.2500    -999.2500    -999.2500    -999.2500    -999.2500       0.2984    -999.2500       0.0230       2.7145       5.2700       1.6870
   3515.9314       6.3891      59.4370      -1.0807    -999.2500      72.7550    -999.2500    -999.2500    -999.2500    -999.2500    -999.2500       0.2984    -999.2500       0.0230       2.7140       5.2700       1.6870
   3516.0837       6.3918      59.4370      -1.0768    -999.2500      72.7550    -999.2500    -999.2500    -999.2500    -999.2500    -999.2500       0.2984    -999.2500       0.0230       2.7121       5.2700       1.6870
   3516.2361       6.3948      59.4370      -1.0723    -999.2500      72.7550    -999.2500    -999.2500    -999.2500    -999.2500    -999.2500       0.2984    -999.2500       0.0230       2.7101       5.2700       1.6870
   3516.3887       6.3936      59.4370      -1.0748    -999.2500      72.7550    -999.2500    -999.2500    -999.2500    -999.2500    -999.2500       0.2984    -999.2500       0.0230       2.7020       5.2700       1.6870
   3516.5410       6.3921      59.4370      -1.0778    -999.2500      72.7550    -999.2500    -999.2500    -999.2500    -999.2500    -999.2500       0.2984    -999.2500       0.0230       2.6935       5.2700       1.6870
   3516.6934       6.3920      59.4370      -1.0775    -999.2500      72.7550    -999.2500    -999.2500    -999.2500    -999.2500    -999.2500       0.2984    -999.2500       0.0230       2.6982       5.2705       1.6870
   3516.8457       6.3920      59.4370      -1.0770    -999.2500      72.7550    -999.2500    -999.2500    -999.2500    -999.2500    -999.2500       0.2984    -999.2500       0.0230       2.7037       5.2710       1.6870
   3516.9980       6.3929      59.4375      -1.0784    -999.2500      72.7550    -999.2500    -999.2500    -999.2500    -999.2500    -999.2500       0.2984    -999.2500       0.0230       2.7078       5.2710       1.6870
   3517.1506       6.3939      59.4380      -1.0799    -999.2500      72.7550    -999.2500    -999.2500    -999.2500    -999.2500    -999.2500       0.2984    -999.2500       0.0230       2.7118       5.2710       1.6870
   3517.3030       6.3931      59.4380      -1.0870    -999.2500      72.7550    -999.2500    -999.2500    -999.2500    -999.2500    -999.2500       0.2984    -999.2500       0.0230       2.7007       5.2710       1.6870
   3517.4553       6.3921      59.4380      -1.0945    -999.2500      72.7550    -999.2500    -999.2500    -999.2500    -999.2500    -999.2500       0.2984    -999.2500       0.0230       2.6887       5.2710       1.6870
   3517.6077       6.3929      59.4380      -1.0842    -999.2500      72.7550    -999.2500    -999.2500    -999.2500    -999.2500    -999.2500       0.2984    -999.2500       0.0230       2.6960       5.2710       1.6870
   3517.7603       6.3939      59.4380      -1.0727    -999.2500      72.7550    -999.2500    -999.2500    -999.2500    -999.2500    -999.2500       0.2984    -999.2500       0.0230       2.7045       5.2710       1.6870
   3517.9126       6.3935      59.4385      -1.0795    -999.2500      72.7550    -999.2500    -999.2500    -999.2500    -999.2500    -999.2500       0.2984    -999.2500       0.0230       2.7078       5.2710       1.6870
   3518.0649       6.3930      59.4390      -1.0875    -999.2500      72.7550    -999.2500    -999.2500    -999.2500    -999.2500    -999.2500       0.2984    -999.2500       0.0230       2.7108       5.2710       1.6870
   3518.2173       6.3935      59.4390      -1.0791    -999.2500      72.7550    -999.2500    -999.2500    -999.2500    -999.2500    -999.2500       0.2984    -999.2500       0.0230       2.7068       5.2710       1.6870
   3518.3699       6.3940      59.4390      -1.0696    -999.2500      72.7550    -999.2500    -999.2500    -999.2500    -999.2500    -999.2500       0.2984    -999.2500       0.0230       2.7023       5.2710       1.6870
   3518.5222       6.3949      59.4395      -1.0624    -999.2500      72.7550    -999.2500    -999.2500    -999.2500    -999.2500    -999.2500       0.2984    -999.2500       0.0230       2.7095       5.2710       1.6870
   3518.6746       6.3959      59.4400      -1.0554    -999.2500      72.7550    -999.2500    -999.2500    -999.2500    -999.2500    -999.2500       0.2984    -999.2500       0.0230       2.7175       5.2710       1.6870
   3518.8269       6.3932      59.4405      -1.0348    -999.2500      72.7550    -999.2500    -999.2500    -999.2500    -999.2500    -999.2500       0.2984    -999.2500       0.0230       2.7091       5.2710       1.6870
   3518.9792       6.3902      59.4410      -1.0133    -999.2500      72.7550    -999.2500    -999.2500    -999.2500    -999.2500    -999.2500       0.2984    -999.2500       0.0230       2.6996       5.2710       1.6870
   3519.1318       6.4055      59.4410      -0.9914    -999.2500      72.7550    -999.2500    -999.2500    -999.2500    -999.2500    -999.2500       0.2984    -999.2500       0.0230       2.6831       5.2710       1.6870
   3519.2842       6.4220      59.4410      -0.9694    -999.2500      72.7550    -999.2500    -999.2500    -999.2500    -999.2500    -999.2500       0.2984    -999.2500       0.0230       2.6661       5.2710       1.6870
   3519.4365       6.4230      59.4415      -0.9680    -999.2500      72.7545    -999.2500    -999.2500    -999.2500    -999.2500    -999.2500       0.2984    -999.2500       0.0230       2.6650       5.2710       1.6870
   3519.5889       6.4230      59.4420      -0.9680    -999.2500      72.7540    -999.2500    -999.2500    -999.2500    -999.2500    -999.2500       0.2984    -999.2500       0.0230       2.6650       5.2710       1.6870
   3519.7415       6.4230      59.4420      -0.9680    -999.2500      72.7535    -999.2500    -999.2500    -999.2500    -999.2500    -999.2500       0.2984    -999.2500       0.0230       2.6650       5.2710       1.6865
   3519.8938       6.4230      59.4420      -0.9680    -999.2500      72.7530    -999.2500    -999.2500    -999.2500    -999.2500    -999.2500    -999.2500    -999.2500       0.0230       2.6650       5.2710       1.6860
