#------------------------------------------------------------------------------
#
#   Created by  : [OpenWorks] Log Export Utility (LEXP)
#   Created on  : 2016-05-24 12:12:05
#   Project     : CANT971
#   User        : R5K
#   Interpreter : PEP
#
#------------------------------------------------------------------------------
~VERSION INFORMATION
VERS. 2.0 : CWLS Log ASCII Standard - version 2.0
WRAP.  NO : One line per depth step
~WELL INFORMATION
#MNEMONIC   .UNIT                                           VALUE :DESCRIPTION
#------------------------------------------------------------------------------
STRT        .M                                           752.7670 :START DEPTH
STOP        .M                                          3519.8938 :STOP DEPTH
STEP        .M                                             0.1524 :STEP
NULL        .                                           -999.2500 :NULL VALUE
COMP        .                                   PEMEX EXPL & PROD :COMPANY
WELL        .                                                1025 :WELL
FLD         .                                           CANTARELL :FIELD
LOC         .                                             UNKNOWN :LOCATION
CNTY        .                                      CD. DEL CARMEN :COUNTY
STAT        .                                            CAMPECHE :STATE
CTRY        .                                              MEXICO :COUNTRY
SRVC        .                                             UNKNOWN :SERVICE COMPANY
DATE        .                                             UNKNOWN :LOG DATE
UWI         .                                          3060000656 :UNIQUE WELL ID
XCOORD      .                                       598529.300000 :SURFACE X
YCOORD      .                                      2152013.390000 :SURFACE Y
LAT         .                                           19.461322 :LATITUDE
LON         .                                          -92.061283 :LONGITUDE
ELEV        .M                                            27.9700 :SURFACE ELEV
ELEV_TYPE   .                                                  KB :ELEV TYPE
~CURVE INFORMATION
#MNEMONIC.UNIT        API CODE       : CURVE DESCRIPTION
#------------------------------------------------------------------------------
DEPTH    .M                          : Measured Depth
CALI     .inches      UNKNOWN        : CALI:registros:rC:NONE:v0 (auto-composite)
CGR      .API         UNKNOWN        : CGR:registros:rC:NONE:v0 (auto-composite)
DRHO     .g/cm3       UNKNOWN        : DRHO:registros:rC:NONE:v0 (auto-composite)
DT       .us/ft       UNKNOWN        : DT:registros:rC:NONE:v0 (auto-composite)
GR       .API         UNKNOWN        : GR:registros:rC:NONE:v0 (auto-composite)
ILD      .ohm.m       UNKNOWN        : ILD:registros:rC:NONE:v0 (auto-composite)
ILM      .ohm.m       UNKNOWN        : ILM:registros:rC:NONE:v0 (auto-composite)
LLD      .ohm.m       UNKNOWN        : LLD:registros:rC:NONE:v0 (auto-composite)
LLS      .ohm.m       UNKNOWN        : LLS:registros:rC:NONE:v0 (auto-composite)
MSFL     .ohm.m       UNKNOWN        : MSFL:registros:rC:NONE:v0 (auto-composite)
NPHI     .UNKNOWN     UNKNOWN        : NPHI:registros:rC:NONE:v0 (auto-composite)
PEF      .UNKNOWN     UNKNOWN        : PEF:registros:rC:NONE:v0 (auto-composite)
POTA     .UNKNOWN     UNKNOWN        : POTA:registros:rC:NONE:v0 (auto-composite)
RHOB     .g/cm3       UNKNOWN        : RHOB:registros:rC:NONE:v0 (auto-composite)
THOR     .ppm         UNKNOWN        : THOR:registros:rC:NONE:v0 (auto-composite)
URAN     .ppm         UNKNOWN        : URAN:registros:rC:NONE:v0 (auto-composite)
~A     DEPTH         CALI          CGR         DRHO           DT           GR          ILD          ILM          LLD          LLS         MSFL         NPHI          PEF         POTA         RHOB         THOR         URAN
# ...
   3092.8689      11.4181      36.8981      -0.0053      74.7306      82.8383    -999.2500    -999.2500     341.0540     340.8234    1017.7090       0.1530       3.8731       0.0136       2.4381       4.1999       6.4043
   3093.0215      11.5665      40.8274      -0.0063      77.6438      95.0170    -999.2500    -999.2500     366.1946     360.5368     533.0743       0.1574       3.8296       0.0156       2.3911       4.4828       7.5543
   3093.1738      11.6743      44.0305      -0.0051      79.9112     105.0251    -999.2500    -999.2500     362.4926     353.4025     259.8429       0.1527       3.8937       0.0171       2.3892       4.7581       8.5029
   3093.3262      11.6852      45.5057       0.0014      80.6418     109.8681    -999.2500    -999.2500     290.1607     282.3851     489.6351       0.1314       4.2138       0.0176       2.4945       5.0153       8.9723
   3093.4785      11.6543      45.9846       0.0066      81.2323     110.3988    -999.2500    -999.2500     252.7126     241.5081     574.9297       0.1203       4.3473       0.0177       2.5562       5.1389       8.9794
   3093.6309      11.5224      44.0648       0.0086      81.4855     100.5460    -999.2500    -999.2500     299.2592     273.2050     312.2962       0.1326       4.0314       0.0167       2.5126       4.9408       7.8734
   3093.7834      11.4206      41.9781       0.0097      81.2002      92.5177    -999.2500    -999.2500     364.3698     316.8737     377.4266       0.1390       3.7948       0.0157       2.4895       4.7479       7.0450
   3093.9358      11.3891      39.5002       0.0087      79.6524      88.7673    -999.2500    -999.2500     473.0069     388.6122    1211.0507       0.1296       3.7438       0.0147       2.5145       4.5670       6.8675
   3094.0881      11.4092      39.9980       0.0076      78.6941      88.7812    -999.2500    -999.2500     580.0695     460.6909    1574.0344       0.1167       3.7929       0.0144       2.5369       4.5671       6.8001
   3094.2405      11.5506      47.5018       0.0061      79.1240      97.6573    -999.2500    -999.2500     683.4254     533.5704     828.9681       0.1001       4.0778       0.0159       2.5534       4.9934       6.9915
   3094.3931      11.6613      50.2848       0.0054      78.8429     100.7408    -999.2500    -999.2500     734.0193     586.9216     298.0002       0.0935       4.3703       0.0177       2.5564       5.0023       7.0335
   3094.5454      11.6992      41.9077       0.0069      76.8813      90.1299    -999.2500    -999.2500     659.8792     594.1057     273.1808       0.1080       4.6810       0.0202       2.5274       4.0245       6.7224
   3094.6978      11.6839      36.7574       0.0079      75.9129      84.4228    -999.2500    -999.2500     651.2994     615.4308     480.4472       0.1226       4.7527       0.0213       2.4917       3.4607       6.6449
   3094.8501      11.5409      39.3268       0.0074      77.3203      90.4467    -999.2500    -999.2500     799.5549     670.5845    1242.9164       0.1339       4.2529       0.0188       2.4397       3.8870       7.1262
   3095.0027      11.4264      41.6070       0.0073      78.7277      96.4870    -999.2500    -999.2500     930.2962     725.5808    1595.8417       0.1429       3.8769       0.0170       2.4142       4.2803       7.6504
   3095.1550      11.3803      43.1924       0.0083      80.1351     102.5669    -999.2500    -999.2500    1018.9650     780.1992     964.9604       0.1479       3.7981       0.0170       2.4523       4.5941       8.2776
   3095.3074      11.3848      44.0375       0.0080      82.0520     105.9606    -999.2500    -999.2500    1031.4999     781.7796     595.9976       0.1523       3.7836       0.0171       2.4720       4.6959       8.6272
   3095.4597      11.5078      43.1509       0.0045      85.1606     103.0708    -999.2500    -999.2500     865.9415     659.2925     839.7188       0.1557       3.9190       0.0176       2.4485       4.3016       8.3273
   3095.6121      11.6106      42.7880       0.0017      86.8570     101.3482    -999.2500    -999.2500     769.7174     585.8165     917.5881       0.1532       4.0218       0.0181       2.4169       4.0492       8.1292
   3095.7646      11.6660      43.6555       0.0007      85.2360     102.3670    -999.2500    -999.2500     836.3513     627.4617     605.8919       0.1395       4.0477       0.0186       2.3665       4.1301       8.1702
   3095.9170      11.6708      43.2018       0.0013      83.8410     100.9207    -999.2500    -999.2500    1012.6214     730.5812     580.3227       0.1284       4.0730       0.0189       2.3479       3.9056       8.0458
   3096.0693      11.5554      39.6084       0.0058      82.9834      93.6159    -999.2500    -999.2500    1449.4707     979.8106    1234.8085       0.1251       4.0964       0.0184       2.4048       2.9555       7.5285
   3096.2217      11.4573      36.2829       0.0102      82.1479      86.1908    -999.2500    -999.2500    1581.6100    1048.6327    1469.2603       0.1263       4.1096       0.0177       2.4527       2.2333       6.9571
   3096.3743      11.4008      33.5971       0.0142      81.3652      78.4786    -999.2500    -999.2500     986.5170     686.8879     701.2430       0.1352       4.0981       0.0167       2.4787       2.0549       6.2564
   3096.5266      11.4211      33.5561       0.0163      81.3088      75.7322    -999.2500    -999.2500     539.8624     413.4114     295.5521       0.1475       4.0426       0.0167       2.4911       2.1224       5.8792
   3096.6790      11.6251      39.8535       0.0138      82.9930      84.8866    -999.2500    -999.2500     448.9508     351.4762     758.2031       0.1643       3.8817       0.0192       2.4710       2.7792       6.2773
   3096.8313      11.7126      45.3563       0.0108      84.5514      93.0179    -999.2500    -999.2500     394.9065     314.5023     942.1774       0.1725       3.7301       0.0214       2.4435       3.3696       6.6436
   3096.9839      11.5278      49.0043       0.0068      85.8164      98.7619    -999.2500    -999.2500     426.9025     335.7831     475.7774       0.1623       3.6002       0.0229       2.3986       3.8051       6.9358
   3097.1362      11.4542      53.4239       0.0043      86.4653     105.5692    -999.2500    -999.2500     427.6345     335.0375     137.4613       0.1502       3.5924       0.0247       2.3817       4.3132       7.2687
   3097.2886      11.6431      59.6657       0.0053      85.6597     114.8877    -999.2500    -999.2500     354.5386     282.2783     101.6057       0.1379       3.8728       0.0272       2.4312       4.9929       7.6980
   3097.4409      11.7382      61.8392       0.0060      84.6211     118.3413    -999.2500    -999.2500     322.7095     263.5982     175.3441       0.1275       4.1272       0.0280       2.4703       5.2826       7.8768
   3097.5933      11.6108      54.3659       0.0060      83.0303     107.8884    -999.2500    -999.2500     388.7330     325.7268     508.9530       0.1220       4.3201       0.0245       2.4848       4.6473       7.4615
   3097.7458      11.5042      48.4118       0.0061      82.1248      98.5988    -999.2500    -999.2500     485.9836     409.4813     637.7316       0.1265       4.3474       0.0217       2.4823       4.1124       6.9965
   3097.8982      11.4472      46.0746       0.0066      82.8509      92.0793    -999.2500    -999.2500     657.5881     544.7280     278.7966       0.1497       3.9804       0.0207       2.4394       3.8163       6.4132
   3098.0505      11.4771      46.3589       0.0080      83.9330      90.4079    -999.2500    -999.2500     671.5430     553.3624      62.6012       0.1679       3.7379       0.0207       2.4124       3.8621       6.1404
   3098.2029      11.7163      52.9592       0.0115      85.8728     100.4176    -999.2500    -999.2500     305.6437     256.9262     190.3348       0.1720       3.7956       0.0232       2.4239       4.7321       6.6157
   3098.3555      11.8368      58.6333       0.0133      87.6295     109.1905    -999.2500    -999.2500      48.2567      48.3826     240.0284       0.1757       3.8091       0.0254       2.4268       5.4070       7.0477
