#------------------------------------------------------------------------------
#
#   Created by  : [OpenWorks] Log Export Utility (LEXP)
#   Created on  : 2016-05-24 12:12:05
#   Project     : CANT971
#   User        : R5K
#   Interpreter : PEP
#
#------------------------------------------------------------------------------
~VERSION INFORMATION
VERS. 2.0 : CWLS Log ASCII Standard - version 2.0
WRAP.  NO : One line per depth step
~WELL INFORMATION
#MNEMONIC   .UNIT                                           VALUE :DESCRIPTION
#------------------------------------------------------------------------------
STRT        .M                                           752.7670 :START DEPTH
STOP        .M                                          3519.8938 :STOP DEPTH
STEP        .M                                             0.1524 :STEP
NULL        .                                           -999.2500 :NULL VALUE
COMP        .                                   PEMEX EXPL & PROD :COMPANY
WELL        .                                                1025 :WELL
FLD         .                                           CANTARELL :FIELD
LOC         .                                             UNKNOWN :LOCATION
CNTY        .                                      CD. DEL CARMEN :COUNTY
STAT        .                                            CAMPECHE :STATE
CTRY        .                                              MEXICO :COUNTRY
SRVC        .                                             UNKNOWN :SERVICE COMPANY
DATE        .                                             UNKNOWN :LOG DATE
UWI         .                                          3060000656 :UNIQUE WELL ID
XCOORD      .                                       598529.300000 :SURFACE X
YCOORD      .                                      2152013.390000 :SURFACE Y
LAT         .                                           19.461322 :LATITUDE
LON         .                                          -92.061283 :LONGITUDE
ELEV        .M                                            27.9700 :SURFACE ELEV
ELEV_TYPE   .                                                  KB :ELEV TYPE
~CURVE INFORMATION
#MNEMONIC.UNIT        API CODE       : CURVE DESCRIPTION
#------------------------------------------------------------------------------
DEPTH    .M                          : Measured Depth
CALI     .inches      UNKNOWN        : CALI:registros:rC:NONE:v0 (auto-composite)
CGR      .API         UNKNOWN        : CGR:registros:rC:NONE:v0 (auto-composite)
DRHO     .g/cm3       UNKNOWN        : DRHO:registros:rC:NONE:v0 (auto-composite)
DT       .us/ft       UNKNOWN        : DT:registros:rC:NONE:v0 (auto-composite)
GR       .API         UNKNOWN        : GR:registros:rC:NONE:v0 (auto-composite)
ILD      .ohm.m       UNKNOWN        : ILD:registros:rC:NONE:v0 (auto-composite)
ILM      .ohm.m       UNKNOWN        : ILM:registros:rC:NONE:v0 (auto-composite)
LLD      .ohm.m       UNKNOWN        : LLD:registros:rC:NONE:v0 (auto-composite)
LLS      .ohm.m       UNKNOWN        : LLS:registros:rC:NONE:v0 (auto-composite)
MSFL     .ohm.m       UNKNOWN        : MSFL:registros:rC:NONE:v0 (auto-composite)
NPHI     .UNKNOWN     UNKNOWN        : NPHI:registros:rC:NONE:v0 (auto-composite)
PEF      .UNKNOWN     UNKNOWN        : PEF:registros:rC:NONE:v0 (auto-composite)
POTA     .UNKNOWN     UNKNOWN        : POTA:registros:rC:NONE:v0 (auto-composite)
RHOB     .g/cm3       UNKNOWN        : RHOB:registros:rC:NONE:v0 (auto-composite)
THOR     .ppm         UNKNOWN        : THOR:registros:rC:NONE:v0 (auto-composite)
URAN     .ppm         UNKNOWN        : URAN:registros:rC:NONE:v0 (auto-composite)
~A     DEPTH         CALI          CGR         DRHO           DT           GR          ILD          ILM          LLD          LLS         MSFL         NPHI          PEF         POTA         RHOB         THOR         URAN
# ...
   3008.2869      11.6971      26.6921       0.0060      54.5199      48.7027    -999.2500    -999.2500      42.7891      41.4076      99.6099       0.0492       3.4490       0.0122       2.7497       2.2310       3.0680
   3008.4395      11.7021      33.6590       0.0057      55.9359      56.9782    -999.2500    -999.2500      45.9718      44.1450     131.0744       0.0497       3.3544       0.0143       2.7209       3.1332       3.2064
   3008.5918      11.7461      38.0711       0.0047      55.2732      63.1306    -999.2500    -999.2500      51.7078      49.2862      71.1788       0.0435       3.3624       0.0153       2.6704       3.3916       3.3013
   3008.7441      11.7709      37.7695       0.0047      54.6975      64.0273    -999.2500    -999.2500      57.6767      54.5223      70.8039       0.0386       3.3351       0.0144       2.6532       3.7302       3.4119
   3008.8965      11.7504      26.3685       0.0072      54.3266      52.5483    -999.2500    -999.2500      64.1938      59.9814     210.5870       0.0385       3.2246       0.0089       2.7141       4.2574       3.5594
   3009.0491      11.7258      18.3219       0.0087      53.7398      44.4742    -999.2500    -999.2500      73.7525      67.8355     283.6030       0.0375       3.1737       0.0050       2.7610       4.3433       3.6658
   3009.2014      11.6913      18.2070       0.0077      52.6421      44.4512    -999.2500    -999.2500      90.5029      81.3523     198.7461       0.0333       3.2636       0.0050       2.7745       3.3855       3.6753
   3009.3538      11.6707      19.8824       0.0074      52.0023      46.3482    -999.2500    -999.2500     103.6138      91.7923     174.7407       0.0310       3.3221       0.0060       2.7856       2.7580       3.7017
   3009.5061      11.6832      25.8413       0.0089      52.4582      52.8388    -999.2500    -999.2500     108.0169      94.8705     296.3332       0.0328       3.3056       0.0095       2.7911       2.9210       3.7687
   3009.6584      11.7014      29.8807       0.0093      52.9383      57.1705    -999.2500    -999.2500     106.4552      92.8693     334.3999       0.0345       3.3133       0.0121       2.7915       3.0192       3.8044
   3009.8110      11.7335      29.3081       0.0068      53.4767      56.3146    -999.2500    -999.2500      90.5621      78.6645     171.7836       0.0344       3.3790       0.0126       2.7794       2.9620       3.7647
   3009.9634      11.7421      29.5783       0.0054      54.0441      56.5556    -999.2500    -999.2500      79.9193      69.0418      66.9102       0.0348       3.4386       0.0131       2.7691       2.9498       3.7606
   3010.1157      11.6956      31.8204       0.0069      54.6788      59.3629    -999.2500    -999.2500      81.5601      70.1398      97.1346       0.0370       3.4841       0.0136       2.7626       3.0428       3.8396
   3010.2681      11.6734      33.4887       0.0081      55.2928      61.3518    -999.2500    -999.2500      81.4726      69.9279     108.9846       0.0400       3.4920       0.0141       2.7565       3.0703       3.8789
   3010.4207      11.7084      33.8093       0.0086      55.8581      61.4182    -999.2500    -999.2500      77.3247      66.6384      77.6672       0.0440       3.4116       0.0146       2.7515       2.9439       3.8250
   3010.5730      11.7401      34.8100       0.0089      56.6363      62.5841    -999.2500    -999.2500      74.1971      64.4503      59.4523       0.0503       3.4268       0.0153       2.7437       2.9544       3.8404
   3010.7253      11.7641      37.4274       0.0084      57.9208      66.3634    -999.2500    -999.2500      73.4949      64.8801      72.3848       0.0595       3.6692       0.0163       2.7292       3.2903       4.0208
   3010.8777      11.7708      39.9184       0.0080      58.6988      69.9506    -999.2500    -999.2500      71.0204      63.3799      75.1460       0.0669       3.7702       0.0173       2.7205       3.5804       4.1867
   3011.0303      11.7363      42.1080       0.0080      58.2680      73.0787    -999.2500    -999.2500      64.3153      57.2725      53.6278       0.0697       3.5338       0.0183       2.7255       3.7613       4.3176
   3011.1826      11.7179      40.5951       0.0081      57.8638      71.7825    -999.2500    -999.2500      58.1021      51.7313      42.5268       0.0695       3.3369       0.0178       2.7320       3.5579       4.3479
   3011.3350      11.7380      30.2073       0.0086      57.5233      59.8810    -999.2500    -999.2500      53.0682      47.5472      56.3963       0.0672       3.2346       0.0138       2.7420       2.4333       4.1368
   3011.4873      11.7566      23.4339       0.0086      57.3964      52.4271    -999.2500    -999.2500      49.3178      44.2508      60.1804       0.0654       3.1510       0.0111       2.7444       1.7248       4.0419
   3011.6396      11.7721      25.0974       0.0071      57.7680      55.3550    -999.2500    -999.2500      48.5638      43.0263      40.4233       0.0649       3.1111       0.0116       2.7289       1.9875       4.2182
   3011.7922      11.7950      27.0053       0.0066      57.7653      58.6386    -999.2500    -999.2500      49.4497      43.2563      33.7320       0.0618       3.0953       0.0121       2.7171       2.2875       4.4099
   3011.9446      11.8355      29.4907       0.0086      56.8787      62.7623    -999.2500    -999.2500      54.2092      46.9217      57.9006       0.0539       3.1368       0.0126       2.7141       2.6758       4.6383
   3012.0969      11.8551      28.6745       0.0107      56.3410      62.3391    -999.2500    -999.2500      56.2942      48.4565      67.8745       0.0458       3.1863       0.0121       2.7199       2.6601       4.6932
   3012.2493      11.8251      20.0277       0.0132      56.6308      51.1319    -999.2500    -999.2500      52.0366      44.9380      44.1838       0.0397       3.2548       0.0091       2.7463       1.6860       4.3363
   3012.4019      11.8059      12.3881       0.0140      56.3633      42.1763    -999.2500    -999.2500      51.2478      44.4380      44.1673       0.0362       3.2928       0.0064       2.7671       0.7845       4.1528
   3012.5542      11.8124       7.1470       0.0105      54.7683      38.5827    -999.2500    -999.2500      58.7200      51.1268     100.5313       0.0361       3.2584       0.0044       2.7741       0.0559       4.3820
   3012.7065      11.8135       5.1203       0.0073      53.7383      36.4913    -999.2500    -999.2500      61.2626      53.7080     124.7756       0.0374       3.2124       0.0037       2.7802      -0.2970       4.3723
   3012.8589      11.8014      10.8396       0.0048      54.0703      38.0201    -999.2500    -999.2500      51.9247      46.3902      71.6132       0.0396       3.1387       0.0062       2.7842       0.2556       3.7866
   3013.0115      11.7963      16.1328       0.0039      53.9883      41.2126    -999.2500    -999.2500      44.7598      40.6651      41.6503       0.0416       3.1426       0.0084       2.7830       0.8443       3.4932
   3013.1638      11.8073      20.4260       0.0069      52.9353      48.3095    -999.2500    -999.2500      42.6942      38.6774      66.1287       0.0429       3.3285       0.0099       2.7695       1.5180       3.8856
   3013.3162      11.8050      23.8044       0.0109      52.5276      54.9053    -999.2500    -999.2500      42.1278      38.0373      74.5451       0.0432       3.4230       0.0110       2.7631       2.0847       4.3351
   3013.4685      11.7715      25.0273       0.0174      53.6406      60.3199    -999.2500    -999.2500      45.0940      40.5722      45.1133       0.0421       3.3020       0.0110       2.7736       2.3990       4.9193
   3013.6208      11.7581      24.4080       0.0216      54.5570      61.2360    -999.2500    -999.2500      50.2547      44.9081      44.3143       0.0404       3.2004       0.0103       2.7792       2.4811       5.1334
   3013.7734      11.7920      19.4297       0.0201      55.0079      51.5080    -999.2500    -999.2500      60.6080      53.5055     111.2643       0.0381       3.1445       0.0078       2.7732       2.0137       4.4717
