#------------------------------------------------------------------------------
#
#   Created by  : [OpenWorks] Log Export Utility (LEXP)
#   Created on  : 2016-05-24 12:12:05
#   Project     : CANT971
#   User        : R5K
#   Interpreter : PEP
#
#------------------------------------------------------------------------------
~VERSION INFORMATION
VERS. 2.0 : CWLS Log ASCII Standard - version 2.0
WRAP.  NO : One line per depth step
~WELL INFORMATION
#MNEMONIC   .UNIT                                           VALUE :DESCRIPTION
#------------------------------------------------------------------------------
STRT        .M                                           752.7670 :START DEPTH
STOP        .M                                          3519.8938 :STOP DEPTH
STEP        .M                                             0.1524 :STEP
NULL        .                                           -999.2500 :NULL VALUE
COMP        .                                   PEMEX EXPL & PROD :COMPANY
WELL        .                                                1025 :WELL
FLD         .                                           CANTARELL :FIELD
LOC         .                                             UNKNOWN :LOCATION
CNTY        .                                      CD. DEL CARMEN :COUNTY
STAT        .                                            CAMPECHE :STATE
CTRY        .                                              MEXICO :COUNTRY
SRVC        .                                             UNKNOWN :SERVICE COMPANY
DATE        .                                             UNKNOWN :LOG DATE
UWI         .                                          3060000656 :UNIQUE WELL ID
XCOORD      .                                       598529.300000 :SURFACE X
YCOORD      .                                      2152013.390000 :SURFACE Y
LAT         .                                           19.461322 :LATITUDE
LON         .                                          -92.061283 :LONGITUDE
ELEV        .M                                            27.9700 :SURFACE ELEV
ELEV_TYPE   .                                                  KB :ELEV TYPE
~CURVE INFORMATION
#MNEMONIC.UNIT        API CODE       : CURVE DESCRIPTION
#------------------------------------------------------------------------------
DEPTH    .M                          : Measured Depth
CALI     .inches      UNKNOWN        : CALI:registros:rC:NONE:v0 (auto-composite)
CGR      .API         UNKNOWN        : CGR:registros:rC:NONE:v0 (auto-composite)
DRHO     .g/cm3       UNKNOWN        : DRHO:registros:rC:NONE:v0 (auto-composite)
DT       .us/ft       UNKNOWN        : DT:registros:rC:NONE:v0 (auto-composite)
GR       .API         UNKNOWN        : GR:registros:rC:NONE:v0 (auto-composite)
ILD      .ohm.m       UNKNOWN        : ILD:registros:rC:NONE:v0 (auto-composite)
ILM      .ohm.m       UNKNOWN        : ILM:registros:rC:NONE:v0 (auto-composite)
LLD      .ohm.m       UNKNOWN        : LLD:registros:rC:NONE:v0 (auto-composite)
LLS      .ohm.m       UNKNOWN        : LLS:registros:rC:NONE:v0 (auto-composite)
MSFL     .ohm.m       UNKNOWN        : MSFL:registros:rC:NONE:v0 (auto-composite)
NPHI     .UNKNOWN     UNKNOWN        : NPHI:registros:rC:NONE:v0 (auto-composite)
PEF      .UNKNOWN     UNKNOWN        : PEF:registros:rC:NONE:v0 (auto-composite)
POTA     .UNKNOWN     UNKNOWN        : POTA:registros:rC:NONE:v0 (auto-composite)
RHOB     .g/cm3       UNKNOWN        : RHOB:registros:rC:NONE:v0 (auto-composite)
THOR     .ppm         UNKNOWN        : THOR:registros:rC:NONE:v0 (auto-composite)
URAN     .ppm         UNKNOWN        : URAN:registros:rC:NONE:v0 (auto-composite)
~A     DEPTH         CALI          CGR         DRHO           DT           GR          ILD          ILM          LLD          LLS         MSFL         NPHI          PEF         POTA         RHOB         THOR         URAN
# ...
   3177.4509      12.0177      52.4341       0.0071      76.5549      86.4442    -999.2500    -999.2500      87.1754      61.7849     109.2151       0.0888       3.8444       0.0221       2.5439       5.1798       4.7408
   3177.6033      11.9297      47.5767       0.0057      76.2201      79.8746    -999.2500    -999.2500      87.7171      60.5990     131.2396       0.1028       3.8118       0.0199       2.5233       4.7594       4.5022
   3177.7559      11.9622      44.9329       0.0047      71.7285      75.6260    -999.2500    -999.2500      83.4834      55.5142      69.4198       0.1080       3.9887       0.0194       2.5108       4.1412       4.2783
   3177.9082      12.0085      43.8309       0.0030      68.1173      73.8105    -999.2500    -999.2500      81.2061      52.3804      52.3726       0.1077       4.1640       0.0193       2.5141       3.8186       4.1787
   3178.0605      12.0875      46.3668      -0.0005      66.5829      77.7358    -999.2500    -999.2500      83.5446      53.8498     140.9618       0.1034       4.3355       0.0203       2.5545       4.1934       4.3726
   3178.2129      12.1820      47.0211      -0.0033      66.4964      78.6541    -999.2500    -999.2500      92.1067      59.9773     185.5811       0.0929       4.4286       0.0204       2.5636       4.3429       4.4086
   3178.3655      12.3135      43.2178      -0.0043      69.8400      72.4482    -999.2500    -999.2500     115.4136      77.1409     126.0278       0.0787       4.3361       0.0184       2.4981       3.9586       4.0702
   3178.5178      12.3525      41.2571      -0.0041      72.0388      69.0707    -999.2500    -999.2500     125.2444      85.2899      79.7826       0.0751       4.2438       0.0171       2.4830       3.8526       3.8713
   3178.6702      12.1717      43.6801      -0.0011      71.5145      72.4215    -999.2500    -999.2500     103.0153      71.9933      65.1976       0.0883       4.1519       0.0176       2.5879       4.4090       4.0041
   3178.8225      12.0352      47.4060       0.0006      71.3238      77.5280    -999.2500    -999.2500      85.2734      61.0356      52.1502       0.1042       4.0481       0.0189       2.6341       5.0238       4.1991
   3178.9749      12.0052      54.2685      -0.0009      71.9366      86.8610    -999.2500    -999.2500      78.3339      55.7084      42.8042       0.1129       3.9157       0.0219       2.5392       5.7794       4.5434
   3179.1274      12.0331      59.5807      -0.0016      71.8575      94.1358    -999.2500    -999.2500      74.0073      52.2818      37.1921       0.1131       3.8861       0.0241       2.4829       6.3451       4.8169
   3179.2798      12.2011      61.1451      -0.0001      70.1062      96.4352    -999.2500    -999.2500      75.9973      53.4501      40.6066       0.1059       4.1052       0.0246       2.5200       6.4514       4.9192
   3179.4321      12.3044      61.5535      -0.0002      69.1309      96.9384    -999.2500    -999.2500      76.8476      53.9919      49.8671       0.0986       4.3593       0.0250       2.5558       6.4031       4.9323
   3179.5845      12.2554      59.2410      -0.0042      69.9826      93.2135    -999.2500    -999.2500      75.0148      53.0593      72.8886       0.0966       4.6956       0.0250       2.5888       5.9907       4.7354
   3179.7371      12.1754      56.3404      -0.0074      70.7992      88.8447    -999.2500    -999.2500      75.3438      53.8150     108.3686       0.1009       4.8806       0.0243       2.5924       5.5755       4.5308
   3179.8894      12.0221      52.0497      -0.0089      71.5333      82.9540    -999.2500    -999.2500      80.7821      58.5612     173.2961       0.1106       4.7078       0.0218       2.5265       5.1536       4.3081
   3180.0417      11.8985      48.7882      -0.0091      72.3691      78.4721    -999.2500    -999.2500      89.2254      65.2241     196.8276       0.1201       4.5391       0.0200       2.4717       4.8270       4.1382
   3180.1941      11.8461      47.9886      -0.0061      73.4482      77.3601    -999.2500    -999.2500     104.8562      76.4718     121.3487       0.1237       4.3802       0.0200       2.4438       4.7285       4.0947
   3180.3467      11.8601      48.5639      -0.0036      74.6815      78.6149    -999.2500    -999.2500     118.9215      86.5990     117.7527       0.1154       4.2319       0.0203       2.4420       4.8584       4.1894
   3180.4990      12.0341      52.4417      -0.0021      76.2854      85.5541    -999.2500    -999.2500     129.2271      94.0351     286.8018       0.0964       4.1090       0.0213       2.5032       5.5368       4.6161
   3180.6514      12.1770      52.1286      -0.0003      76.8650      86.9332    -999.2500    -999.2500     133.3311      99.2645     364.2983       0.0864       4.0980       0.0216       2.5568       5.3469       4.8520
   3180.8037      12.2469      42.0139       0.0022      75.0488      75.3082    -999.2500    -999.2500     122.9311      99.3330     227.6728       0.0954       4.3484       0.0201       2.5928       3.1264       4.6416
   3180.9561      12.2501      36.7912       0.0047      74.4740      69.8141    -999.2500    -999.2500     109.1963      93.3510     177.2088       0.1108       4.4511       0.0197       2.5943       1.8731       4.6038
   3181.1086      12.0963      43.0570       0.0072      76.8146      78.7182    -999.2500    -999.2500      87.6299      73.1599     329.0900       0.1221       4.2069       0.0222       2.5149       2.8913       4.9713
   3181.2610      11.9636      48.4235       0.0100      78.1582      86.4962    -999.2500    -999.2500      72.1246      58.7088     376.3583       0.1236       4.0061       0.0234       2.4683       3.7733       5.3074
   3181.4133      11.8811      51.6532       0.0135      77.1327      91.5985    -999.2500    -999.2500      71.0226      57.8976     175.0328       0.1139       3.9087       0.0214       2.4998       4.3316       5.5688
   3181.5657      11.8721      53.0123       0.0156      75.5858      93.7864    -999.2500    -999.2500      74.0327      60.3102      57.9135       0.1021       3.8726       0.0200       2.5301       4.8202       5.6562
   3181.7183      12.0386      49.9081       0.0141      72.7950      89.0200    -999.2500    -999.2500      86.8551      70.4154     141.7268       0.0951       3.9831       0.0200       2.5576       5.1426       5.3283
   3181.8706      12.1829      51.4544       0.0112      70.9925      89.0417    -999.2500    -999.2500      99.4371      80.5281     181.8499       0.0939       4.0917       0.0209       2.5931       5.8886       5.1088
   3182.0229      12.2741      64.1435       0.0052      71.5581     100.5366    -999.2500    -999.2500     111.4429      90.6592     117.2860       0.0972       4.1960       0.0239       2.6477       7.6500       5.1489
   3182.1753      12.2787      71.2326      -0.0000      71.6909     105.8819    -999.2500    -999.2500     118.2910      96.8843      84.0872       0.0965       4.1715       0.0259       2.6488       8.4799       5.0174
   3182.3279      12.0809      65.2544      -0.0035      70.8140      96.8780    -999.2500    -999.2500     113.1044      93.9954     124.0749       0.0876       3.8464       0.0254       2.5250       7.1360       4.4856
   3182.4802      11.9210      60.7195      -0.0045      70.7092      90.0691    -999.2500    -999.2500     106.0171      89.9631     139.9789       0.0772       3.5996       0.0249       2.4631       6.1576       4.0913
   3182.6326      11.8506      59.5920       0.0005      72.4275      88.4428    -999.2500    -999.2500      94.4421      83.2316      99.0216       0.0711       3.5376       0.0244       2.5476       6.0422       4.0219
   3182.7849      11.8272      60.1706       0.0046      73.3860      89.7251    -999.2500    -999.2500      82.7526      75.5331      67.2859       0.0733       3.5489       0.0246       2.6023       6.0583       4.1199
   3182.9373      11.9157      64.7942       0.0066      72.5434      97.9031    -999.2500    -999.2500      70.7918      65.5424      57.4127       0.0832       3.7338       0.0266       2.5863       6.3861       4.6152
