#------------------------------------------------------------------------------
#
#   Created by  : [OpenWorks] Log Export Utility (LEXP)
#   Created on  : 2016-05-24 12:12:05
#   Project     : CANT971
#   User        : R5K
#   Interpreter : PEP
#
#------------------------------------------------------------------------------
~VERSION INFORMATION
VERS. 2.0 : CWLS Log ASCII Standard - version 2.0
WRAP.  NO : One line per depth step
~WELL INFORMATION
#MNEMONIC   .UNIT                                           VALUE :DESCRIPTION
#------------------------------------------------------------------------------
STRT        .M                                           752.7670 :START DEPTH
STOP        .M                                          3519.8938 :STOP DEPTH
STEP        .M                                             0.1524 :STEP
NULL        .                                           -999.2500 :NULL VALUE
COMP        .                                   PEMEX EXPL & PROD :COMPANY
WELL        .                                                1025 :WELL
FLD         .                                           CANTARELL :FIELD
LOC         .                                             UNKNOWN :LOCATION
CNTY        .                                      CD. DEL CARMEN :COUNTY
STAT        .                                            CAMPECHE :STATE
CTRY        .                                              MEXICO :COUNTRY
SRVC        .                                             UNKNOWN :SERVICE COMPANY
DATE        .                                             UNKNOWN :LOG DATE
UWI         .                                          3060000656 :UNIQUE WELL ID
XCOORD      .                                       598529.300000 :SURFACE X
YCOORD      .                                      2152013.390000 :SURFACE Y
LAT         .                                           19.461322 :LATITUDE
LON         .                                          -92.061283 :LONGITUDE
ELEV        .M                                            27.9700 :SURFACE ELEV
ELEV_TYPE   .                                                  KB :ELEV TYPE
~CURVE INFORMATION
#MNEMONIC.UNIT        API CODE       : CURVE DESCRIPTION
#------------------------------------------------------------------------------
DEPTH    .M                          : Measured Depth
CALI     .inches      UNKNOWN        : CALI:registros:rC:NONE:v0 (auto-composite)
CGR      .API         UNKNOWN        : CGR:registros:rC:NONE:v0 (auto-composite)
DRHO     .g/cm3       UNKNOWN        : DRHO:registros:rC:NONE:v0 (auto-composite)
DT       .us/ft       UNKNOWN        : DT:registros:rC:NONE:v0 (auto-composite)
GR       .API         UNKNOWN        : GR:registros:rC:NONE:v0 (auto-composite)
ILD      .ohm.m       UNKNOWN        : ILD:registros:rC:NONE:v0 (auto-composite)
ILM      .ohm.m       UNKNOWN        : ILM:registros:rC:NONE:v0 (auto-composite)
LLD      .ohm.m       UNKNOWN        : LLD:registros:rC:NONE:v0 (auto-composite)
LLS      .ohm.m       UNKNOWN        : LLS:registros:rC:NONE:v0 (auto-composite)
MSFL     .ohm.m       UNKNOWN        : MSFL:registros:rC:NONE:v0 (auto-composite)
NPHI     .UNKNOWN     UNKNOWN        : NPHI:registros:rC:NONE:v0 (auto-composite)
PEF      .UNKNOWN     UNKNOWN        : PEF:registros:rC:NONE:v0 (auto-composite)
POTA     .UNKNOWN     UNKNOWN        : POTA:registros:rC:NONE:v0 (auto-composite)
RHOB     .g/cm3       UNKNOWN        : RHOB:registros:rC:NONE:v0 (auto-composite)
THOR     .ppm         UNKNOWN        : THOR:registros:rC:NONE:v0 (auto-composite)
URAN     .ppm         UNKNOWN        : URAN:registros:rC:NONE:v0 (auto-composite)
~A     DEPTH         CALI          CGR         DRHO           DT           GR          ILD          ILM          LLD          LLS         MSFL         NPHI          PEF         POTA         RHOB         THOR         URAN
# ...
   3262.0330      11.5675      75.4307       0.0560      74.3067     104.5486    -999.2500    -999.2500       9.4667       5.5104       5.6997       0.1246       3.5712       0.0302       2.6663       7.9512       4.0593
   3262.1853      11.9482      59.1486       0.0442      77.6009      87.2867    -999.2500    -999.2500      10.3796       6.2929       8.9292       0.1332       3.4743       0.0240       2.6496       6.0531       3.9226
   3262.3376      11.8158      57.2145       0.0492      75.7407      84.9872    -999.2500    -999.2500      10.8284       6.5888       6.9155       0.1402       3.5503       0.0230       2.6626       5.8941       3.8666
   3262.4902      11.6810      55.3542       0.0530      73.8859      82.8019    -999.2500    -999.2500      11.2594       6.8632       5.0514       0.1417       3.6311       0.0220       2.6685       5.7432       3.8153
   3262.6426      11.4942      55.1479       0.0290      72.1525      83.1750    -999.2500    -999.2500      11.2913       6.6585       6.5351       0.1247       3.8214       0.0220       2.5157       5.7712       3.8692
   3262.7949      11.3217      54.7515       0.0060      70.3839      83.2992    -999.2500    -999.2500      11.3994       6.5060       7.9124       0.1047       4.0018       0.0219       2.3763       5.7682       3.9174
   3262.9473      11.4876      49.8236       0.0070      67.7740      77.4967    -999.2500    -999.2500      13.3206       7.5975       6.7569       0.0896       3.9478       0.0204       2.5572       5.0280       3.8274
   3263.0999      11.6504      45.0231       0.0077      65.2142      71.8462    -999.2500    -999.2500      15.2647       8.7048       5.8040       0.0783       3.8867       0.0190       2.7333       4.3066       3.7396
   3263.2522      11.7361      43.3274       0.0012      63.8750      69.8983    -999.2500    -999.2500      17.7687      10.1964       9.7860       0.0767       3.6500       0.0185       2.7925       4.0434       3.7040
   3263.4045      11.8077      41.7241      -0.0050      62.4915      68.1950    -999.2500    -999.2500      20.1782      11.6506      13.6904       0.0766       3.4276       0.0180       2.8460       3.8050       3.6898
   3263.5569      11.5778      42.0819      -0.0060      60.1670      71.6855    -999.2500    -999.2500      20.5825      12.3083      15.9449       0.0741       3.5076       0.0175       2.7801       4.0933       4.1291
   3263.7095      11.3567      42.3569      -0.0069      57.9185      74.9139    -999.2500    -999.2500      21.0137      12.9796      18.2780       0.0704       3.5814       0.0170       2.7187       4.3599       4.5432
   3263.8618      11.3262      40.8347      -0.0044      57.3188      72.4634    -999.2500    -999.2500      22.0275      13.9464      22.3146       0.0649       3.5235       0.0165       2.7561       4.1542       4.4113
   3264.0142      11.3072      39.5128      -0.0019      56.7857      70.3219    -999.2500    -999.2500      23.0189      14.9006      26.0074       0.0602       3.4633       0.0160       2.7899       3.9869       4.2948
   3264.1665      11.5531      42.7984       0.0006      57.7883      75.2897    -999.2500    -999.2500      23.4972      15.5638      21.7897       0.0610       3.3493       0.0165       2.7389       4.7046       4.5292
   3264.3188      11.7839      46.0598       0.0031      58.7692      80.2967    -999.2500    -999.2500      23.8817      16.1623      17.7518       0.0628       3.2384       0.0170       2.6895       5.4085       4.7724
   3264.4714      11.6579      48.7537       0.0061      59.2400      86.2252    -999.2500    -999.2500      22.0584      15.2372      17.9443       0.0636       3.1999       0.0180       2.6765       5.7899       5.2232
   3264.6238      11.5312      51.4182       0.0089      59.6985      92.0386    -999.2500    -999.2500      20.3817      14.3959      18.1229       0.0627       3.1680       0.0190       2.6638       6.1666       5.6644
   3264.7761      11.3859      53.3776       0.0069      59.8624      95.0856    -999.2500    -999.2500      22.2294      15.5723      17.9711       0.0560       3.2932       0.0195       2.6593       6.4326       5.8753
   3264.9285      11.2539      55.2841       0.0052      60.4935      97.8587    -999.2500    -999.2500      24.1320      16.7738      23.3834       0.0501       3.4083       0.0200       2.6541       6.6917       6.0589
   3265.0811      11.4108      56.0382       0.0087      71.3138      94.6596    -999.2500    -999.2500      27.2321      18.5240     150.1122       0.0522       3.3014       0.0195       2.6326       6.7997       5.6466
   3265.2334      11.5672      56.8026       0.0123      81.3126      91.7383    -999.2500    -999.2500      30.0847      20.1176     265.7831       0.0559       3.1920       0.0190       2.6115       6.9150       5.2571
   3265.3857      11.7116      57.7942       0.0188      73.0211      95.0029    -999.2500    -999.2500      27.4269      18.2234     135.2874       0.0593       3.0301       0.0195       2.5990       7.1944       5.3761
   3265.5381      11.8395      58.8725       0.0252      65.1551      97.9533    -999.2500    -999.2500      24.8620      16.3838      10.6515       0.0647       2.8787       0.0200       2.5886       7.4821       5.4494
   3265.6907      11.5896      61.9222       0.0297      66.9608      93.7576    -999.2500    -999.2500      24.4102      15.7845      19.2578       0.0782       2.9677       0.0210       2.6261       7.9604       4.4848
   3265.8430      11.3470      64.9718       0.0339      68.7407      89.8779    -999.2500    -999.2500      23.8085      15.0968      27.0593       0.0957       3.0550       0.0221       2.6603       8.4217       3.5608
   3265.9954      11.2751      68.0200       0.0304      69.9218      93.3416    -999.2500    -999.2500      19.7256      12.3542      16.1607       0.1211       3.1040       0.0241       2.6194       8.4882       3.5792
   3266.1477      11.2167      71.1223       0.0279      71.1443      96.8525    -999.2500    -999.2500      15.6793       9.6409       5.9933       0.1449       3.1489       0.0261       2.5804       8.5529       3.5981
   3266.3000      11.4925      75.5626       0.0504      73.3956     101.5310    -999.2500    -999.2500      12.5426       7.6523      13.9393       0.1556       3.0958       0.0286       2.5915       8.5754       3.6256
   3266.4526      11.7542      79.9494       0.0716      75.3164     106.1596    -999.2500    -999.2500       9.5261       5.7395      21.1045       0.1650       3.0507       0.0311       2.6002       8.6060       3.6540
   3266.6050      11.7127      83.1845       0.0631      70.1156     109.7151    -999.2500    -999.2500       9.0987       5.4587      11.4402       0.1804       3.1802       0.0331       2.5592       8.8094       3.6990
   3266.7573      11.6633      86.3826       0.0542      65.4353     113.2132    -999.2500    -999.2500       8.6726       5.1807       2.5350       0.2001       3.3049       0.0350       2.5188       9.0092       3.7408
   3266.9097      11.4399      88.7666       0.0367      72.2038     115.4498    -999.2500    -999.2500       8.2728       4.9678      10.3321       0.2309       3.3254       0.0360       2.4913       9.1281       3.7128
   3267.0623      11.2354      90.7955       0.0201      78.7617     117.1720    -999.2500    -999.2500       7.9839       4.8106      17.4949       0.2539       3.3477       0.0369       2.4665       9.2391       3.6632
   3267.2146      11.4551      84.8453       0.0221      80.5839     107.3396    -999.2500    -999.2500      10.1882       5.9053      10.4051       0.2358       3.4122       0.0334       2.5025       9.1707       3.1289
   3267.3669      11.6568      79.4481       0.0238      82.2372      98.2062    -999.2500    -999.2500      12.2208       6.9123       3.7107       0.2061       3.4756       0.0302       2.5357       9.1197       2.6140
   3267.5193      11.4269      87.2728       0.0178      79.8512     105.7824    -999.2500    -999.2500      10.1477       5.8232       6.4680       0.1639       3.5156       0.0347       2.5027       9.4850       2.5630
