#------------------------------------------------------------------------------
#
#   Created by  : [OpenWorks] Log Export Utility (LEXP)
#   Created on  : 2016-05-24 12:12:05
#   Project     : CANT971
#   User        : R5K
#   Interpreter : PEP
#
#------------------------------------------------------------------------------
~VERSION INFORMATION
VERS. 2.0 : CWLS Log ASCII Standard - version 2.0
WRAP.  NO : One line per depth step
~WELL INFORMATION
#MNEMONIC   .UNIT                                           VALUE :DESCRIPTION
#------------------------------------------------------------------------------
STRT        .M                                           752.7670 :START DEPTH
STOP        .M                                          3519.8938 :STOP DEPTH
STEP        .M                                             0.1524 :STEP
NULL        .                                           -999.2500 :NULL VALUE
COMP        .                                   PEMEX EXPL & PROD :COMPANY
WELL        .                                                1025 :WELL
FLD         .                                           CANTARELL :FIELD
LOC         .                                             UNKNOWN :LOCATION
CNTY        .                                      CD. DEL CARMEN :COUNTY
STAT        .                                            CAMPECHE :STATE
CTRY        .                                              MEXICO :COUNTRY
SRVC        .                                             UNKNOWN :SERVICE COMPANY
DATE        .                                             UNKNOWN :LOG DATE
UWI         .                                          3060000656 :UNIQUE WELL ID
XCOORD      .                                       598529.300000 :SURFACE X
YCOORD      .                                      2152013.390000 :SURFACE Y
LAT         .                                           19.461322 :LATITUDE
LON         .                                          -92.061283 :LONGITUDE
ELEV        .M                                            27.9700 :SURFACE ELEV
ELEV_TYPE   .                                                  KB :ELEV TYPE
~CURVE INFORMATION
#MNEMONIC.UNIT        API CODE       : CURVE DESCRIPTION
#------------------------------------------------------------------------------
DEPTH    .M                          : Measured Depth
CALI     .inches      UNKNOWN        : CALI:registros:rC:NONE:v0 (auto-composite)
CGR      .API         UNKNOWN        : CGR:registros:rC:NONE:v0 (auto-composite)
DRHO     .g/cm3       UNKNOWN        : DRHO:registros:rC:NONE:v0 (auto-composite)
DT       .us/ft       UNKNOWN        : DT:registros:rC:NONE:v0 (auto-composite)
GR       .API         UNKNOWN        : GR:registros:rC:NONE:v0 (auto-composite)
ILD      .ohm.m       UNKNOWN        : ILD:registros:rC:NONE:v0 (auto-composite)
ILM      .ohm.m       UNKNOWN        : ILM:registros:rC:NONE:v0 (auto-composite)
LLD      .ohm.m       UNKNOWN        : LLD:registros:rC:NONE:v0 (auto-composite)
LLS      .ohm.m       UNKNOWN        : LLS:registros:rC:NONE:v0 (auto-composite)
MSFL     .ohm.m       UNKNOWN        : MSFL:registros:rC:NONE:v0 (auto-composite)
NPHI     .UNKNOWN     UNKNOWN        : NPHI:registros:rC:NONE:v0 (auto-composite)
PEF      .UNKNOWN     UNKNOWN        : PEF:registros:rC:NONE:v0 (auto-composite)
POTA     .UNKNOWN     UNKNOWN        : POTA:registros:rC:NONE:v0 (auto-composite)
RHOB     .g/cm3       UNKNOWN        : RHOB:registros:rC:NONE:v0 (auto-composite)
THOR     .ppm         UNKNOWN        : THOR:registros:rC:NONE:v0 (auto-composite)
URAN     .ppm         UNKNOWN        : URAN:registros:rC:NONE:v0 (auto-composite)
~A     DEPTH         CALI          CGR         DRHO           DT           GR          ILD          ILM          LLD          LLS         MSFL         NPHI          PEF         POTA         RHOB         THOR         URAN
# ...
   3346.6150       7.4265      75.2864       0.1075      83.9901      81.7996    -999.2500    -999.2500       6.1697       6.9212       6.9212       0.1310       4.0743       0.0245       2.6608       9.9320       0.9294
   3346.7673       7.8658      70.5854       0.0885      75.9756      78.0857    -999.2500    -999.2500       7.3597       4.9135       4.9135       0.1501       3.8564       0.0230       2.6428       9.3452       0.8315
   3346.9197       8.4750      67.7340       0.0714      70.4638      76.0144    -999.2500    -999.2500       8.4456       5.4654       5.4654       0.1660       3.6910       0.0220       2.6211       9.0206       0.8127
   3347.0723       9.4113      68.4451       0.0579      69.7727      77.1071    -999.2500    -999.2500       9.3310      10.9471      10.9471       0.1607       3.6266       0.0220       2.5921       9.2009       0.9466
   3347.2246       9.9323      70.2151       0.0459      68.6443      80.0052    -999.2500    -999.2500       9.7608      13.0249      13.0921       0.1426       3.6337       0.0222       2.5845       9.5588       1.1517
   3347.3770       9.6445      74.0469       0.0370      66.6647      86.4195    -999.2500    -999.2500       9.3035       8.4739       8.7389       0.1116       3.7801       0.0227       2.6185      10.2624       1.4955
   3347.5293       9.4620      75.5385       0.0254      65.3189      89.8243    -999.2500    -999.2500       9.3583       6.6798       7.3812       0.0879       3.7368       0.0230       2.6527      10.4884       1.7746
   3347.6819       9.4855      72.4549       0.0089      65.2121      87.3459    -999.2500    -999.2500      10.4143      10.2752      11.8792       0.0804       3.3227       0.0230       2.6873       9.7804       1.9270
   3347.8342       9.4634      69.3230      -0.0008      64.6517      84.4690    -999.2500    -999.2500      11.7240      13.0495      15.7258       0.0813       3.0864       0.0225       2.7093       9.2044       1.9646
   3347.9866       9.3539      66.0989       0.0027      63.2263      80.8321    -999.2500    -999.2500      13.5177      14.2575      18.3302       0.0923       3.1894       0.0210       2.7073       8.8801       1.7832
   3348.1389       9.3058      64.8099       0.0148      61.5598      79.4428    -999.2500    -999.2500      14.8929      15.5448      18.8675       0.1157       3.3430       0.0202       2.6628       8.8356       1.7536
   3348.2913       9.3752      67.2260       0.0432      59.4314      82.3567    -999.2500    -999.2500      15.4667      16.9840      15.4472       0.1519       3.5937       0.0207       2.5370       9.3270       2.0148
   3348.4438       9.5810      69.8122       0.0649      57.7578      85.2901    -999.2500    -999.2500      14.5581      18.5171      11.4671       0.1646       3.7869       0.0213       2.4642       9.7777       2.1593
   3348.5962      10.0508      72.7279       0.0734      56.9647      88.2613    -999.2500    -999.2500      10.7803      20.2319       6.4033       0.1372       3.8689       0.0223       2.4942      10.1495       2.0778
   3348.7485      10.1808      75.3232       0.0661      58.1748      90.9369    -999.2500    -999.2500       8.3782      22.5613       7.6498       0.1075       3.8226       0.0235       2.5383      10.3624       2.0174
   3348.9009       9.6506      77.2959       0.0281      63.2776      93.0380    -999.2500    -999.2500       8.6496      26.0853      21.1585       0.0878       3.5273       0.0250       2.6098      10.2664       1.9979
   3349.0535       9.3059      78.1553       0.0032      66.2114      93.7850    -999.2500    -999.2500       9.7918      26.7351      28.0037       0.0848       3.3362       0.0258       2.6368      10.0919       1.8988
   3349.2058       9.3235      76.8432       0.0037      64.9143      91.8908    -999.2500    -999.2500      12.6327      21.7784      21.8506       0.1044       3.3488       0.0253       2.5771       9.7640       1.6446
   3349.3582       9.3278      76.7239       0.0092      65.4472      91.1578    -999.2500    -999.2500      14.9125      20.0735      19.4840       0.1207       3.2385       0.0252       2.5187       9.6931       1.4816
   3349.5105       9.3068      78.8747       0.0241      69.4627      92.6350    -999.2500    -999.2500      16.1245      24.5575      24.3235       0.1297       2.8944       0.0257       2.4628      10.1116       1.4921
   3349.6631       9.3115      82.1775       0.0603      74.1121      96.7851    -999.2500    -999.2500      15.4682      23.5065      23.5065       0.1665       2.6800       0.0269       2.4308      10.5933       1.6053
   3349.8154       9.3654      87.6966       0.1373      79.9811     106.0780    -999.2500    -999.2500      11.2170      11.8055      11.8055       0.2430       2.7149       0.0294       2.4448      11.1965       1.9162
   3349.9678       9.6588      92.0811       0.1871      84.6387     111.9171    -999.2500    -999.2500       7.8491       5.8730       5.8730       0.2871       2.9353       0.0310       2.4383      11.7278       2.0543
   3350.1201      10.4144      94.2741       0.1846      86.9567     111.0850    -999.2500    -999.2500       6.1874      11.0822      11.0822       0.2676       3.5135       0.0310       2.3923      12.1202       1.8589
   3350.2725      11.0786      94.1245       0.1696      89.9116     109.1734    -999.2500    -999.2500       5.0444      14.3690      12.4579       0.2284       3.8804       0.0305       2.3664      12.1705       1.7679
   3350.4250      11.5654      89.4326       0.1301      94.1013     105.1686    -999.2500    -999.2500       4.9075      13.9282       6.4006       0.1781       3.8374       0.0290       2.3794      11.5578       1.8794
   3350.5774      11.4893      87.0675       0.0880      93.2951     102.8166    -999.2500    -999.2500       5.0363      13.5447       3.7365       0.1347       3.6969       0.0280       2.3938      11.3470       1.9207
   3350.7297      10.3175      89.2318       0.0409      82.7649     103.6819    -999.2500    -999.2500       5.6826      13.2726       7.6772       0.1077       3.3668       0.0280       2.4108      11.9186       1.8255
   3350.8821       9.6803      88.8921       0.0196      77.5556     102.4244    -999.2500    -999.2500       6.3356      13.0043       9.0223       0.0981       3.0905       0.0273       2.4541      12.1639       1.7930
   3351.0347      10.0656      83.7633       0.0476      82.5235      97.1072    -999.2500    -999.2500       7.0013      12.7429       5.4029       0.1116       2.9170       0.0253       2.5475      11.7851       1.8805
   3351.1870      10.1561      83.1149       0.0595      82.6271      96.5062    -999.2500    -999.2500       7.9064      12.4852       7.6659       0.1350       2.9059       0.0247       2.5773      11.9945       1.9296
   3351.3394       9.6803      91.0684       0.0405      73.3916     104.9600    -999.2500    -999.2500       9.2714      12.2349      21.2231       0.1625       3.2062       0.0267       2.4849      13.3335       1.9051
   3351.4917       9.5489      95.5820       0.0314      68.4480     109.8610    -999.2500    -999.2500       9.9179      11.9380      25.5679       0.1626       3.4107       0.0278       2.4481      14.0946       1.8818
   3351.6443      10.0812      93.4656       0.0414      71.7764     107.9144    -999.2500    -999.2500       9.1798      11.5514      12.1574       0.1232       3.4301       0.0273       2.5185      13.7420       1.8609
   3351.7966      10.2462      89.8335       0.0421      72.7156     104.3237    -999.2500    -999.2500       8.6276      12.5881       5.9432       0.1044       3.4072       0.0265       2.5403      13.1449       1.7795
   3351.9490       9.6955      83.2479       0.0246      68.9992      97.5291    -999.2500    -999.2500       8.4377      16.3979      13.7519       0.1404       3.3018       0.0250       2.4673      12.0714       1.5806
   3352.1013       9.4065      77.9653       0.0138      67.3019      91.3140    -999.2500    -999.2500       8.7309      16.1481      16.1481       0.2529       3.2608       0.0237       2.3060      11.2694       1.4292
