#------------------------------------------------------------------------------
#
#   Created by  : [OpenWorks] Log Export Utility (LEXP)
#   Created on  : 2016-05-24 12:12:05
#   Project     : CANT971
#   User        : R5K
#   Interpreter : PEP
#
#------------------------------------------------------------------------------
~VERSION INFORMATION
VERS. 2.0 : CWLS Log ASCII Standard - version 2.0
WRAP.  NO : One line per depth step
~WELL INFORMATION
#MNEMONIC   .UNIT                                           VALUE :DESCRIPTION
#------------------------------------------------------------------------------
STRT        .M                                           752.7670 :START DEPTH
STOP        .M                                          3519.8938 :STOP DEPTH
STEP        .M                                             0.1524 :STEP
NULL        .                                           -999.2500 :NULL VALUE
COMP        .                                   PEMEX EXPL & PROD :COMPANY
WELL        .                                                1025 :WELL
FLD         .                                           CANTARELL :FIELD
LOC         .                                             UNKNOWN :LOCATION
CNTY        .                                      CD. DEL CARMEN :COUNTY
STAT        .                                            CAMPECHE :STATE
CTRY        .                                              MEXICO :COUNTRY
SRVC        .                                             UNKNOWN :SERVICE COMPANY
DATE        .                                             UNKNOWN :LOG DATE
UWI         .                                          3060000656 :UNIQUE WELL ID
XCOORD      .                                       598529.300000 :SURFACE X
YCOORD      .                                      2152013.390000 :SURFACE Y
LAT         .                                           19.461322 :LATITUDE
LON         .                                          -92.061283 :LONGITUDE
ELEV        .M                                            27.9700 :SURFACE ELEV
ELEV_TYPE   .                                                  KB :ELEV TYPE
~CURVE INFORMATION
#MNEMONIC.UNIT        API CODE       : CURVE DESCRIPTION
#------------------------------------------------------------------------------
DEPTH    .M                          : Measured Depth
CALI     .inches      UNKNOWN        : CALI:registros:rC:NONE:v0 (auto-composite)
CGR      .API         UNKNOWN        : CGR:registros:rC:NONE:v0 (auto-composite)
DRHO     .g/cm3       UNKNOWN        : DRHO:registros:rC:NONE:v0 (auto-composite)
DT       .us/ft       UNKNOWN        : DT:registros:rC:NONE:v0 (auto-composite)
GR       .API         UNKNOWN        : GR:registros:rC:NONE:v0 (auto-composite)
ILD      .ohm.m       UNKNOWN        : ILD:registros:rC:NONE:v0 (auto-composite)
ILM      .ohm.m       UNKNOWN        : ILM:registros:rC:NONE:v0 (auto-composite)
LLD      .ohm.m       UNKNOWN        : LLD:registros:rC:NONE:v0 (auto-composite)
LLS      .ohm.m       UNKNOWN        : LLS:registros:rC:NONE:v0 (auto-composite)
MSFL     .ohm.m       UNKNOWN        : MSFL:registros:rC:NONE:v0 (auto-composite)
NPHI     .UNKNOWN     UNKNOWN        : NPHI:registros:rC:NONE:v0 (auto-composite)
PEF      .UNKNOWN     UNKNOWN        : PEF:registros:rC:NONE:v0 (auto-composite)
POTA     .UNKNOWN     UNKNOWN        : POTA:registros:rC:NONE:v0 (auto-composite)
RHOB     .g/cm3       UNKNOWN        : RHOB:registros:rC:NONE:v0 (auto-composite)
THOR     .ppm         UNKNOWN        : THOR:registros:rC:NONE:v0 (auto-composite)
URAN     .ppm         UNKNOWN        : URAN:registros:rC:NONE:v0 (auto-composite)
~A     DEPTH         CALI          CGR         DRHO           DT           GR          ILD          ILM          LLD          LLS         MSFL         NPHI          PEF         POTA         RHOB         THOR         URAN
# ...
   2416.2129      13.2109      16.4373       0.0102      63.3527      77.6339    -999.2500    -999.2500     468.1660     147.1392      35.1311       0.1572       2.8494       0.0090       1.8325       0.6854       8.5311
   2416.3655      13.7092      10.2155       0.0042      60.5249      65.3022    -999.2500    -999.2500     498.9367     159.3294     117.5010       0.1251       2.7934       0.0055       2.1239       0.5420       7.6789
   2416.5178      13.9536       5.1160      -0.0012      58.6075      53.6748    -999.2500    -999.2500     551.8315     177.0840     165.6320       0.1088       2.8068       0.0027       2.3822       0.3699       6.7688
   2416.6702      13.5940       2.6865      -0.0052      58.8556      43.7231    -999.2500    -999.2500     657.3600     208.0763     132.3081       0.1058       2.9850       0.0017       2.5620       0.1297       5.7206
   2416.8225      13.3897       0.8100      -0.0086      57.9149      36.4767    -999.2500    -999.2500     686.2292     219.0316     141.8695       0.1045       3.1186       0.0009       2.6950      -0.0567       4.9722
   2416.9749      13.5591       0.2647      -0.0106      54.1121      35.7430    -999.2500    -999.2500     530.5489     181.7496     254.6733       0.1029       3.1446       0.0004       2.7155      -0.1137       4.9457
   2417.1274      13.6926       0.5926      -0.0114      52.6601      36.4244    -999.2500    -999.2500     414.9760     153.5152     293.9804       0.1054       3.1582       0.0003       2.7257      -0.0897       4.9949
   2417.2798      13.7393       3.0314      -0.0094      56.8913      40.5268    -999.2500    -999.2500     396.3608     147.1526     155.6124       0.1161       3.1416       0.0013       2.7112       0.1299       5.2271
   2417.4321      13.8018       4.3019      -0.0029      59.9042      42.7694    -999.2500    -999.2500     374.3487     139.1993      73.3829       0.1314       3.1550       0.0020       2.6806       0.2125       5.3627
   2417.5845      13.9018       2.8226       0.0141      60.0492      40.6343    -999.2500    -999.2500     344.3401     127.5018     123.2988       0.1511       3.2390       0.0020       2.6121      -0.0274       5.2713
   2417.7371      13.8511       2.3277       0.0285      60.9423      40.0702    -999.2500    -999.2500     337.9070     123.4050     139.1683       0.1631       3.3439       0.0021       2.5581      -0.1173       5.2624
   2417.8894      13.4447       4.1600       0.0370      63.6040      43.2193    -999.2500    -999.2500     387.1983     137.2734      74.5634       0.1596       3.4982       0.0026       2.5381       0.1474       5.4486
   2418.0417      13.1804       4.6623       0.0399      65.9758      44.5146    -999.2500    -999.2500     443.4110     151.5678      35.8108       0.1525       3.5475       0.0026       2.5306       0.3051       5.5603
   2418.1941      13.2564       1.9840       0.0294      67.6541      41.3760    -999.2500    -999.2500     516.1786     166.8812      58.8914       0.1436       3.3456       0.0011       2.5531       0.2072       5.4933
   2418.3467      13.2733       0.0455       0.0188      67.4000      39.0506    -999.2500    -999.2500     588.4344     180.2513      92.2608       0.1329       3.1875      -0.0001       2.5849       0.1632       5.4373
   2418.4990      13.1485      -0.1159       0.0077      62.5049      38.6786    -999.2500    -999.2500     659.4614     188.9539     150.3418       0.1204       3.1349      -0.0006       2.6391       0.2489       5.4077
   2418.6514      13.0453       0.6834      -0.0007      58.0240      39.4938    -999.2500    -999.2500     729.8708     196.4155     179.9572       0.1131       3.1166      -0.0006       2.6695       0.3841       5.4099
   2418.8037      12.9928       3.7295      -0.0032      54.5115      43.0858    -999.2500    -999.2500     798.8360     200.9745     142.9977       0.1162       3.1785       0.0009       2.6445       0.6350       5.4864
   2418.9561      12.9960       5.2714      -0.0054      52.9218      44.3510    -999.2500    -999.2500     868.4800     193.9233     113.1110       0.1258       3.2402       0.0020       2.6176       0.6502       5.4396
   2419.1086      13.1298       3.2803      -0.0069      55.8477      40.1522    -999.2500    -999.2500     939.7182     159.6061      99.8344       0.1488       3.3011       0.0020       2.5861       0.1119       5.1035
   2419.2610      13.2752       1.5048      -0.0058      57.7326      36.3854    -999.2500    -999.2500     924.5150     130.5387      78.0058       0.2114       3.3766       0.0020       2.5128      -0.3520       4.8143
   2419.4133      13.4481       0.2413       0.0017      57.1439      33.6451    -999.2500    -999.2500     703.8992     113.9463      35.8550       0.3374       3.4865       0.0020       2.3399      -0.6388       4.6364
   2419.5657      13.6408      -0.8883       0.0104      57.4807      31.0706    -999.2500    -999.2500     524.0763     101.7159       8.6136       0.4500       3.4768       0.0020       2.0809      -0.9043       4.4548
   2419.7183      13.8807      -1.6984       0.0219      60.0261      28.8921    -999.2500    -999.2500     441.5929      99.8937      16.9490       0.5076       3.1814       0.0020       1.6166      -1.1187       4.2643
   2419.8706      14.6150      -1.2717       0.0340      62.2259      28.6164    -999.2500    -999.2500     388.2050     102.8314      20.9177       0.4840       3.1561       0.0021       1.3872      -1.1010       4.1690
   2420.0229      16.5338       2.1187       0.0475      63.5977      32.9003    -999.2500    -999.2500     404.5338     117.1747      14.4232       0.3399       3.7778       0.0026       1.7206      -0.5269       4.3013
   2420.1753      17.5711       4.5603       0.0519      63.3542      36.3170    -999.2500    -999.2500     449.2075     135.5018      23.6973       0.2229       4.0680       0.0030       2.0123      -0.0814       4.4274
   2420.3279      16.5513       4.7880       0.0349      59.3417      37.7103    -999.2500    -999.2500     560.0204     163.1247      69.7655       0.1919       3.5846       0.0030       2.2065       0.0639       4.5388
   2420.4802      15.4521       4.7325       0.0194      56.2674      38.3825    -999.2500    -999.2500     690.4848     189.2656     190.3282       0.1677       3.2157       0.0029       2.3921       0.1926       4.6316
   2420.6326      14.1651       4.0083       0.0074      55.4083      37.3525    -999.2500    -999.2500     867.3464     211.9073     486.7716       0.1277       3.1172       0.0024       2.5570       0.2821       4.6806
   2420.7849      13.2158       2.9549      -0.0004      55.0390      35.5100    -999.2500    -999.2500     998.4003     228.1511     616.8801       0.0950       3.0428       0.0016       2.6817       0.3122       4.6207
   2420.9373      13.0669       1.1206       0.0016      55.8312      31.7417    -999.2500    -999.2500    1020.8541     229.2266     352.6453       0.0815       3.0253       0.0001       2.7112       0.2018       4.3028
   2421.0898      13.0515       0.5032       0.0014      57.0797      30.4074    -999.2500    -999.2500     978.3826     217.8098     176.4583       0.0787       3.0241      -0.0007       2.7215       0.2481       4.1690
   2421.2422      13.3541       2.7824      -0.0041      59.4149      34.8679    -999.2500    -999.2500     781.3485     176.6536     209.8801       0.0879       3.0615       0.0003       2.6861       0.6676       4.4731
   2421.3945      13.8076       4.4414      -0.0068      61.3130      38.6308    -999.2500    -999.2500     616.2571     144.1224     212.0997       0.0954       3.1020       0.0010       2.6420       0.9315       4.7674
   2421.5469      14.6244       4.6063      -0.0028      62.1583      40.7131    -999.2500    -999.2500     528.1168     132.3693     139.1520       0.0958       3.1496       0.0010       2.5773       0.8207       5.0382
   2421.6995      15.1074       4.9322       0.0009      62.0188      42.6235    -999.2500    -999.2500     447.9388     121.4147      94.1547       0.0966       3.2006       0.0011       2.5468       0.7563       5.2604
