#------------------------------------------------------------------------------
#
#   Created by  : [OpenWorks] Log Export Utility (LEXP)
#   Created on  : 2016-05-24 12:12:05
#   Project     : CANT971
#   User        : R5K
#   Interpreter : PEP
#
#------------------------------------------------------------------------------
~VERSION INFORMATION
VERS. 2.0 : CWLS Log ASCII Standard - version 2.0
WRAP.  NO : One line per depth step
~WELL INFORMATION
#MNEMONIC   .UNIT                                           VALUE :DESCRIPTION
#------------------------------------------------------------------------------
STRT        .M                                           752.7670 :START DEPTH
STOP        .M                                          3519.8938 :STOP DEPTH
STEP        .M                                             0.1524 :STEP
NULL        .                                           -999.2500 :NULL VALUE
COMP        .                                   PEMEX EXPL & PROD :COMPANY
WELL        .                                                1025 :WELL
FLD         .                                           CANTARELL :FIELD
LOC         .                                             UNKNOWN :LOCATION
CNTY        .                                      CD. DEL CARMEN :COUNTY
STAT        .                                            CAMPECHE :STATE
CTRY        .                                              MEXICO :COUNTRY
SRVC        .                                             UNKNOWN :SERVICE COMPANY
DATE        .                                             UNKNOWN :LOG DATE
UWI         .                                          3060000656 :UNIQUE WELL ID
XCOORD      .                                       598529.300000 :SURFACE X
YCOORD      .                                      2152013.390000 :SURFACE Y
LAT         .                                           19.461322 :LATITUDE
LON         .                                          -92.061283 :LONGITUDE
ELEV        .M                                            27.9700 :SURFACE ELEV
ELEV_TYPE   .                                                  KB :ELEV TYPE
~CURVE INFORMATION
#MNEMONIC.UNIT        API CODE       : CURVE DESCRIPTION
#------------------------------------------------------------------------------
DEPTH    .M                          : Measured Depth
CALI     .inches      UNKNOWN        : CALI:registros:rC:NONE:v0 (auto-composite)
CGR      .API         UNKNOWN        : CGR:registros:rC:NONE:v0 (auto-composite)
DRHO     .g/cm3       UNKNOWN        : DRHO:registros:rC:NONE:v0 (auto-composite)
DT       .us/ft       UNKNOWN        : DT:registros:rC:NONE:v0 (auto-composite)
GR       .API         UNKNOWN        : GR:registros:rC:NONE:v0 (auto-composite)
ILD      .ohm.m       UNKNOWN        : ILD:registros:rC:NONE:v0 (auto-composite)
ILM      .ohm.m       UNKNOWN        : ILM:registros:rC:NONE:v0 (auto-composite)
LLD      .ohm.m       UNKNOWN        : LLD:registros:rC:NONE:v0 (auto-composite)
LLS      .ohm.m       UNKNOWN        : LLS:registros:rC:NONE:v0 (auto-composite)
MSFL     .ohm.m       UNKNOWN        : MSFL:registros:rC:NONE:v0 (auto-composite)
NPHI     .UNKNOWN     UNKNOWN        : NPHI:registros:rC:NONE:v0 (auto-composite)
PEF      .UNKNOWN     UNKNOWN        : PEF:registros:rC:NONE:v0 (auto-composite)
POTA     .UNKNOWN     UNKNOWN        : POTA:registros:rC:NONE:v0 (auto-composite)
RHOB     .g/cm3       UNKNOWN        : RHOB:registros:rC:NONE:v0 (auto-composite)
THOR     .ppm         UNKNOWN        : THOR:registros:rC:NONE:v0 (auto-composite)
URAN     .ppm         UNKNOWN        : URAN:registros:rC:NONE:v0 (auto-composite)
~A     DEPTH         CALI          CGR         DRHO           DT           GR          ILD          ILM          LLD          LLS         MSFL         NPHI          PEF         POTA         RHOB         THOR         URAN
# ...
   2754.5410      12.3599      12.1112       0.0302      56.8422      33.8005    -999.2500    -999.2500     187.7779     146.0770     407.0576       0.0771       3.2535       0.0060       2.7179       0.7813       3.0284
   2754.6934      12.3089      12.4701       0.0342      56.5119      34.3328    -999.2500    -999.2500     164.9082     130.3973     282.1355       0.0739       3.1506       0.0060       2.7209       0.8398       3.0499
   2754.8457      12.2652      13.0431       0.0339      56.1909      35.3558    -999.2500    -999.2500     146.5015     118.0924     186.4199       0.0692       3.0954       0.0060       2.7211       0.9701       3.1106
   2754.9980      12.2387      14.1276       0.0234      55.8926      37.5509    -999.2500    -999.2500     138.7538     113.8483     160.4611       0.0641       3.1544       0.0060       2.7146       1.2720       3.2650
   2755.1506      12.2405      15.0222       0.0156      55.3711      39.5202    -999.2500    -999.2500     133.6867     110.8772     131.5421       0.0605       3.2227       0.0060       2.7122       1.5304       3.4146
   2755.3030      12.3102      15.4615       0.0141      54.3147      40.9482    -999.2500    -999.2500     135.0485     110.9594      95.5232       0.0597       3.3135       0.0060       2.7197       1.6849       3.5525
   2755.4553      12.3386      15.4609       0.0133      53.8027      41.6641    -999.2500    -999.2500     131.4512     106.8926     125.4435       0.0631       3.3333       0.0060       2.7219       1.7030       3.7041
   2755.6077      12.2707      14.4331       0.0143      54.5623      40.7173    -999.2500    -999.2500     116.2719      93.1355     309.3647       0.0705       3.1875       0.0060       2.7114       1.4029       3.8879
   2755.7603      12.2281      13.5565       0.0140      55.4154      42.3322    -999.2500    -999.2500     107.9997      84.8231     378.4034       0.0780       3.0973       0.0060       2.6792       1.2189       4.3051
   2755.9126      12.2450      13.0367       0.0105      56.4894      50.0009    -999.2500    -999.2500     116.0503      89.3771     175.9559       0.0815       3.1388       0.0060       2.5957       1.3094       5.2742
   2756.0649      12.2641      12.3944       0.0086      57.0433      51.9394    -999.2500    -999.2500     134.4867     100.2524     235.1045       0.0761       3.1819       0.0060       2.5715       1.2374       5.5127
   2756.2173      12.2881      11.4613       0.0106      56.3631      40.2804    -999.2500    -999.2500     177.5686     126.1277     915.0114       0.0612       3.2289       0.0060       2.6880       0.7801       4.0173
   2756.3699      12.2892      10.4539       0.0113      55.4069      31.1183    -999.2500    -999.2500     285.7829     184.6298    1205.6158       0.0508       3.2864       0.0060       2.7595       0.3654       2.8805
   2756.5222      12.2357       9.2694       0.0088      53.7931      27.9057    -999.2500    -999.2500     549.1962     320.8754     568.5830       0.0515       3.3688       0.0060       2.7240       0.0520       2.5981
   2756.6746      12.2067       8.5160       0.0077      52.1394      25.6456    -999.2500    -999.2500     770.4328     427.3343     354.4663       0.0529       3.3824       0.0060       2.7107      -0.1637       2.3860
   2756.8269      12.2363       8.7940       0.0102      50.3899      25.6646    -999.2500    -999.2500     890.7520     462.5211    1152.2753       0.0492       3.2311       0.0060       2.7502      -0.1456       2.3419
   2756.9792      12.2636       9.3428       0.0123      49.4039      26.1799    -999.2500    -999.2500     869.9948     438.5844    1473.9952       0.0429       3.1113       0.0061       2.7790      -0.0664       2.3340
   2757.1318      12.2856      10.5273       0.0133      50.2106      27.8602    -999.2500    -999.2500     517.9968     275.8282     677.8791       0.0361       3.0653       0.0066       2.7825       0.1565       2.4110
   2757.2842      12.2834      11.8408       0.0141      50.3759      29.7513    -999.2500    -999.2500     258.9235     153.9647     137.1965       0.0310       3.0814       0.0070       2.7849       0.4050       2.4970
   2757.4365      12.2245      13.4586       0.0146      49.0289      32.1398    -999.2500    -999.2500     218.9352     128.5127     198.7410       0.0288       3.2438       0.0070       2.7844       0.7139       2.6045
   2757.5889      12.1941      13.7799       0.0156      48.2835      32.6040    -999.2500    -999.2500     204.6949     117.4370     384.0428       0.0276       3.4106       0.0067       2.7833       0.8451       2.6244
   2757.7415      12.2316      11.0318       0.0176      48.9622      28.5125    -999.2500    -999.2500     251.4108     140.3962     862.3322       0.0262       3.5879       0.0057       2.7808       0.5560       2.4371
   2757.8938      12.2617       8.7766       0.0181      49.0830      24.9531    -999.2500    -999.2500     355.7743     187.0877    1068.9567       0.0243       3.6699       0.0047       2.7821       0.3701       2.2553
   2758.0461      12.2742       7.7020       0.0151      47.8676      22.6681    -999.2500    -999.2500     598.2401     290.6330     624.7735       0.0218       3.5234       0.0037       2.7926       0.4316       2.0863
   2758.1985      12.2761       6.5885       0.0130      46.8481      20.5144    -999.2500    -999.2500    1152.8960     461.6439     514.9162       0.0197       3.4109       0.0030       2.8018       0.4121       1.9412
   2758.3511      12.2525       5.3811       0.0130      46.3001      18.6768    -999.2500    -999.2500    2458.5613     794.9514    1209.3186       0.0189       3.3798       0.0030       2.8078       0.1980       1.8535
   2758.5034      12.2405       4.6513       0.0126      45.9896      17.4780    -999.2500    -999.2500    3654.3616    1069.0251    1503.9570       0.0207       3.3921       0.0031       2.8075       0.0263       1.7809
   2758.6558      12.2555       5.0402       0.0111      46.2355      17.7753    -999.2500    -999.2500    4592.8022    1204.3438     862.1457       0.0257       3.5060       0.0036       2.7925      -0.0461       1.7440
   2758.8081      12.2715       5.3575       0.0109      46.6848      17.8809    -999.2500    -999.2500    4644.4849    1169.0376     599.9469       0.0329       3.5513       0.0040       2.7766      -0.0825       1.7107
   2758.9604      12.2900       5.5069       0.0139      47.6126      17.5353    -999.2500    -999.2500    2610.3486     732.3904    1230.6669       0.0407       3.4349       0.0040       2.7587      -0.0341       1.6862
   2759.1130      12.3003       6.2797       0.0175      48.5675      18.2000    -999.2500    -999.2500    1030.4473     373.4551    1457.3995       0.0455       3.3338       0.0040       2.7488       0.1582       1.6965
   2759.2654      12.2913       8.5368       0.0225      49.5865      21.2692    -999.2500    -999.2500     531.6807     199.4837     722.5929       0.0467       3.2688       0.0040       2.7583       0.6930       1.7895
   2759.4177      12.2875      11.1374       0.0244      50.7187      25.9297    -999.2500    -999.2500     171.9070      73.5059     191.9661       0.0523       3.2341       0.0041       2.7589       1.1845       2.1199
   2759.5701      12.2960      14.5594       0.0189      52.1211      34.3937    -999.2500    -999.2500     144.3290      62.2336     149.3334       0.0661       3.2717       0.0046       2.7384       1.5726       3.0179
   2759.7227      12.3119      15.9728       0.0136      53.6616      41.0832    -999.2500    -999.2500     122.2474      53.4878     106.3889       0.0817       3.2893       0.0053       2.7165       1.6116       3.6947
   2759.8750      12.3449      12.7112       0.0092      55.5238      43.6426    -999.2500    -999.2500     112.9584      50.6220      62.7188       0.0956       3.2603       0.0063       2.6915       0.8385       3.8566
   2760.0273      12.3752      11.3526       0.0051      56.5817      45.9529    -999.2500    -999.2500     113.4902      52.1750      46.6638       0.1100       3.2183       0.0073       2.6686       0.3546       4.0493
