#------------------------------------------------------------------------------
#
#   Created by  : [OpenWorks] Log Export Utility (LEXP)
#   Created on  : 2016-05-24 12:12:05
#   Project     : CANT971
#   User        : R5K
#   Interpreter : PEP
#
#------------------------------------------------------------------------------
~VERSION INFORMATION
VERS. 2.0 : CWLS Log ASCII Standard - version 2.0
WRAP.  NO : One line per depth step
~WELL INFORMATION
#MNEMONIC   .UNIT                                           VALUE :DESCRIPTION
#------------------------------------------------------------------------------
STRT        .M                                           752.7670 :START DEPTH
STOP        .M                                          3519.8938 :STOP DEPTH
STEP        .M                                             0.1524 :STEP
NULL        .                                           -999.2500 :NULL VALUE
COMP        .                                   PEMEX EXPL & PROD :COMPANY
WELL        .                                                1025 :WELL
FLD         .                                           CANTARELL :FIELD
LOC         .                                             UNKNOWN :LOCATION
CNTY        .                                      CD. DEL CARMEN :COUNTY
STAT        .                                            CAMPECHE :STATE
CTRY        .                                              MEXICO :COUNTRY
SRVC        .                                             UNKNOWN :SERVICE COMPANY
DATE        .                                             UNKNOWN :LOG DATE
UWI         .                                          3060000656 :UNIQUE WELL ID
XCOORD      .                                       598529.300000 :SURFACE X
YCOORD      .                                      2152013.390000 :SURFACE Y
LAT         .                                           19.461322 :LATITUDE
LON         .                                          -92.061283 :LONGITUDE
ELEV        .M                                            27.9700 :SURFACE ELEV
ELEV_TYPE   .                                                  KB :ELEV TYPE
~CURVE INFORMATION
#MNEMONIC.UNIT        API CODE       : CURVE DESCRIPTION
#------------------------------------------------------------------------------
DEPTH    .M                          : Measured Depth
CALI     .inches      UNKNOWN        : CALI:registros:rC:NONE:v0 (auto-composite)
CGR      .API         UNKNOWN        : CGR:registros:rC:NONE:v0 (auto-composite)
DRHO     .g/cm3       UNKNOWN        : DRHO:registros:rC:NONE:v0 (auto-composite)
DT       .us/ft       UNKNOWN        : DT:registros:rC:NONE:v0 (auto-composite)
GR       .API         UNKNOWN        : GR:registros:rC:NONE:v0 (auto-composite)
ILD      .ohm.m       UNKNOWN        : ILD:registros:rC:NONE:v0 (auto-composite)
ILM      .ohm.m       UNKNOWN        : ILM:registros:rC:NONE:v0 (auto-composite)
LLD      .ohm.m       UNKNOWN        : LLD:registros:rC:NONE:v0 (auto-composite)
LLS      .ohm.m       UNKNOWN        : LLS:registros:rC:NONE:v0 (auto-composite)
MSFL     .ohm.m       UNKNOWN        : MSFL:registros:rC:NONE:v0 (auto-composite)
NPHI     .UNKNOWN     UNKNOWN        : NPHI:registros:rC:NONE:v0 (auto-composite)
PEF      .UNKNOWN     UNKNOWN        : PEF:registros:rC:NONE:v0 (auto-composite)
POTA     .UNKNOWN     UNKNOWN        : POTA:registros:rC:NONE:v0 (auto-composite)
RHOB     .g/cm3       UNKNOWN        : RHOB:registros:rC:NONE:v0 (auto-composite)
THOR     .ppm         UNKNOWN        : THOR:registros:rC:NONE:v0 (auto-composite)
URAN     .ppm         UNKNOWN        : URAN:registros:rC:NONE:v0 (auto-composite)
~A     DEPTH         CALI          CGR         DRHO           DT           GR          ILD          ILM          LLD          LLS         MSFL         NPHI          PEF         POTA         RHOB         THOR         URAN
# ...
   2331.6309      16.1705       1.9832      -0.0086      63.4715      53.7971    -999.2500    -999.2500      80.0775      64.4043       2.9305       0.1379       3.0599       0.0010       2.5719      -0.1855       7.2653
   2331.7834      15.9961       1.4933      -0.0101      64.0335      53.4450    -999.2500    -999.2500      82.9478      65.9936       3.2374       0.1431       3.0668       0.0011       2.5541      -0.1952       7.2977
   2331.9358      15.8962       2.2634      -0.0106      64.7342      54.7559    -999.2500    -999.2500      85.7765      67.7883       2.8740       0.1513       2.9994       0.0016       2.5311      -0.0687       7.3402
   2332.0881      15.8561       2.4968      -0.0101      65.4787      55.1849    -999.2500    -999.2500      88.2984      69.3783       2.6948       0.1563       2.9644       0.0019       2.5055      -0.0266       7.3444
   2332.2405      15.9571       1.4662      -0.0071      66.3263      53.5376    -999.2500    -999.2500      90.0976      70.4863       2.9492       0.1551       3.0058       0.0014       2.4735      -0.1831       7.2584
   2332.3931      15.9943       1.5543      -0.0040      66.6785      53.4493    -999.2500    -999.2500      89.7775      70.2891       3.0765       0.1536       3.0501       0.0013       2.4606      -0.1630       7.2360
   2332.5454      15.8809       4.2869      -0.0005      65.8596      57.0463    -999.2500    -999.2500      84.4471      67.0062       2.9032       0.1534       3.1011       0.0023       2.4931       0.2745       7.3638
   2332.6978      15.7844       6.0463       0.0030      64.9751      59.3045    -999.2500    -999.2500      81.3716      65.0478       2.9163       0.1516       3.0984       0.0029       2.5047       0.5728       7.4365
   2332.8501      15.7279       5.4776       0.0065      63.9341      58.3600    -999.2500    -999.2500      83.6906      66.2583       3.3751       0.1468       2.9675       0.0024       2.4662       0.5383       7.3770
   2333.0027      15.6958       4.8348       0.0096      63.1725      57.3748    -999.2500    -999.2500      86.9559      68.0854       3.4922       0.1426       2.9026       0.0019       2.4561       0.5243       7.3242
   2333.1550      15.7224       4.0140       0.0116      63.0822      56.2923    -999.2500    -999.2500      92.4942      71.3935       2.7888       0.1407       2.9963       0.0014       2.5143       0.5594       7.2876
   2333.3074      15.7685       3.5908       0.0133      63.1214      55.7874    -999.2500    -999.2500      98.6465      74.9889       2.3487       0.1393       3.0889       0.0009       2.5490       0.6062       7.2762
   2333.4597      15.8605       4.0975       0.0143      63.4632      56.6335    -999.2500    -999.2500     106.2347      79.2561       2.5246       0.1377       3.1789       0.0004       2.5290       0.6801       7.3237
   2333.6121      15.9317       4.7681       0.0163      63.5686      56.7571    -999.2500    -999.2500     112.4727      82.7313       2.5973       0.1360       3.2334       0.0003       2.5201       0.6743       7.3161
   2333.7646      15.9542       5.8233       0.0208      63.1187      55.1836    -999.2500    -999.2500     115.5395      84.3463       2.4275       0.1339       3.2044       0.0013       2.5370       0.4810       7.1793
   2333.9170      15.9974       6.0717       0.0231      62.9331      54.0736    -999.2500    -999.2500     116.7829      85.1867       2.3847       0.1314       3.1884       0.0021       2.5503       0.3301       7.0947
   2334.0693      16.0898       4.4024       0.0201      63.3759      54.0656    -999.2500    -999.2500     113.6927      84.1861       2.6436       0.1286       3.2034       0.0026       2.5548       0.2796       7.1342
   2334.2217      16.1168       4.0511       0.0176      63.4783      55.1069    -999.2500    -999.2500     110.0757      82.6788       2.7466       0.1253       3.1888       0.0031       2.5626       0.2920       7.1818
   2334.3743      15.9873       6.8454       0.0161      62.7681      58.6524    -999.2500    -999.2500     105.2013      79.9620       2.4777       0.1218       3.1033       0.0036       2.5781       0.4544       7.2487
   2334.5266      15.8370       8.5325       0.0165      62.1245      60.5786    -999.2500    -999.2500     102.2508      77.5877       2.4195       0.1211       3.0575       0.0040       2.5943       0.5111       7.2554
   2334.6790      15.6364       7.5664       0.0215      61.6407      58.6242    -999.2500    -999.2500     103.9109      76.0344       2.8663       0.1255       3.1066       0.0040       2.6124       0.3146       7.1175
   2334.8313      15.4789       6.2853       0.0225      61.4800      56.2671    -999.2500    -999.2500     106.6330      75.8225       3.0551       0.1331       3.1522       0.0037       2.6141       0.1932       6.9674
   2334.9839      15.4220       4.2693       0.0140      62.0732      52.9701    -999.2500    -999.2500     111.8335      78.7414       2.6421       0.1440       3.1897       0.0027       2.5776       0.2471       6.7886
   2335.1362      15.4568       2.3096       0.0070      62.6803      49.8310    -999.2500    -999.2500     120.9609      83.3007       2.3979       0.1520       3.1962       0.0017       2.5362       0.2080       6.6240
   2335.2886      15.7082       0.4829       0.0035      63.3200      47.0647    -999.2500    -999.2500     139.3609      91.7336       2.5524       0.1536       3.1298       0.0007       2.4833      -0.0509       6.4931
   2335.4409      15.9372      -0.4483       0.0023      63.6680      45.6438    -999.2500    -999.2500     154.4317      98.3668       2.5927       0.1524       3.0774       0.0000       2.4660      -0.1584       6.4315
   2335.5933      16.1131       0.7442       0.0068      63.3242      47.4130    -999.2500    -999.2500     161.6081     100.7328       2.3623       0.1490       3.0584       0.0000       2.5335       0.0930       6.5345
   2335.7458      16.2840       1.7407       0.0097      63.3477      48.8331    -999.2500    -999.2500     167.1057     102.7449       2.3393       0.1476       3.0639       0.0001       2.5676       0.3023       6.5865
   2335.8982      16.4428       2.2706       0.0087      64.2461      49.4219    -999.2500    -999.2500     168.6059     103.9145       2.8102       0.1503       3.1278       0.0006       2.5221       0.4117       6.5171
   2336.0505      16.5147       2.3518       0.0077      64.7031      49.2414    -999.2500    -999.2500     168.7619     104.2866       2.9746       0.1530       3.1683       0.0009       2.4885       0.4534       6.4377
   2336.2029      16.3773       1.3520       0.0067      64.0964      47.2072    -999.2500    -999.2500     165.6794     102.7373       2.4005       0.1544       3.1522       0.0004       2.4835       0.3321       6.3344
   2336.3555      16.2584       0.6198       0.0066      63.8797      45.6615    -999.2500    -999.2500     164.4461     101.9306       2.1139       0.1556       3.1480       0.0000       2.4794       0.2687       6.2541
   2336.5078      16.1830       0.5153       0.0086      64.5779      45.2617    -999.2500    -999.2500     167.5518     102.8662       2.5017       0.1566       3.1715       0.0000       2.4774       0.3411       6.2276
   2336.6602      16.1912       0.8691       0.0107      64.6197      45.4873    -999.2500    -999.2500     170.0364     103.0184       2.8398       0.1558       3.2008       0.0000       2.4821       0.4403       6.2276
   2336.8125      16.3966       2.3025       0.0132      63.1154      47.1866    -999.2500    -999.2500     171.0580     101.3252       3.0607       0.1521       3.2438       0.0000       2.5026       0.6022       6.2901
   2336.9651      16.4349       3.0895       0.0140      62.1748      47.7773    -999.2500    -999.2500     174.1758     101.1377       3.0681       0.1499       3.2532       0.0000       2.5188       0.6586       6.2730
   2337.1174      16.0779       2.3474       0.0105      62.5678      45.7453    -999.2500    -999.2500     182.2529     104.5126       2.5702       0.1511       3.1833       0.0000       2.5248       0.4653       6.0678
