#------------------------------------------------------------------------------
#
#   Created by  : [OpenWorks] Log Export Utility (LEXP)
#   Created on  : 2016-05-24 12:12:05
#   Project     : CANT971
#   User        : R5K
#   Interpreter : PEP
#
#------------------------------------------------------------------------------
~VERSION INFORMATION
VERS. 2.0 : CWLS Log ASCII Standard - version 2.0
WRAP.  NO : One line per depth step
~WELL INFORMATION
#MNEMONIC   .UNIT                                           VALUE :DESCRIPTION
#------------------------------------------------------------------------------
STRT        .M                                           752.7670 :START DEPTH
STOP        .M                                          3519.8938 :STOP DEPTH
STEP        .M                                             0.1524 :STEP
NULL        .                                           -999.2500 :NULL VALUE
COMP        .                                   PEMEX EXPL & PROD :COMPANY
WELL        .                                                1025 :WELL
FLD         .                                           CANTARELL :FIELD
LOC         .                                             UNKNOWN :LOCATION
CNTY        .                                      CD. DEL CARMEN :COUNTY
STAT        .                                            CAMPECHE :STATE
CTRY        .                                              MEXICO :COUNTRY
SRVC        .                                             UNKNOWN :SERVICE COMPANY
DATE        .                                             UNKNOWN :LOG DATE
UWI         .                                          3060000656 :UNIQUE WELL ID
XCOORD      .                                       598529.300000 :SURFACE X
YCOORD      .                                      2152013.390000 :SURFACE Y
LAT         .                                           19.461322 :LATITUDE
LON         .                                          -92.061283 :LONGITUDE
ELEV        .M                                            27.9700 :SURFACE ELEV
ELEV_TYPE   .                                                  KB :ELEV TYPE
~CURVE INFORMATION
#MNEMONIC.UNIT        API CODE       : CURVE DESCRIPTION
#------------------------------------------------------------------------------
DEPTH    .M                          : Measured Depth
CALI     .inches      UNKNOWN        : CALI:registros:rC:NONE:v0 (auto-composite)
CGR      .API         UNKNOWN        : CGR:registros:rC:NONE:v0 (auto-composite)
DRHO     .g/cm3       UNKNOWN        : DRHO:registros:rC:NONE:v0 (auto-composite)
DT       .us/ft       UNKNOWN        : DT:registros:rC:NONE:v0 (auto-composite)
GR       .API         UNKNOWN        : GR:registros:rC:NONE:v0 (auto-composite)
ILD      .ohm.m       UNKNOWN        : ILD:registros:rC:NONE:v0 (auto-composite)
ILM      .ohm.m       UNKNOWN        : ILM:registros:rC:NONE:v0 (auto-composite)
LLD      .ohm.m       UNKNOWN        : LLD:registros:rC:NONE:v0 (auto-composite)
LLS      .ohm.m       UNKNOWN        : LLS:registros:rC:NONE:v0 (auto-composite)
MSFL     .ohm.m       UNKNOWN        : MSFL:registros:rC:NONE:v0 (auto-composite)
NPHI     .UNKNOWN     UNKNOWN        : NPHI:registros:rC:NONE:v0 (auto-composite)
PEF      .UNKNOWN     UNKNOWN        : PEF:registros:rC:NONE:v0 (auto-composite)
POTA     .UNKNOWN     UNKNOWN        : POTA:registros:rC:NONE:v0 (auto-composite)
RHOB     .g/cm3       UNKNOWN        : RHOB:registros:rC:NONE:v0 (auto-composite)
THOR     .ppm         UNKNOWN        : THOR:registros:rC:NONE:v0 (auto-composite)
URAN     .ppm         UNKNOWN        : URAN:registros:rC:NONE:v0 (auto-composite)
~A     DEPTH         CALI          CGR         DRHO           DT           GR          ILD          ILM          LLD          LLS         MSFL         NPHI          PEF         POTA         RHOB         THOR         URAN
# ...
   2923.7051      12.0209      11.7976       0.0103      51.4249      41.6340    -999.2500    -999.2500     279.6394     221.0500     501.7201       0.0351       3.5147       0.0039       2.8342       1.0695       4.1591
   2923.8574      11.9699       8.9696       0.0148      50.5664      36.4419    -999.2500    -999.2500     285.6306     222.7594     305.0820       0.0339       3.4768       0.0034       2.7707       0.2400       3.8295
   2924.0098      11.9324       7.6708       0.0176      50.1743      33.5789    -999.2500    -999.2500     285.6366     220.6256     312.6476       0.0338       3.4590       0.0036       2.7322      -0.2625       3.6131
   2924.1621      11.9269      10.0318       0.0161      50.8980      36.2897    -999.2500    -999.2500     271.3198     209.2944     808.8962       0.0350       3.4895       0.0056       2.7532       0.0174       3.6675
   2924.3145      11.9276      11.9053       0.0153      51.4769      37.9966    -999.2500    -999.2500     260.5977     201.0892    1011.3019       0.0357       3.4876       0.0070       2.7674       0.2654       3.6811
   2924.4670      11.9431      12.6072       0.0163      51.7081      37.2906    -999.2500    -999.2500     258.5139     200.3958     507.5761       0.0347       3.4079       0.0070       2.7654       0.4369       3.5964
   2924.6194      11.9574      13.3166       0.0191      52.1185      37.3338    -999.2500    -999.2500     266.9817     207.0788     180.5334       0.0327       3.3254       0.0071       2.7704       0.5904       3.5467
   2924.7717      11.9689      14.0433       0.0261      52.9487      39.1300    -999.2500    -999.2500     300.1408     231.0229     266.9426       0.0300       3.2364       0.0076       2.7919       0.7018       3.5792
   2924.9241      11.9685      13.9362       0.0317      53.2525      39.0184    -999.2500    -999.2500     312.1591     239.9977     298.6971       0.0272       3.1983       0.0077       2.8076       0.6993       3.4967
   2925.0767      11.9400      11.8703       0.0342      52.3197      34.4241    -999.2500    -999.2500     274.5015     213.7985     202.0273       0.0250       3.2797       0.0067       2.8096       0.4292       3.1442
   2925.2290      11.9206      10.3009       0.0336      51.3848      31.0022    -999.2500    -999.2500     250.7630     197.5712     163.8934       0.0240       3.3324       0.0060       2.8100       0.2255       2.8858
   2925.3813      11.9226       9.9120       0.0256      50.4452      30.3680    -999.2500    -999.2500     260.1189     205.0535     264.9368       0.0242       3.3169       0.0060       2.8065       0.1801       2.8513
   2925.5337      11.9277       9.4326       0.0185      50.0503      29.7481    -999.2500    -999.2500     277.1458     216.6613     508.8590       0.0239       3.3225       0.0059       2.8034       0.1654       2.8392
   2925.6863      11.9402       8.7369       0.0135      50.9559      29.1623    -999.2500    -999.2500     312.4870     238.1191    1093.9073       0.0224       3.3785       0.0054       2.8014       0.2244       2.8807
   2925.8386      11.9555       8.3925       0.0103      51.4523      29.0465    -999.2500    -999.2500     318.9684     239.7920    1305.3091       0.0214       3.3910       0.0050       2.8004       0.2538       2.9271
   2925.9910      11.9776       8.8904       0.0113      50.9674      30.0573    -999.2500    -999.2500     256.2596     194.0317     620.9079       0.0218       3.2992       0.0050       2.8019       0.2121       2.9853
   2926.1433      11.9873       9.3688       0.0129      50.5495      31.3765    -999.2500    -999.2500     205.1030     157.3465     183.1293       0.0229       3.2708       0.0051       2.8039       0.2115       3.0893
   2926.2957      11.9683       9.8018       0.0159      50.2878      33.4154    -999.2500    -999.2500     180.9168     141.8486     321.1282       0.0243       3.3901       0.0056       2.8069       0.3063       3.3006
   2926.4482      11.9508      10.2144       0.0189      50.1880      35.4548    -999.2500    -999.2500     162.6022     130.2803     362.8033       0.0267       3.4692       0.0060       2.8075       0.4088       3.5184
   2926.6006      11.9368      10.5787       0.0219      50.4704      37.4949    -999.2500    -999.2500     158.1582     127.9947     176.9330       0.0301       3.4533       0.0060       2.8025       0.5293       3.7518
   2926.7529      11.9359      10.9229       0.0230      50.8280      39.4705    -999.2500    -999.2500     166.7516     135.6959      83.5598       0.0344       3.4577       0.0060       2.7959       0.6385       3.9854
   2926.9053      11.9659      11.2193       0.0195      51.3643      41.2932    -999.2500    -999.2500     206.2710     167.0863     209.5979       0.0389       3.5107       0.0060       2.7854       0.7209       4.2193
   2927.0579      12.0174      11.1082       0.0180      52.1382      42.4595    -999.2500    -999.2500     220.0600     178.4588     266.9848       0.0417       3.5357       0.0059       2.7787       0.7346       4.4338
   2927.2102      12.1203      10.0265       0.0215      53.4780      42.0620    -999.2500    -999.2500     172.5605     142.1496     160.8486       0.0417       3.4943       0.0054       2.7812       0.5842       4.6021
   2927.3625      12.1765      11.0919       0.0237      54.1110      41.3074    -999.2500    -999.2500     135.2753     113.3240     106.3444       0.0400       3.4296       0.0059       2.7836       0.6205       4.4106
   2927.5149      12.1204      17.3327       0.0227      53.0400      39.6925    -999.2500    -999.2500     122.6102     102.5371     176.2928       0.0377       3.3087       0.0089       2.7856       1.1063       3.3522
   2927.6675      12.0752      21.4296       0.0208      52.5309      38.6965    -999.2500    -999.2500     120.5123      99.7906     219.0013       0.0367       3.2321       0.0106       2.7879       1.5181       2.6234
   2927.8198      12.0557      20.4945       0.0168      53.3405      39.1533    -999.2500    -999.2500     143.2164     115.9157     197.7749       0.0383       3.2591       0.0091       2.7909       1.7560       2.6684
   2927.9722      12.0523      20.0390       0.0130      53.5932      39.8118    -999.2500    -999.2500     170.1329     134.7704     221.7722       0.0414       3.3246       0.0080       2.7891       1.9727       2.7246
   2928.1245      12.0868      20.7137       0.0095      52.5332      40.9458    -999.2500    -999.2500     206.9771     160.0585     352.3523       0.0454       3.4810       0.0080       2.7761       2.1397       2.8070
   2928.2769      12.0889      20.6162       0.0064      52.0541      41.0188    -999.2500    -999.2500     239.9776     183.5116     408.5562       0.0487       3.5459       0.0079       2.7677       2.2040       2.8438
   2928.4294      12.0145      18.6910       0.0044      52.9500      38.5808    -999.2500    -999.2500     263.8821     202.6220     288.7444       0.0499       3.3941       0.0074       2.7702       2.0258       2.7724
   2928.5818      11.9673      17.1691       0.0026      53.4474      36.6037    -999.2500    -999.2500     276.8006     213.1294     193.3103       0.0482       3.3092       0.0069       2.7752       1.8898       2.7090
   2928.7341      11.9853      16.6129       0.0011      52.9906      35.7300    -999.2500    -999.2500     263.4104     203.0347     156.2543       0.0435       3.3847       0.0064       2.7862       1.8554       2.6651
   2928.8865      12.0023      16.6937      -0.0001      52.7882      35.6979    -999.2500    -999.2500     246.5551     190.0115     152.9079       0.0390       3.4037       0.0061       2.7872       1.8933       2.6495
   2929.0391      12.0168      18.3067      -0.0006      53.1973      37.6894    -999.2500    -999.2500     221.3673     169.9459     230.6238       0.0367       3.2869       0.0066       2.7642       2.1054       2.7021
   2929.1914      12.0194      18.8428      -0.0004      53.3011      37.6660    -999.2500    -999.2500     200.4476     153.4350     254.7383       0.0367       3.2153       0.0070       2.7508       2.1352       2.6240
