#------------------------------------------------------------------------------
#
#   Created by  : [OpenWorks] Log Export Utility (LEXP)
#   Created on  : 2016-05-24 12:12:05
#   Project     : CANT971
#   User        : R5K
#   Interpreter : PEP
#
#------------------------------------------------------------------------------
~VERSION INFORMATION
VERS. 2.0 : CWLS Log ASCII Standard - version 2.0
WRAP.  NO : One line per depth step
~WELL INFORMATION
#MNEMONIC   .UNIT                                           VALUE :DESCRIPTION
#------------------------------------------------------------------------------
STRT        .M                                           752.7670 :START DEPTH
STOP        .M                                          3519.8938 :STOP DEPTH
STEP        .M                                             0.1524 :STEP
NULL        .                                           -999.2500 :NULL VALUE
COMP        .                                   PEMEX EXPL & PROD :COMPANY
WELL        .                                                1025 :WELL
FLD         .                                           CANTARELL :FIELD
LOC         .                                             UNKNOWN :LOCATION
CNTY        .                                      CD. DEL CARMEN :COUNTY
STAT        .                                            CAMPECHE :STATE
CTRY        .                                              MEXICO :COUNTRY
SRVC        .                                             UNKNOWN :SERVICE COMPANY
DATE        .                                             UNKNOWN :LOG DATE
UWI         .                                          3060000656 :UNIQUE WELL ID
XCOORD      .                                       598529.300000 :SURFACE X
YCOORD      .                                      2152013.390000 :SURFACE Y
LAT         .                                           19.461322 :LATITUDE
LON         .                                          -92.061283 :LONGITUDE
ELEV        .M                                            27.9700 :SURFACE ELEV
ELEV_TYPE   .                                                  KB :ELEV TYPE
~CURVE INFORMATION
#MNEMONIC.UNIT        API CODE       : CURVE DESCRIPTION
#------------------------------------------------------------------------------
DEPTH    .M                          : Measured Depth
CALI     .inches      UNKNOWN        : CALI:registros:rC:NONE:v0 (auto-composite)
CGR      .API         UNKNOWN        : CGR:registros:rC:NONE:v0 (auto-composite)
DRHO     .g/cm3       UNKNOWN        : DRHO:registros:rC:NONE:v0 (auto-composite)
DT       .us/ft       UNKNOWN        : DT:registros:rC:NONE:v0 (auto-composite)
GR       .API         UNKNOWN        : GR:registros:rC:NONE:v0 (auto-composite)
ILD      .ohm.m       UNKNOWN        : ILD:registros:rC:NONE:v0 (auto-composite)
ILM      .ohm.m       UNKNOWN        : ILM:registros:rC:NONE:v0 (auto-composite)
LLD      .ohm.m       UNKNOWN        : LLD:registros:rC:NONE:v0 (auto-composite)
LLS      .ohm.m       UNKNOWN        : LLS:registros:rC:NONE:v0 (auto-composite)
MSFL     .ohm.m       UNKNOWN        : MSFL:registros:rC:NONE:v0 (auto-composite)
NPHI     .UNKNOWN     UNKNOWN        : NPHI:registros:rC:NONE:v0 (auto-composite)
PEF      .UNKNOWN     UNKNOWN        : PEF:registros:rC:NONE:v0 (auto-composite)
POTA     .UNKNOWN     UNKNOWN        : POTA:registros:rC:NONE:v0 (auto-composite)
RHOB     .g/cm3       UNKNOWN        : RHOB:registros:rC:NONE:v0 (auto-composite)
THOR     .ppm         UNKNOWN        : THOR:registros:rC:NONE:v0 (auto-composite)
URAN     .ppm         UNKNOWN        : URAN:registros:rC:NONE:v0 (auto-composite)
~A     DEPTH         CALI          CGR         DRHO           DT           GR          ILD          ILM          LLD          LLS         MSFL         NPHI          PEF         POTA         RHOB         THOR         URAN
# ...
   2839.1230      12.5484       8.9221       0.0052      52.0951      39.4929    -999.2500    -999.2500     141.2217      86.1817     137.0761       0.0580       3.4151       0.0047       2.7312       0.1858       4.2358
   2839.2754      12.5402       8.7718       0.0089      50.9278      39.0536    -999.2500    -999.2500     143.9612      89.3249      91.9590       0.0542       3.4171       0.0040       2.7074       0.2272       4.2208
   2839.4277      12.6676       6.5797       0.0119      51.8923      35.4647    -999.2500    -999.2500     161.5831     102.6332     119.0838       0.0472       3.2772       0.0040       2.7289      -0.0192       4.0264
   2839.5801      12.7530       5.0378       0.0164      52.8014      32.9322    -999.2500    -999.2500     159.0963     103.1259     125.3915       0.0433       3.1645       0.0040       2.7465      -0.1595       3.8972
   2839.7327      12.7395       5.0238       0.0244      53.5799      32.8828    -999.2500    -999.2500     109.3506      73.4999      82.7755       0.0469       3.1161       0.0040       2.7550      -0.0506       3.9211
   2839.8850      12.7096       7.2155       0.0312      54.3974      34.9512    -999.2500    -999.2500      70.5934      50.1938      58.3511       0.0521       3.1433       0.0049       2.7533       0.2324       3.8995
   2840.0374      12.6406      14.6523       0.0352      55.3075      42.0562    -999.2500    -999.2500      57.9673      41.9169      77.1874       0.0607       3.3502       0.0079       2.7273       0.9296       3.7696
   2840.1897      12.6264      19.6844       0.0407      56.1790      46.1345    -999.2500    -999.2500      48.8351      35.9088      81.6355       0.0662       3.5128       0.0099       2.7115       1.3927       3.5886
   2840.3423      12.7428      18.9742       0.0497      56.9581      42.9854    -999.2500    -999.2500      48.0459      35.3185      51.7249       0.0646       3.5698       0.0094       2.7200       1.2967       3.2857
   2840.4946      12.8423      19.0836       0.0538      58.2101      41.3360    -999.2500    -999.2500      49.1561      36.2281      38.7163       0.0665       3.5787       0.0093       2.7182       1.2922       3.0688
   2840.6470      12.9009      21.1583       0.0463      60.5957      43.2829    -999.2500    -999.2500      54.8208      40.7341      66.2371       0.0769       3.4724       0.0103       2.6916       1.5067       3.0577
   2840.7993      12.9344      23.3287       0.0377      62.1176      43.8449    -999.2500    -999.2500      61.0095      45.6306      81.1156       0.0843       3.4109       0.0110       2.6670       1.8121       2.8774
   2840.9517      12.9089      25.7222       0.0267      61.6227      41.1732    -999.2500    -999.2500      68.4219      51.4389      66.4731       0.0841       3.4538       0.0110       2.6470       2.3295       2.3016
   2841.1042      12.9081      28.2087       0.0174      61.0703      40.2212    -999.2500    -999.2500      74.6769      56.4150      59.1783       0.0844       3.4451       0.0114       2.6349       2.7621       1.8533
   2841.2566      12.9656      30.9145       0.0119      60.3821      43.3323    -999.2500    -999.2500      78.1974      59.4247      69.2439       0.0858       3.3141       0.0129       2.6414       2.9945       1.7064
   2841.4089      13.0142      31.5849       0.0068      59.6793      45.0865    -999.2500    -999.2500      76.7819      58.8639      70.8347       0.0845       3.2505       0.0131       2.6647       3.1654       1.8010
   2841.5613      13.0416      27.4262       0.0028      58.9416      43.6211    -999.2500    -999.2500      63.6555      49.8318      52.3187       0.0764       3.3464       0.0101       2.7276       3.1904       2.4687
   2841.7139      13.0362      24.3969      -0.0010      58.2636      44.0228    -999.2500    -999.2500      53.3941      42.7173      41.7568       0.0710       3.3951       0.0084       2.7596       3.0638       3.0770
   2841.8662      12.9523      24.0583      -0.0045      57.7277      48.8723    -999.2500    -999.2500      49.9578      40.1715      50.1445       0.0726       3.3312       0.0099       2.7176       2.5759       3.5440
   2842.0186      12.9108      24.0964      -0.0067      57.0382      52.8170    -999.2500    -999.2500      47.4036      38.2835      53.5084       0.0736       3.2770       0.0107       2.7015       2.2947       3.9219
   2842.1709      12.9715      25.0425      -0.0057      55.9783      54.5804    -999.2500    -999.2500      46.9759      37.9817      44.7612       0.0731       3.2464       0.0097       2.7477       2.5118       4.0854
   2842.3235      13.0351      23.7814      -0.0037      55.8038      53.8192    -999.2500    -999.2500      49.8288      40.0864      47.3442       0.0745       3.2107       0.0086       2.7700       2.4090       4.1894
   2842.4758      13.1055      17.3387       0.0008      57.7080      47.1316    -999.2500    -999.2500      60.3827      47.8405      76.5251       0.0802       3.1627       0.0071       2.7365       1.5554       4.1539
   2842.6282      13.1307      13.3259       0.0059      58.5211      43.1236    -999.2500    -999.2500      70.5024      55.3120      89.1465       0.0833       3.1548       0.0061       2.6875       1.0091       4.1537
   2842.7805      13.0493      15.0412       0.0124      56.7624      45.4321    -999.2500    -999.2500      79.5985      62.1170      62.7334       0.0799       3.2412       0.0066       2.6021       1.1876       4.2367
   2842.9329      13.0027      16.6102       0.0213      55.9088      47.5639    -999.2500    -999.2500      87.1014      67.5024      57.8026       0.0763       3.2953       0.0071       2.5685       1.3532       4.3152
   2843.0854      13.0386      17.8332       0.0358      57.1977      49.2773    -999.2500    -999.2500      90.8333      69.5274     103.7205       0.0720       3.2729       0.0076       2.6579       1.4885       4.3831
   2843.2378      13.0901      17.7056       0.0485      57.8182      48.9276    -999.2500    -999.2500      94.8463      71.6218     123.5366       0.0723       3.2195       0.0077       2.6974       1.4746       4.3520
   2843.3901      13.1785      14.3431       0.0570      56.8376      43.6363    -999.2500    -999.2500      99.5328      73.8823      80.8341       0.0837       3.0920       0.0067       2.6175       1.1033       4.0836
   2843.5425      13.2858      11.2907       0.0695      55.9690      38.7272    -999.2500    -999.2500     104.9688      76.8310      46.9348       0.0905       2.9883       0.0057       2.5675       0.7876       3.8249
   2843.6951      13.4382       8.9843       0.0915      55.3699      34.7372    -999.2500    -999.2500     112.2073      81.4348      34.2090       0.0866       2.9417       0.0047       2.5895       0.6055       3.5898
   2843.8474      13.4901       7.6814       0.0991      55.2113      32.2927    -999.2500    -999.2500     121.5616      87.9508      49.8147       0.0823       2.9609       0.0041       2.6176       0.5102       3.4304
   2843.9998      13.3067       8.7290       0.0726      56.0844      33.4682    -999.2500    -999.2500     135.8709      98.9455     131.7748       0.0773       3.1343       0.0046       2.6595       0.6176       3.4484
   2844.1521      13.1847       9.8427       0.0474      56.6045      34.7129    -999.2500    -999.2500     147.0936     105.0114     171.0789       0.0704       3.2895       0.0051       2.6909       0.7317       3.4488
   2844.3047      13.2072      11.1122       0.0255      56.2944      36.1201    -999.2500    -999.2500     151.0572      99.4857     110.0666       0.0592       3.4019       0.0056       2.6974       0.8616       3.4078
   2844.4570      13.2035      12.2649       0.0085      55.6270      37.7494    -999.2500    -999.2500     149.0592      93.6417     124.4611       0.0529       3.4508       0.0060       2.6828       1.0210       3.4497
   2844.6094      13.1375      13.1401       0.0035      54.1097      39.9070    -999.2500    -999.2500     132.8747      87.0400     318.2999       0.0581       3.3489       0.0060       2.6178       1.2509       3.6886
