#------------------------------------------------------------------------------
#
#   Created by  : [OpenWorks] Log Export Utility (LEXP)
#   Created on  : 2016-05-12 18:36:02
#   Project     : CANT971
#   User        : R5K
#   Interpreter : PEP
#
#------------------------------------------------------------------------------
~VERSION INFORMATION
VERS. 2.0 : CWLS Log ASCII Standard - version 2.0
WRAP.  NO : One line per depth step
~WELL INFORMATION
#MNEMONIC   .UNIT                                           VALUE :DESCRIPTION
#------------------------------------------------------------------------------
STRT        .M                                          2041.3008 :START DEPTH
STOP        .M                                          3401.7756 :STOP DEPTH
STEP        .M                                             0.1524 :STEP
NULL        .                                           -999.2500 :NULL VALUE
COMP        .                                   PEMEX EXPL & PROD :COMPANY
WELL        .                                               1031D :WELL
FLD         .                                           CANTARELL :FIELD
LOC         .                                             UNKNOWN :LOCATION
CNTY        .                                      CD. DEL CARMEN :COUNTY
STAT        .                                            CAMPECHE :STATE
CTRY        .                                              MEXICO :COUNTRY
SRVC        .                                             UNKNOWN :SERVICE COMPANY
DATE        .                                             UNKNOWN :LOG DATE
UWI         .                                               1031D :UNIQUE WELL ID
XCOORD      .                                       597334.590000 :SURFACE X
YCOORD      .                                      2152076.210000 :SURFACE Y
LAT         .                                           19.461948 :LATITUDE
LON         .                                          -92.072661 :LONGITUDE
ELEV        .M                                            26.5400 :SURFACE ELEV
ELEV_TYPE   .                                                  KB :ELEV TYPE
~CURVE INFORMATION
#MNEMONIC.UNIT        API CODE       : CURVE DESCRIPTION
#------------------------------------------------------------------------------
DEPTH    .M                          : Measured Depth
CALI     .UNKNOWN     UNKNOWN        : CALI:litodensidad:r1:0001:v1 
CGR      .UNKNOWN     UNKNOWN        : CGR:radioactividad:r1:0001:v1 
DRHO     .g/cm3       UNKNOWN        : DRHO:litodensidad:r1:0001:v1 
DT       .us/ft       UNKNOWN        : DT:DT-Load:r1:0001:v1 
GR-LWD   .UNKNOWN     UNKNOWN        : GR-LWD:GR-LWD:r2:MAIN:v1 
ILD-LWD  .UNKNOWN     UNKNOWN        : ILD-LWD:ILD-LWD:r1:MAIN:v1 
ILM-LWD  .UNKNOWN     UNKNOWN        : ILM-LWD:ILM-LWD:r1:MAIN:v1 
LLD-LWD  .UNKNOWN     UNKNOWN        : LLD-LWD:LLD-LWD:r1:MAIN:v1 
LLD      .ohm.m       UNKNOWN        : LLD:resistividad:r1:0001:v1 
LLS      .ohm.m       UNKNOWN        : LLS:resistividad:r1:0001:v1 
MSFL     .ohm.m       UNKNOWN        : MSFL:resistividad:r1:0001:v1 
NPHI     .v/v_decimal UNKNOWN        : NPHI:porosidad:r1:0001:v1 
PEF      .UNKNOWN     UNKNOWN        : PEF:litodensidad:r1:0001:v1 
POTA     .UNKNOWN     UNKNOWN        : POTA:radioactividad:r1:0001:v1 
RHOB     .g/cm3       UNKNOWN        : RHOB:litodensidad:r1:0001:v1 
SGR      .UNKNOWN     UNKNOWN        : SGR:radioactividad:r1:0001:v1 
THOR     .ppm         UNKNOWN        : THOR:radioactividad:r1:0001:v1 
URAN     .ppm         UNKNOWN        : URAN:radioactividad:r1:0001:v1 
~A     DEPTH         CALI          CGR         DRHO           DT       GR-LWD      ILD-LWD      ILM-LWD      LLD-LWD          LLD          LLS         MSFL         NPHI          PEF         POTA         RHOB          SGR         THOR         URAN
# ...
   2991.8196      12.0180      64.5801       0.0159      69.6200    -999.2500    -999.2500    -999.2500    -999.2500      17.9827      12.7909      11.0518      14.3030       3.5624       0.0260       2.3760      93.1722       4.3596       3.2214
   2991.9719      12.1291      61.8059       0.0141      71.8325    -999.2500    -999.2500    -999.2500    -999.2500      13.5594       9.7597       4.0286      11.6384       3.5810       0.0244       2.3967      88.2726       4.3648       2.9820
   2992.1243      12.2045      61.3469       0.0170      68.7362    -999.2500    -999.2500    -999.2500    -999.2500      12.3260       8.7864       2.8216       7.8336       3.9504       0.0240       2.4785      87.4775       4.4238       2.9441
   2992.2769      12.1717      60.9981       0.0127      66.5666    -999.2500    -999.2500    -999.2500    -999.2500      12.2782       8.6502      11.5575       5.7902       4.4766       0.0238       2.5571      86.7717       4.4463       2.9039
   2992.4292      12.7611      57.4831       0.0100      61.9091    -999.2500    -999.2500    -999.2500    -999.2500      13.9841       9.7501      50.5122       5.0218       4.6637       0.0222       2.6219      83.7645       4.2894       2.9611
   2992.5815      13.7135      45.4950       0.0119      58.0484    -999.2500    -999.2500    -999.2500    -999.2500      16.1786      11.4357      42.0999       4.7756       4.9410       0.0179       2.6553      72.0213       3.2631       2.9887
   2992.7339      12.6287      39.2271       0.0113      57.8864    -999.2500    -999.2500    -999.2500    -999.2500      18.1680      13.2382      42.7242       4.5902       5.0335       0.0168       2.6664      65.6652       2.2461       2.9788
   2992.8865      11.9790      41.0453       0.0088      57.6457    -999.2500    -999.2500    -999.2500    -999.2500      22.0489      16.3157      47.1141       4.2875       4.9551       0.0177       2.6593      69.8411       2.2887       3.2444
   2993.0388      12.0030      40.6790       0.0031      58.9782    -999.2500    -999.2500    -999.2500    -999.2500      28.6889      21.2634      61.6207       3.9595       4.7321       0.0176       2.6444      70.0174       2.2447       3.3055
   2993.1912      12.1386      41.7778       0.0038      61.2996    -999.2500    -999.2500    -999.2500    -999.2500      38.0818      28.2230      40.9070       3.9255       4.8404       0.0180       2.6471      72.2682       2.3452       3.4353
   2993.3435      12.2782      41.8077       0.0096      62.2587    -999.2500    -999.2500    -999.2500    -999.2500      44.4571      32.9455      29.1407       4.0942       5.0175       0.0179       2.6681      72.8869       2.3837       3.5017
   2993.4961      12.1787      40.8417       0.0128      59.9931    -999.2500    -999.2500    -999.2500    -999.2500      46.4227      34.1327      29.7632       3.9550       5.0840       0.0173       2.6730      72.0408       2.4161       3.5152
   2993.6484      12.0253      40.1606       0.0127      59.1079    -999.2500    -999.2500    -999.2500    -999.2500      46.1229      33.7430      25.2905       3.8527       5.0729       0.0161       2.6663      70.8164       2.7366       3.4540
   2993.8008      11.9779      36.2335       0.0116      58.3208    -999.2500    -999.2500    -999.2500    -999.2500      45.5440      33.2089      60.5773       3.7182       5.1227       0.0136       2.6493      63.2603       2.8604       3.0451
   2993.9531      12.1196      35.0020       0.0103      57.8677    -999.2500    -999.2500    -999.2500    -999.2500      46.1707      33.6005      79.0903       3.8542       5.2532       0.0133       2.6435      61.0469       2.6961       2.9345
   2994.1055      12.2274      34.2820       0.0098      57.9401    -999.2500    -999.2500    -999.2500    -999.2500      51.1786      37.0957      83.1640       3.8043       5.2505       0.0133       2.6424      58.9860       2.5103       2.7834
   2994.2581      12.2693      33.5939       0.0084      57.0410    -999.2500    -999.2500    -999.2500    -999.2500      57.7379      41.8261      81.5220       3.7620       5.4385       0.0135       2.6444      56.8121       2.2897       2.6160
   2994.4104      12.1594      31.8387       0.0065      56.0784    -999.2500    -999.2500    -999.2500    -999.2500      59.5942      43.5844     107.9119       3.4350       5.9424       0.0131       2.6497      53.2368       2.0220       2.4109
   2994.5627      11.9405      31.8677       0.0036      55.9380    -999.2500    -999.2500    -999.2500    -999.2500      51.6685      38.6619      77.3701       2.9021       6.1452       0.0133       2.6516      52.5223       1.9445       2.3271
   2994.7151      11.8380      34.0337       0.0008      55.5478    -999.2500    -999.2500    -999.2500    -999.2500      44.7874      34.2012      57.3021       2.3886       6.1173       0.0141       2.6442      55.2163       2.1243       2.3866
   2994.8677      11.9412      32.9485       0.0008      55.6134    -999.2500    -999.2500    -999.2500    -999.2500      40.7269      31.7394      73.8223       2.0150       5.6695       0.0137       2.6448      53.4466       2.0253       2.3095
   2995.0200      12.1027      32.2265       0.0033      55.9416    -999.2500    -999.2500    -999.2500    -999.2500      40.8965      32.3404      85.3750       1.9203       5.7225       0.0135       2.6439      52.4467       1.9590       2.2782
   2995.1724      12.1083      31.7365       0.0077      55.3839    -999.2500    -999.2500    -999.2500    -999.2500      48.7201      39.1259      58.9090       2.2139       5.2105       0.0133       2.6506      51.8172       1.9314       2.2625
   2995.3247      11.9890      31.3585       0.0111      55.1080    -999.2500    -999.2500    -999.2500    -999.2500      58.4689      48.2251      73.9124       2.9136       4.6962       0.0129       2.6489      51.5496       2.0049       2.2749
   2995.4773      11.8735      29.7967       0.0170      54.2609    -999.2500    -999.2500    -999.2500    -999.2500      58.9000      49.8326      50.5071       3.6864       4.0502       0.0122       2.6636      49.7167       1.9349       2.2444
   2995.6296      11.6644      28.7795       0.0255      53.3563    -999.2500    -999.2500    -999.2500    -999.2500      57.2215      49.1843      79.0669       3.8997       3.7649       0.0120       2.6983      48.6659       1.7791       2.2406
   2995.7820      11.7089      26.2884       0.0338      53.0257    -999.2500    -999.2500    -999.2500    -999.2500      55.4295      48.2560      60.2103       3.5188       3.6196       0.0113       2.7403      45.3653       1.4944       2.1494
   2995.9343      11.8813      25.5609       0.0342      53.2543    -999.2500    -999.2500    -999.2500    -999.2500      53.2563      46.9335     161.7086       3.0646       3.5845       0.0108       2.7671      45.5862       1.5163       2.2562
   2996.0867      11.8892      26.5132       0.0288      53.2063    -999.2500    -999.2500    -999.2500    -999.2500      54.2777      48.1999     208.9374       2.8920       3.6220       0.0106       2.7689      48.6097       1.8159       2.4896
   2996.2393      11.7070      24.0593       0.0165      53.1178    -999.2500    -999.2500    -999.2500    -999.2500      61.4594      55.0495     151.3757       3.0862       3.7158       0.0094       2.7466      44.7000       1.7272       2.3256
   2996.3916      11.5441      25.3139       0.0109      53.5787    -999.2500    -999.2500    -999.2500    -999.2500      72.2946      64.9639     139.5025       3.3677       3.6993       0.0097       2.7390      46.2847       1.8988       2.3628
   2996.5439      11.4858      25.8210       0.0076      53.1500    -999.2500    -999.2500    -999.2500    -999.2500      85.6884      76.4345     184.9980       3.6151       3.5610       0.0095       2.7278      47.0954       2.1222       2.3970
   2996.6963      11.5470      25.5909       0.0112      53.6987    -999.2500    -999.2500    -999.2500    -999.2500     102.1071      90.6116     162.7101       3.8548       3.4281       0.0091       2.7412      46.5482       2.2344       2.3612
