#------------------------------------------------------------------------------
#
#   Created by  : [OpenWorks] Log Export Utility (LEXP)
#   Created on  : 2016-05-12 18:36:02
#   Project     : CANT971
#   User        : R5K
#   Interpreter : PEP
#
#------------------------------------------------------------------------------
~VERSION INFORMATION
VERS. 2.0 : CWLS Log ASCII Standard - version 2.0
WRAP.  NO : One line per depth step
~WELL INFORMATION
#MNEMONIC   .UNIT                                           VALUE :DESCRIPTION
#------------------------------------------------------------------------------
STRT        .M                                          2041.3008 :START DEPTH
STOP        .M                                          3401.7756 :STOP DEPTH
STEP        .M                                             0.1524 :STEP
NULL        .                                           -999.2500 :NULL VALUE
COMP        .                                   PEMEX EXPL & PROD :COMPANY
WELL        .                                               1031D :WELL
FLD         .                                           CANTARELL :FIELD
LOC         .                                             UNKNOWN :LOCATION
CNTY        .                                      CD. DEL CARMEN :COUNTY
STAT        .                                            CAMPECHE :STATE
CTRY        .                                              MEXICO :COUNTRY
SRVC        .                                             UNKNOWN :SERVICE COMPANY
DATE        .                                             UNKNOWN :LOG DATE
UWI         .                                               1031D :UNIQUE WELL ID
XCOORD      .                                       597334.590000 :SURFACE X
YCOORD      .                                      2152076.210000 :SURFACE Y
LAT         .                                           19.461948 :LATITUDE
LON         .                                          -92.072661 :LONGITUDE
ELEV        .M                                            26.5400 :SURFACE ELEV
ELEV_TYPE   .                                                  KB :ELEV TYPE
~CURVE INFORMATION
#MNEMONIC.UNIT        API CODE       : CURVE DESCRIPTION
#------------------------------------------------------------------------------
DEPTH    .M                          : Measured Depth
CALI     .UNKNOWN     UNKNOWN        : CALI:litodensidad:r1:0001:v1 
CGR      .UNKNOWN     UNKNOWN        : CGR:radioactividad:r1:0001:v1 
DRHO     .g/cm3       UNKNOWN        : DRHO:litodensidad:r1:0001:v1 
DT       .us/ft       UNKNOWN        : DT:DT-Load:r1:0001:v1 
GR-LWD   .UNKNOWN     UNKNOWN        : GR-LWD:GR-LWD:r2:MAIN:v1 
ILD-LWD  .UNKNOWN     UNKNOWN        : ILD-LWD:ILD-LWD:r1:MAIN:v1 
ILM-LWD  .UNKNOWN     UNKNOWN        : ILM-LWD:ILM-LWD:r1:MAIN:v1 
LLD-LWD  .UNKNOWN     UNKNOWN        : LLD-LWD:LLD-LWD:r1:MAIN:v1 
LLD      .ohm.m       UNKNOWN        : LLD:resistividad:r1:0001:v1 
LLS      .ohm.m       UNKNOWN        : LLS:resistividad:r1:0001:v1 
MSFL     .ohm.m       UNKNOWN        : MSFL:resistividad:r1:0001:v1 
NPHI     .v/v_decimal UNKNOWN        : NPHI:porosidad:r1:0001:v1 
PEF      .UNKNOWN     UNKNOWN        : PEF:litodensidad:r1:0001:v1 
POTA     .UNKNOWN     UNKNOWN        : POTA:radioactividad:r1:0001:v1 
RHOB     .g/cm3       UNKNOWN        : RHOB:litodensidad:r1:0001:v1 
SGR      .UNKNOWN     UNKNOWN        : SGR:radioactividad:r1:0001:v1 
THOR     .ppm         UNKNOWN        : THOR:radioactividad:r1:0001:v1 
URAN     .ppm         UNKNOWN        : URAN:radioactividad:r1:0001:v1 
~A     DEPTH         CALI          CGR         DRHO           DT       GR-LWD      ILD-LWD      ILM-LWD      LLD-LWD          LLD          LLS         MSFL         NPHI          PEF         POTA         RHOB          SGR         THOR         URAN
# ...
   3057.1992      11.9853       3.0611       0.0095      56.4851    -999.2500    -999.2500    -999.2500    -999.2500    8151.3604    1656.3575     822.8340       7.9647       3.7585       0.0021       2.6220      15.6031      -0.1534       1.4131
   3057.3516      11.9533       2.1801       0.0055      56.8186    -999.2500    -999.2500    -999.2500    -999.2500   12405.7607    2152.7681     674.8862       8.2241       3.7008       0.0020       2.6041      13.9833      -0.3183       1.3299
   3057.5039      11.7254       2.0888      -0.0001      56.6581    -999.2500    -999.2500    -999.2500    -999.2500   15497.0986    2507.8357     356.2638       8.1979       3.5015       0.0021       2.5835      13.4187      -0.3802       1.2765
   3057.6565      11.6398       2.5164      -0.0009      56.7805    -999.2500    -999.2500    -999.2500    -999.2500   16954.3555    2674.2551     246.4452       8.1738       3.1695       0.0020       2.5839      14.0567      -0.2639       1.3002
   3057.8088      11.6717       2.9990      -0.0025      57.8524    -999.2500    -999.2500    -999.2500    -999.2500   16840.6055    2665.9719     231.3537       8.1828       3.2221       0.0018       2.5842      15.0088      -0.0590       1.3531
   3057.9612      11.7656       2.8273      -0.0024      59.2443    -999.2500    -999.2500    -999.2500    -999.2500   18786.4609    2723.7258     288.0825       8.9296       3.2703       0.0015       2.5888      14.6214       0.0234       1.3288
   3058.1135      11.8553       3.4000       0.0032      59.8125    -999.2500    -999.2500    -999.2500    -999.2500   23451.6133    2827.2761     339.3237      10.0029       3.2458       0.0017       2.5801      14.4476       0.0861       1.2447
   3058.2659      11.8332       7.4723       0.0150      61.0320    -999.2500    -999.2500    -999.2500    -999.2500   31054.3301    3102.9832     328.3186      10.8212       3.2618       0.0029       2.5779      20.1167       0.5552       1.4246
   3058.4185      11.6919       9.0463       0.0198      61.7702    -999.2500    -999.2500    -999.2500    -999.2500   38006.2617    3420.0371     346.9615      12.0201       3.3115       0.0031       2.5673      22.9372       0.8272       1.5651
   3058.5708      11.6057       8.0378       0.0168      58.8507    -999.2500    -999.2500    -999.2500    -999.2500   37022.8398    3504.0540     610.7130      13.0265       3.3805       0.0028       2.5382      21.1397       0.7225       1.4762
   3058.7231      11.6163       7.9641       0.0140      52.0979    -999.2500    -999.2500    -999.2500    -999.2500   36154.7344    3551.3555     343.1510      12.7283       3.3293       0.0027       2.5179      21.0768       0.7633       1.4774
   3058.8755      11.7613       8.0901       0.0128      54.7928    -999.2500    -999.2500    -999.2500    -999.2500   36926.9688    3455.3193     235.8854      10.5314       3.2462       0.0025       2.5172      21.8494       0.8556       1.5502
   3059.0281      11.8807       6.5314       0.0147      60.8148    -999.2500    -999.2500    -999.2500    -999.2500   38833.1289    3181.5708     358.0291       8.7524       3.2014       0.0018       2.5472      20.3956       0.7990       1.5621
   3059.1804      11.8759       4.8559       0.0195      53.9673    -999.2500    -999.2500    -999.2500    -999.2500   38790.7656    2769.9397     444.1327       8.8743       3.2744       0.0013       2.5651      18.4498       0.6083       1.5316
   3059.3328      11.8310       7.5008       0.0229      50.5828    -999.2500    -999.2500    -999.2500    -999.2500   38590.7930    2407.8262    1081.4652      10.9506       3.2703       0.0030       2.5550      21.5446       0.5287       1.5823
   3059.4851      11.7772      10.0026       0.0191      48.7240    -999.2500    -999.2500    -999.2500    -999.2500   38546.6602    2147.6692    1218.2173      12.0605       3.2717       0.0040       2.5215      26.1453       0.6986       1.8188
   3059.6377      12.0093      11.1766       0.0174      37.4627    -999.2500    -999.2500    -999.2500    -999.2500   38355.9219    1938.1248     798.9512      12.5723       3.1799       0.0041       2.5052      27.9952       0.9333       1.8949
   3059.7900      12.4752      10.8029       0.0191      61.4224    -999.2500    -999.2500    -999.2500    -999.2500   37561.2305    1538.9337     242.2113      13.4507       3.1175       0.0030       2.5036      27.6048       1.2771       1.8931
   3059.9424      12.3391       9.2604       0.0182      60.8744    -999.2500    -999.2500    -999.2500    -999.2500   35763.0234    1132.6278     131.4167      15.4278       3.1039       0.0015       2.4886      24.8597       1.5553       1.7576
   3060.0947      12.2168       9.4941       0.0144      57.4467    -999.2500    -999.2500    -999.2500    -999.2500   31379.2402     862.7960     233.2206      17.9540       3.1127       0.0015       2.4629      24.8526       1.5972       1.7304
   3060.2471      12.2184       9.0719       0.0183      50.2032    -999.2500    -999.2500    -999.2500    -999.2500   25496.7109     757.6287     257.5960      18.6742       3.2195       0.0023       2.4561      23.3962       1.2012       1.6139
   3060.3997      12.0912       8.5959       0.0253      49.3772    -999.2500    -999.2500    -999.2500    -999.2500   22283.7148     722.0150      31.6341      18.4730       3.3290       0.0033       2.4650      21.0389       0.6304       1.4019
   3060.5520      11.9888       9.8082       0.0204      62.9143    -999.2500    -999.2500    -999.2500    -999.2500   20738.7344     702.1390      39.1852      18.2815       3.3653       0.0041       2.4649      22.3384       0.6026       1.4118
   3060.7043      12.3519       9.6751       0.0136      66.4474    -999.2500    -999.2500    -999.2500    -999.2500   20095.4902     673.3286     104.8592      19.3326       3.2945       0.0042       2.4442      22.0755       0.5197       1.3971
   3060.8567      12.7915       9.1931       0.0106      67.9726    -999.2500    -999.2500    -999.2500    -999.2500   15988.5947     660.2856     148.4232      20.9951       3.1041       0.0042       2.4191      21.4657       0.4168       1.3827
   3061.0093      13.2255       8.6130       0.0089      68.2233    -999.2500    -999.2500    -999.2500    -999.2500   13125.6787     661.9493      91.9415      21.9208       3.0219       0.0040       2.4091      20.9854       0.3548       1.3940
   3061.1616      13.5881       9.3424       0.0115      69.5081    -999.2500    -999.2500    -999.2500    -999.2500    9779.3564     673.0720      71.0249      20.8875       3.0184       0.0044       2.4322      22.3712       0.3607       1.4679
   3061.3140      13.2228       9.0251       0.0263      70.0011    -999.2500    -999.2500    -999.2500    -999.2500    8686.2568     744.8804      87.6809      18.2640       3.1634       0.0047       2.4726      21.7851       0.1694       1.4377
   3061.4663      12.6725       8.3014       0.0475      67.5135    -999.2500    -999.2500    -999.2500    -999.2500    9242.4492     790.5643      50.0691      16.1112       3.2426       0.0046       2.4924      20.4547       0.0256       1.3693
   3061.6189      12.2891       8.2847       0.0541      67.2030    -999.2500    -999.2500    -999.2500    -999.2500   10183.6494     754.7018      83.2665      16.4630       3.1931       0.0043       2.4704      20.8520       0.1451       1.4159
   3061.7712      12.3231       8.8620       0.0572      67.4719    -999.2500    -999.2500    -999.2500    -999.2500   12601.0918     712.2922     270.0479      19.2527       3.0903       0.0041       2.4373      22.2115       0.3752       1.5041
   3061.9236      12.3056       9.4714       0.0579      65.1880    -999.2500    -999.2500    -999.2500    -999.2500   16476.6797     714.5390      40.0677      21.8546       3.0684       0.0039       2.4106      23.4119       0.5876       1.5707
   3062.0759      12.4665       9.1724       0.0430      65.4728    -999.2500    -999.2500    -999.2500    -999.2500   20007.1035     720.7531      80.3945      21.9944       3.1018       0.0036       2.3731      22.7162       0.6676       1.5260
