#------------------------------------------------------------------------------
#
#   Created by  : [OpenWorks] Log Export Utility (LEXP)
#   Created on  : 2016-05-12 18:36:02
#   Project     : CANT971
#   User        : R5K
#   Interpreter : PEP
#
#------------------------------------------------------------------------------
~VERSION INFORMATION
VERS. 2.0 : CWLS Log ASCII Standard - version 2.0
WRAP.  NO : One line per depth step
~WELL INFORMATION
#MNEMONIC   .UNIT                                           VALUE :DESCRIPTION
#------------------------------------------------------------------------------
STRT        .M                                          2041.3008 :START DEPTH
STOP        .M                                          3401.7756 :STOP DEPTH
STEP        .M                                             0.1524 :STEP
NULL        .                                           -999.2500 :NULL VALUE
COMP        .                                   PEMEX EXPL & PROD :COMPANY
WELL        .                                               1031D :WELL
FLD         .                                           CANTARELL :FIELD
LOC         .                                             UNKNOWN :LOCATION
CNTY        .                                      CD. DEL CARMEN :COUNTY
STAT        .                                            CAMPECHE :STATE
CTRY        .                                              MEXICO :COUNTRY
SRVC        .                                             UNKNOWN :SERVICE COMPANY
DATE        .                                             UNKNOWN :LOG DATE
UWI         .                                               1031D :UNIQUE WELL ID
XCOORD      .                                       597334.590000 :SURFACE X
YCOORD      .                                      2152076.210000 :SURFACE Y
LAT         .                                           19.461948 :LATITUDE
LON         .                                          -92.072661 :LONGITUDE
ELEV        .M                                            26.5400 :SURFACE ELEV
ELEV_TYPE   .                                                  KB :ELEV TYPE
~CURVE INFORMATION
#MNEMONIC.UNIT        API CODE       : CURVE DESCRIPTION
#------------------------------------------------------------------------------
DEPTH    .M                          : Measured Depth
CALI     .UNKNOWN     UNKNOWN        : CALI:litodensidad:r1:0001:v1 
CGR      .UNKNOWN     UNKNOWN        : CGR:radioactividad:r1:0001:v1 
DRHO     .g/cm3       UNKNOWN        : DRHO:litodensidad:r1:0001:v1 
DT       .us/ft       UNKNOWN        : DT:DT-Load:r1:0001:v1 
GR-LWD   .UNKNOWN     UNKNOWN        : GR-LWD:GR-LWD:r2:MAIN:v1 
ILD-LWD  .UNKNOWN     UNKNOWN        : ILD-LWD:ILD-LWD:r1:MAIN:v1 
ILM-LWD  .UNKNOWN     UNKNOWN        : ILM-LWD:ILM-LWD:r1:MAIN:v1 
LLD-LWD  .UNKNOWN     UNKNOWN        : LLD-LWD:LLD-LWD:r1:MAIN:v1 
LLD      .ohm.m       UNKNOWN        : LLD:resistividad:r1:0001:v1 
LLS      .ohm.m       UNKNOWN        : LLS:resistividad:r1:0001:v1 
MSFL     .ohm.m       UNKNOWN        : MSFL:resistividad:r1:0001:v1 
NPHI     .v/v_decimal UNKNOWN        : NPHI:porosidad:r1:0001:v1 
PEF      .UNKNOWN     UNKNOWN        : PEF:litodensidad:r1:0001:v1 
POTA     .UNKNOWN     UNKNOWN        : POTA:radioactividad:r1:0001:v1 
RHOB     .g/cm3       UNKNOWN        : RHOB:litodensidad:r1:0001:v1 
SGR      .UNKNOWN     UNKNOWN        : SGR:radioactividad:r1:0001:v1 
THOR     .ppm         UNKNOWN        : THOR:radioactividad:r1:0001:v1 
URAN     .ppm         UNKNOWN        : URAN:radioactividad:r1:0001:v1 
~A     DEPTH         CALI          CGR         DRHO           DT       GR-LWD      ILD-LWD      ILM-LWD      LLD-LWD          LLD          LLS         MSFL         NPHI          PEF         POTA         RHOB          SGR         THOR         URAN
# ...
   3389.1265      10.0204     -22.2463       0.2923      51.3671    -999.2500    -999.2500    -999.2500    -999.2500     116.0013      55.2548       8.6139       5.3593       2.3995      -0.0060       2.6693     100.6276      -2.7384      13.8441
   3389.2788      10.0204     -23.4214       0.3069      50.6554    -999.2500    -999.2500    -999.2500    -999.2500     116.0049      55.2748       8.6139       5.3864       2.3686      -0.0063       2.6784     100.6276      -2.9114      13.9765
   3389.4312      10.0199     -24.4825       0.3120      49.3215    -999.2500    -999.2500    -999.2500    -999.2500     115.9766      55.2982       8.6139       5.5903       2.3549      -0.0065       2.6786     100.6276      -3.0685      14.0960
   3389.5835      10.0202     -25.5051       0.3167      49.3828    -999.2500    -999.2500    -999.2500    -999.2500     116.0768      55.3176       8.6139       5.7910       2.3854      -0.0067       2.6829     100.6276      -3.2204      14.2113
   3389.7361      10.0205     -26.1099       0.3214      49.3175    -999.2500    -999.2500    -999.2500    -999.2500     115.9626      55.3116       8.6139       5.9778       2.4417      -0.0068       2.6875     100.6276      -3.3109      14.2794
   3389.8884      10.0205     -26.1099       0.3248      49.3740    -999.2500    -999.2500    -999.2500    -999.2500     116.0859      55.3219       8.6139       5.9912       2.4583      -0.0068       2.6895     100.6276      -3.3109      14.2794
   3390.0408      10.0150     -26.1099       0.3261      49.4102    -999.2500    -999.2500    -999.2500    -999.2500     116.1317      55.3588       8.6139       6.2278       2.4523      -0.0068       2.6843     100.6276      -3.3109      14.2794
   3390.1931      10.0016     -26.1099       0.3281      49.3682    -999.2500    -999.2500    -999.2500    -999.2500     116.1864      55.3805       8.6139       6.4898       2.5183      -0.0068       2.6826     100.6276      -3.3109      14.2794
   3390.3457      10.0001     -26.1099       0.3283      49.3159    -999.2500    -999.2500    -999.2500    -999.2500     116.2214      55.3878       8.6139       6.7491       2.5329      -0.0068       2.6832     100.6276      -3.3109      14.2794
   3390.4980      10.0009     -26.1099       0.3207      49.3500    -999.2500    -999.2500    -999.2500    -999.2500     116.1412      55.3626       8.6139       6.7491       2.5080      -0.0068       2.6725     100.6276      -3.3109      14.2794
   3390.6504      10.0009     -26.1099       0.3178      49.3553    -999.2500    -999.2500    -999.2500    -999.2500     116.3125      55.4142       8.6139       6.7491       2.4187      -0.0068       2.6701     100.6276      -3.3109      14.2794
   3390.8027      10.0009     -26.1099       0.3169      49.3314    -999.2500    -999.2500    -999.2500    -999.2500     116.2699      55.4261       8.6139       6.7491       2.3879      -0.0068       2.6711     100.6276      -3.3109      14.2794
   3390.9551      10.0012     -26.1099       0.3138      49.3333    -999.2500    -999.2500    -999.2500    -999.2500     116.2777      55.4385       8.6139       6.7491       2.4211      -0.0068       2.6713     100.6276      -3.3109      14.2794
   3391.1077      10.0005     -26.1099       0.3094      49.4285    -999.2500    -999.2500    -999.2500    -999.2500     116.3247      55.4289       8.6139       6.7491       2.4366      -0.0068       2.6684     100.6276      -3.3109      14.2794
   3391.2600      10.0020     -26.1099       0.3126      49.2665    -999.2500    -999.2500    -999.2500    -999.2500     116.4471      55.4247       8.6139       6.7491       2.4389      -0.0068       2.6688     100.6276      -3.3109      14.2794
   3391.4124      10.0018     -26.1099       0.3132      49.2806    -999.2500    -999.2500    -999.2500    -999.2500     116.3043      55.4670       8.6139       6.7491       2.3495      -0.0068       2.6675     100.6276      -3.3109      14.2794
   3391.5647       9.9996     -26.1099       0.3115      49.3913    -999.2500    -999.2500    -999.2500    -999.2500     116.5256      55.4984       8.6139       6.7491       2.2746      -0.0068       2.6646     100.6276      -3.3109      14.2794
   3391.7173       9.9948     -26.1099       0.3178      49.4069    -999.2500    -999.2500    -999.2500    -999.2500     116.4380      55.5376       8.6139       6.7491       2.2512      -0.0068       2.6770     100.6276      -3.3109      14.2794
   3391.8696       9.9926     -26.1099       0.3220      49.2875    -999.2500    -999.2500    -999.2500    -999.2500     116.6275      55.5789       8.6139       6.7491       2.3084      -0.0068       2.6858     100.6276      -3.3109      14.2794
   3392.0220       9.9925     -26.1099       0.3220      49.3440    -999.2500    -999.2500    -999.2500    -999.2500     116.6022      55.5698       8.6139       6.7491       2.3642      -0.0068       2.6862     100.6276      -3.3109      14.2794
   3392.1743       9.9874     -26.1099       0.3257      49.2943    -999.2500    -999.2500    -999.2500    -999.2500     116.7750      55.5823       8.6139       6.7491       2.3914      -0.0068       2.6851     100.6276      -3.3109      14.2794
   3392.3267       9.9811     -26.1099       0.3273      49.3477    -999.2500    -999.2500    -999.2500    -999.2500     116.6759      55.6261       8.6139       6.7491       2.4223      -0.0068       2.6844     100.6276      -3.3109      14.2794
   3392.4792       9.9799     -26.1099       0.3226      49.4341    -999.2500    -999.2500    -999.2500    -999.2500     116.7942      55.6474       8.6139       6.7491       2.4575      -0.0068       2.6767     100.6276      -3.3109      14.2794
   3392.6316       9.9790     -26.1098       0.3260      49.3630    -999.2500    -999.2500    -999.2500    -999.2500     116.7139      55.6385       8.6139       6.7491       2.4652      -0.0068       2.6764     100.6276      -3.3109      14.2794
   3392.7839       9.9758     -26.1098       0.3297      49.2870    -999.2500    -999.2500    -999.2500    -999.2500     116.9044      55.6508       8.6139       6.7491       2.4608      -0.0068       2.6782     100.6276      -3.3109      14.2794
   3392.9363       9.9675     -26.1098       0.3279      49.3125    -999.2500    -999.2500    -999.2500    -999.2500     112.0948      55.6109       8.6139       6.7491       2.4379      -0.0068       2.6778     100.6276      -3.3109      14.2794
   3393.0889       9.9603     -26.1098       0.3282      49.3315    -999.2500    -999.2500    -999.2500    -999.2500      99.8089      54.9443       8.6139       6.7491       2.4396      -0.0068       2.6785     100.6276      -3.3109      14.2794
   3393.2412       9.9579     -26.1098       0.3330      49.3133    -999.2500    -999.2500    -999.2500    -999.2500      97.2607      53.8506       8.6139       6.7491       2.3892      -0.0068       2.6859     100.6276      -3.3109      14.2794
   3393.3936       9.9555     -26.1098       0.3344      49.3410    -999.2500    -999.2500    -999.2500    -999.2500      97.2607      53.8506       8.6139       6.7491       2.3970      -0.0068       2.6872     100.6276      -3.3109      14.2794
   3393.5459       9.9491     -26.1098       0.3319      49.3106    -999.2500    -999.2500    -999.2500    -999.2500      97.2607      53.8506       8.6139       6.7491       2.4232      -0.0068       2.6850     100.6276      -3.3109      14.2794
   3393.6985       9.9381     -26.1098       0.3308      49.3482    -999.2500    -999.2500    -999.2500    -999.2500      97.2607      53.8506       8.6139       6.7491       2.4582      -0.0068       2.6803     100.6276      -3.3109      14.2794
   3393.8508       9.9338     -26.1098       0.3293      49.3863    -999.2500    -999.2500    -999.2500    -999.2500      97.2607      53.8506       8.6139       6.7491       2.4904      -0.0068       2.6756     100.6276      -3.3109      14.2794
   3394.0032       9.9325     -26.1097       0.3290      49.4000    -999.2500    -999.2500    -999.2500    -999.2500      97.2607      53.8506       8.6139       6.7491       2.4719      -0.0068       2.6762     100.6276      -3.3109      14.2794
