#------------------------------------------------------------------------------
#
#   Created by  : [OpenWorks] Log Export Utility (LEXP)
#   Created on  : 2016-05-12 18:36:02
#   Project     : CANT971
#   User        : R5K
#   Interpreter : PEP
#
#------------------------------------------------------------------------------
~VERSION INFORMATION
VERS. 2.0 : CWLS Log ASCII Standard - version 2.0
WRAP.  NO : One line per depth step
~WELL INFORMATION
#MNEMONIC   .UNIT                                           VALUE :DESCRIPTION
#------------------------------------------------------------------------------
STRT        .M                                          2041.3008 :START DEPTH
STOP        .M                                          3401.7756 :STOP DEPTH
STEP        .M                                             0.1524 :STEP
NULL        .                                           -999.2500 :NULL VALUE
COMP        .                                   PEMEX EXPL & PROD :COMPANY
WELL        .                                               1031D :WELL
FLD         .                                           CANTARELL :FIELD
LOC         .                                             UNKNOWN :LOCATION
CNTY        .                                      CD. DEL CARMEN :COUNTY
STAT        .                                            CAMPECHE :STATE
CTRY        .                                              MEXICO :COUNTRY
SRVC        .                                             UNKNOWN :SERVICE COMPANY
DATE        .                                             UNKNOWN :LOG DATE
UWI         .                                               1031D :UNIQUE WELL ID
XCOORD      .                                       597334.590000 :SURFACE X
YCOORD      .                                      2152076.210000 :SURFACE Y
LAT         .                                           19.461948 :LATITUDE
LON         .                                          -92.072661 :LONGITUDE
ELEV        .M                                            26.5400 :SURFACE ELEV
ELEV_TYPE   .                                                  KB :ELEV TYPE
~CURVE INFORMATION
#MNEMONIC.UNIT        API CODE       : CURVE DESCRIPTION
#------------------------------------------------------------------------------
DEPTH    .M                          : Measured Depth
CALI     .UNKNOWN     UNKNOWN        : CALI:litodensidad:r1:0001:v1 
CGR      .UNKNOWN     UNKNOWN        : CGR:radioactividad:r1:0001:v1 
DRHO     .g/cm3       UNKNOWN        : DRHO:litodensidad:r1:0001:v1 
DT       .us/ft       UNKNOWN        : DT:DT-Load:r1:0001:v1 
GR-LWD   .UNKNOWN     UNKNOWN        : GR-LWD:GR-LWD:r2:MAIN:v1 
ILD-LWD  .UNKNOWN     UNKNOWN        : ILD-LWD:ILD-LWD:r1:MAIN:v1 
ILM-LWD  .UNKNOWN     UNKNOWN        : ILM-LWD:ILM-LWD:r1:MAIN:v1 
LLD-LWD  .UNKNOWN     UNKNOWN        : LLD-LWD:LLD-LWD:r1:MAIN:v1 
LLD      .ohm.m       UNKNOWN        : LLD:resistividad:r1:0001:v1 
LLS      .ohm.m       UNKNOWN        : LLS:resistividad:r1:0001:v1 
MSFL     .ohm.m       UNKNOWN        : MSFL:resistividad:r1:0001:v1 
NPHI     .v/v_decimal UNKNOWN        : NPHI:porosidad:r1:0001:v1 
PEF      .UNKNOWN     UNKNOWN        : PEF:litodensidad:r1:0001:v1 
POTA     .UNKNOWN     UNKNOWN        : POTA:radioactividad:r1:0001:v1 
RHOB     .g/cm3       UNKNOWN        : RHOB:litodensidad:r1:0001:v1 
SGR      .UNKNOWN     UNKNOWN        : SGR:radioactividad:r1:0001:v1 
THOR     .ppm         UNKNOWN        : THOR:radioactividad:r1:0001:v1 
URAN     .ppm         UNKNOWN        : URAN:radioactividad:r1:0001:v1 
~A     DEPTH         CALI          CGR         DRHO           DT       GR-LWD      ILD-LWD      ILM-LWD      LLD-LWD          LLD          LLS         MSFL         NPHI          PEF         POTA         RHOB          SGR         THOR         URAN
# ...
   3187.9585      11.3483      21.6913       0.0285      54.3244    -999.2500    -999.2500    -999.2500    -999.2500     227.9382     174.7028     161.1029       3.0885       3.2759       0.0108       2.8037      38.5281       0.5796       1.8970
   3188.1108      11.3859      16.7418       0.0203      55.1173    -999.2500    -999.2500    -999.2500    -999.2500     232.5150     180.6235     113.2150       3.9979       3.2414       0.0085       2.8040      33.0375       0.3844       1.8360
   3188.2632      11.5500      14.4381       0.0133      53.8557    -999.2500    -999.2500    -999.2500    -999.2500     184.2026     147.6138     111.4559       4.6121       3.2162       0.0078       2.7656      29.9204       0.1523       1.7444
   3188.4155      11.7544      11.7091       0.0075      52.7404    -999.2500    -999.2500    -999.2500    -999.2500      97.6987      80.7728     108.9266       5.1612       3.1032       0.0067       2.7424      26.5069      -0.0624       1.6673
   3188.5679      11.5072      12.1826       0.0041      52.8335    -999.2500    -999.2500    -999.2500    -999.2500      76.4893      62.8704      49.6284       5.7820       3.1654       0.0065       2.7334      27.9263       0.1655       1.7738
   3188.7205      11.3926      12.8025       0.0068      52.8487    -999.2500    -999.2500    -999.2500    -999.2500      64.2168      52.3524       6.9859       7.1646       3.2223       0.0062       2.7436      31.1037       0.4357       2.0620
   3188.8728      11.3922      14.0372       0.0077      53.5901    -999.2500    -999.2500    -999.2500    -999.2500      66.0840      53.0054     208.7796       9.5974       3.3478       0.0059       2.7335      37.6357       0.8292       2.6588
   3189.0251      11.4617      19.8534       0.0069      53.3783    -999.2500    -999.2500    -999.2500    -999.2500      86.8737      68.6887     368.7868      12.2861       3.3330       0.0083       2.6912      47.0583       1.2156       3.0652
   3189.1775      11.5854      27.3298       0.0041      48.2019    -999.2500    -999.2500    -999.2500    -999.2500     111.7963      87.8120     585.7247      14.6288       3.3624       0.0111       2.6070      57.5384       1.8158       3.4036
   3189.3301      11.6547      24.1797       0.0023      37.3206    -999.2500    -999.2500    -999.2500    -999.2500     155.1754     119.0012     251.0578      15.1656       3.3596       0.0103       2.5530      51.9924       1.4071       3.1336
   3189.4824      11.4698      20.3783      -0.0005      41.9801    -999.2500    -999.2500    -999.2500    -999.2500     259.2411     188.3889     262.2848      14.1874       3.3457       0.0095       2.5459      44.6833       0.8371       2.7384
   3189.6348      11.3843      20.2094       0.0034      60.9218    -999.2500    -999.2500    -999.2500    -999.2500     425.8620     290.9773     344.6212      11.1063       3.3556       0.0094       2.6092      44.0954       0.8337       2.6912
   3189.7871      11.3718      17.5746       0.0084      62.2268    -999.2500    -999.2500    -999.2500    -999.2500     550.9195     361.5649     615.4403       7.2656       3.3477       0.0082       2.6917      37.4896       0.7232       2.2438
   3189.9397      11.4916      17.3182       0.0105      61.8494    -999.2500    -999.2500    -999.2500    -999.2500     583.2808     375.8092     655.8758       4.1700       3.3193       0.0074       2.7388      33.5652       0.9921       1.8305
   3190.0920      11.5837      18.1275       0.0156      59.0216    -999.2500    -999.2500    -999.2500    -999.2500     547.0493     348.5980     468.7664       3.3505       3.1773       0.0070       2.7296      36.1314       1.3557       2.0285
   3190.2444      11.5010      17.3682       0.0273      53.8352    -999.2500    -999.2500    -999.2500    -999.2500     452.1375     281.0666     458.1749       4.0834       2.9906       0.0065       2.6781      35.6669       1.4020       2.0617
   3190.3967      11.2974      16.9007       0.0365      50.9634    -999.2500    -999.2500    -999.2500    -999.2500     400.4823     241.2707     279.9606       5.1792       2.9545       0.0059       2.6336      35.6883       1.5209       2.1168
   3190.5491      11.1272      16.9772       0.0484      52.2402    -999.2500    -999.2500    -999.2500    -999.2500     378.9684     223.5527     285.6260       6.1386       3.1057       0.0055       2.6288      36.2487       1.7171       2.1713
   3190.7017      11.1129      18.8439       0.0624      51.6950    -999.2500    -999.2500    -999.2500    -999.2500     380.0475     220.4238     158.3510       7.4536       3.3850       0.0051       2.6647      39.0453       2.3002       2.2761
   3190.8540      11.3021      21.8947       0.0601      54.0713    -999.2500    -999.2500    -999.2500    -999.2500     427.3432     242.9026     232.0430       8.6334       3.5365       0.0048       2.6732      43.8346       3.1790       2.4719
   3191.0063      11.4846      23.2261       0.0371      55.0579    -999.2500    -999.2500    -999.2500    -999.2500     497.3801     279.1190     324.8784       9.9566       3.5470       0.0048       2.6356      47.9618       3.4622       2.7869
   3191.1587      11.3657      25.3805       0.0125      54.9302    -999.2500    -999.2500    -999.2500    -999.2500     540.3853     302.3798     638.4380      10.9781       3.5868       0.0062       2.6010      51.6425       3.3893       2.9589
   3191.3113      11.2615      28.0652       0.0078      56.3645    -999.2500    -999.2500    -999.2500    -999.2500     578.8303     325.1961     781.3356      11.5389       3.6031       0.0083       2.6043      56.4908       3.1734       3.2027
   3191.4636      11.2111      34.2080       0.0018      48.9508    -999.2500    -999.2500    -999.2500    -999.2500     586.8685     335.0188     669.7479      12.6269       3.5506       0.0110       2.5120      65.0470       3.4922       3.4746
   3191.6160      11.2377      48.9599      -0.0119      33.3745    -999.2500    -999.2500    -999.2500    -999.2500     566.0657     327.7932     444.6741      18.3366       3.2726       0.0180       2.2322      84.1643       4.0458       3.9664
   3191.7683      11.3156      53.5465      -0.0151      40.2613    -999.2500    -999.2500    -999.2500    -999.2500     547.9437     321.1803     150.0021      28.5894       2.6090       0.0209       1.9476      90.3861       3.8964       4.1507
   3191.9209      11.3477      41.5167      -0.0019      55.4781    -999.2500    -999.2500    -999.2500    -999.2500     529.6375     318.4512     274.0989      33.6370       2.2700       0.0154       1.7541      77.7130       3.3533       4.0782
   3192.0732      11.3413      40.1607       0.0146      67.7722    -999.2500    -999.2500    -999.2500    -999.2500     503.3002     310.3559     239.9187      30.5995       1.9986       0.0150       1.7302      75.7707       3.1902       4.0121
   3192.2256      11.2322      37.0732       0.0284      81.5896    -999.2500    -999.2500    -999.2500    -999.2500     435.4776     262.3935     186.8371      19.8826       2.0019       0.0139       1.8387      72.6922       2.9177       4.0132
   3192.3779      11.0184      26.8863       0.0389     101.1872    -999.2500    -999.2500    -999.2500    -999.2500     374.0498     222.3909     171.0477      11.9259       2.0047       0.0105       2.0130      61.0120       1.9508       3.8449
   3192.5303      10.7001      23.1603       0.0385      88.1748    -999.2500    -999.2500    -999.2500    -999.2500     404.3648     251.5862     499.9139       6.6206       2.0801       0.0096       2.1273      56.2220       1.4400       3.7250
   3192.6829      10.4859      22.0284       0.0291      58.7638    -999.2500    -999.2500    -999.2500    -999.2500     347.6599     227.7898     127.9564       5.1377       2.3709       0.0093       2.1569      54.9398       1.3031       3.7081
   3192.8352      12.7445      19.9104       0.0466      55.7849    -999.2500    -999.2500    -999.2500    -999.2500      69.6447      46.3420      43.8721       5.2099       2.5475       0.0087       2.2767      52.5748       1.0763       3.6803
