#------------------------------------------------------------------------------
#
#   Created by  : [OpenWorks] Log Export Utility (LEXP)
#   Created on  : 2016-05-12 18:36:02
#   Project     : CANT971
#   User        : R5K
#   Interpreter : PEP
#
#------------------------------------------------------------------------------
~VERSION INFORMATION
VERS. 2.0 : CWLS Log ASCII Standard - version 2.0
WRAP.  NO : One line per depth step
~WELL INFORMATION
#MNEMONIC   .UNIT                                           VALUE :DESCRIPTION
#------------------------------------------------------------------------------
STRT        .M                                          2041.3008 :START DEPTH
STOP        .M                                          3401.7756 :STOP DEPTH
STEP        .M                                             0.1524 :STEP
NULL        .                                           -999.2500 :NULL VALUE
COMP        .                                   PEMEX EXPL & PROD :COMPANY
WELL        .                                               1031D :WELL
FLD         .                                           CANTARELL :FIELD
LOC         .                                             UNKNOWN :LOCATION
CNTY        .                                      CD. DEL CARMEN :COUNTY
STAT        .                                            CAMPECHE :STATE
CTRY        .                                              MEXICO :COUNTRY
SRVC        .                                             UNKNOWN :SERVICE COMPANY
DATE        .                                             UNKNOWN :LOG DATE
UWI         .                                               1031D :UNIQUE WELL ID
XCOORD      .                                       597334.590000 :SURFACE X
YCOORD      .                                      2152076.210000 :SURFACE Y
LAT         .                                           19.461948 :LATITUDE
LON         .                                          -92.072661 :LONGITUDE
ELEV        .M                                            26.5400 :SURFACE ELEV
ELEV_TYPE   .                                                  KB :ELEV TYPE
~CURVE INFORMATION
#MNEMONIC.UNIT        API CODE       : CURVE DESCRIPTION
#------------------------------------------------------------------------------
DEPTH    .M                          : Measured Depth
CALI     .UNKNOWN     UNKNOWN        : CALI:litodensidad:r1:0001:v1 
CGR      .UNKNOWN     UNKNOWN        : CGR:radioactividad:r1:0001:v1 
DRHO     .g/cm3       UNKNOWN        : DRHO:litodensidad:r1:0001:v1 
DT       .us/ft       UNKNOWN        : DT:DT-Load:r1:0001:v1 
GR-LWD   .UNKNOWN     UNKNOWN        : GR-LWD:GR-LWD:r2:MAIN:v1 
ILD-LWD  .UNKNOWN     UNKNOWN        : ILD-LWD:ILD-LWD:r1:MAIN:v1 
ILM-LWD  .UNKNOWN     UNKNOWN        : ILM-LWD:ILM-LWD:r1:MAIN:v1 
LLD-LWD  .UNKNOWN     UNKNOWN        : LLD-LWD:LLD-LWD:r1:MAIN:v1 
LLD      .ohm.m       UNKNOWN        : LLD:resistividad:r1:0001:v1 
LLS      .ohm.m       UNKNOWN        : LLS:resistividad:r1:0001:v1 
MSFL     .ohm.m       UNKNOWN        : MSFL:resistividad:r1:0001:v1 
NPHI     .v/v_decimal UNKNOWN        : NPHI:porosidad:r1:0001:v1 
PEF      .UNKNOWN     UNKNOWN        : PEF:litodensidad:r1:0001:v1 
POTA     .UNKNOWN     UNKNOWN        : POTA:radioactividad:r1:0001:v1 
RHOB     .g/cm3       UNKNOWN        : RHOB:litodensidad:r1:0001:v1 
SGR      .UNKNOWN     UNKNOWN        : SGR:radioactividad:r1:0001:v1 
THOR     .ppm         UNKNOWN        : THOR:radioactividad:r1:0001:v1 
URAN     .ppm         UNKNOWN        : URAN:radioactividad:r1:0001:v1 
~A     DEPTH         CALI          CGR         DRHO           DT       GR-LWD      ILD-LWD      ILM-LWD      LLD-LWD          LLD          LLS         MSFL         NPHI          PEF         POTA         RHOB          SGR         THOR         URAN
# ...
   2393.3447      10.7000      25.9000      -1.1087      55.5009    -999.2500    -999.2500    -999.2500    -999.2500       1.0769       2.8989    2000.0000      40.2852     187.5729       0.0082       2.0980      32.7466       3.3038       0.8593
   2393.4971      10.6995      25.9000      -1.1298      55.2338    -999.2500    -999.2500    -999.2500    -999.2500       2.2001       2.6960    2000.0000      41.1481     331.0103       0.0082       2.0801      32.7466       3.3038       0.8593
   2393.6497      10.6972      25.9000      -1.1416      55.2654    -999.2500    -999.2500    -999.2500    -999.2500       3.0694      35.0955    2000.0000      41.6593     189.5470       0.0082       2.0778      32.7466       3.3038       0.8593
   2393.8020      10.6927      25.9000      -1.1698      55.5010    -999.2500    -999.2500    -999.2500    -999.2500       0.2975      98.6000    2000.0000      43.0431     206.8409       0.0082       2.0323      32.7466       3.3038       0.8593
   2393.9543      10.7018      25.9000      -1.1889      55.1183    -999.2500    -999.2500    -999.2500    -999.2500       4.9239      98.6000    2000.0000      45.2092     397.1780       0.0082       2.0001      32.7466       3.3038       0.8593
   2394.1067      10.6972      25.9000      -1.1985      54.8393    -999.2500    -999.2500    -999.2500    -999.2500      10.7919      66.7518    2000.0000      49.0677     395.4782       0.0082       1.9534      32.7466       3.3038       0.8593
   2394.2593      10.6937      25.9000      -1.2139      55.1072    -999.2500    -999.2500    -999.2500    -999.2500      14.6220       2.4981    2000.0000      50.5332     137.9540       0.0082       1.8988      32.7466       3.3038       0.8593
   2394.4116      10.6981      25.9000      -1.2208      55.1068    -999.2500    -999.2500    -999.2500    -999.2500      26.0768       2.6992      10.0029      49.9073     185.5716       0.0082       1.8546      32.7466       3.3038       0.8593
   2394.5640      10.6974      25.9000      -1.2100      54.9316    -999.2500    -999.2500    -999.2500    -999.2500       5.7686       2.0164    2000.0000      49.0005     266.8284       0.0082       1.8405      32.7466       3.3038       0.8593
   2394.7163      10.7014      25.9000      -1.1983      55.2858    -999.2500    -999.2500    -999.2500    -999.2500       2.7940       3.4651       1.3910      50.4503     217.4520       0.0082       1.8445      32.7466       3.3038       0.8593
   2394.8689      10.7115      25.9000      -1.1909      55.2548    -999.2500    -999.2500    -999.2500    -999.2500       2.2914       6.6302       0.5986      51.8032      46.1990       0.0082       1.8538      32.7466       3.3038       0.8593
   2395.0212      10.6963      25.9000      -1.1664      55.3217    -999.2500    -999.2500    -999.2500    -999.2500       1.2373      35.6149       4.9432      49.8928      27.6265       0.0082       1.9101      32.7466       3.3038       0.8593
   2395.1736      10.6975      25.9000      -1.1388      55.3951    -999.2500    -999.2500    -999.2500    -999.2500       2.2406      70.4009    2000.0000      46.0944      32.4890       0.0082       1.9919      32.7466       3.3038       0.8593
   2395.3259      10.6981      25.9000      -1.1274      55.1343    -999.2500    -999.2500    -999.2500    -999.2500       1.8876       9.6255    2000.0000      43.2811      43.0518       0.0082       2.0413      32.7466       3.3038       0.8593
   2395.4783      10.7013      25.9000      -1.1266      55.0059    -999.2500    -999.2500    -999.2500    -999.2500       0.9120      20.6698    2000.0000      41.4594      43.2035       0.0082       2.0456      32.7466       3.3038       0.8593
   2395.6309      10.6960      25.9000      -1.1174      55.1142    -999.2500    -999.2500    -999.2500    -999.2500       0.3528      49.2353    2000.0000      38.9545      32.8672       0.0082       2.0747      32.7466       3.3038       0.8593
   2395.7832      10.7011      25.9000      -1.0888      54.8505    -999.2500    -999.2500    -999.2500    -999.2500       0.8008      25.8446    2000.0000      35.6877      28.6770       0.0082       2.1537      32.7466       3.3038       0.8593
   2395.9355      10.7082      25.9000      -1.0665      54.7885    -999.2500    -999.2500    -999.2500    -999.2500       0.6578      10.3771    2000.0000      34.4929      31.5278       0.0082       2.2512      32.7466       3.3038       0.8593
   2396.0879      10.7229      25.9000      -1.0713      54.9273    -999.2500    -999.2500    -999.2500    -999.2500       0.5937       5.7938    2000.0000      37.0510      24.3674       0.0082       2.2501      32.7466       3.3038       0.8593
   2396.2405      10.7265      25.9000      -1.0921      55.0169    -999.2500    -999.2500    -999.2500    -999.2500       0.8752       4.0610    2000.0000      39.7872      28.0420       0.0082       2.1949      32.7466       3.3038       0.8593
   2396.3928      10.7190      25.6707      -1.1116      54.8838    -999.2500    -999.2500    -999.2500    -999.2500     265.0378       0.6721    2000.0000      40.0778    -172.9329       0.0083       2.1435      32.6438       3.2259       0.8752
   2396.5452      10.7236      24.6480      -1.1202      54.7913    -999.2500    -999.2500    -999.2500    -999.2500     543.1506       0.4327    2000.0000      37.7343    -306.8209       0.0082       2.1356      31.9909       3.0019       0.9216
   2396.6975      10.7201      22.6820      -1.1049      54.8612    -999.2500    -999.2500    -999.2500    -999.2500      18.9596       0.4034    2000.0000      35.2141     389.1768       0.0075       2.1773      30.2850       2.7680       0.9543
   2396.8501      10.7122      21.2865      -1.1018      54.8885    -999.2500    -999.2500    -999.2500    -999.2500       7.7271       0.4945    2000.0000      34.6440     467.5250       0.0071       2.1846      29.1871       2.5654       0.9916
   2397.0024      10.7226      21.2013      -1.0870      55.2316    -999.2500    -999.2500    -999.2500    -999.2500      14.0133       0.4299    2000.0000      34.5005      53.2924       0.0073       2.2103      29.2504       2.4516       1.0103
   2397.1548      10.7250      19.5217      -1.0707      55.4744    -999.2500    -999.2500    -999.2500    -999.2500       2.1558       0.5045    2000.0000      35.2914      64.5862       0.0068       2.2393      26.8215       2.2340       0.9162
   2397.3071      10.7256      18.9684      -1.0655      55.0277    -999.2500    -999.2500    -999.2500    -999.2500       2.0551       0.2424       1.0937      35.5565    -114.6745       0.0064       2.2653      26.1414       2.2634       0.9003
   2397.4595      10.7208      19.4071      -1.0662      55.0390    -999.2500    -999.2500    -999.2500    -999.2500       4.6275       0.2815    2000.0000      36.2012    -243.9189       0.0065       2.2720      26.6464       2.3195       0.9086
   2397.6121      10.7214      20.2498      -1.0603      55.1269    -999.2500    -999.2500    -999.2500    -999.2500       6.2231       0.2553      53.5753      36.8919     202.3797       0.0070       2.2715      27.7477       2.3405       0.9411
   2397.7644      10.7173      20.6931      -1.0611      55.1520    -999.2500    -999.2500    -999.2500    -999.2500      28.9525       0.1608    2000.0000      37.8915      96.1761       0.0074       2.2519      28.0535       2.2815       0.9238
   2397.9167      10.7160      19.4006      -1.0683      54.8519    -999.2500    -999.2500    -999.2500    -999.2500      51.6601       0.1179    2000.0000      38.4969      26.9755       0.0072       2.2380      25.4120       2.0568       0.7545
   2398.0691      10.7215      19.1742      -1.0703      54.9508    -999.2500    -999.2500    -999.2500    -999.2500       5.1563       0.1353    2000.0000      38.5587      32.1437       0.0068       2.2282      24.9841       2.1313       0.7292
   2398.2217      10.7174      20.3803      -1.0667      54.8216    -999.2500    -999.2500    -999.2500    -999.2500      48.5014       0.2241      13.0819      38.3457     -44.6777       0.0072       2.2213      26.7116       2.2957       0.7946
