#------------------------------------------------------------------------------
#
#   Created by  : [OpenWorks] Log Export Utility (LEXP)
#   Created on  : 2016-05-12 18:36:02
#   Project     : CANT971
#   User        : R5K
#   Interpreter : PEP
#
#------------------------------------------------------------------------------
~VERSION INFORMATION
VERS. 2.0 : CWLS Log ASCII Standard - version 2.0
WRAP.  NO : One line per depth step
~WELL INFORMATION
#MNEMONIC   .UNIT                                           VALUE :DESCRIPTION
#------------------------------------------------------------------------------
STRT        .M                                          2041.3008 :START DEPTH
STOP        .M                                          3401.7756 :STOP DEPTH
STEP        .M                                             0.1524 :STEP
NULL        .                                           -999.2500 :NULL VALUE
COMP        .                                   PEMEX EXPL & PROD :COMPANY
WELL        .                                               1031D :WELL
FLD         .                                           CANTARELL :FIELD
LOC         .                                             UNKNOWN :LOCATION
CNTY        .                                      CD. DEL CARMEN :COUNTY
STAT        .                                            CAMPECHE :STATE
CTRY        .                                              MEXICO :COUNTRY
SRVC        .                                             UNKNOWN :SERVICE COMPANY
DATE        .                                             UNKNOWN :LOG DATE
UWI         .                                               1031D :UNIQUE WELL ID
XCOORD      .                                       597334.590000 :SURFACE X
YCOORD      .                                      2152076.210000 :SURFACE Y
LAT         .                                           19.461948 :LATITUDE
LON         .                                          -92.072661 :LONGITUDE
ELEV        .M                                            26.5400 :SURFACE ELEV
ELEV_TYPE   .                                                  KB :ELEV TYPE
~CURVE INFORMATION
#MNEMONIC.UNIT        API CODE       : CURVE DESCRIPTION
#------------------------------------------------------------------------------
DEPTH    .M                          : Measured Depth
CALI     .UNKNOWN     UNKNOWN        : CALI:litodensidad:r1:0001:v1 
CGR      .UNKNOWN     UNKNOWN        : CGR:radioactividad:r1:0001:v1 
DRHO     .g/cm3       UNKNOWN        : DRHO:litodensidad:r1:0001:v1 
DT       .us/ft       UNKNOWN        : DT:DT-Load:r1:0001:v1 
GR-LWD   .UNKNOWN     UNKNOWN        : GR-LWD:GR-LWD:r2:MAIN:v1 
ILD-LWD  .UNKNOWN     UNKNOWN        : ILD-LWD:ILD-LWD:r1:MAIN:v1 
ILM-LWD  .UNKNOWN     UNKNOWN        : ILM-LWD:ILM-LWD:r1:MAIN:v1 
LLD-LWD  .UNKNOWN     UNKNOWN        : LLD-LWD:LLD-LWD:r1:MAIN:v1 
LLD      .ohm.m       UNKNOWN        : LLD:resistividad:r1:0001:v1 
LLS      .ohm.m       UNKNOWN        : LLS:resistividad:r1:0001:v1 
MSFL     .ohm.m       UNKNOWN        : MSFL:resistividad:r1:0001:v1 
NPHI     .v/v_decimal UNKNOWN        : NPHI:porosidad:r1:0001:v1 
PEF      .UNKNOWN     UNKNOWN        : PEF:litodensidad:r1:0001:v1 
POTA     .UNKNOWN     UNKNOWN        : POTA:radioactividad:r1:0001:v1 
RHOB     .g/cm3       UNKNOWN        : RHOB:litodensidad:r1:0001:v1 
SGR      .UNKNOWN     UNKNOWN        : SGR:radioactividad:r1:0001:v1 
THOR     .ppm         UNKNOWN        : THOR:radioactividad:r1:0001:v1 
URAN     .ppm         UNKNOWN        : URAN:radioactividad:r1:0001:v1 
~A     DEPTH         CALI          CGR         DRHO           DT       GR-LWD      ILD-LWD      ILM-LWD      LLD-LWD          LLD          LLS         MSFL         NPHI          PEF         POTA         RHOB          SGR         THOR         URAN
# ...
   2856.0312      12.2376      20.5059       0.0091      52.3127    -999.2500    -999.2500    -999.2500    -999.2500    2242.5735     425.6047      77.3000       6.4721       3.4374       0.0053       2.6586      33.7793       2.6313       1.4955
   2856.1836      12.2865      21.5587       0.0180      53.8538    -999.2500    -999.2500    -999.2500    -999.2500    3198.6125     568.3263     218.4094       5.2683       3.5127       0.0057       2.7092      34.7930       2.7222       1.4911
   2856.3359      12.2199      23.2163       0.0241      52.4984    -999.2500    -999.2500    -999.2500    -999.2500    3637.0205     635.6353     308.3565       4.4758       3.6534       0.0067       2.7489      37.4504       2.6786       1.6037
   2856.4883      12.0339      26.1945       0.0232      53.1280    -999.2500    -999.2500    -999.2500    -999.2500    3202.2202     582.3448     736.7554       4.4717       3.7568       0.0086       2.7523      43.3028       2.5710       1.9276
   2856.6409      12.0400      25.9264       0.0218      52.4312    -999.2500    -999.2500    -999.2500    -999.2500    3499.3044     639.5434    1568.3228       4.0616       3.8583       0.0083       2.7409      43.0515       2.6410       1.9295
   2856.7932      12.0485      23.0345       0.0180      50.4268    -999.2500    -999.2500    -999.2500    -999.2500    3624.0742     628.9288     274.4619       2.9926       3.7323       0.0076       2.7408      41.5176       2.2700       2.0825
   2856.9456      12.0922      14.5421       0.0167      50.1271    -999.2500    -999.2500    -999.2500    -999.2500    5042.0625     755.4994     316.8066       1.9702       3.4473       0.0057       2.7542      34.9546       1.0477       2.2999
   2857.0979      12.1603      11.4711       0.0187      49.6800    -999.2500    -999.2500    -999.2500    -999.2500   11973.0684    1307.9436     681.1885       1.8456       3.2659       0.0048       2.7643      31.3653       0.6808       2.2415
   2857.2505      12.1138      11.3964       0.0123      49.3270    -999.2500    -999.2500    -999.2500    -999.2500   25752.3496    2033.9741    1727.8950       2.1259       3.2883       0.0051       2.7510      31.4322       0.5547       2.2574
   2857.4028      11.9828      12.3023       0.0073      49.2650    -999.2500    -999.2500    -999.2500    -999.2500   31802.9336    2147.5818    1795.5226       2.2581       3.4673       0.0059       2.7419      33.1428       0.4189       2.3481
   2857.5552      11.9701      11.8309       0.0076      49.5624    -999.2500    -999.2500    -999.2500    -999.2500   23781.0508    1972.6998    1815.8282       1.9884       3.5595       0.0057       2.7484      32.4889       0.4070       2.3275
   2857.7075      11.9855      14.8815       0.0050      49.7865    -999.2500    -999.2500    -999.2500    -999.2500   14745.7266    1690.1355    1845.9825       1.7159       3.5150       0.0059       2.7597      37.3292       1.0603       2.5292
   2857.8599      12.0407      16.0468       0.0023      49.3391    -999.2500    -999.2500    -999.2500    -999.2500    8282.7695    1488.4700    1753.5802       1.6740       3.6597       0.0065       2.7682      38.6941       1.0823       2.5517
   2858.0125      12.1207      17.5105       0.0043      48.9000    -999.2500    -999.2500    -999.2500    -999.2500    5175.6294    1291.5936    1457.5903       1.9379       3.6641       0.0076       2.7784      39.9813       0.9629       2.5318
   2858.1648      12.1302      18.2158       0.0079      48.9974    -999.2500    -999.2500    -999.2500    -999.2500    3449.4976    1072.6410     946.7156       2.3674       3.5842       0.0077       2.7745      40.5924       1.0797       2.5211
   2858.3171      12.0647      25.3713       0.0096      49.8480    -999.2500    -999.2500    -999.2500    -999.2500    2229.4819     801.9033     824.5056       2.7810       3.4728       0.0082       2.7710      51.6176       2.5436       2.9571
   2858.4695      12.0042      40.3941       0.0144      51.6611    -999.2500    -999.2500    -999.2500    -999.2500    1016.4089     438.3575     407.4778       3.3252       3.5901       0.0136       2.7729      70.0552       3.8501       3.3419
   2858.6221      12.0032      53.9572       0.0168      52.7444    -999.2500    -999.2500    -999.2500    -999.2500     584.5684     279.5655     352.7685       4.0075       3.7321       0.0208       2.7692      83.8164       4.0188       3.3642
   2858.7744      12.0010      48.5509       0.0104      53.2926    -999.2500    -999.2500    -999.2500    -999.2500     582.5734     285.0982      71.3069       4.4275       3.7825       0.0186       2.7404      78.3049       3.6941       3.3524
   2858.9268      12.0168      31.2641       0.0057      54.2575    -999.2500    -999.2500    -999.2500    -999.2500     766.2969     356.5762      56.4090       4.2817       3.6399       0.0121       2.7167      60.7379       2.3003       3.3208
   2859.0791      12.0152      15.5569       0.0063      55.0648    -999.2500    -999.2500    -999.2500    -999.2500    1533.5526     610.0902     722.0305       3.9841       3.4169       0.0073       2.7126      43.9762       0.6245       3.2020
   2859.2317      11.9907      11.4020       0.0093      55.0215    -999.2500    -999.2500    -999.2500    -999.2500    3053.4001    1043.5521     738.6381       3.7201       3.3432       0.0052       2.7251      40.9632       0.5110       3.3306
   2859.3840      12.1483      11.6819       0.0149      54.3088    -999.2500    -999.2500    -999.2500    -999.2500    3948.4858    1255.0159     554.6997       3.4263       3.3845       0.0052       2.7377      41.8370       0.5844       3.3975
   2859.5364      12.3246      10.3282       0.0224      53.1127    -999.2500    -999.2500    -999.2500    -999.2500    3807.1125    1194.5323     596.7932       3.1313       3.5735       0.0045       2.7424      40.3176       0.5609       3.3789
   2859.6887      12.0430       8.7427       0.0242      52.2507    -999.2500    -999.2500    -999.2500    -999.2500    4218.0312    1275.8925     135.2899       2.9533       3.5480       0.0035       2.7487      38.2003       0.5817       3.3190
   2859.8411      12.0504       6.1263       0.0178      48.3524    -999.2500    -999.2500    -999.2500    -999.2500    3912.3765    1237.9141     121.9338       2.8080       3.3537       0.0027       2.7460      33.3307       0.3121       3.0651
   2859.9937      12.0900       5.8296       0.0147      44.3238    -999.2500    -999.2500    -999.2500    -999.2500    3181.7300    1115.0004    1207.8394       2.6798       3.2619       0.0027       2.7583      32.5443       0.2667       3.0099
   2860.1460      11.9987      11.0366       0.0112      53.9721    -999.2500    -999.2500    -999.2500    -999.2500    2463.0503     965.7899     770.1290       2.8246       3.4666       0.0043       2.7657      40.1792       0.8163       3.2835
   2860.2983      11.9738      19.4298       0.0110      53.9226    -999.2500    -999.2500    -999.2500    -999.2500    1632.0585     737.2533     560.8893       3.5756       3.8595       0.0068       2.7666      53.2783       1.7335       3.8137
   2860.4507      11.9920      23.9474       0.0104      56.4300    -999.2500    -999.2500    -999.2500    -999.2500    1459.9073     665.7946    1280.0579       4.8537       3.8943       0.0080       2.7405      61.2635       2.3267       4.2044
   2860.6033      12.0134      23.7838       0.0095      59.6003    -999.2500    -999.2500    -999.2500    -999.2500    1889.3495     804.4515     189.8579       5.8508       3.6272       0.0078       2.6979      62.0634       2.3473       4.3129
   2860.7556      11.9988      17.1853       0.0106      59.7387    -999.2500    -999.2500    -999.2500    -999.2500    2794.5933    1120.4298      86.7603       5.9490       3.3843       0.0065       2.6758      50.3943       1.3558       3.7416
   2860.9080      11.9218      11.4634       0.0155      61.0174    -999.2500    -999.2500    -999.2500    -999.2500    3121.1921    1225.3977     113.1107       4.9975       3.4415       0.0054       2.6913      36.4813       0.4665       2.8187
