#------------------------------------------------------------------------------
#
#   Created by  : [OpenWorks] Log Export Utility (LEXP)
#   Created on  : 2016-05-12 18:36:02
#   Project     : CANT971
#   User        : R5K
#   Interpreter : PEP
#
#------------------------------------------------------------------------------
~VERSION INFORMATION
VERS. 2.0 : CWLS Log ASCII Standard - version 2.0
WRAP.  NO : One line per depth step
~WELL INFORMATION
#MNEMONIC   .UNIT                                           VALUE :DESCRIPTION
#------------------------------------------------------------------------------
STRT        .M                                          2041.3008 :START DEPTH
STOP        .M                                          3401.7756 :STOP DEPTH
STEP        .M                                             0.1524 :STEP
NULL        .                                           -999.2500 :NULL VALUE
COMP        .                                   PEMEX EXPL & PROD :COMPANY
WELL        .                                               1031D :WELL
FLD         .                                           CANTARELL :FIELD
LOC         .                                             UNKNOWN :LOCATION
CNTY        .                                      CD. DEL CARMEN :COUNTY
STAT        .                                            CAMPECHE :STATE
CTRY        .                                              MEXICO :COUNTRY
SRVC        .                                             UNKNOWN :SERVICE COMPANY
DATE        .                                             UNKNOWN :LOG DATE
UWI         .                                               1031D :UNIQUE WELL ID
XCOORD      .                                       597334.590000 :SURFACE X
YCOORD      .                                      2152076.210000 :SURFACE Y
LAT         .                                           19.461948 :LATITUDE
LON         .                                          -92.072661 :LONGITUDE
ELEV        .M                                            26.5400 :SURFACE ELEV
ELEV_TYPE   .                                                  KB :ELEV TYPE
~CURVE INFORMATION
#MNEMONIC.UNIT        API CODE       : CURVE DESCRIPTION
#------------------------------------------------------------------------------
DEPTH    .M                          : Measured Depth
CALI     .UNKNOWN     UNKNOWN        : CALI:litodensidad:r1:0001:v1 
CGR      .UNKNOWN     UNKNOWN        : CGR:radioactividad:r1:0001:v1 
DRHO     .g/cm3       UNKNOWN        : DRHO:litodensidad:r1:0001:v1 
DT       .us/ft       UNKNOWN        : DT:DT-Load:r1:0001:v1 
GR-LWD   .UNKNOWN     UNKNOWN        : GR-LWD:GR-LWD:r2:MAIN:v1 
ILD-LWD  .UNKNOWN     UNKNOWN        : ILD-LWD:ILD-LWD:r1:MAIN:v1 
ILM-LWD  .UNKNOWN     UNKNOWN        : ILM-LWD:ILM-LWD:r1:MAIN:v1 
LLD-LWD  .UNKNOWN     UNKNOWN        : LLD-LWD:LLD-LWD:r1:MAIN:v1 
LLD      .ohm.m       UNKNOWN        : LLD:resistividad:r1:0001:v1 
LLS      .ohm.m       UNKNOWN        : LLS:resistividad:r1:0001:v1 
MSFL     .ohm.m       UNKNOWN        : MSFL:resistividad:r1:0001:v1 
NPHI     .v/v_decimal UNKNOWN        : NPHI:porosidad:r1:0001:v1 
PEF      .UNKNOWN     UNKNOWN        : PEF:litodensidad:r1:0001:v1 
POTA     .UNKNOWN     UNKNOWN        : POTA:radioactividad:r1:0001:v1 
RHOB     .g/cm3       UNKNOWN        : RHOB:litodensidad:r1:0001:v1 
SGR      .UNKNOWN     UNKNOWN        : SGR:radioactividad:r1:0001:v1 
THOR     .ppm         UNKNOWN        : THOR:radioactividad:r1:0001:v1 
URAN     .ppm         UNKNOWN        : URAN:radioactividad:r1:0001:v1 
~A     DEPTH         CALI          CGR         DRHO           DT       GR-LWD      ILD-LWD      ILM-LWD      LLD-LWD          LLD          LLS         MSFL         NPHI          PEF         POTA         RHOB          SGR         THOR         URAN
# ...
   2790.6516      12.2830       7.1129       0.0194      59.5665    -999.2500    -999.2500    -999.2500    -999.2500     648.5349     166.2610      88.4305      12.2590       3.5368      -0.0004       2.6167      53.5689       1.8493       5.2342
   2790.8040      12.1633      14.3438       0.0148      55.0078    -999.2500    -999.2500    -999.2500    -999.2500     585.7974     154.7632     127.4719      12.9007       3.2718       0.0055       2.5958      49.5276       1.0681       3.9641
   2790.9563      11.9005      24.0131       0.0197      56.0926    -999.2500    -999.2500    -999.2500    -999.2500     471.3280     130.8696     166.1685      12.9042       3.1890       0.0109       2.5962      52.7943       1.1116       3.2428
   2791.1089      11.8920      23.0310       0.0165      55.9069    -999.2500    -999.2500    -999.2500    -999.2500     254.8591      77.1590     116.6662      10.0892       3.2692       0.0107       2.6096      50.8282       0.9394       3.1319
   2791.2612      11.9940      25.7935       0.0223      55.0893    -999.2500    -999.2500    -999.2500    -999.2500     220.0262      66.0103      72.1504       5.9016       3.4384       0.0109       2.6683      55.0528       1.5431       3.2966
   2791.4136      12.0709      27.8457       0.0275      52.3230    -999.2500    -999.2500    -999.2500    -999.2500     237.4875      68.7533      35.4794       2.7583       3.5650       0.0097       2.7494      58.3572       2.5058       3.4377
   2791.5659      11.9341      23.8038       0.0285      52.3775    -999.2500    -999.2500    -999.2500    -999.2500     297.5840      81.4307    1642.4274       2.2666       3.6104       0.0083       2.8026      51.7950       2.1315       3.1537
   2791.7183      11.8830      20.6095       0.0200      49.3970    -999.2500    -999.2500    -999.2500    -999.2500     565.7416     141.9116    1534.8381       2.2586       3.6268       0.0082       2.8008      47.4290       1.4153       3.0217
   2791.8708      11.8929      14.9006       0.0130      47.5758    -999.2500    -999.2500    -999.2500    -999.2500    1244.6360     281.1355     592.7901       2.5869       3.6454       0.0084       2.7920      40.7421       0.0080       2.9115
   2792.0232      11.9639      16.9599       0.0079      55.4743    -999.2500    -999.2500    -999.2500    -999.2500    1939.8762     398.1942     555.4777       3.4112       3.4945       0.0093       2.7867      45.9326       0.0891       3.2643
   2792.1755      12.0066      17.8757       0.0065      65.8659    -999.2500    -999.2500    -999.2500    -999.2500    2015.3994     394.1465     353.6230       4.4225       3.3809       0.0104       2.7756      45.1171      -0.1376       3.0693
   2792.3279      12.0710      18.3690       0.0074      58.1681    -999.2500    -999.2500    -999.2500    -999.2500    1896.3129     365.5231     320.3105       4.8708       3.4354       0.0107       2.7613      44.3548      -0.1571       2.9278
   2792.4805      12.0342      22.7070       0.0074      53.2914    -999.2500    -999.2500    -999.2500    -999.2500    1698.9901     324.4059     412.1143       4.6569       3.5492       0.0094       2.7328      57.6837       1.4298       3.9408
   2792.6328      11.9245      26.0329       0.0079      53.9923    -999.2500    -999.2500    -999.2500    -999.2500    1558.1309     290.6431     447.8777       4.2878       3.5724       0.0098       2.7191      65.6534       2.0606       4.4640
   2792.7852      11.8929      22.4369       0.0134      52.9465    -999.2500    -999.2500    -999.2500    -999.2500    1656.4344     293.7724     119.4138       3.6983       3.4765       0.0078       2.7336      61.6856       2.0522       4.4221
   2792.9375      11.9024      17.1801       0.0186      53.6818    -999.2500    -999.2500    -999.2500    -999.2500    1758.5555     307.9201      85.0476       3.0063       3.3808       0.0045       2.7617      56.1409       2.1651       4.3897
   2793.0901      11.9386      15.9259       0.0199      53.3617    -999.2500    -999.2500    -999.2500    -999.2500    2011.2751     348.8212     193.5424       2.4872       3.5012       0.0044       2.7769      53.3372       1.9147       4.2151
   2793.2424      11.9724      12.8831       0.0106      50.3029    -999.2500    -999.2500    -999.2500    -999.2500    2488.7795     423.9298     233.0215       2.3199       3.5571       0.0038       2.7670      47.1141       1.4448       3.8568
   2793.3948      12.0019      12.5388       0.0062      49.2101    -999.2500    -999.2500    -999.2500    -999.2500    2659.4224     454.0450     492.9478       2.3329       3.5788       0.0035       2.7587      46.5002       1.4891       3.8264
   2793.5471      11.9888      11.3337       0.0024      49.5036    -999.2500    -999.2500    -999.2500    -999.2500    2642.5198     449.4845     230.0538       2.4369       3.5638       0.0029       2.7617      44.8153       1.4543       3.7723
   2793.6995      11.9712      11.2543       0.0016      50.5138    -999.2500    -999.2500    -999.2500    -999.2500    2459.9758     425.8640     672.4391       2.4352       3.3787       0.0025       2.7630      44.9780       1.6286       3.7996
   2793.8521      11.9823      12.3230       0.0014      51.5438    -999.2500    -999.2500    -999.2500    -999.2500    2249.3269     401.3771     341.5054       2.3136       3.1179       0.0029       2.7628      45.3308       1.6843       3.7190
   2794.0044      12.0305      10.3304       0.0023      50.3640    -999.2500    -999.2500    -999.2500    -999.2500    2525.5574     442.5168     542.9551       2.0238       3.0192       0.0036       2.7628      38.9670       0.9388       3.2265
   2794.1567      12.1763      11.5147       0.0060      48.7876    -999.2500    -999.2500    -999.2500    -999.2500    3484.6077     573.4600    1714.5276       1.7964       3.1843       0.0036       2.7647      37.3469       1.2310       2.9105
   2794.3091      12.2648      10.0972       0.0101      48.5420    -999.2500    -999.2500    -999.2500    -999.2500    4655.4502     732.3278    1754.0687       1.6323       3.5258       0.0030       2.7581      32.0810       1.1295       2.4769
   2794.4617      11.9911       7.0095       0.0071      48.5957    -999.2500    -999.2500    -999.2500    -999.2500    4713.0376     746.7158    1813.5026       1.8445       3.5578       0.0031       2.7357      34.9338       0.3608       3.1462
   2794.6140      11.9600       5.3767       0.0016      51.0086    -999.2500    -999.2500    -999.2500    -999.2500    4205.3013     700.3329     700.9802       2.2466       3.4961       0.0027       2.7185      32.8094       0.1255       3.0908
   2794.7664      11.9429       4.0991       0.0013      52.6647    -999.2500    -999.2500    -999.2500    -999.2500    3695.9531     637.4194     293.6262       2.3859       3.4328       0.0023       2.7287      31.1092       0.0208       3.0432
   2794.9187      11.9182       4.4783       0.0038      52.5944    -999.2500    -999.2500    -999.2500    -999.2500    2630.3569     492.5877     398.3402       2.2175       3.4670       0.0018       2.7410      30.9630       0.3137       2.9840
   2795.0713      11.9133       8.7618       0.0023      52.7270    -999.2500    -999.2500    -999.2500    -999.2500    2300.3667     455.8678     236.4972       2.0411       3.5060       0.0020       2.7431      35.4130       1.2143       3.0028
   2795.2236      11.9450       7.5674       0.0028      53.9031    -999.2500    -999.2500    -999.2500    -999.2500    2297.0898     465.3558     104.6586       2.5100       3.5093       0.0018       2.7362      32.9624       1.0372       2.8612
   2795.3760      11.9271       9.1188       0.0084      52.9288    -999.2500    -999.2500    -999.2500    -999.2500    2082.8032     465.4662     808.6934       3.3821       3.3852       0.0026       2.7443      35.0168       1.0764       2.9179
   2795.5283      11.8904      10.3249       0.0114      52.0414    -999.2500    -999.2500    -999.2500    -999.2500    2310.5127     526.7317     264.1108       3.8106       3.2511       0.0030       2.7502      37.1014       1.1783       3.0169
