#------------------------------------------------------------------------------
#
#   Created by  : [OpenWorks] Log Export Utility (LEXP)
#   Created on  : 2016-05-12 18:36:02
#   Project     : CANT971
#   User        : R5K
#   Interpreter : PEP
#
#------------------------------------------------------------------------------
~VERSION INFORMATION
VERS. 2.0 : CWLS Log ASCII Standard - version 2.0
WRAP.  NO : One line per depth step
~WELL INFORMATION
#MNEMONIC   .UNIT                                           VALUE :DESCRIPTION
#------------------------------------------------------------------------------
STRT        .M                                          2041.3008 :START DEPTH
STOP        .M                                          3401.7756 :STOP DEPTH
STEP        .M                                             0.1524 :STEP
NULL        .                                           -999.2500 :NULL VALUE
COMP        .                                   PEMEX EXPL & PROD :COMPANY
WELL        .                                               1031D :WELL
FLD         .                                           CANTARELL :FIELD
LOC         .                                             UNKNOWN :LOCATION
CNTY        .                                      CD. DEL CARMEN :COUNTY
STAT        .                                            CAMPECHE :STATE
CTRY        .                                              MEXICO :COUNTRY
SRVC        .                                             UNKNOWN :SERVICE COMPANY
DATE        .                                             UNKNOWN :LOG DATE
UWI         .                                               1031D :UNIQUE WELL ID
XCOORD      .                                       597334.590000 :SURFACE X
YCOORD      .                                      2152076.210000 :SURFACE Y
LAT         .                                           19.461948 :LATITUDE
LON         .                                          -92.072661 :LONGITUDE
ELEV        .M                                            26.5400 :SURFACE ELEV
ELEV_TYPE   .                                                  KB :ELEV TYPE
~CURVE INFORMATION
#MNEMONIC.UNIT        API CODE       : CURVE DESCRIPTION
#------------------------------------------------------------------------------
DEPTH    .M                          : Measured Depth
CALI     .UNKNOWN     UNKNOWN        : CALI:litodensidad:r1:0001:v1 
CGR      .UNKNOWN     UNKNOWN        : CGR:radioactividad:r1:0001:v1 
DRHO     .g/cm3       UNKNOWN        : DRHO:litodensidad:r1:0001:v1 
DT       .us/ft       UNKNOWN        : DT:DT-Load:r1:0001:v1 
GR-LWD   .UNKNOWN     UNKNOWN        : GR-LWD:GR-LWD:r2:MAIN:v1 
ILD-LWD  .UNKNOWN     UNKNOWN        : ILD-LWD:ILD-LWD:r1:MAIN:v1 
ILM-LWD  .UNKNOWN     UNKNOWN        : ILM-LWD:ILM-LWD:r1:MAIN:v1 
LLD-LWD  .UNKNOWN     UNKNOWN        : LLD-LWD:LLD-LWD:r1:MAIN:v1 
LLD      .ohm.m       UNKNOWN        : LLD:resistividad:r1:0001:v1 
LLS      .ohm.m       UNKNOWN        : LLS:resistividad:r1:0001:v1 
MSFL     .ohm.m       UNKNOWN        : MSFL:resistividad:r1:0001:v1 
NPHI     .v/v_decimal UNKNOWN        : NPHI:porosidad:r1:0001:v1 
PEF      .UNKNOWN     UNKNOWN        : PEF:litodensidad:r1:0001:v1 
POTA     .UNKNOWN     UNKNOWN        : POTA:radioactividad:r1:0001:v1 
RHOB     .g/cm3       UNKNOWN        : RHOB:litodensidad:r1:0001:v1 
SGR      .UNKNOWN     UNKNOWN        : SGR:radioactividad:r1:0001:v1 
THOR     .ppm         UNKNOWN        : THOR:radioactividad:r1:0001:v1 
URAN     .ppm         UNKNOWN        : URAN:radioactividad:r1:0001:v1 
~A     DEPTH         CALI          CGR         DRHO           DT       GR-LWD      ILD-LWD      ILM-LWD      LLD-LWD          LLD          LLS         MSFL         NPHI          PEF         POTA         RHOB          SGR         THOR         URAN
# ...
   3323.7468      11.1102      18.7966       0.0389      51.2979    -999.2500    -999.2500    -999.2500    -999.2500     193.8792      91.1741      25.3258       4.3406       2.6296       0.0079       2.7839      35.3255       1.1195       1.8623
   3323.8992      11.1344      13.6155       0.0371      47.0738    -999.2500    -999.2500    -999.2500    -999.2500     222.7447     103.9357      73.4246       3.8459       2.8529       0.0052       2.7737      31.4958       1.0192       2.0146
   3324.0515      11.1134      12.7982       0.0363      49.6447    -999.2500    -999.2500    -999.2500    -999.2500     249.1222     116.4222     153.8259       4.0316       2.9293       0.0046       2.7663      31.5648       1.0975       2.1144
   3324.2041      11.1065      12.0038       0.0408      56.6500    -999.2500    -999.2500    -999.2500    -999.2500     287.6120     134.1368     122.8626       4.7230       3.1569       0.0038       2.7408      31.8494       1.2302       2.2360
   3324.3564      11.1157      11.3160       0.0409      57.8316    -999.2500    -999.2500    -999.2500    -999.2500     339.9620     155.5598     209.2074       5.8743       3.1484       0.0033       2.7339      32.0611       1.3062       2.3373
   3324.5088      11.4657      11.2776       0.0247      60.7099    -999.2500    -999.2500    -999.2500    -999.2500     415.2874     185.1644     455.9673       7.8961       3.3688       0.0032       2.7056      32.2381       1.3049       2.3616
   3324.6611      12.4495      12.0369       0.0279      62.3663    -999.2500    -999.2500    -999.2500    -999.2500     425.3550     188.3397     390.1439       9.7013       3.4529       0.0035       2.7294      33.2844       1.3615       2.3939
   3324.8135      12.9002      11.5860       0.0279      63.6391    -999.2500    -999.2500    -999.2500    -999.2500     363.5273     161.8299     340.9178       9.6827       3.2526       0.0037       2.7334      32.0932       1.1981       2.3105
   3324.9661      12.2546      11.0062       0.0192      63.6164    -999.2500    -999.2500    -999.2500    -999.2500     303.9471     137.1991     541.4328       7.8805       3.0930       0.0037       2.7443      30.7327       1.0443       2.2226
   3325.1184      11.2351      10.8991       0.0211      55.4300    -999.2500    -999.2500    -999.2500    -999.2500     278.9128     125.9524     312.4399       5.6697       3.0497       0.0039       2.7390      30.0228       0.9241       2.1547
   3325.2708      11.2209      10.0264       0.0426      55.5638    -999.2500    -999.2500    -999.2500    -999.2500     273.0615     122.8109     266.0189       4.7634       2.9658       0.0041       2.7093      28.3270       0.6451       2.0619
   3325.4231      11.2310       8.6988       0.0622      55.6979    -999.2500    -999.2500    -999.2500    -999.2500     264.8159     119.7870     215.5241       5.0545       2.8771       0.0041       2.6130      26.0912       0.3312       1.9596
   3325.5757      11.2102       8.4161       0.0753      54.1712    -999.2500    -999.2500    -999.2500    -999.2500     231.4052     106.7062     140.2852       7.0118       2.7673       0.0044       2.4822      25.2913       0.1285       1.9013
   3325.7280      11.1438       9.4587       0.0732      49.9856    -999.2500    -999.2500    -999.2500    -999.2500     196.7655      92.8624      44.2686       9.2214       2.7888       0.0049       2.4320      26.7991       0.1775       1.9537
   3325.8804      11.1801      11.5279       0.0696      48.5802    -999.2500    -999.2500    -999.2500    -999.2500     199.6171      96.7491     100.2055      10.0289       2.7017       0.0063       2.4166      30.4276       0.0660       2.1294
   3326.0327      11.3060      14.0388       0.0769      52.8065    -999.2500    -999.2500    -999.2500    -999.2500     206.9651     104.0227     110.5784       9.1414       2.6548       0.0077       2.4496      36.8923       0.1046       2.5749
   3326.1853      11.5176      15.4853       0.0594      52.9335    -999.2500    -999.2500    -999.2500    -999.2500     235.9487     120.6384     109.5582       9.0746       2.6222       0.0067       2.4238      41.9995       0.8711       2.9873
   3326.3376      11.2546      13.4740       0.0487      54.9255    -999.2500    -999.2500    -999.2500    -999.2500     278.8199     143.9321     124.2897      11.6066       2.7837       0.0058       2.4405      39.5032       0.7402       2.9327
   3326.4900      11.1073      11.9786       0.0696      57.0406    -999.2500    -999.2500    -999.2500    -999.2500     276.1748     145.4263     304.9160      14.6830       3.0408       0.0050       2.5302      38.3905       0.7547       2.9758
   3326.6423      11.0380      12.1328       0.0873      56.8445    -999.2500    -999.2500    -999.2500    -999.2500     212.2128     116.0547     253.8588      16.6613       3.2138       0.0053       2.6362      39.1688       0.6592       3.0461
   3326.7947      11.0511      11.2198       0.0674      58.6537    -999.2500    -999.2500    -999.2500    -999.2500     181.4752     101.1793      69.9295      15.7913       3.1451       0.0055       2.6752      38.0976       0.3433       3.0283
   3326.9473      11.0574      13.5797       0.0321      60.7025    -999.2500    -999.2500    -999.2500    -999.2500     171.6058      97.1128      10.9385      14.4383       3.1070       0.0054       2.6383      42.9454       0.9630       3.3086
   3327.0996      11.0585      16.9467      -0.0008      58.7929    -999.2500    -999.2500    -999.2500    -999.2500     168.7090      95.8791      22.8926      13.1981       3.1728       0.0069       2.5843      47.2956       1.1101       3.4194
   3327.2520      11.0581      20.9881      -0.0063      59.7807    -999.2500    -999.2500    -999.2500    -999.2500     188.5983     106.2264      14.9443      11.2848       3.4046       0.0089       2.5902      51.5900       1.2246       3.4479
   3327.4043      11.0363      16.4288      -0.0028      59.1065    -999.2500    -999.2500    -999.2500    -999.2500     231.2298     130.4044      71.5936       9.6857       3.4118       0.0077       2.6366      43.6127       0.6425       3.0628
   3327.5569      10.9968      10.2859       0.0006      58.3529    -999.2500    -999.2500    -999.2500    -999.2500     236.7406     137.2271      64.5064       8.2298       3.3637       0.0061       2.6793      33.4827      -0.1188       2.6136
   3327.7092      11.0181       7.8491       0.0065      51.0406    -999.2500    -999.2500    -999.2500    -999.2500     230.8342     136.1357      43.7783       7.3245       3.3278       0.0051       2.6942      29.1535      -0.2821       2.4003
   3327.8616      11.0617       6.8537       0.0129      38.9599    -999.2500    -999.2500    -999.2500    -999.2500     224.7630     132.8354      99.4747       6.5702       3.1969       0.0049       2.6683      25.4876      -0.4153       2.0995
   3328.0139      11.0834       8.7172       0.0128      39.3595    -999.2500    -999.2500    -999.2500    -999.2500     218.3652     129.3431     116.5022       5.7352       3.1584       0.0059       2.6481      27.2387      -0.4134       2.0868
   3328.1663      11.0780       9.7887       0.0178      36.2455    -999.2500    -999.2500    -999.2500    -999.2500     219.6342     131.2259     251.3756       5.7302       3.0512       0.0069       2.6398      27.8447      -0.5820       2.0344
   3328.3188      11.1872      10.0969       0.0375      37.4421    -999.2500    -999.2500    -999.2500    -999.2500     224.6516     135.9323     226.8696       5.7431       3.1681       0.0074       2.6569      28.0431      -0.7241       2.0220
   3328.4712      11.2727       8.0440       0.0544      46.8868    -999.2500    -999.2500    -999.2500    -999.2500     258.0035     156.3873     252.9320       5.5442       3.2384       0.0055       2.6846      30.5083      -0.3883       2.5310
   3328.6235      11.1204       4.5768       0.0437      54.5211    -999.2500    -999.2500    -999.2500    -999.2500     332.5979     198.1548     593.0560       5.2125       3.3247       0.0025       2.7025      35.0952       0.0294       3.4385
