#------------------------------------------------------------------------------
#
#   Created by  : [OpenWorks] Log Export Utility (LEXP)
#   Created on  : 2016-05-12 18:36:02
#   Project     : CANT971
#   User        : R5K
#   Interpreter : PEP
#
#------------------------------------------------------------------------------
~VERSION INFORMATION
VERS. 2.0 : CWLS Log ASCII Standard - version 2.0
WRAP.  NO : One line per depth step
~WELL INFORMATION
#MNEMONIC   .UNIT                                           VALUE :DESCRIPTION
#------------------------------------------------------------------------------
STRT        .M                                          2041.3008 :START DEPTH
STOP        .M                                          3401.7756 :STOP DEPTH
STEP        .M                                             0.1524 :STEP
NULL        .                                           -999.2500 :NULL VALUE
COMP        .                                   PEMEX EXPL & PROD :COMPANY
WELL        .                                               1031D :WELL
FLD         .                                           CANTARELL :FIELD
LOC         .                                             UNKNOWN :LOCATION
CNTY        .                                      CD. DEL CARMEN :COUNTY
STAT        .                                            CAMPECHE :STATE
CTRY        .                                              MEXICO :COUNTRY
SRVC        .                                             UNKNOWN :SERVICE COMPANY
DATE        .                                             UNKNOWN :LOG DATE
UWI         .                                               1031D :UNIQUE WELL ID
XCOORD      .                                       597334.590000 :SURFACE X
YCOORD      .                                      2152076.210000 :SURFACE Y
LAT         .                                           19.461948 :LATITUDE
LON         .                                          -92.072661 :LONGITUDE
ELEV        .M                                            26.5400 :SURFACE ELEV
ELEV_TYPE   .                                                  KB :ELEV TYPE
~CURVE INFORMATION
#MNEMONIC.UNIT        API CODE       : CURVE DESCRIPTION
#------------------------------------------------------------------------------
DEPTH    .M                          : Measured Depth
CALI     .UNKNOWN     UNKNOWN        : CALI:litodensidad:r1:0001:v1 
CGR      .UNKNOWN     UNKNOWN        : CGR:radioactividad:r1:0001:v1 
DRHO     .g/cm3       UNKNOWN        : DRHO:litodensidad:r1:0001:v1 
DT       .us/ft       UNKNOWN        : DT:DT-Load:r1:0001:v1 
GR-LWD   .UNKNOWN     UNKNOWN        : GR-LWD:GR-LWD:r2:MAIN:v1 
ILD-LWD  .UNKNOWN     UNKNOWN        : ILD-LWD:ILD-LWD:r1:MAIN:v1 
ILM-LWD  .UNKNOWN     UNKNOWN        : ILM-LWD:ILM-LWD:r1:MAIN:v1 
LLD-LWD  .UNKNOWN     UNKNOWN        : LLD-LWD:LLD-LWD:r1:MAIN:v1 
LLD      .ohm.m       UNKNOWN        : LLD:resistividad:r1:0001:v1 
LLS      .ohm.m       UNKNOWN        : LLS:resistividad:r1:0001:v1 
MSFL     .ohm.m       UNKNOWN        : MSFL:resistividad:r1:0001:v1 
NPHI     .v/v_decimal UNKNOWN        : NPHI:porosidad:r1:0001:v1 
PEF      .UNKNOWN     UNKNOWN        : PEF:litodensidad:r1:0001:v1 
POTA     .UNKNOWN     UNKNOWN        : POTA:radioactividad:r1:0001:v1 
RHOB     .g/cm3       UNKNOWN        : RHOB:litodensidad:r1:0001:v1 
SGR      .UNKNOWN     UNKNOWN        : SGR:radioactividad:r1:0001:v1 
THOR     .ppm         UNKNOWN        : THOR:radioactividad:r1:0001:v1 
URAN     .ppm         UNKNOWN        : URAN:radioactividad:r1:0001:v1 
~A     DEPTH         CALI          CGR         DRHO           DT       GR-LWD      ILD-LWD      ILM-LWD      LLD-LWD          LLD          LLS         MSFL         NPHI          PEF         POTA         RHOB          SGR         THOR         URAN
# ...
   2659.8923      12.0121      15.9579       0.0146      53.1205    -999.2500    -999.2500    -999.2500    -999.2500     351.5559     270.2584     195.6352       4.6459       3.4980       0.0072       2.7327      45.6399       0.7681       3.3443
   2660.0447      11.7965      11.9165       0.0096      52.7586    -999.2500    -999.2500    -999.2500    -999.2500     348.5821     267.9756     190.1020       4.6501       3.7006       0.0045       2.7266      41.6086       0.9332       3.3454
   2660.1973      11.6132      12.1081       0.0108      52.8801    -999.2500    -999.2500    -999.2500    -999.2500     349.5481     270.1061     167.6116       4.8410       3.7841       0.0044       2.7185      42.1427       1.0280       3.3840
   2660.3496      11.4889      12.1784       0.0124      54.0161    -999.2500    -999.2500    -999.2500    -999.2500     365.9318     282.5046     177.3300       5.1542       3.8331       0.0045       2.7094      41.7357       0.9824       3.3302
   2660.5020      11.7399      12.5924       0.0110      52.9388    -999.2500    -999.2500    -999.2500    -999.2500     396.7824     304.9112     187.9998       5.0310       3.6950       0.0043       2.7128      40.5430       1.1738       3.1492
   2660.6543      12.0278      17.1094       0.0089      52.3576    -999.2500    -999.2500    -999.2500    -999.2500     413.6870     317.6834     231.5235       4.6597       3.5641       0.0044       2.7175      45.1605       2.2017       3.1605
   2660.8069      12.0079      15.3401       0.0111      52.5130    -999.2500    -999.2500    -999.2500    -999.2500     427.9308     326.9306    1027.3262       4.0610       3.4576       0.0038       2.7245      42.0048       2.0269       3.0043
   2660.9592      11.8872      17.9054       0.0089      53.1920    -999.2500    -999.2500    -999.2500    -999.2500     423.9070     322.0629     431.8016       3.8631       3.5053       0.0048       2.7128      42.4681       2.2116       2.7675
   2661.1116      11.6121      24.1527       0.0069      54.3161    -999.2500    -999.2500    -999.2500    -999.2500     432.9132     324.8702     147.1330       4.2644       3.6023       0.0071       2.7042      45.7113       2.7423       2.4290
   2661.2639      11.4355      22.4507       0.0086      49.2323    -999.2500    -999.2500    -999.2500    -999.2500     427.1524     318.6203      73.0574       4.8286       3.7390       0.0067       2.7072      42.6567       2.4988       2.2766
   2661.4163      11.4557      20.7474       0.0105      37.3420    -999.2500    -999.2500    -999.2500    -999.2500     452.7776     335.7403     211.1037       5.3016       3.7431       0.0065       2.7112      39.8467       2.1761       2.1519
   2661.5688      11.5940      18.8093       0.0099      42.5008    -999.2500    -999.2500    -999.2500    -999.2500     482.3660     358.1918     422.4913       5.5629       3.5220       0.0059       2.7051      36.9586       1.9766       2.0449
   2661.7212      11.8846      16.0670       0.0088      51.4753    -999.2500    -999.2500    -999.2500    -999.2500     454.6920     343.7867     854.2485       5.9448       3.4824       0.0049       2.6963      32.8290       1.7509       1.8886
   2661.8735      12.0482      15.8933       0.0119      49.4234    -999.2500    -999.2500    -999.2500    -999.2500     358.7161     278.9798     386.2171       6.3242       3.5117       0.0053       2.6986      33.3987       1.5509       1.9723
   2662.0259      12.0164      17.9326       0.0129      54.8629    -999.2500    -999.2500    -999.2500    -999.2500     322.5073     251.9727     189.1069       6.5013       3.6595       0.0069       2.6931      38.0771       1.3588       2.2697
   2662.1785      11.7339      18.6336       0.0130      57.1653    -999.2500    -999.2500    -999.2500    -999.2500     328.3304     256.0255     107.8292       6.2723       3.7997       0.0068       2.6892      39.7468       1.5577       2.3788
   2662.3308      11.4539      18.8794       0.0153      58.3321    -999.2500    -999.2500    -999.2500    -999.2500     331.4130     256.3448      79.5244       5.9334       3.9712       0.0068       2.6938      40.7165       1.6132       2.4604
   2662.4832      11.4919      20.2362       0.0211      56.7309    -999.2500    -999.2500    -999.2500    -999.2500     365.7871     277.6458     138.0001       5.7889       4.0409       0.0074       2.7108      42.8857       1.6811       2.5519
   2662.6355      11.6666      21.0784       0.0184      56.4324    -999.2500    -999.2500    -999.2500    -999.2500     401.3328     302.6635     196.1664       5.8002       3.8601       0.0078       2.7078      44.1578       1.7016       2.6003
   2662.7881      11.8611      19.7867       0.0160      57.1275    -999.2500    -999.2500    -999.2500    -999.2500     372.4453     283.6547     243.8289       5.6012       3.5666       0.0075       2.6994      42.2479       1.5439       2.5307
   2662.9404      12.0156      16.8945       0.0158      59.0022    -999.2500    -999.2500    -999.2500    -999.2500     359.4899     277.6891     340.2891       4.4791       3.4120       0.0060       2.7079      38.3363       1.4838       2.4158
   2663.0928      11.9692      18.9331       0.0209      57.4160    -999.2500    -999.2500    -999.2500    -999.2500     377.6103     298.3010     215.1502       3.2617       3.3603       0.0058       2.7493      42.2269       2.0502       2.6245
   2663.2451      11.6856      18.6510       0.0291      56.1007    -999.2500    -999.2500    -999.2500    -999.2500     404.0650     315.7576     249.0824       2.3644       3.6035       0.0048       2.8037      41.6665       2.4118       2.5931
   2663.3975      11.4526      17.8324       0.0363      54.6683    -999.2500    -999.2500    -999.2500    -999.2500     434.7654     334.7374     628.5315       2.2725       3.7879       0.0042       2.8434      41.0885       2.4745       2.6202
   2663.5500      11.4787      20.2450       0.0255      54.8823    -999.2500    -999.2500    -999.2500    -999.2500     379.6103     294.8816    1509.2551       2.8795       3.9271       0.0068       2.7990      48.1453       1.9242       3.1435
   2663.7024      11.6811      17.7640       0.0106      54.8964    -999.2500    -999.2500    -999.2500    -999.2500     206.4759     166.5393     223.1660       5.0499       3.9050       0.0062       2.7048      45.1861       1.5869       3.0896
   2663.8547      11.8778      21.6424       0.0018      55.6946    -999.2500    -999.2500    -999.2500    -999.2500     209.5553     169.5950     154.0335       7.9404       3.7956       0.0071       2.6144      51.4152       2.1595       3.3545
   2664.0071      11.9342      26.4184      -0.0013      55.2030    -999.2500    -999.2500    -999.2500    -999.2500     211.1819     171.8975       8.5184       9.0291       3.6465       0.0083       2.5807      58.5121       2.7522       3.6160
   2664.1597      11.8516      21.5898       0.0017      55.1283    -999.2500    -999.2500    -999.2500    -999.2500     220.5959     177.2696     172.5963       7.8773       3.6436       0.0077       2.6151      53.0497       1.8799       3.5446
   2664.3120      11.6255      11.2403       0.0063      54.9131    -999.2500    -999.2500    -999.2500    -999.2500     357.4955     271.3099     364.3105       5.8809       3.6989       0.0068       2.6658      39.3520      -0.2066       3.1673
   2664.4644      11.5017      14.5909       0.0127      53.4907    -999.2500    -999.2500    -999.2500    -999.2500     526.9991     395.9740     238.5958       5.5165       3.7840       0.0083       2.7057      41.7513      -0.0285       3.0601
   2664.6167      11.5009      13.4235       0.0117      53.9382    -999.2500    -999.2500    -999.2500    -999.2500     369.5877     290.1497     267.2804       5.9463       3.6939       0.0071       2.7002      40.8144       0.1751       3.0861
   2664.7693      11.6748      15.8532       0.0095      54.1749    -999.2500    -999.2500    -999.2500    -999.2500     324.7178     258.6794     129.4692       6.6046       3.6601       0.0074       2.6841      45.7360       0.6364       3.3669
