#------------------------------------------------------------------------------
#
#   Created by  : [OpenWorks] Log Export Utility (LEXP)
#   Created on  : 2016-05-12 18:36:02
#   Project     : CANT971
#   User        : R5K
#   Interpreter : PEP
#
#------------------------------------------------------------------------------
~VERSION INFORMATION
VERS. 2.0 : CWLS Log ASCII Standard - version 2.0
WRAP.  NO : One line per depth step
~WELL INFORMATION
#MNEMONIC   .UNIT                                           VALUE :DESCRIPTION
#------------------------------------------------------------------------------
STRT        .M                                          2041.3008 :START DEPTH
STOP        .M                                          3401.7756 :STOP DEPTH
STEP        .M                                             0.1524 :STEP
NULL        .                                           -999.2500 :NULL VALUE
COMP        .                                   PEMEX EXPL & PROD :COMPANY
WELL        .                                               1031D :WELL
FLD         .                                           CANTARELL :FIELD
LOC         .                                             UNKNOWN :LOCATION
CNTY        .                                      CD. DEL CARMEN :COUNTY
STAT        .                                            CAMPECHE :STATE
CTRY        .                                              MEXICO :COUNTRY
SRVC        .                                             UNKNOWN :SERVICE COMPANY
DATE        .                                             UNKNOWN :LOG DATE
UWI         .                                               1031D :UNIQUE WELL ID
XCOORD      .                                       597334.590000 :SURFACE X
YCOORD      .                                      2152076.210000 :SURFACE Y
LAT         .                                           19.461948 :LATITUDE
LON         .                                          -92.072661 :LONGITUDE
ELEV        .M                                            26.5400 :SURFACE ELEV
ELEV_TYPE   .                                                  KB :ELEV TYPE
~CURVE INFORMATION
#MNEMONIC.UNIT        API CODE       : CURVE DESCRIPTION
#------------------------------------------------------------------------------
DEPTH    .M                          : Measured Depth
CALI     .UNKNOWN     UNKNOWN        : CALI:litodensidad:r1:0001:v1 
CGR      .UNKNOWN     UNKNOWN        : CGR:radioactividad:r1:0001:v1 
DRHO     .g/cm3       UNKNOWN        : DRHO:litodensidad:r1:0001:v1 
DT       .us/ft       UNKNOWN        : DT:DT-Load:r1:0001:v1 
GR-LWD   .UNKNOWN     UNKNOWN        : GR-LWD:GR-LWD:r2:MAIN:v1 
ILD-LWD  .UNKNOWN     UNKNOWN        : ILD-LWD:ILD-LWD:r1:MAIN:v1 
ILM-LWD  .UNKNOWN     UNKNOWN        : ILM-LWD:ILM-LWD:r1:MAIN:v1 
LLD-LWD  .UNKNOWN     UNKNOWN        : LLD-LWD:LLD-LWD:r1:MAIN:v1 
LLD      .ohm.m       UNKNOWN        : LLD:resistividad:r1:0001:v1 
LLS      .ohm.m       UNKNOWN        : LLS:resistividad:r1:0001:v1 
MSFL     .ohm.m       UNKNOWN        : MSFL:resistividad:r1:0001:v1 
NPHI     .v/v_decimal UNKNOWN        : NPHI:porosidad:r1:0001:v1 
PEF      .UNKNOWN     UNKNOWN        : PEF:litodensidad:r1:0001:v1 
POTA     .UNKNOWN     UNKNOWN        : POTA:radioactividad:r1:0001:v1 
RHOB     .g/cm3       UNKNOWN        : RHOB:litodensidad:r1:0001:v1 
SGR      .UNKNOWN     UNKNOWN        : SGR:radioactividad:r1:0001:v1 
THOR     .ppm         UNKNOWN        : THOR:radioactividad:r1:0001:v1 
URAN     .ppm         UNKNOWN        : URAN:radioactividad:r1:0001:v1 
~A     DEPTH         CALI          CGR         DRHO           DT       GR-LWD      ILD-LWD      ILM-LWD      LLD-LWD          LLD          LLS         MSFL         NPHI          PEF         POTA         RHOB          SGR         THOR         URAN
# ...
   2926.4399      12.3049       3.0068       0.0464      48.1500    -999.2500    -999.2500    -999.2500    -999.2500    7210.5405    1291.5493     177.4987       1.5240       3.3812       0.0001       2.7908      28.2942       0.6534       2.8491
   2926.5923      12.2326       3.3573       0.0614      49.5801    -999.2500    -999.2500    -999.2500    -999.2500    4577.9307    1057.1636     139.7213       1.7605       3.4477       0.0000       2.8012      28.5665       0.7924       2.8403
   2926.7449      12.2413       5.9730       0.0576      50.6575    -999.2500    -999.2500    -999.2500    -999.2500    2466.9807     773.2782     515.8442       2.0832       3.4938       0.0006       2.7805      32.5225       1.1690       2.9913
   2926.8972      12.3327       6.8473       0.0492      50.7682    -999.2500    -999.2500    -999.2500    -999.2500    2197.8953     729.2699     424.8505       1.9628       3.4134       0.0008       2.7672      33.6046       1.2815       3.0147
   2927.0496      12.3204       6.5161       0.0509      53.0101    -999.2500    -999.2500    -999.2500    -999.2500    2197.6660     740.7172      60.0215       1.4847       3.4504       0.0013       2.7913      32.4868       1.0109       2.9261
   2927.2019      12.3970       6.8952       0.0525      53.2090    -999.2500    -999.2500    -999.2500    -999.2500    2314.7681     771.3895     242.5091       0.9840       3.5639       0.0022       2.8317      31.9417       0.7126       2.8220
   2927.3545      12.2723       8.9500       0.0435      50.5198    -999.2500    -999.2500    -999.2500    -999.2500    2543.0005     836.4221      83.3072       0.8359       3.5412       0.0033       2.8486      34.2313       0.7360       2.8484
   2927.5068      12.0870       9.2112       0.0344      48.9095    -999.2500    -999.2500    -999.2500    -999.2500    2479.5500     836.8006    1820.4100       1.0396       3.6816       0.0041       2.8351      33.4094       0.4794       2.7264
   2927.6592      12.1236       7.1522       0.0305      50.1076    -999.2500    -999.2500    -999.2500    -999.2500    2054.1667     740.1403    1815.8351       1.4032       3.7741       0.0041       2.8175      28.9262      -0.0217       2.4533
   2927.8115      12.2065       6.8228       0.0318      57.6513    -999.2500    -999.2500    -999.2500    -999.2500    1687.3647     640.1705    1851.3109       2.0103       4.0850       0.0040       2.7934      28.0863      -0.0726       2.3957
   2927.9639      12.2876       6.3175       0.0277      63.5723    -999.2500    -999.2500    -999.2500    -999.2500    1297.3154     516.3793     668.5870       2.9791       3.8466       0.0037       2.7690      27.0722      -0.0693       2.3384
   2928.1165      12.3690       6.0597       0.0185      49.4331    -999.2500    -999.2500    -999.2500    -999.2500    1237.8888     508.4921     571.9936       4.2363       3.6047       0.0036       2.7343      26.3090      -0.0899       2.2815
   2928.2688      12.3797       5.3936       0.0138      49.8619    -999.2500    -999.2500    -999.2500    -999.2500    1235.5704     532.6738     337.5266       5.0901       3.2930       0.0037       2.7115      24.8258      -0.2811       2.1894
   2928.4211      12.2741       3.8906       0.0115      51.9332    -999.2500    -999.2500    -999.2500    -999.2500    1244.2892     545.3198    1457.6132       4.8795       3.3446       0.0038       2.7040      21.9627      -0.6734       2.0362
   2928.5735      12.1511       5.1338       0.0084      52.9292    -999.2500    -999.2500    -999.2500    -999.2500    1401.4573     609.1574    1178.3103       3.8513       3.4331       0.0041       2.7117      23.9599      -0.4879       2.1211
   2928.7261      12.1557       7.2137       0.0092      52.3951    -999.2500    -999.2500    -999.2500    -999.2500    1411.3866     634.6101     317.0683       2.6892       3.4983       0.0045       2.7326      27.4499      -0.1636       2.2800
   2928.8784      12.2316      10.9343       0.0094      53.8546    -999.2500    -999.2500    -999.2500    -999.2500    1059.3945     553.9356    1164.0724       1.9503       3.5613       0.0058       2.7519      33.0573       0.1695       2.4926
   2929.0308      12.3220      22.7768       0.0106      54.6563    -999.2500    -999.2500    -999.2500    -999.2500     718.6944     448.9544     956.1210       1.6202       3.6751       0.0086       2.7682      54.1569       1.7684       3.5356
   2929.1831      12.3220      36.6927       0.0146      55.0763    -999.2500    -999.2500    -999.2500    -999.2500     467.2531     328.6857     281.6851       1.8869       3.8674       0.0093       2.7695      83.8823       4.7962       5.3168
   2929.3357      12.2773      47.1447       0.0146      54.4711    -999.2500    -999.2500    -999.2500    -999.2500     205.1591     171.0025     120.8000       3.3291       3.9011       0.0103       2.7457     104.4375       6.8537       6.4551
   2929.4880      12.2554      55.9760       0.0092      47.0144    -999.2500    -999.2500    -999.2500    -999.2500      92.5015      85.4633     502.3937       5.4938       3.8127       0.0155       2.7145     129.1995       6.7455       8.2500
   2929.6404      12.2334      53.6421       0.0096      34.8381    -999.2500    -999.2500    -999.2500    -999.2500      76.7210      72.1106    1132.1534       5.8772       3.5842       0.0166       2.7081     136.6453       5.7173       9.3519
   2929.7927      12.2352      43.5888       0.0124      42.8746    -999.2500    -999.2500    -999.2500    -999.2500      76.4272      71.5665     157.9259       4.7639       3.5543       0.0144       2.7252      97.6381       4.2783       6.0897
   2929.9451      12.3647      35.9567       0.0114      40.7583    -999.2500    -999.2500    -999.2500    -999.2500      82.2954      74.9024      14.7323       3.2346       3.5384       0.0124       2.7376      78.7886       3.2889       4.8258
   2930.0977      12.4115      33.6457       0.0112      35.2099    -999.2500    -999.2500    -999.2500    -999.2500     122.9681     102.4955    1242.9259       3.5569       3.4522       0.0113       2.7375      79.5712       3.2140       5.1744
   2930.2500      12.2562      36.1935       0.0136      36.9177    -999.2500    -999.2500    -999.2500    -999.2500     195.5038     154.2975     999.0930       3.9751       3.3082       0.0117       2.7439      90.0352       3.6729       6.0663
   2930.4023      12.0958      30.1163       0.0167      41.6184    -999.2500    -999.2500    -999.2500    -999.2500     223.3489     177.3598     590.3983       3.9466       3.3219       0.0102       2.7635      75.8536       2.8463       5.1532
   2930.5547      12.1024      22.2335       0.0210      42.5381    -999.2500    -999.2500    -999.2500    -999.2500     249.5910     194.7681      37.4495       2.9370       3.3772       0.0088       2.7977      54.1221       1.5783       3.5929
   2930.7073      12.2095      15.8269       0.0184      44.3320    -999.2500    -999.2500    -999.2500    -999.2500     334.3082     240.6871     256.0445       2.1958       3.3259       0.0067       2.8019      45.5155       0.9241       3.3450
   2930.8596      12.4429      14.2727       0.0126      49.1385    -999.2500    -999.2500    -999.2500    -999.2500     524.8362     337.5179     802.2042       2.0055       3.3400       0.0065       2.7865      42.6182       0.6653       3.1937
   2931.0120      12.6040      16.8867       0.0081      48.9594    -999.2500    -999.2500    -999.2500    -999.2500     626.6935     389.4291     389.8904       1.9920       3.5251       0.0073       2.7672      45.9047       0.9337       3.2694
   2931.1643      12.5045      16.9487       0.0085      47.1151    -999.2500    -999.2500    -999.2500    -999.2500     492.8351     326.9017     395.4925       2.1173       3.7197       0.0075       2.7594      45.7551       0.8580       3.2456
   2931.3169      12.2651      16.1212       0.0068      47.9391    -999.2500    -999.2500    -999.2500    -999.2500     419.2444     284.3750     310.6784       2.1263       3.7460       0.0074       2.7477      44.3740       0.6928       3.1832
