#------------------------------------------------------------------------------
#
#   Created by  : [OpenWorks] Log Export Utility (LEXP)
#   Created on  : 2016-05-12 18:36:02
#   Project     : CANT971
#   User        : R5K
#   Interpreter : PEP
#
#------------------------------------------------------------------------------
~VERSION INFORMATION
VERS. 2.0 : CWLS Log ASCII Standard - version 2.0
WRAP.  NO : One line per depth step
~WELL INFORMATION
#MNEMONIC   .UNIT                                           VALUE :DESCRIPTION
#------------------------------------------------------------------------------
STRT        .M                                          2041.3008 :START DEPTH
STOP        .M                                          3401.7756 :STOP DEPTH
STEP        .M                                             0.1524 :STEP
NULL        .                                           -999.2500 :NULL VALUE
COMP        .                                   PEMEX EXPL & PROD :COMPANY
WELL        .                                               1031D :WELL
FLD         .                                           CANTARELL :FIELD
LOC         .                                             UNKNOWN :LOCATION
CNTY        .                                      CD. DEL CARMEN :COUNTY
STAT        .                                            CAMPECHE :STATE
CTRY        .                                              MEXICO :COUNTRY
SRVC        .                                             UNKNOWN :SERVICE COMPANY
DATE        .                                             UNKNOWN :LOG DATE
UWI         .                                               1031D :UNIQUE WELL ID
XCOORD      .                                       597334.590000 :SURFACE X
YCOORD      .                                      2152076.210000 :SURFACE Y
LAT         .                                           19.461948 :LATITUDE
LON         .                                          -92.072661 :LONGITUDE
ELEV        .M                                            26.5400 :SURFACE ELEV
ELEV_TYPE   .                                                  KB :ELEV TYPE
~CURVE INFORMATION
#MNEMONIC.UNIT        API CODE       : CURVE DESCRIPTION
#------------------------------------------------------------------------------
DEPTH    .M                          : Measured Depth
CALI     .UNKNOWN     UNKNOWN        : CALI:litodensidad:r1:0001:v1 
CGR      .UNKNOWN     UNKNOWN        : CGR:radioactividad:r1:0001:v1 
DRHO     .g/cm3       UNKNOWN        : DRHO:litodensidad:r1:0001:v1 
DT       .us/ft       UNKNOWN        : DT:DT-Load:r1:0001:v1 
GR-LWD   .UNKNOWN     UNKNOWN        : GR-LWD:GR-LWD:r2:MAIN:v1 
ILD-LWD  .UNKNOWN     UNKNOWN        : ILD-LWD:ILD-LWD:r1:MAIN:v1 
ILM-LWD  .UNKNOWN     UNKNOWN        : ILM-LWD:ILM-LWD:r1:MAIN:v1 
LLD-LWD  .UNKNOWN     UNKNOWN        : LLD-LWD:LLD-LWD:r1:MAIN:v1 
LLD      .ohm.m       UNKNOWN        : LLD:resistividad:r1:0001:v1 
LLS      .ohm.m       UNKNOWN        : LLS:resistividad:r1:0001:v1 
MSFL     .ohm.m       UNKNOWN        : MSFL:resistividad:r1:0001:v1 
NPHI     .v/v_decimal UNKNOWN        : NPHI:porosidad:r1:0001:v1 
PEF      .UNKNOWN     UNKNOWN        : PEF:litodensidad:r1:0001:v1 
POTA     .UNKNOWN     UNKNOWN        : POTA:radioactividad:r1:0001:v1 
RHOB     .g/cm3       UNKNOWN        : RHOB:litodensidad:r1:0001:v1 
SGR      .UNKNOWN     UNKNOWN        : SGR:radioactividad:r1:0001:v1 
THOR     .ppm         UNKNOWN        : THOR:radioactividad:r1:0001:v1 
URAN     .ppm         UNKNOWN        : URAN:radioactividad:r1:0001:v1 
~A     DEPTH         CALI          CGR         DRHO           DT       GR-LWD      ILD-LWD      ILM-LWD      LLD-LWD          LLD          LLS         MSFL         NPHI          PEF         POTA         RHOB          SGR         THOR         URAN
# ...
   3258.3672      10.9563      11.9045       0.0214      56.3669    -999.2500    -999.2500    -999.2500    -999.2500     784.1651     326.1419     204.5497      10.3768       3.1548       0.0045       2.6066      31.0624       0.9405       2.1585
   3258.5195      10.9510       6.1989       0.0215      57.6330    -999.2500    -999.2500    -999.2500    -999.2500     773.4537     323.1344     163.6758       9.8686       3.0587       0.0033       2.6006      27.2840       0.0902       2.3756
   3258.6719      11.0014       5.5404       0.0186      60.1036    -999.2500    -999.2500    -999.2500    -999.2500     790.4483     331.6454     203.7265       9.3912       2.7089       0.0020       2.5744      30.4994       0.4693       2.8121
   3258.8245      11.1787       4.4020       0.0216      60.6302    -999.2500    -999.2500    -999.2500    -999.2500     803.3104     335.7365     239.8151       8.3188       2.4405       0.0012       2.5559      29.5521       0.5581       2.8336
   3258.9768      11.4252       4.7282       0.0353      60.2395    -999.2500    -999.2500    -999.2500    -999.2500     805.5358     334.3279     342.8990       7.7345       2.4627       0.0010       2.5595      30.8018       0.7199       2.9377
   3259.1292      11.4750       5.3378       0.0617      59.5351    -999.2500    -999.2500    -999.2500    -999.2500     795.8144     329.4199     358.1629       8.2975       2.7989       0.0013       2.5968      31.5774       0.7197       2.9564
   3259.2815      11.1572       5.3332       0.0810      58.7459    -999.2500    -999.2500    -999.2500    -999.2500     788.4341     326.7958     264.4074       9.4089       3.2152       0.0019       2.6313      30.6774       0.4816       2.8555
   3259.4341      11.0046       6.9920       0.0804      58.8883    -999.2500    -999.2500    -999.2500    -999.2500     805.9506     335.2424     221.2548       9.7985       3.4784       0.0029       2.6651      32.1271       0.4404       2.8320
   3259.5864      11.1611       4.9644       0.0686      58.6749    -999.2500    -999.2500    -999.2500    -999.2500     832.7255     346.2558     189.0648       9.0074       3.6073       0.0022       2.6882      28.1971       0.2566       2.6176
   3259.7388      11.5734       5.4787       0.0466      58.5160    -999.2500    -999.2500    -999.2500    -999.2500     871.2773     366.2003     183.8744       8.6413       3.5651       0.0024       2.6999      27.9949       0.3099       2.5369
   3259.8911      11.8373       7.6009       0.0250      52.6703    -999.2500    -999.2500    -999.2500    -999.2500     930.2085     399.7418     242.7358       8.7393       3.4520       0.0028       2.6902      30.3449       0.6242       2.5625
   3260.0437      11.7790       7.3074       0.0077      44.8546    -999.2500    -999.2500    -999.2500    -999.2500     957.9606     423.3102     330.3244       8.9073       3.2501       0.0025       2.6776      29.7356       0.6952       2.5270
   3260.1960      11.5918       7.5676       0.0059      55.1311    -999.2500    -999.2500    -999.2500    -999.2500     880.3771     399.2072     338.9963       8.9568       3.2625       0.0024       2.6818      29.8941       0.7862       2.5155
   3260.3484      11.3007       8.4785       0.0076      54.7446    -999.2500    -999.2500    -999.2500    -999.2500     738.3687     341.6299     430.0939       8.9392       3.2482       0.0025       2.6869      31.1035       0.9717       2.5491
   3260.5007      11.1136       9.1833       0.0078      53.2948    -999.2500    -999.2500    -999.2500    -999.2500     626.7188     293.3151     677.2918       9.4062       3.3873       0.0022       2.6746      32.2525       1.2366       2.5992
   3260.6531      11.2259      10.9960       0.0048      54.1103    -999.2500    -999.2500    -999.2500    -999.2500     560.5094     264.8495     973.3825      10.3652       3.5002       0.0026       2.6430      34.7145       1.5013       2.6723
   3260.8057      11.5812      13.0733       0.0036      54.0336    -999.2500    -999.2500    -999.2500    -999.2500     514.8393     243.9261     262.9183      11.0428       3.5705       0.0035       2.5959      37.2742       1.6248       2.7267
   3260.9580      11.8278      12.8930       0.0028      54.9628    -999.2500    -999.2500    -999.2500    -999.2500     533.4691     247.8253     117.8804      11.5951       3.4783       0.0033       2.5678      37.0760       1.6759       2.7247
   3261.1104      11.7084       9.9060       0.0057      55.2861    -999.2500    -999.2500    -999.2500    -999.2500     626.8443     280.9549     216.9601      11.7367       3.2836       0.0023       2.5673      31.8432       1.3672       2.4716
   3261.2627      11.5089      11.5147       0.0089      55.7823    -999.2500    -999.2500    -999.2500    -999.2500     753.9598     327.6077     235.1440      11.7541       3.2032       0.0029       2.5903      33.2155       1.5149       2.4450
   3261.4153      11.3752      15.0938       0.0082      55.9466    -999.2500    -999.2500    -999.2500    -999.2500     872.0571     371.3213     256.9386      11.3178       3.2102       0.0043       2.6079      36.8476       1.7541       2.4510
   3261.5676      11.4287      16.4926       0.0066      57.3424    -999.2500    -999.2500    -999.2500    -999.2500     986.2834     409.6935     303.5266      10.7184       3.1805       0.0049       2.6176      38.0428       1.8550       2.4280
   3261.7200      11.6053      15.5443       0.0087      58.0381    -999.2500    -999.2500    -999.2500    -999.2500    1094.9473     441.8817     206.1043      10.7340       3.0379       0.0049       2.6241      35.8506       1.6225       2.2879
   3261.8723      11.8061      14.0098       0.0088      58.2977    -999.2500    -999.2500    -999.2500    -999.2500    1184.8197     466.9535     385.3907      11.4605       3.0900       0.0050       2.6255      33.2784       1.2281       2.1710
   3262.0249      11.8319      11.8070       0.0086      58.4020    -999.2500    -999.2500    -999.2500    -999.2500    1276.5950     494.4768     296.6864      12.1850       3.2142       0.0047       2.6270      30.1575       0.8114       2.0675
   3262.1772      11.7884      11.3179       0.0107      58.0443    -999.2500    -999.2500    -999.2500    -999.2500    1128.3287     446.7816     333.6340      12.6649       3.4023       0.0047       2.6334      29.5625       0.7197       2.0556
   3262.3296      11.5927      11.2252       0.0120      57.4873    -999.2500    -999.2500    -999.2500    -999.2500     692.7241     298.1302     423.3367      12.6945       3.4121       0.0045       2.6367      29.7799       0.7588       2.0905
   3262.4819      11.3802      13.0817       0.0133      57.7601    -999.2500    -999.2500    -999.2500    -999.2500     534.7736     238.2807     549.7740      13.1601       3.4947       0.0046       2.6358      33.3498       1.1798       2.2836
   3262.6343      11.4638      14.5125       0.0140      58.1203    -999.2500    -999.2500    -999.2500    -999.2500     489.7347     220.0204     459.0003      13.0670       3.5685       0.0050       2.6390      35.3725       1.3428       2.3503
   3262.7869      11.5724      15.2460       0.0137      57.6954    -999.2500    -999.2500    -999.2500    -999.2500     494.1795     221.9910     155.2474      13.0600       3.5688       0.0051       2.6352      36.4585       1.4708       2.3900
   3262.9392      11.7374      13.6285       0.0125      57.9473    -999.2500    -999.2500    -999.2500    -999.2500     504.5812     224.2990     169.2085      12.9562       3.5128       0.0041       2.6294      34.7868       1.4980       2.3839
   3263.0916      11.6373      12.0284       0.0106      57.9917    -999.2500    -999.2500    -999.2500    -999.2500     509.1001     221.6202     204.5034      13.7403       3.3181       0.0031       2.6124      33.1483       1.5650       2.3796
   3263.2439      11.4278      15.1158       0.0069      58.7868    -999.2500    -999.2500    -999.2500    -999.2500     505.0855     218.9422     181.4760      14.6264       3.1621       0.0039       2.6026      37.1788       1.9570       2.4858
