#------------------------------------------------------------------------------
#
#   Created by  : [OpenWorks] Log Export Utility (LEXP)
#   Created on  : 2016-05-12 18:36:02
#   Project     : CANT971
#   User        : R5K
#   Interpreter : PEP
#
#------------------------------------------------------------------------------
~VERSION INFORMATION
VERS. 2.0 : CWLS Log ASCII Standard - version 2.0
WRAP.  NO : One line per depth step
~WELL INFORMATION
#MNEMONIC   .UNIT                                           VALUE :DESCRIPTION
#------------------------------------------------------------------------------
STRT        .M                                          2041.3008 :START DEPTH
STOP        .M                                          3401.7756 :STOP DEPTH
STEP        .M                                             0.1524 :STEP
NULL        .                                           -999.2500 :NULL VALUE
COMP        .                                   PEMEX EXPL & PROD :COMPANY
WELL        .                                               1031D :WELL
FLD         .                                           CANTARELL :FIELD
LOC         .                                             UNKNOWN :LOCATION
CNTY        .                                      CD. DEL CARMEN :COUNTY
STAT        .                                            CAMPECHE :STATE
CTRY        .                                              MEXICO :COUNTRY
SRVC        .                                             UNKNOWN :SERVICE COMPANY
DATE        .                                             UNKNOWN :LOG DATE
UWI         .                                               1031D :UNIQUE WELL ID
XCOORD      .                                       597334.590000 :SURFACE X
YCOORD      .                                      2152076.210000 :SURFACE Y
LAT         .                                           19.461948 :LATITUDE
LON         .                                          -92.072661 :LONGITUDE
ELEV        .M                                            26.5400 :SURFACE ELEV
ELEV_TYPE   .                                                  KB :ELEV TYPE
~CURVE INFORMATION
#MNEMONIC.UNIT        API CODE       : CURVE DESCRIPTION
#------------------------------------------------------------------------------
DEPTH    .M                          : Measured Depth
CALI     .UNKNOWN     UNKNOWN        : CALI:litodensidad:r1:0001:v1 
CGR      .UNKNOWN     UNKNOWN        : CGR:radioactividad:r1:0001:v1 
DRHO     .g/cm3       UNKNOWN        : DRHO:litodensidad:r1:0001:v1 
DT       .us/ft       UNKNOWN        : DT:DT-Load:r1:0001:v1 
GR-LWD   .UNKNOWN     UNKNOWN        : GR-LWD:GR-LWD:r2:MAIN:v1 
ILD-LWD  .UNKNOWN     UNKNOWN        : ILD-LWD:ILD-LWD:r1:MAIN:v1 
ILM-LWD  .UNKNOWN     UNKNOWN        : ILM-LWD:ILM-LWD:r1:MAIN:v1 
LLD-LWD  .UNKNOWN     UNKNOWN        : LLD-LWD:LLD-LWD:r1:MAIN:v1 
LLD      .ohm.m       UNKNOWN        : LLD:resistividad:r1:0001:v1 
LLS      .ohm.m       UNKNOWN        : LLS:resistividad:r1:0001:v1 
MSFL     .ohm.m       UNKNOWN        : MSFL:resistividad:r1:0001:v1 
NPHI     .v/v_decimal UNKNOWN        : NPHI:porosidad:r1:0001:v1 
PEF      .UNKNOWN     UNKNOWN        : PEF:litodensidad:r1:0001:v1 
POTA     .UNKNOWN     UNKNOWN        : POTA:radioactividad:r1:0001:v1 
RHOB     .g/cm3       UNKNOWN        : RHOB:litodensidad:r1:0001:v1 
SGR      .UNKNOWN     UNKNOWN        : SGR:radioactividad:r1:0001:v1 
THOR     .ppm         UNKNOWN        : THOR:radioactividad:r1:0001:v1 
URAN     .ppm         UNKNOWN        : URAN:radioactividad:r1:0001:v1 
~A     DEPTH         CALI          CGR         DRHO           DT       GR-LWD      ILD-LWD      ILM-LWD      LLD-LWD          LLD          LLS         MSFL         NPHI          PEF         POTA         RHOB          SGR         THOR         URAN
# ...
   2524.1040      17.5752      21.9618       0.1234      79.3439    -999.2500    -999.2500    -999.2500    -999.2500       3.0575       2.6498       2.2818      32.0471       2.7271       0.0106       2.0730      37.9743       1.2541       2.0097
   2524.2563      16.6825      24.9433       0.1367      84.1823    -999.2500    -999.2500    -999.2500    -999.2500       2.9220       2.5617       1.9377      32.1045       2.4261       0.0121       2.0409      41.2135       1.4165       2.0421
   2524.4087      14.2279      26.6062       0.1479      94.8510    -999.2500    -999.2500    -999.2500    -999.2500       2.7356       2.4712       1.9350      33.9314       2.5718       0.0132       2.0165      42.5890       1.3645       2.0060
   2524.5613      14.6287      26.5882       0.1703      91.3640    -999.2500    -999.2500    -999.2500    -999.2500       2.7536       2.5477       1.9575      31.5657       3.2157       0.0138       2.0905      41.7541       1.1353       1.9035
   2524.7136      17.8090      27.5167       0.2095      93.4571    -999.2500    -999.2500    -999.2500    -999.2500       2.9000       2.7084       1.9882      27.9306       3.6883       0.0141       2.2441      42.8327       1.2240       1.9223
   2524.8660      17.0161      25.8604       0.2611      93.9575    -999.2500    -999.2500    -999.2500    -999.2500       2.9529       2.7686       2.4466      26.1655       3.5214       0.0139       2.3882      39.7096       0.8886       1.7382
   2525.0183      16.6277      24.5036       0.2338      87.6994    -999.2500    -999.2500    -999.2500    -999.2500       2.9553       2.7788       2.0048      31.6364       3.2213       0.0142       2.3437      36.6921       0.4019       1.5298
   2525.1709      16.3963      24.5869       0.1743      89.1681    -999.2500    -999.2500    -999.2500    -999.2500       2.8526       2.7350       2.2079      38.7417       3.0756       0.0150       2.2162      35.8420       0.0749       1.4126
   2525.3232      14.7901      23.8602       0.1254      75.6521    -999.2500    -999.2500    -999.2500    -999.2500       2.9940       2.9146       2.4445      39.3575       3.2948       0.0153       2.1699      33.8810      -0.2413       1.2577
   2525.4756      14.8396      24.2597       0.0860      85.9090    -999.2500    -999.2500    -999.2500    -999.2500       3.5146       3.4219       3.2953      27.9707       3.7781       0.0149       2.2191      35.2614       0.0519       1.3808
   2525.6279      15.8837      23.6357       0.0599      75.1656    -999.2500    -999.2500    -999.2500    -999.2500       4.5577       4.3571       7.2734      14.8094       4.5422       0.0131       2.3454      36.8028       0.6641       1.6526
   2525.7803      16.5012      25.6019       0.0680      68.2640    -999.2500    -999.2500    -999.2500    -999.2500       5.8070       5.4336      85.9098       7.8316       5.1441       0.0163       2.4739      36.3497      -0.2014       1.3490
   2525.9329      15.2686      36.4988       0.0965      73.8943    -999.2500    -999.2500    -999.2500    -999.2500       5.9098       5.5290       7.3410       9.8374       4.7875       0.0236       2.5154      45.4311      -0.4380       1.1211
   2526.0852      13.0842      26.4819       0.1267      75.1804    -999.2500    -999.2500    -999.2500    -999.2500       5.3172       5.0380       2.7299      14.8538       4.2729       0.0130       2.4619      35.8517       1.4212       1.1760
   2526.2375      12.5600      26.4499       0.1389      79.7390    -999.2500    -999.2500    -999.2500    -999.2500       4.6201       4.4794       3.3234      18.1727       3.9869       0.0121       2.3665      34.5872       1.8169       1.0213
   2526.3899      12.6257      30.0329       0.1491      87.8670    -999.2500    -999.2500    -999.2500    -999.2500       3.6152       3.5425       2.9850      19.0851       4.0545       0.0129       2.3490      38.9230       2.4296       1.1158
   2526.5425      13.3907      31.9867       0.1687      78.5763    -999.2500    -999.2500    -999.2500    -999.2500       3.3942       3.2970       2.4370      18.4763       4.1363       0.0133       2.3815      41.7331       2.7362       1.2233
   2526.6948      15.0343      32.6206       0.1869      64.2736    -999.2500    -999.2500    -999.2500    -999.2500       3.4327       3.3659       2.9986      18.3964       3.9455       0.0139       2.4308      41.9319       2.6861       1.1687
   2526.8472      15.4344      31.6758       0.1665      78.4331    -999.2500    -999.2500    -999.2500    -999.2500       3.3940       3.3385       3.1739      18.6474       3.7514       0.0144       2.4029      39.1113       2.1952       0.9332
   2526.9995      14.6048      31.6914       0.1617      79.5440    -999.2500    -999.2500    -999.2500    -999.2500       3.4808       3.4159       3.0434      20.0972       3.6479       0.0148       2.3773      38.8861       2.0358       0.9030
   2527.1521      13.8006      29.9161       0.1680      77.2909    -999.2500    -999.2500    -999.2500    -999.2500       3.6488       3.4930       2.7357      22.0602       3.7102       0.0144       2.3730      36.3893       1.7483       0.8125
   2527.3044      14.2321      29.4719       0.1744      81.9020    -999.2500    -999.2500    -999.2500    -999.2500       3.4575       3.2277       6.2398      23.4831       3.5514       0.0139       2.3778      36.5468       1.8401       0.8880
   2527.4568      15.4326      29.7895       0.1725      85.2589    -999.2500    -999.2500    -999.2500    -999.2500       3.3170       3.0761       4.4456      26.2691       3.4800       0.0139       2.3674      38.1212       1.9235       1.0457
   2527.6091      15.1821      29.9882       0.1563      83.3526    -999.2500    -999.2500    -999.2500    -999.2500       3.1817       2.9407       2.3398      26.9611       3.5053       0.0140       2.3237      39.4515       1.9374       1.1877
   2527.7615      13.7678      29.7808       0.1591      88.0996    -999.2500    -999.2500    -999.2500    -999.2500       3.1230       2.8634       2.9898      27.5270       3.3877       0.0140       2.2706      40.0859       1.8869       1.2934
   2527.9141      14.0203      30.4801       0.1766      87.9402    -999.2500    -999.2500    -999.2500    -999.2500       3.1878       2.9051       2.6582      27.5222       3.1455       0.0142       2.2017      41.8276       1.9798       1.4242
   2528.0664      14.6584      30.6559       0.1686      85.5701    -999.2500    -999.2500    -999.2500    -999.2500       3.1291       2.8664       2.2670      29.3877       2.9440       0.0144       2.1007      42.6072       1.9561       1.5000
   2528.2188      15.7686      29.4999       0.1606      89.1113    -999.2500    -999.2500    -999.2500    -999.2500       3.0681       2.8331       2.5462      32.1386       2.7489       0.0142       2.0619      41.0366       1.7005       1.4480
   2528.3711      16.7418      28.3439       0.1810      81.7591    -999.2500    -999.2500    -999.2500    -999.2500       3.2284       2.9995       2.2001      35.3617       2.7351       0.0140       2.0944      46.5595       1.5117       2.2863
   2528.5237      16.5429      27.3246       0.1668      86.5064    -999.2500    -999.2500    -999.2500    -999.2500       3.3132       3.0797       2.5844      37.5658       2.9448       0.0134       2.1503      55.2134       1.4689       3.5004
   2528.6760      15.5230      25.8168       0.1603      91.2961    -999.2500    -999.2500    -999.2500    -999.2500       3.1032       2.8489       2.1555      36.6306       3.4843       0.0131       2.2000      43.0346       1.2190       2.1610
   2528.8284      15.6853      26.7812       0.1599      87.4000    -999.2500    -999.2500    -999.2500    -999.2500       2.7919       2.5664       2.7091      30.1064       3.4568       0.0135       2.2362      44.3017       1.3116       2.1990
   2528.9807      15.7193      26.2880       0.1260      86.4459    -999.2500    -999.2500    -999.2500    -999.2500       2.6837       2.4725       2.3260      26.6424       3.0936       0.0129       2.1390      43.4939       1.4163       2.1595
