#------------------------------------------------------------------------------
#
#   Created by  : [OpenWorks] Log Export Utility (LEXP)
#   Created on  : 2016-05-12 18:36:02
#   Project     : CANT971
#   User        : R5K
#   Interpreter : PEP
#
#------------------------------------------------------------------------------
~VERSION INFORMATION
VERS. 2.0 : CWLS Log ASCII Standard - version 2.0
WRAP.  NO : One line per depth step
~WELL INFORMATION
#MNEMONIC   .UNIT                                           VALUE :DESCRIPTION
#------------------------------------------------------------------------------
STRT        .M                                          2041.3008 :START DEPTH
STOP        .M                                          3401.7756 :STOP DEPTH
STEP        .M                                             0.1524 :STEP
NULL        .                                           -999.2500 :NULL VALUE
COMP        .                                   PEMEX EXPL & PROD :COMPANY
WELL        .                                               1031D :WELL
FLD         .                                           CANTARELL :FIELD
LOC         .                                             UNKNOWN :LOCATION
CNTY        .                                      CD. DEL CARMEN :COUNTY
STAT        .                                            CAMPECHE :STATE
CTRY        .                                              MEXICO :COUNTRY
SRVC        .                                             UNKNOWN :SERVICE COMPANY
DATE        .                                             UNKNOWN :LOG DATE
UWI         .                                               1031D :UNIQUE WELL ID
XCOORD      .                                       597334.590000 :SURFACE X
YCOORD      .                                      2152076.210000 :SURFACE Y
LAT         .                                           19.461948 :LATITUDE
LON         .                                          -92.072661 :LONGITUDE
ELEV        .M                                            26.5400 :SURFACE ELEV
ELEV_TYPE   .                                                  KB :ELEV TYPE
~CURVE INFORMATION
#MNEMONIC.UNIT        API CODE       : CURVE DESCRIPTION
#------------------------------------------------------------------------------
DEPTH    .M                          : Measured Depth
CALI     .UNKNOWN     UNKNOWN        : CALI:litodensidad:r1:0001:v1 
CGR      .UNKNOWN     UNKNOWN        : CGR:radioactividad:r1:0001:v1 
DRHO     .g/cm3       UNKNOWN        : DRHO:litodensidad:r1:0001:v1 
DT       .us/ft       UNKNOWN        : DT:DT-Load:r1:0001:v1 
GR-LWD   .UNKNOWN     UNKNOWN        : GR-LWD:GR-LWD:r2:MAIN:v1 
ILD-LWD  .UNKNOWN     UNKNOWN        : ILD-LWD:ILD-LWD:r1:MAIN:v1 
ILM-LWD  .UNKNOWN     UNKNOWN        : ILM-LWD:ILM-LWD:r1:MAIN:v1 
LLD-LWD  .UNKNOWN     UNKNOWN        : LLD-LWD:LLD-LWD:r1:MAIN:v1 
LLD      .ohm.m       UNKNOWN        : LLD:resistividad:r1:0001:v1 
LLS      .ohm.m       UNKNOWN        : LLS:resistividad:r1:0001:v1 
MSFL     .ohm.m       UNKNOWN        : MSFL:resistividad:r1:0001:v1 
NPHI     .v/v_decimal UNKNOWN        : NPHI:porosidad:r1:0001:v1 
PEF      .UNKNOWN     UNKNOWN        : PEF:litodensidad:r1:0001:v1 
POTA     .UNKNOWN     UNKNOWN        : POTA:radioactividad:r1:0001:v1 
RHOB     .g/cm3       UNKNOWN        : RHOB:litodensidad:r1:0001:v1 
SGR      .UNKNOWN     UNKNOWN        : SGR:radioactividad:r1:0001:v1 
THOR     .ppm         UNKNOWN        : THOR:radioactividad:r1:0001:v1 
URAN     .ppm         UNKNOWN        : URAN:radioactividad:r1:0001:v1 
~A     DEPTH         CALI          CGR         DRHO           DT       GR-LWD      ILD-LWD      ILM-LWD      LLD-LWD          LLD          LLS         MSFL         NPHI          PEF         POTA         RHOB          SGR         THOR         URAN
# ...
   2594.5127      13.0834      10.8828       0.1916      74.8227    -999.2500    -999.2500    -999.2500    -999.2500       4.0690       3.5273       4.4710      22.2393       3.9601       0.0050       2.4182      61.5669       0.7403       6.3614
   2594.6653      14.5695      11.0160       0.2354      77.5065    -999.2500    -999.2500    -999.2500    -999.2500       4.3265       3.7165       4.3747      22.8548       3.9379       0.0053       2.4380      61.1761       0.6642       6.2956
   2594.8176      16.3349      11.2489       0.2596      72.4884    -999.2500    -999.2500    -999.2500    -999.2500       5.3724       4.5260       5.1309      22.1511       3.8750       0.0055       2.5224      61.3704       0.6192       6.2908
   2594.9700      13.6472      10.6614       0.2765      73.6183    -999.2500    -999.2500    -999.2500    -999.2500       6.0524       5.0643       7.5939      19.3001       3.8573       0.0055       2.6275      60.2684       0.4590       6.2262
   2595.1223      13.4067       7.5938       0.2572      75.2433    -999.2500    -999.2500    -999.2500    -999.2500       5.1879       4.2985       7.9634      17.0760       3.7839       0.0046       2.6746      55.3282       0.0304       5.9912
   2595.2749      13.3062       5.0023       0.2026      73.1425    -999.2500    -999.2500    -999.2500    -999.2500       4.6240       3.8373       7.6214      16.4780       3.8098       0.0038       2.5944      51.3157      -0.3125       5.8128
   2595.4272      13.2674       6.3166       0.1740      73.4103    -999.2500    -999.2500    -999.2500    -999.2500       4.4246       3.6786       7.2280      17.2809       3.7872       0.0037       2.5391      53.1177       0.0954       5.8740
   2595.5796      13.3835      11.5514       0.1757      73.9826    -999.2500    -999.2500    -999.2500    -999.2500       4.1224       3.4421       3.5743      20.2285       3.6759       0.0042       2.5276      60.1341       1.2351       6.0977
   2595.7319      13.4539      15.5905       0.1713      76.6134    -999.2500    -999.2500    -999.2500    -999.2500       3.8286       3.2138       3.7904      24.4122       3.5365       0.0049       2.5187      65.4087       2.0222       6.2527
   2595.8843      13.4306      18.2594       0.1569      77.5906    -999.2500    -999.2500    -999.2500    -999.2500       3.7132       3.1139       3.0033      29.5910       3.4813       0.0057       2.5197      68.7708       2.3900       6.3397
   2596.0369      13.4807      18.9371       0.1208      80.0284    -999.2500    -999.2500    -999.2500    -999.2500       3.8393       3.2012       3.6473      32.1339       3.5303       0.0060       2.5037      70.0136       2.4200       6.4107
   2596.1892      14.2131      16.9490       0.0816      82.2230    -999.2500    -999.2500    -999.2500    -999.2500       4.2149       3.4863       4.5037      32.0357       3.5548       0.0052       2.5022      67.8678       2.2385       6.3909
   2596.3416      15.0516      16.7712       0.0547      80.9388    -999.2500    -999.2500    -999.2500    -999.2500       4.8817       4.0126       5.9611      28.8235       3.5131       0.0049       2.5040      67.8728       2.3235       6.4138
   2596.4939      14.0608      17.0463       0.0273      79.9217    -999.2500    -999.2500    -999.2500    -999.2500       5.1669       4.2750       5.8688      26.0915       3.5451       0.0048       2.4984      68.3659       2.4466       6.4412
   2596.6465      13.7896      15.4884       0.0091      78.5388    -999.2500    -999.2500    -999.2500    -999.2500       5.0204       4.1720       6.3198      24.2431       3.5651       0.0043       2.4840      65.4694       2.2541       6.2732
   2596.7988      13.6403      15.5023       0.0047      78.4682    -999.2500    -999.2500    -999.2500    -999.2500       4.8657       4.0615       6.2400      23.9238       3.5014       0.0051       2.4693      63.5023       1.9257       6.0245
   2596.9512      13.5947      13.6649       0.0051      78.5407    -999.2500    -999.2500    -999.2500    -999.2500       4.7207       3.9609       6.1487      24.4717       3.4251       0.0062       2.4559      57.1531       0.9525       5.4582
   2597.1035      13.6900      13.3297       0.0058      78.4130    -999.2500    -999.2500    -999.2500    -999.2500       4.5875       3.8597       6.3294      25.2137       3.4103       0.0061       2.4449      56.8737       0.9189       5.4652
   2597.2559      13.7021      10.0971       0.0081      79.8922    -999.2500    -999.2500    -999.2500    -999.2500       4.6398       3.9065       5.5477      25.3968       3.5017       0.0047       2.4372      52.6045       0.6588       5.3351
   2597.4084      13.6581       9.5781       0.0124      79.5164    -999.2500    -999.2500    -999.2500    -999.2500       4.8252       4.0597       5.7846      25.8613       3.4574       0.0045       2.4358      51.7581       0.6034       5.2941
   2597.5608      13.6308       9.3413       0.0140      79.1887    -999.2500    -999.2500    -999.2500    -999.2500       5.0555       4.2410       6.8118      26.5488       3.4389       0.0044       2.4384      51.9230       0.6023       5.3445
   2597.7131      13.6049      11.4241       0.0166      78.1381    -999.2500    -999.2500    -999.2500    -999.2500       5.2491       4.4098       6.5729      27.1237       3.5310       0.0049       2.4631      55.6506       0.9288       5.5509
   2597.8655      13.5682       3.7218       0.0239      76.7465    -999.2500    -999.2500    -999.2500    -999.2500       5.3725       4.5156       6.4410      26.6186       3.7434       0.0005       2.4964      50.0182       0.7478       5.8107
   2598.0181      13.5260      -4.0314       0.0229      75.0360    -999.2500    -999.2500    -999.2500    -999.2500       5.5603       4.6660       6.4757      25.1220       3.7736      -0.0052       2.5091      49.2716       1.1451       6.6901
   2598.1704      13.5364       6.1616       0.0175      74.5686    -999.2500    -999.2500    -999.2500    -999.2500       5.8171       4.8920       6.8008      24.5073       3.6299      -0.0001       2.4955      59.7528       1.6641       6.7263
   2598.3228      13.6542       5.8399       0.0140      70.0772    -999.2500    -999.2500    -999.2500    -999.2500       5.8883       4.9805       6.5515      23.8857       3.4447       0.0011       2.4787      52.3301       1.0846       5.8350
   2598.4751      13.6178       6.0864       0.0143      65.9745    -999.2500    -999.2500    -999.2500    -999.2500       5.8757       5.0096       6.2400      23.7453       3.4083       0.0012       2.4746      52.1985       1.0928       5.7876
   2598.6277      13.5816       5.6418       0.0132      75.2344    -999.2500    -999.2500    -999.2500    -999.2500       5.8817       5.0440       6.5464      23.4149       3.3996       0.0013       2.4733      50.8898       0.9506       5.6791
   2598.7800      13.5487       5.0139       0.0152      74.9031    -999.2500    -999.2500    -999.2500    -999.2500       5.8399       5.0406       6.6889      23.4850       3.4962       0.0011       2.4731      49.6552       0.8398       5.6030
   2598.9324      13.4908       4.2767       0.0169      74.4152    -999.2500    -999.2500    -999.2500    -999.2500       5.9685       5.2187       6.3056      23.2949       3.5790       0.0012       2.4676      47.9826       0.6214       5.4856
   2599.0847      13.4116       7.7520       0.0196      74.2117    -999.2500    -999.2500    -999.2500    -999.2500       6.2964       5.5717       6.3871      22.0321       3.6539       0.0028       2.4691      51.8047       0.8343       5.5291
   2599.2371      13.4252      14.0149       0.0242      73.7321    -999.2500    -999.2500    -999.2500    -999.2500       6.5836       5.8539       6.5823      20.7959       3.6254       0.0059       2.4829      58.3156       1.1911       5.5602
   2599.3896      13.5135      11.9726       0.0281      72.5223    -999.2500    -999.2500    -999.2500    -999.2500       7.4384       6.5925       8.3032      19.6079       3.5244       0.0057       2.5017      54.1515       0.7412       5.2939
