#------------------------------------------------------------------------------
#
#   Created by  : [OpenWorks] Log Export Utility (LEXP)
#   Created on  : 2016-05-12 18:36:02
#   Project     : CANT971
#   User        : R5K
#   Interpreter : PEP
#
#------------------------------------------------------------------------------
~VERSION INFORMATION
VERS. 2.0 : CWLS Log ASCII Standard - version 2.0
WRAP.  NO : One line per depth step
~WELL INFORMATION
#MNEMONIC   .UNIT                                           VALUE :DESCRIPTION
#------------------------------------------------------------------------------
STRT        .M                                          2041.3008 :START DEPTH
STOP        .M                                          3401.7756 :STOP DEPTH
STEP        .M                                             0.1524 :STEP
NULL        .                                           -999.2500 :NULL VALUE
COMP        .                                   PEMEX EXPL & PROD :COMPANY
WELL        .                                               1031D :WELL
FLD         .                                           CANTARELL :FIELD
LOC         .                                             UNKNOWN :LOCATION
CNTY        .                                      CD. DEL CARMEN :COUNTY
STAT        .                                            CAMPECHE :STATE
CTRY        .                                              MEXICO :COUNTRY
SRVC        .                                             UNKNOWN :SERVICE COMPANY
DATE        .                                             UNKNOWN :LOG DATE
UWI         .                                               1031D :UNIQUE WELL ID
XCOORD      .                                       597334.590000 :SURFACE X
YCOORD      .                                      2152076.210000 :SURFACE Y
LAT         .                                           19.461948 :LATITUDE
LON         .                                          -92.072661 :LONGITUDE
ELEV        .M                                            26.5400 :SURFACE ELEV
ELEV_TYPE   .                                                  KB :ELEV TYPE
~CURVE INFORMATION
#MNEMONIC.UNIT        API CODE       : CURVE DESCRIPTION
#------------------------------------------------------------------------------
DEPTH    .M                          : Measured Depth
CALI     .UNKNOWN     UNKNOWN        : CALI:litodensidad:r1:0001:v1 
CGR      .UNKNOWN     UNKNOWN        : CGR:radioactividad:r1:0001:v1 
DRHO     .g/cm3       UNKNOWN        : DRHO:litodensidad:r1:0001:v1 
DT       .us/ft       UNKNOWN        : DT:DT-Load:r1:0001:v1 
GR-LWD   .UNKNOWN     UNKNOWN        : GR-LWD:GR-LWD:r2:MAIN:v1 
ILD-LWD  .UNKNOWN     UNKNOWN        : ILD-LWD:ILD-LWD:r1:MAIN:v1 
ILM-LWD  .UNKNOWN     UNKNOWN        : ILM-LWD:ILM-LWD:r1:MAIN:v1 
LLD-LWD  .UNKNOWN     UNKNOWN        : LLD-LWD:LLD-LWD:r1:MAIN:v1 
LLD      .ohm.m       UNKNOWN        : LLD:resistividad:r1:0001:v1 
LLS      .ohm.m       UNKNOWN        : LLS:resistividad:r1:0001:v1 
MSFL     .ohm.m       UNKNOWN        : MSFL:resistividad:r1:0001:v1 
NPHI     .v/v_decimal UNKNOWN        : NPHI:porosidad:r1:0001:v1 
PEF      .UNKNOWN     UNKNOWN        : PEF:litodensidad:r1:0001:v1 
POTA     .UNKNOWN     UNKNOWN        : POTA:radioactividad:r1:0001:v1 
RHOB     .g/cm3       UNKNOWN        : RHOB:litodensidad:r1:0001:v1 
SGR      .UNKNOWN     UNKNOWN        : SGR:radioactividad:r1:0001:v1 
THOR     .ppm         UNKNOWN        : THOR:radioactividad:r1:0001:v1 
URAN     .ppm         UNKNOWN        : URAN:radioactividad:r1:0001:v1 
~A     DEPTH         CALI          CGR         DRHO           DT       GR-LWD      ILD-LWD      ILM-LWD      LLD-LWD          LLD          LLS         MSFL         NPHI          PEF         POTA         RHOB          SGR         THOR         URAN
# ...
   2725.2720      12.0010      15.9931       0.0164      56.8521    -999.2500    -999.2500    -999.2500    -999.2500     474.5474     300.6445      74.3938       8.6486       3.5792       0.0058       2.6513      46.1813       1.3658       3.4013
   2725.4243      12.1449      18.6841       0.0131      56.9921    -999.2500    -999.2500    -999.2500    -999.2500     454.3966     287.0872      81.1070       8.2565       3.6160       0.0048       2.6490      48.4036       2.4100       3.3485
   2725.5767      12.2240      12.9638       0.0122      57.6456    -999.2500    -999.2500    -999.2500    -999.2500     400.1530     255.5067      69.3269       7.9958       3.5643       0.0036       2.6481      39.9103       1.5648       3.0360
   2725.7292      12.1011      11.1111       0.0139      56.9511    -999.2500    -999.2500    -999.2500    -999.2500     406.6260     259.0128      86.1049       7.8341       3.4931       0.0038       2.6563      37.4083       1.0551       2.9629
   2725.8816      11.8829      11.9611       0.0143      54.9165    -999.2500    -999.2500    -999.2500    -999.2500     421.0874     266.4869     223.6408       7.7648       3.3829       0.0044       2.6552      38.7835       0.9785       3.0221
   2726.0339      11.7293      13.2610       0.0165      53.1700    -999.2500    -999.2500    -999.2500    -999.2500     450.2883     283.4305     198.3201       7.4818       3.3334       0.0051       2.6671      40.8447       0.9980       3.1078
   2726.1863      11.8317      14.7213       0.0255      53.0078    -999.2500    -999.2500    -999.2500    -999.2500     476.4464     301.3365     252.1244       7.3359       3.3576       0.0058       2.6953      43.0719       1.0549       3.1942
   2726.3389      11.9112      12.1601       0.0269      53.0480    -999.2500    -999.2500    -999.2500    -999.2500     481.2839     305.7754      81.0180       7.3459       3.5427       0.0050       2.7129      39.1126       0.7597       3.0367
   2726.4912      12.1089      11.2175       0.0167      53.9325    -999.2500    -999.2500    -999.2500    -999.2500     463.8123     293.6268     169.1567       7.5375       3.5699       0.0048       2.6989      37.7195       0.6508       2.9860
   2726.6436      12.0871      11.3079       0.0108      54.1775    -999.2500    -999.2500    -999.2500    -999.2500     424.0352     268.0570     123.2312       7.7435       3.5415       0.0047       2.6674      37.9719       0.7125       3.0042
   2726.7959      11.6534      11.3551       0.0144      54.5502    -999.2500    -999.2500    -999.2500    -999.2500     392.1557     248.6271      92.9518       8.2607       3.5956       0.0045       2.6444      37.9666       0.7857       2.9983
   2726.9485      11.4604      11.8892       0.0182      57.7425    -999.2500    -999.2500    -999.2500    -999.2500     376.7668     240.3063     107.8694       8.7635       3.6642       0.0046       2.6314      38.6263       0.8759       3.0124
   2727.1008      11.4761      11.8180       0.0176      58.7083    -999.2500    -999.2500    -999.2500    -999.2500     375.0402     237.9798     114.6291       8.1122       3.6208       0.0047       2.6333      38.4810       0.8138       3.0041
   2727.2532      11.6315      11.3582       0.0306      59.5927    -999.2500    -999.2500    -999.2500    -999.2500     361.0271     227.4436     214.3523       7.2249       3.4672       0.0051       2.6633      40.8566       0.5458       3.3236
   2727.4055      11.8559      14.9993       0.0352      58.0146    -999.2500    -999.2500    -999.2500    -999.2500     325.2948     205.7758     112.4001       7.3345       3.3314       0.0069       2.6804      53.1504       0.6710       4.2984
   2727.5579      12.0976      15.7917       0.0216      55.9505    -999.2500    -999.2500    -999.2500    -999.2500     263.6661     170.0183      61.2210       8.5127       3.2101       0.0071       2.6785      54.5207       0.7494       4.3636
   2727.7104      12.1631      14.4159       0.0122      55.8211    -999.2500    -999.2500    -999.2500    -999.2500     246.5711     159.7857      83.4990       8.8339       3.2813       0.0066       2.6748      52.6630       0.6316       4.3093
   2727.8628      11.8864      13.4696       0.0161      55.2640    -999.2500    -999.2500    -999.2500    -999.2500     256.3244     164.3789     203.0574       8.1992       3.3652       0.0063       2.6827      51.6816       0.5636       4.3053
   2728.0151      11.5624      10.9128       0.0111      54.3252    -999.2500    -999.2500    -999.2500    -999.2500     308.7314     191.0424     222.7788       7.5851       3.5541       0.0053       2.6716      48.8137       0.3703       4.2703
   2728.1675      11.5913       7.5981       0.0050      54.3492    -999.2500    -999.2500    -999.2500    -999.2500     410.9004     244.5360     133.1063       7.2877       3.5296       0.0037       2.6643      45.4328       0.2414       4.2628
   2728.3201      11.8395       7.9294       0.0058      54.2251    -999.2500    -999.2500    -999.2500    -999.2500     474.4457     278.9451     187.6031       6.8834       3.4816       0.0036       2.6761      46.5043       0.3846       4.3462
   2728.4724      12.0631       8.0431       0.0068      52.2362    -999.2500    -999.2500    -999.2500    -999.2500     473.0490     277.4741     247.1651       6.0849       3.4206       0.0035       2.7030      47.5356       0.4519       4.4496
   2728.6248      12.1856       8.5840       0.0078      51.0357    -999.2500    -999.2500    -999.2500    -999.2500     444.3148     259.7805    1167.7605       5.5998       3.3583       0.0033       2.7295      49.5304       0.6290       4.6134
   2728.7771      12.1248       6.5389       0.0112      50.9629    -999.2500    -999.2500    -999.2500    -999.2500     409.7558     239.1089     981.9488       5.4439       3.4109       0.0024       2.7404      46.9608       0.5456       4.5543
   2728.9297      11.8850       6.5506       0.0146      51.6589    -999.2500    -999.2500    -999.2500    -999.2500     402.3352     235.8862     338.2973       5.9105       3.3043       0.0025       2.7307      47.0476       0.5020       4.5628
   2729.0820      11.6850       3.6439       0.0145      52.6776    -999.2500    -999.2500    -999.2500    -999.2500     391.4922     229.5921     252.3316       6.5502       3.2341       0.0016       2.7068      42.8883       0.2091       4.4216
   2729.2344      11.5519       3.2238       0.0149      53.2500    -999.2500    -999.2500    -999.2500    -999.2500     365.4151     213.6207      71.7843       7.3348       3.2206       0.0018       2.6910      41.8392       0.0065       4.3508
   2729.3867      11.6377       9.1969       0.0158      53.5703    -999.2500    -999.2500    -999.2500    -999.2500     316.3931     186.1609     204.6389       7.9650       3.3339       0.0046       2.6902      49.2350       0.2504       4.5111
   2729.5391      11.8052       9.1145       0.0151      54.4154    -999.2500    -999.2500    -999.2500    -999.2500     262.6755     159.0435     217.5797       8.2803       3.5722       0.0047       2.6830      48.6838       0.1784       4.4582
   2729.6917      12.0571       6.8436       0.0123      54.6997    -999.2500    -999.2500    -999.2500    -999.2500     235.7320     145.5192     124.6126       8.3532       3.5695       0.0037       2.6722      45.0608       0.0467       4.3059
   2729.8440      12.1730       6.6954       0.0090      54.6699    -999.2500    -999.2500    -999.2500    -999.2500     233.2869     144.1389     266.5403       8.2034       3.6378       0.0035       2.6519      44.7934       0.1143       4.2925
   2729.9963      12.0311       6.8139       0.0097      55.3951    -999.2500    -999.2500    -999.2500    -999.2500     253.2761     154.0021     238.2511       8.2006       3.7487       0.0031       2.6449      45.4261       0.2996       4.3504
   2730.1487      11.7944       8.9067       0.0098      56.3720    -999.2500    -999.2500    -999.2500    -999.2500     282.9697     171.5123     247.8009       8.1708       3.8142       0.0034       2.6262      48.9636       0.6705       4.5132
