#------------------------------------------------------------------------------
#
#   Created by  : [OpenWorks] Log Export Utility (LEXP)
#   Created on  : 2016-05-12 18:36:02
#   Project     : CANT971
#   User        : R5K
#   Interpreter : PEP
#
#------------------------------------------------------------------------------
~VERSION INFORMATION
VERS. 2.0 : CWLS Log ASCII Standard - version 2.0
WRAP.  NO : One line per depth step
~WELL INFORMATION
#MNEMONIC   .UNIT                                           VALUE :DESCRIPTION
#------------------------------------------------------------------------------
STRT        .M                                          2041.3008 :START DEPTH
STOP        .M                                          3401.7756 :STOP DEPTH
STEP        .M                                             0.1524 :STEP
NULL        .                                           -999.2500 :NULL VALUE
COMP        .                                   PEMEX EXPL & PROD :COMPANY
WELL        .                                               1031D :WELL
FLD         .                                           CANTARELL :FIELD
LOC         .                                             UNKNOWN :LOCATION
CNTY        .                                      CD. DEL CARMEN :COUNTY
STAT        .                                            CAMPECHE :STATE
CTRY        .                                              MEXICO :COUNTRY
SRVC        .                                             UNKNOWN :SERVICE COMPANY
DATE        .                                             UNKNOWN :LOG DATE
UWI         .                                               1031D :UNIQUE WELL ID
XCOORD      .                                       597334.590000 :SURFACE X
YCOORD      .                                      2152076.210000 :SURFACE Y
LAT         .                                           19.461948 :LATITUDE
LON         .                                          -92.072661 :LONGITUDE
ELEV        .M                                            26.5400 :SURFACE ELEV
ELEV_TYPE   .                                                  KB :ELEV TYPE
~CURVE INFORMATION
#MNEMONIC.UNIT        API CODE       : CURVE DESCRIPTION
#------------------------------------------------------------------------------
DEPTH    .M                          : Measured Depth
CALI     .UNKNOWN     UNKNOWN        : CALI:litodensidad:r1:0001:v1 
CGR      .UNKNOWN     UNKNOWN        : CGR:radioactividad:r1:0001:v1 
DRHO     .g/cm3       UNKNOWN        : DRHO:litodensidad:r1:0001:v1 
DT       .us/ft       UNKNOWN        : DT:DT-Load:r1:0001:v1 
GR-LWD   .UNKNOWN     UNKNOWN        : GR-LWD:GR-LWD:r2:MAIN:v1 
ILD-LWD  .UNKNOWN     UNKNOWN        : ILD-LWD:ILD-LWD:r1:MAIN:v1 
ILM-LWD  .UNKNOWN     UNKNOWN        : ILM-LWD:ILM-LWD:r1:MAIN:v1 
LLD-LWD  .UNKNOWN     UNKNOWN        : LLD-LWD:LLD-LWD:r1:MAIN:v1 
LLD      .ohm.m       UNKNOWN        : LLD:resistividad:r1:0001:v1 
LLS      .ohm.m       UNKNOWN        : LLS:resistividad:r1:0001:v1 
MSFL     .ohm.m       UNKNOWN        : MSFL:resistividad:r1:0001:v1 
NPHI     .v/v_decimal UNKNOWN        : NPHI:porosidad:r1:0001:v1 
PEF      .UNKNOWN     UNKNOWN        : PEF:litodensidad:r1:0001:v1 
POTA     .UNKNOWN     UNKNOWN        : POTA:radioactividad:r1:0001:v1 
RHOB     .g/cm3       UNKNOWN        : RHOB:litodensidad:r1:0001:v1 
SGR      .UNKNOWN     UNKNOWN        : SGR:radioactividad:r1:0001:v1 
THOR     .ppm         UNKNOWN        : THOR:radioactividad:r1:0001:v1 
URAN     .ppm         UNKNOWN        : URAN:radioactividad:r1:0001:v1 
~A     DEPTH         CALI          CGR         DRHO           DT       GR-LWD      ILD-LWD      ILM-LWD      LLD-LWD          LLD          LLS         MSFL         NPHI          PEF         POTA         RHOB          SGR         THOR         URAN
# ...
   2458.7244      22.6795      37.9287       0.1703     101.2609    -999.2500    -999.2500    -999.2500    -999.2500       2.7159       1.8387       2.2606      32.6920       3.5049       0.0150       2.3664      45.3043       3.5846       0.9257
   2458.8767      21.5458      38.0897       0.1503      98.4399    -999.2500    -999.2500    -999.2500    -999.2500       2.8259       1.8669       2.3032      29.4575       3.6331       0.0142       2.3905      36.9728       3.9669      -0.1402
   2459.0293      17.8822      40.5470       0.1201      90.2384    -999.2500    -999.2500    -999.2500    -999.2500       2.5498       1.6962       2.4837      29.6529       3.7528       0.0144       2.3738      39.5176       4.5451      -0.1292
   2459.1816      17.6321      41.3251       0.0819      95.9720    -999.2500    -999.2500    -999.2500    -999.2500       1.8925       1.2827       1.9995      33.3548       3.6206       0.0143       2.2829      39.4241       4.7958      -0.2386
   2459.3340      19.6463      43.6196       0.0573     110.8229    -999.2500    -999.2500    -999.2500    -999.2500       1.6256       1.0624       2.1053      36.7394       3.3807       0.0144       2.1749      41.8658       5.3427      -0.2201
   2459.4863      20.0578      46.1544       0.0546     120.3281    -999.2500    -999.2500    -999.2500    -999.2500       1.6609       1.0882       1.8203      40.9567       3.1463       0.0142       2.0960      45.3900       6.0926      -0.0959
   2459.6387      20.8823      45.6987       0.0549     131.7103    -999.2500    -999.2500    -999.2500    -999.2500       1.6692       1.1093       1.6851      46.6420       3.1064       0.0131       2.0659      42.4425       6.4642      -0.4087
   2459.7913      23.0102      45.8868       0.0837     142.3985    -999.2500    -999.2500    -999.2500    -999.2500       1.6808       1.1139       1.4488      48.5940       3.1214       0.0121       2.0995      37.6001       6.9313      -1.0401
   2459.9436      23.9061      49.6353       0.1109     139.2892    -999.2500    -999.2500    -999.2500    -999.2500       1.7181       1.1287       1.8003      46.8290       3.1222       0.0147       2.1405      43.3497       6.8054      -0.7889
   2460.0959      24.1485      52.7103       0.1035     134.3985    -999.2500    -999.2500    -999.2500    -999.2500       1.7423       1.1566       1.7819      42.1166       3.0490       0.0172       2.1373      50.3323       6.5348      -0.2985
   2460.2483      24.1377      52.4102       0.0744     124.4031    -999.2500    -999.2500    -999.2500    -999.2500       1.6504       1.1408       1.8409      40.2532       3.1094       0.0171       2.1115      50.5264       6.5286      -0.2364
   2460.4009      24.1010      49.1281       0.0712     125.6242    -999.2500    -999.2500    -999.2500    -999.2500       1.6215       1.1356       2.1943      40.4571       3.2068       0.0150       2.1246      46.9174       6.5413      -0.2775
   2460.5532      22.8405      46.2036       0.0749     135.4349    -999.2500    -999.2500    -999.2500    -999.2500       1.6326       1.1444       2.1544      40.9068       3.5125       0.0129       2.1458      44.5460       6.6675      -0.2080
   2460.7056      20.0726      46.5824       0.0958     134.2506    -999.2500    -999.2500    -999.2500    -999.2500       1.7064       1.2061       1.8135      41.1549       3.8871       0.0134       2.1997      46.1864       6.5584      -0.0497
   2460.8579      20.4205      42.4861       0.1149     120.8712    -999.2500    -999.2500    -999.2500    -999.2500       1.8578       1.3380       2.3720      37.5048       3.9701       0.0130       2.2900      41.8694       5.6309      -0.0774
   2461.0105      22.2508      33.4999       0.1378     101.6546    -999.2500    -999.2500    -999.2500    -999.2500       2.0797       1.5036       2.4454      31.9325       3.7531       0.0122       2.3934      36.2220       3.6072       0.3417
   2461.1628      22.5463      28.3539       0.1502      91.2459    -999.2500    -999.2500    -999.2500    -999.2500       2.4839       1.7785       2.6151      27.2343       3.6034       0.0116       2.4631      39.6798       2.5051       1.4215
   2461.3152      22.0594      27.2556       0.1444      90.3602    -999.2500    -999.2500    -999.2500    -999.2500       2.7937       1.9748       2.3782      25.0254       3.5629       0.0115       2.4218      38.3328       2.2913       1.3903
   2461.4675      19.2790      26.7481       0.1322      92.2928    -999.2500    -999.2500    -999.2500    -999.2500       2.8040       1.9625       2.2814      24.7228       3.3103       0.0110       2.3607      38.4274       2.3449       1.4659
   2461.6199      17.6073      24.9000       0.1317      90.9408    -999.2500    -999.2500    -999.2500    -999.2500       2.5688       1.8671       2.2735      25.6577       3.2076       0.0103       2.3250      36.4791       2.1804       1.4533
   2461.7725      17.6215      23.0293       0.1416      93.6217    -999.2500    -999.2500    -999.2500    -999.2500       2.3946       1.8184       1.9821      28.0986       3.3331       0.0095       2.3299      34.6682       2.0074       1.4608
   2461.9248      18.4529      22.2929       0.1366      94.0067    -999.2500    -999.2500    -999.2500    -999.2500       2.5932       1.9649       1.8049      30.0438       3.7723       0.0089       2.3551      34.8961       2.0795       1.5818
   2462.0771      19.0858      21.6400       0.1393      91.9125    -999.2500    -999.2500    -999.2500    -999.2500       2.9679       2.2547       1.9542      27.9587       4.0044       0.0082       2.4003      35.3738       2.1870       1.7237
   2462.2295      19.5048      20.7439       0.1610      95.2916    -999.2500    -999.2500    -999.2500    -999.2500       3.2677       2.4796       3.1168      23.8480       4.0873       0.0074       2.4682      35.8167       2.3123       1.8918
   2462.3821      20.2764      18.2595       0.1855      88.7955    -999.2500    -999.2500    -999.2500    -999.2500       3.3381       2.5520       2.9598      20.4810       3.8660       0.0057       2.4843      33.9411       2.3558       1.9682
   2462.5344      17.9902      16.0919       0.1899      77.0774    -999.2500    -999.2500    -999.2500    -999.2500       3.3788       2.5588       2.8975      21.9298       3.6913       0.0044       2.4440      31.6571       2.3663       1.9536
   2462.6868      16.0596      16.1178       0.2050      73.9928    -999.2500    -999.2500    -999.2500    -999.2500       3.4378       2.5952       4.1296      24.6359       3.6494       0.0042       2.4256      31.3199       2.4642       1.9080
   2462.8391      16.8769      16.2943       0.1919      75.6091    -999.2500    -999.2500    -999.2500    -999.2500       3.3527       2.5580       3.9032      27.1023       3.7097       0.0037       2.4096      31.5686       2.7022       1.9171
   2462.9917      16.6832      17.3754       0.1616      84.2379    -999.2500    -999.2500    -999.2500    -999.2500       3.1135       2.3971       3.0357      29.9734       3.7599       0.0036       2.3834      33.2491       3.0206       1.9923
   2463.1440      17.2333      17.1011       0.1275      87.8359    -999.2500    -999.2500    -999.2500    -999.2500       2.8940       2.2575       2.2556      31.2678       3.8536       0.0037       2.3177      33.0117       2.9135       1.9970
   2463.2964      16.8720      18.5779       0.1161      91.3331    -999.2500    -999.2500    -999.2500    -999.2500       2.7810       2.1484       2.1587      32.9862       3.8239       0.0030       2.2608      35.3147       3.6171       2.1006
   2463.4487      17.3758      22.6835       0.1096      92.2288    -999.2500    -999.2500    -999.2500    -999.2500       2.7108       2.0940       2.1829      32.4417       3.9252       0.0014       2.2281      41.8560       5.3477       2.4064
   2463.6011      17.3499      22.2978       0.1227      88.7249    -999.2500    -999.2500    -999.2500    -999.2500       2.6689       2.0807       2.2424      31.4999       4.1268       0.0029       2.2763      42.5638       4.6253       2.5436
