#------------------------------------------------------------------------------
#
#   Created by  : [OpenWorks] Log Export Utility (LEXP)
#   Created on  : 2016-05-12 18:36:02
#   Project     : CANT971
#   User        : R5K
#   Interpreter : PEP
#
#------------------------------------------------------------------------------
~VERSION INFORMATION
VERS. 2.0 : CWLS Log ASCII Standard - version 2.0
WRAP.  NO : One line per depth step
~WELL INFORMATION
#MNEMONIC   .UNIT                                           VALUE :DESCRIPTION
#------------------------------------------------------------------------------
STRT        .M                                          2041.3008 :START DEPTH
STOP        .M                                          3401.7756 :STOP DEPTH
STEP        .M                                             0.1524 :STEP
NULL        .                                           -999.2500 :NULL VALUE
COMP        .                                   PEMEX EXPL & PROD :COMPANY
WELL        .                                               1031D :WELL
FLD         .                                           CANTARELL :FIELD
LOC         .                                             UNKNOWN :LOCATION
CNTY        .                                      CD. DEL CARMEN :COUNTY
STAT        .                                            CAMPECHE :STATE
CTRY        .                                              MEXICO :COUNTRY
SRVC        .                                             UNKNOWN :SERVICE COMPANY
DATE        .                                             UNKNOWN :LOG DATE
UWI         .                                               1031D :UNIQUE WELL ID
XCOORD      .                                       597334.590000 :SURFACE X
YCOORD      .                                      2152076.210000 :SURFACE Y
LAT         .                                           19.461948 :LATITUDE
LON         .                                          -92.072661 :LONGITUDE
ELEV        .M                                            26.5400 :SURFACE ELEV
ELEV_TYPE   .                                                  KB :ELEV TYPE
~CURVE INFORMATION
#MNEMONIC.UNIT        API CODE       : CURVE DESCRIPTION
#------------------------------------------------------------------------------
DEPTH    .M                          : Measured Depth
CALI     .UNKNOWN     UNKNOWN        : CALI:litodensidad:r1:0001:v1 
CGR      .UNKNOWN     UNKNOWN        : CGR:radioactividad:r1:0001:v1 
DRHO     .g/cm3       UNKNOWN        : DRHO:litodensidad:r1:0001:v1 
DT       .us/ft       UNKNOWN        : DT:DT-Load:r1:0001:v1 
GR-LWD   .UNKNOWN     UNKNOWN        : GR-LWD:GR-LWD:r2:MAIN:v1 
ILD-LWD  .UNKNOWN     UNKNOWN        : ILD-LWD:ILD-LWD:r1:MAIN:v1 
ILM-LWD  .UNKNOWN     UNKNOWN        : ILM-LWD:ILM-LWD:r1:MAIN:v1 
LLD-LWD  .UNKNOWN     UNKNOWN        : LLD-LWD:LLD-LWD:r1:MAIN:v1 
LLD      .ohm.m       UNKNOWN        : LLD:resistividad:r1:0001:v1 
LLS      .ohm.m       UNKNOWN        : LLS:resistividad:r1:0001:v1 
MSFL     .ohm.m       UNKNOWN        : MSFL:resistividad:r1:0001:v1 
NPHI     .v/v_decimal UNKNOWN        : NPHI:porosidad:r1:0001:v1 
PEF      .UNKNOWN     UNKNOWN        : PEF:litodensidad:r1:0001:v1 
POTA     .UNKNOWN     UNKNOWN        : POTA:radioactividad:r1:0001:v1 
RHOB     .g/cm3       UNKNOWN        : RHOB:litodensidad:r1:0001:v1 
SGR      .UNKNOWN     UNKNOWN        : SGR:radioactividad:r1:0001:v1 
THOR     .ppm         UNKNOWN        : THOR:radioactividad:r1:0001:v1 
URAN     .ppm         UNKNOWN        : URAN:radioactividad:r1:0001:v1 
~A     DEPTH         CALI          CGR         DRHO           DT       GR-LWD      ILD-LWD      ILM-LWD      LLD-LWD          LLD          LLS         MSFL         NPHI          PEF         POTA         RHOB          SGR         THOR         URAN
# ...
   3122.5789      11.4695      32.9869       0.1577      72.9848    -999.2500    -999.2500    -999.2500    -999.2500   13588.0479    8750.2432     697.6476      10.7411       3.4337       0.0118       2.6648      43.3105       2.8352       1.1632
   3122.7312      11.4276      38.4495       0.1379      62.5224    -999.2500    -999.2500    -999.2500    -999.2500   29500.2715   20401.8359    1629.9640      11.2438       3.4866       0.0139       2.6223      53.2269       3.2517       1.6650
   3122.8835      11.4343      28.0238       0.1270      61.3821    -999.2500    -999.2500    -999.2500    -999.2500   11239.8809    7663.5332    1836.9873      10.3945       3.3512       0.0089       2.6408      40.2995       2.9109       1.3831
   3123.0359      11.6531      26.7769       0.1249      59.9600    -999.2500    -999.2500    -999.2500    -999.2500     178.4532     127.5092     133.7396       9.0285       3.4015       0.0082       2.7060      38.3556       2.8922       1.3046
   3123.1885      11.8812      26.7781       0.1055      37.3364    -999.2500    -999.2500    -999.2500    -999.2500     115.1670      87.1153      12.3377       8.0176       3.5967       0.0079       2.7443      37.8987       3.0180       1.2530
   3123.3408      12.0267      25.8060       0.0745      21.6677    -999.2500    -999.2500    -999.2500    -999.2500      99.9240      81.2580      14.5235       7.1906       3.7310       0.0077       2.7248      35.6903       2.8571       1.1137
   3123.4932      12.5356      24.2653       0.0557      39.4086    -999.2500    -999.2500    -999.2500    -999.2500      87.7916      74.2133      26.7150       6.2900       3.6619       0.0076       2.6907      33.9020       2.5341       1.0858
   3123.6455      12.9119      22.7590       0.0531      36.0999    -999.2500    -999.2500    -999.2500    -999.2500     104.5284      85.4609     758.1777       5.3177       3.4677       0.0076       2.6845      32.1238       2.2005       1.0551
   3123.7981      12.1206      21.8158       0.0705      54.1664    -999.2500    -999.2500    -999.2500    -999.2500     137.1777     108.7991     150.0397       4.7906       3.5572       0.0079       2.6957      30.7398       1.8478       1.0055
   3123.9504      11.7411      18.2097       0.1059      77.3107    -999.2500    -999.2500    -999.2500    -999.2500     130.0713     106.2974     217.9170       4.7017       3.4476       0.0066       2.6999      26.9893       1.5288       0.9892
   3124.1028      11.6670      12.8697       0.1293      57.8282    -999.2500    -999.2500    -999.2500    -999.2500     105.1505      88.6637     111.2605       4.7456       3.3203       0.0038       2.6730      22.8708       1.4375       1.1268
   3124.2551      11.6931      13.5929       0.1378      54.6237    -999.2500    -999.2500    -999.2500    -999.2500     120.6269      96.8298     126.5306       4.0868       3.2611       0.0043       2.6732      23.5889       1.4134       1.1262
   3124.4075      11.7752      13.3045       0.1445      38.7646    -999.2500    -999.2500    -999.2500    -999.2500     164.3547     118.9971     218.1752       3.2744       3.2586       0.0044       2.7343      22.9235       1.2863       1.0838
   3124.5601      11.8542      14.0441       0.1340      45.6579    -999.2500    -999.2500    -999.2500    -999.2500     275.7278     172.0324     114.5862       3.1468       3.3042       0.0048       2.8083      24.0606       1.3225       1.1286
   3124.7124      11.8960      18.1188       0.1046      34.1799    -999.2500    -999.2500    -999.2500    -999.2500     518.0745     279.9753      62.4753       4.0268       3.2214       0.0058       2.8481      29.8434       1.8558       1.3210
   3124.8647      11.9309      26.0443       0.0653      11.6322    -999.2500    -999.2500    -999.2500    -999.2500     789.5614     390.2094      74.6824       5.2455       3.3762       0.0078       2.8261      36.0381       2.8823       1.1260
   3125.0171      11.7511      38.1806       0.0360      29.0383    -999.2500    -999.2500    -999.2500    -999.2500    1185.2958     532.1500     717.4831       6.1672       3.4604       0.0154       2.7807      37.4956       2.5603      -0.0772
   3125.1697      11.7863      44.3260       0.0272      35.5795    -999.2500    -999.2500    -999.2500    -999.2500    1401.1572     622.8494     748.2170       6.4690       3.5271       0.0219       2.7403      41.6525       1.2997      -0.3012
   3125.3220      11.9203      25.6879       0.0273      36.3152    -999.2500    -999.2500    -999.2500    -999.2500     577.1387     365.8964    1435.9324       7.5958       3.6247       0.0097       2.7059      28.2162       2.0150       0.2849
   3125.4744      11.9465      29.1868       0.0171      36.9771    -999.2500    -999.2500    -999.2500    -999.2500     401.1762     285.9321      64.1756      10.1897       3.6590       0.0095       2.6553      36.1794       2.9029       0.7878
   3125.6267      11.8192      29.0757       0.0077      44.5720    -999.2500    -999.2500    -999.2500    -999.2500     386.2578     279.5568      47.7242      10.4118       3.5514       0.0095       2.6159      37.1880       2.8832       0.9140
   3125.7793      11.7181      20.5037       0.0108      53.5829    -999.2500    -999.2500    -999.2500    -999.2500     360.5374     262.2159     539.9423       9.3084       3.2649       0.0073       2.6151      28.8644       1.7687       0.9420
   3125.9316      11.6851       9.3248       0.0237      42.7848    -999.2500    -999.2500    -999.2500    -999.2500     189.6340     155.6063     480.6746       7.4549       3.0219       0.0041       2.6365      20.2293       0.4663       1.2286
   3126.0840      11.7668      10.4872       0.0474      43.4737    -999.2500    -999.2500    -999.2500    -999.2500      97.7316      90.9196      84.8029       9.0507       2.9319       0.0046       2.6542      21.8789       0.5495       1.2835
   3126.2363      11.8024      16.3258       0.0687      48.9113    -999.2500    -999.2500    -999.2500    -999.2500      94.8347      90.4862       8.5917      10.3117       3.0328       0.0061       2.6669      29.4985       1.2947       1.4842
   3126.3887      11.8222      25.7438       0.0827      44.4220    -999.2500    -999.2500    -999.2500    -999.2500      99.5610      96.5769    1103.1892      10.0446       3.2813       0.0087       2.6665      39.3228       2.4591       1.5299
   3126.5413      11.9391      29.0802       0.0865      43.9854    -999.2500    -999.2500    -999.2500    -999.2500     122.7157     122.1582    1223.2333       8.2587       3.5300       0.0102       2.6809      35.4238       2.6089       0.7147
   3126.6936      12.0852      34.0149       0.0755      47.2935    -999.2500    -999.2500    -999.2500    -999.2500     131.5419     133.8414     878.9163       7.3163       3.5297       0.0112       2.6931      35.8253       3.3643       0.2040
   3126.8459      11.8623      24.8825       0.0570      57.4086    -999.2500    -999.2500    -999.2500    -999.2500     137.6245     139.6591       9.6568       7.0470       3.5080       0.0070       2.7037      26.5679       2.9618       0.1899
   3126.9983      11.9693      22.0911       0.0489      58.8331    -999.2500    -999.2500    -999.2500    -999.2500     154.7113     152.3672      27.8296       7.1753       3.4350       0.0061       2.7126      23.0531       2.6612       0.1084
   3127.1509      11.9783      18.1596       0.0507      54.2733    -999.2500    -999.2500    -999.2500    -999.2500     324.1982     260.7152      47.6470       7.0834       3.3867       0.0045       2.7026      16.7059       2.4138      -0.1638
   3127.3032      11.9589      20.0386       0.0564      49.2171    -999.2500    -999.2500    -999.2500    -999.2500    1383.1893     740.3427     155.1906       6.8775       3.3214       0.0043       2.6862      14.1325       2.9373      -0.6654
   3127.4556      11.8466      18.7260       0.0842      55.6811    -999.2500    -999.2500    -999.2500    -999.2500    4794.9268    1539.7478     515.6541       7.0474       3.3060       0.0037       2.6678      15.8656       2.8706      -0.3223
