#------------------------------------------------------------------------------
#
#   Created by  : [OpenWorks] Log Export Utility (LEXP)
#   Created on  : 2016-05-23 17:52:08
#   Project     : CANT971
#   User        : R5K
#   Interpreter : PEP
#
#------------------------------------------------------------------------------
~VERSION INFORMATION
VERS. 2.0 : CWLS Log ASCII Standard - version 2.0
WRAP. YES : Mulitple lines per depth step
~WELL INFORMATION
#MNEMONIC   .UNIT                                           VALUE :DESCRIPTION
#------------------------------------------------------------------------------
STRT        .M                                          1316.1428 :START DEPTH
STOP        .M                                          2794.8801 :STOP DEPTH
STEP        .M                                             0.1524 :STEP
NULL        .                                           -999.2500 :NULL VALUE
COMP        .                                             UNKNOWN :COMPANY
WELL        .                                       Cantarell1045 :WELL
FLD         .                                             UNKNOWN :FIELD
LOC         .                                             UNKNOWN :LOCATION
CNTY        .                                             UNKNOWN :COUNTY
STAT        .                                             UNKNOWN :STATE
CTRY        .                                             UNKNOWN :COUNTRY
SRVC        .                                             UNKNOWN :SERVICE COMPANY
DATE        .                                             UNKNOWN :LOG DATE
UWI         .                                              1045-V :UNIQUE WELL ID
XCOORD      .                                       598503.480000 :SURFACE X
YCOORD      .                                      2149274.380000 :SURFACE Y
LAT         .                                           19.436572 :LATITUDE
LON         .                                          -92.061672 :LONGITUDE
ELEV        .M                                             0.0000 :SURFACE ELEV
ELEV_TYPE   .                                                  NA :ELEV TYPE
~CURVE INFORMATION
#MNEMONIC.UNIT        API CODE       : CURVE DESCRIPTION
#------------------------------------------------------------------------------
DEPTH    .M                          : Measured Depth
CALI     .UNKNOWN     UNKNOWN        : CALI:litodensidad_final:rC:NONE:v0 (auto-composite)
CGR      .API         UNKNOWN        : CGR:Espectrometria:rC:NONE:v0 (auto-composite)
DRHO     .g/cm3       UNKNOWN        : DRHO:litodensidad_final:rC:NONE:v0 (auto-composite)
DT       .us/ft       UNKNOWN        : DT:PETROWORKS:rC:NONE:v2 
GR       .API         UNKNOWN        : GR:PETROWORKS:rC:NONE:v1 
GR-LWD   .UNKNOWN     UNKNOWN        : GR-LWD:PETROWORKS:rC:NONE:v1 
ILD-LWD  .ohm.m       UNKNOWN        : ILD-LWD:UNKNOWN:rC:NONE:v0 (auto-composite)
ILM-LWD  .ohm.m       UNKNOWN        : ILM-LWD:UNKNOWN:rC:NONE:v0 (auto-composite)
LLD      .ohm.m       UNKNOWN        : LLD:resistivos-final:rC:NONE:v0 (auto-composite)
LLD-LWD  .ohm.m       UNKNOWN        : LLD-LWD:UNKNOWN:rC:NONE:v0 (auto-composite)
LLS      .ohm.m       UNKNOWN        : LLS:resistivos-final:rC:NONE:v0 (auto-composite)
LLS-LWD  .ohm.m       UNKNOWN        : LLS-LWD:UNKNOWN:rC:NONE:v0 (auto-composite)
MSFL     .ohm.m       UNKNOWN        : MSFL:resistivos-final:rC:NONE:v0 (auto-composite)
MSFL-LWD .ohm.m       UNKNOWN        : MSFL-LWD:UNKNOWN:rC:NONE:v0 (auto-composite)
NPHI     .UNKNOWN     UNKNOWN        : NPHI:porosidad-Final:rC:NONE:v0 (auto-composite)
PEF      .UNKNOWN     UNKNOWN        : PEF:litodensidad_final:rC:NONE:v0 (auto-composite)
POTA     .wtpercent   UNKNOWN        : POTA:Espectrometria:rC:NONE:v0 (auto-composite)
RHOB     .g/cm3       UNKNOWN        : RHOB:litodensidad_final:rC:NONE:v0 (auto-composite)
THOR     .ppm         UNKNOWN        : THOR:Espectrometria:rC:NONE:v0 (auto-composite)
URAN     .ppm         UNKNOWN        : URAN:Espectrometria:rC:NONE:v0 (auto-composite)
~A
# ...
   2341.4900
       7.9397      37.4753       0.1113      81.7347      78.4246      96.4541
    -999.2500    -999.2500      14.4871      11.9786      13.1697      10.8097
      11.7960      10.1995       0.1543       3.4094       0.0152       2.3389
       4.6127       4.5766
   2341.6423
       8.0565      39.8371       0.1077      81.1842      75.3130      88.4125
    -999.2500    -999.2500      14.0723      13.3611      12.3308      11.6254
      15.3705      11.1094       0.1510       3.2622       0.0163       2.2840
       4.8299       3.9616
   2341.7949
       8.3027      41.4351       0.0956      79.3655      70.0705      81.7718
    -999.2500    -999.2500      15.0472      14.4486      13.1681      12.2766
       9.3888      11.8186       0.1464       2.7726       0.0177       2.0257
       4.7113       3.1555
   2341.9473
       7.8876      38.2530       0.0921      77.0371      66.2513      77.9633
    -999.2500    -999.2500      16.4650      14.8957      14.1631      12.6046
       5.2695      12.1545       0.1385       2.3202       0.0170       1.8367
       4.0862       3.1182
   2342.0996
       7.6818      36.1747       0.0996      74.5900      65.4534      76.6361
    -999.2500    -999.2500      17.5971      15.3675      15.0000      13.2426
       8.3431      12.7278       0.1383       2.3927       0.0164       1.9415
       3.7513       3.2346
   2342.2520
       7.6546      34.2212       0.1113      71.8907      65.9929      80.3756
    -999.2500    -999.2500      18.7351      16.1436      15.7463      14.1959
      19.8834      13.6665       0.1393       2.9042       0.0148       2.1572
       3.8202       3.5362
   2342.4045
       7.8311      30.3107       0.1176      67.3490      66.8845      83.0798
    -999.2500    -999.2500      20.5912      17.3542      17.5054      15.4663
      50.2492      15.0770       0.1364       3.5359       0.0126       2.3569
       3.6173       4.0917
   2342.5569
       7.9207      24.8938       0.1076      61.7391      66.2620      79.4765
    -999.2500    -999.2500      23.7617      20.1154      21.1487      18.5883
      61.8856      18.5361       0.1266       3.8621       0.0103       2.3990
       2.9688       4.6225
   2342.7092
       7.8070      20.0601       0.1038      58.2849      63.7850      73.6041
    -999.2500    -999.2500      31.3897      23.2452      28.9993      21.9438
      35.5605      22.5561       0.0928       4.1239       0.0090       2.3647
       2.1091       4.8455
   2342.8616
       7.8051      17.2910       0.1182      57.5454      62.2043      69.0020
    -999.2500    -999.2500      39.6418      24.8215      36.5897      23.3244
      22.8607      24.0279       0.0726       4.1258       0.0086       2.3326
       1.5018       5.0098
   2343.0139
       7.6782      14.2572       0.1309      57.4346      60.2111      67.2745
    -999.2500    -999.2500      50.4118      26.1414      45.1195      24.6260
      22.4413      24.9527       0.0581       4.0171       0.0088       2.3108
       0.5425       5.1088
   2343.1665
       7.6346      12.6643       0.1217      57.7181      58.8567      67.4151
    -999.2500    -999.2500      54.9004      27.6412      47.9698      25.5331
      26.0585      25.3519       0.0567       4.0042       0.0087       2.3490
       0.1239       5.1440
   2343.3188
       7.6218      13.3057       0.1032      58.4418      57.8685      68.4033
    -999.2500    -999.2500      57.5637      29.4730      49.9250      26.5409
      29.9541      25.7545       0.0579       4.0807       0.0088       2.3956
       0.2747       4.9581
   2343.4712
       7.4816      15.8815       0.0872      59.9602      57.9025      70.3506
    -999.2500    -999.2500      57.3499      31.5713      49.9956      27.0602
      29.2008      26.1408       0.0585       4.2125       0.0097       2.3828
       0.6565       4.6620
   2343.6235
       7.3654      17.9257       0.0991      61.4640      60.1071      72.8676
    -999.2500    -999.2500      55.2748      33.4074      48.3386      27.4562
      28.3465      26.6558       0.0620       4.2136       0.0103       2.3564
       1.0139       4.6910
   2343.7761
       7.2985      18.9614       0.1135      61.9029      64.4583      76.9673
    -999.2500    -999.2500      51.9323      35.7765      45.1394      28.9206
      28.4190      27.4056       0.0659       4.1527       0.0109       2.3386
       1.0553       5.0633
   2343.9285
       7.2970      19.2485       0.1261      61.7724      67.6245      82.0210
    -999.2500    -999.2500      49.3530      38.2116      42.6638      30.0394
      27.4964      27.4963       0.0665       4.0946       0.0112       2.2860
       1.0010       5.3872
   2344.0808
       6.8636      18.9911       0.1802      60.6118      69.0379      85.2174
    -999.2500    -999.2500      50.3542      39.8102      43.9629      30.1365
      26.1786      27.2901       0.0687       4.0747       0.0114       2.2196
       0.8728       5.5863
   2344.2332
       6.8635      19.2344       0.2377      59.7127      67.0270      85.2933
    -999.2500    -999.2500      56.0172      41.8351      50.6209      31.9960
      30.3186      29.2029       0.0653       4.1905       0.0111       2.2928
       1.0482       5.3180
   2344.3857
       7.0239      18.8869       0.2647      58.9094      61.9772      78.1013
    -999.2500    -999.2500      67.6035      44.0527      63.1599      35.1163
      36.3027      32.3163       0.0574       4.3792       0.0108       2.4428
       1.0883       4.7937
   2344.5381
       7.2235      17.4249       0.2150      58.3652      57.6821      73.2557
    -999.2500    -999.2500      79.5791      45.4434      74.4002      36.9433
      32.3485      34.1177       0.0545       4.4544       0.0102       2.4944
       0.8916       4.4718
   2344.6904
       7.2275      14.1750       0.1305      58.7127      54.4530      69.0031
    -999.2500    -999.2500      90.2100      47.4752      84.1295      38.8187
      29.9834      35.7817       0.0518       4.4934       0.0089       2.5026
       0.4701       4.4822
   2344.8428
       7.0788      11.8348       0.0929      59.4520      53.3827      68.5740
    -999.2500    -999.2500      90.3969      49.7102      84.7523      40.6842
      44.8156      37.2707       0.0502       4.4635       0.0081       2.4875
       0.1411       4.6291
   2344.9951
       6.9568      10.9713       0.0774      59.6883      52.3934      66.7043
    -999.2500    -999.2500      86.9877      52.1040      81.5203      42.3395
      91.9369      38.9186       0.0484       4.3253       0.0076       2.4857
       0.0861       4.6015
   2345.1477
       6.9573      11.5366       0.0748      58.7647      51.3401      62.7929
    -999.2500    -999.2500      84.0332      53.4509      77.8847      43.6127
      77.3299      40.3104       0.0459       4.2605       0.0080       2.5053
       0.0833       4.4480
   2345.3000
       6.9511      10.0604       0.0739      56.7781      48.1059      61.1152
    -999.2500    -999.2500      87.1506      53.7126      79.6847      45.7210
      47.3542      42.1358       0.0433       4.3223       0.0069       2.5236
       0.1001       4.2182
   2345.4524
       6.9578       9.4046       0.0772      54.8470      44.5121      59.4146
    -999.2500    -999.2500      99.1161      53.8422      91.4535      48.6637
      47.5744      44.2533       0.0410       4.3892       0.0064       2.5277
       0.1435       3.9216
   2345.6047
       6.9805       7.0820       0.0819      53.7207      40.5283      54.8356
    -999.2500    -999.2500     133.1354      54.4990     127.3982      53.4318
      80.4183      48.1804       0.0390       4.4652       0.0041       2.5185
       0.3883       3.6950
   2345.7573
       6.9574       4.9930       0.0809      53.1718      37.2363      49.6413
    -999.2500    -999.2500     181.1816      55.1289     179.4146      58.1723
     111.5458      53.3561       0.0388       4.4770       0.0029       2.5102
       0.2817       3.6026
