#------------------------------------------------------------------------------
#
#   Created by  : [OpenWorks] Log Export Utility (LEXP)
#   Created on  : 2016-05-23 17:52:08
#   Project     : CANT971
#   User        : R5K
#   Interpreter : PEP
#
#------------------------------------------------------------------------------
~VERSION INFORMATION
VERS. 2.0 : CWLS Log ASCII Standard - version 2.0
WRAP. YES : Mulitple lines per depth step
~WELL INFORMATION
#MNEMONIC   .UNIT                                           VALUE :DESCRIPTION
#------------------------------------------------------------------------------
STRT        .M                                          1316.1428 :START DEPTH
STOP        .M                                          2794.8801 :STOP DEPTH
STEP        .M                                             0.1524 :STEP
NULL        .                                           -999.2500 :NULL VALUE
COMP        .                                             UNKNOWN :COMPANY
WELL        .                                       Cantarell1045 :WELL
FLD         .                                             UNKNOWN :FIELD
LOC         .                                             UNKNOWN :LOCATION
CNTY        .                                             UNKNOWN :COUNTY
STAT        .                                             UNKNOWN :STATE
CTRY        .                                             UNKNOWN :COUNTRY
SRVC        .                                             UNKNOWN :SERVICE COMPANY
DATE        .                                             UNKNOWN :LOG DATE
UWI         .                                              1045-V :UNIQUE WELL ID
XCOORD      .                                       598503.480000 :SURFACE X
YCOORD      .                                      2149274.380000 :SURFACE Y
LAT         .                                           19.436572 :LATITUDE
LON         .                                          -92.061672 :LONGITUDE
ELEV        .M                                             0.0000 :SURFACE ELEV
ELEV_TYPE   .                                                  NA :ELEV TYPE
~CURVE INFORMATION
#MNEMONIC.UNIT        API CODE       : CURVE DESCRIPTION
#------------------------------------------------------------------------------
DEPTH    .M                          : Measured Depth
CALI     .UNKNOWN     UNKNOWN        : CALI:litodensidad_final:rC:NONE:v0 (auto-composite)
CGR      .API         UNKNOWN        : CGR:Espectrometria:rC:NONE:v0 (auto-composite)
DRHO     .g/cm3       UNKNOWN        : DRHO:litodensidad_final:rC:NONE:v0 (auto-composite)
DT       .us/ft       UNKNOWN        : DT:PETROWORKS:rC:NONE:v2 
GR       .API         UNKNOWN        : GR:PETROWORKS:rC:NONE:v1 
GR-LWD   .UNKNOWN     UNKNOWN        : GR-LWD:PETROWORKS:rC:NONE:v1 
ILD-LWD  .ohm.m       UNKNOWN        : ILD-LWD:UNKNOWN:rC:NONE:v0 (auto-composite)
ILM-LWD  .ohm.m       UNKNOWN        : ILM-LWD:UNKNOWN:rC:NONE:v0 (auto-composite)
LLD      .ohm.m       UNKNOWN        : LLD:resistivos-final:rC:NONE:v0 (auto-composite)
LLD-LWD  .ohm.m       UNKNOWN        : LLD-LWD:UNKNOWN:rC:NONE:v0 (auto-composite)
LLS      .ohm.m       UNKNOWN        : LLS:resistivos-final:rC:NONE:v0 (auto-composite)
LLS-LWD  .ohm.m       UNKNOWN        : LLS-LWD:UNKNOWN:rC:NONE:v0 (auto-composite)
MSFL     .ohm.m       UNKNOWN        : MSFL:resistivos-final:rC:NONE:v0 (auto-composite)
MSFL-LWD .ohm.m       UNKNOWN        : MSFL-LWD:UNKNOWN:rC:NONE:v0 (auto-composite)
NPHI     .UNKNOWN     UNKNOWN        : NPHI:porosidad-Final:rC:NONE:v0 (auto-composite)
PEF      .UNKNOWN     UNKNOWN        : PEF:litodensidad_final:rC:NONE:v0 (auto-composite)
POTA     .wtpercent   UNKNOWN        : POTA:Espectrometria:rC:NONE:v0 (auto-composite)
RHOB     .g/cm3       UNKNOWN        : RHOB:litodensidad_final:rC:NONE:v0 (auto-composite)
THOR     .ppm         UNKNOWN        : THOR:Espectrometria:rC:NONE:v0 (auto-composite)
URAN     .ppm         UNKNOWN        : URAN:Espectrometria:rC:NONE:v0 (auto-composite)
~A
# ...
   2226.5803
       7.1115       5.9162       0.1423      60.6795      25.5349      20.8885
     128.0653     131.9254     707.4136    -999.2500     557.1897    -999.2500
      23.1267    -999.2500       0.0528       3.0920       0.0032       2.3919
       0.4213       2.1820
   2226.7329
       7.0395       6.6741       0.1364      59.0096      27.6429      21.7647
     121.8693     124.8431     571.5845    -999.2500     515.4920    -999.2500
      63.0749    -999.2500       0.0516       3.1634       0.0030       2.4556
       0.6876       2.3373
   2226.8853
       7.0492       7.1158       0.1389      55.1677      30.9026      24.6743
      97.0895      97.7051     234.2202    -999.2500     273.5511    -999.2500
     127.8723    -999.2500       0.0521       3.2458       0.0031       2.4972
       0.7911       2.6361
   2227.0376
       7.1052       7.2023       0.1317      51.6656      34.9002      27.1392
      91.3831      91.3486     123.8898    -999.2500     150.9738    -999.2500
     125.7082    -999.2500       0.0616       3.2818       0.0037       2.5286
       0.5852       3.0905
   2227.1899
       7.1234       8.0062       0.1052      51.0254      40.4748      34.2464
      82.7479      80.3182      64.0766    -999.2500      65.9795    -999.2500
      95.4811    -999.2500       0.0759       3.2868       0.0048       2.5728
       0.3771       3.6228
   2227.3425
       7.2771       9.2020       0.0874      51.8096      44.0145      43.1478
      62.0453      57.9791      48.5271    -999.2500      43.4956    -999.2500
      30.4874    -999.2500       0.0864       3.2418       0.0054       2.5481
       0.4557       3.8802
   2227.4949
       7.1547      11.6859       0.0800      53.9779      45.5961      44.9387
      53.1434      50.7437      41.9160    -999.2500      35.9832    -999.2500
      17.0978    -999.2500       0.1098       3.1696       0.0058       2.4600
       1.0320       3.8084
   2227.6472
       7.0741      12.5027       0.0793      56.3665      44.5937      43.6068
      44.3898      42.6453      43.9602    -999.2500      38.3248    -999.2500
      17.7778    -999.2500       0.1206       3.1227       0.0054       2.4258
       1.4227       3.5854
   2227.7996
       7.1091      14.1894       0.0748      59.0141      41.5594      38.1077
      55.1170      50.9928      55.1827    -999.2500      49.9647    -999.2500
      19.6076    -999.2500       0.1102       3.0604       0.0051       2.4116
       1.9909       3.0144
   2227.9519
       7.1038      14.1687       0.0784      61.5827      38.9055      34.7581
      60.2243      55.5715      73.5077    -999.2500      68.3731    -999.2500
      21.2485    -999.2500       0.1034       3.0295       0.0054       2.4124
       1.8629       2.7600
   2228.1045
       7.1198      11.0437       0.0906      62.3429      35.9819      31.8113
      63.5858      59.4658     114.1882    -999.2500     112.4253    -999.2500
      22.3099    -999.2500       0.0865       2.9868       0.0049       2.3881
       1.1726       2.7520
   2228.2568
       7.1796       6.7212       0.1039      58.7149      34.2125      30.7349
      77.4913      70.5290     161.2987    -999.2500     159.7871    -999.2500
      12.9296    -999.2500       0.0736       2.7950       0.0035       2.2294
       0.5102       3.0677
   2228.4092
       6.8565       2.3700       0.1341      56.4677      32.4109      30.1350
     104.1186      92.1821     250.4223    -999.2500     234.3121    -999.2500
      11.0931    -999.2500       0.0738       2.5251       0.0016       2.0879
       0.0420       3.3225
   2228.5615
       6.9074       1.3007       0.1394      55.6942      32.2767      30.3461
     114.1778     106.2348     294.8779    -999.2500     266.9452    -999.2500
      35.5118    -999.2500       0.0815       2.7122       0.0008       2.2599
       0.0371       3.4449
   2228.7141
       6.9917       1.5909       0.1178      55.3604      32.8863      30.9086
     118.4734     117.3616     319.5031    -999.2500     292.0945    -999.2500
     126.3253    -999.2500       0.0858       3.1787       0.0005       2.4836
       0.2401       3.4864
   2228.8665
       6.9911       2.1911       0.1094      54.8048      33.8247      30.3079
     110.9284     114.5067     340.0478    -999.2500     315.4128    -999.2500
     122.7876    -999.2500       0.0810       3.2998       0.0004       2.4948
       0.4810       3.5276
   2229.0188
       7.0071       3.3926       0.1003      53.9947      35.2885      29.2382
     107.5116     111.7867     381.3508    -999.2500     361.0992    -999.2500
     229.3597    -999.2500       0.0825       3.3156       0.0003       2.5175
       0.8462       3.5406
   2229.1711
       7.0040       3.9870       0.0693      52.9367      37.8837      29.2598
     103.9460     108.3569     453.0334    -999.2500     463.4989    -999.2500
     453.7145    -999.2500       0.0858       3.2988       0.0003       2.5564
       1.0061       3.7578
   2229.3237
       6.9777       4.7660       0.0592      51.6708      40.3512      32.8047
      93.0588      95.9031     394.0601    -999.2500     460.1531    -999.2500
     243.2129    -999.2500       0.0795       3.3157       0.0004       2.5636
       1.2065       3.9650
   2229.4761
       6.9237       6.5185       0.0676      50.3555      41.6340      34.5729
      86.8720      87.8763     163.4174    -999.2500     248.8914    -999.2500
     152.7166    -999.2500       0.0746       3.3542       0.0008       2.6214
       1.5322       3.9038
   2229.6284
       6.9730       9.3528       0.0649      49.8006      44.1402      36.5686
      74.7418      73.6557      87.9102    -999.2500     135.4164    -999.2500
      70.6625    -999.2500       0.0777       3.3260       0.0018       2.6526
       1.9371       3.8736
   2229.7808
       7.0346      11.9501       0.0523      52.4103      48.6611      42.4497
      66.5971      64.0451      47.2154    -999.2500      58.5893    -999.2500
      15.2188    -999.2500       0.0838       3.1959       0.0024       2.5663
       2.4393       4.0821
   2229.9331
       7.0972      13.7350       0.0533      58.5764      52.9858      50.8143
      55.9760      52.5792      37.8810    -999.2500      40.0495    -999.2500
      10.1153    -999.2500       0.0931       3.0991       0.0032       2.4941
       2.6104       4.3765
   2230.0857
       7.1166      13.0449       0.0562      64.9637      56.2507      58.7812
      43.6208      40.6180      39.0345    -999.2500      42.0843    -999.2500
      12.1832    -999.2500       0.1082       3.1257       0.0034       2.5451
       2.3615       4.8268
   2230.2380
       7.1602       9.8216       0.0501      69.2080      54.9958      61.6530
      44.3380      40.7551      50.5302    -999.2500      58.6261    -999.2500
      19.4971    -999.2500       0.1144       3.2680       0.0032       2.6328
       1.5250       5.0270
   2230.3904
       7.2197       6.3046       0.0409      70.4558      49.9156      51.2253
      58.3857      51.7209      79.4136    -999.2500      95.2919    -999.2500
      35.3807    -999.2500       0.1142       3.3848       0.0028       2.6590
       0.6583       4.8614
   2230.5427
       7.1266       5.3229       0.0314      68.5044      44.9184      44.4433
      66.6965      59.1773     126.1017    -999.2500     150.5922    -999.2500
      69.0450    -999.2500       0.1123       3.3657       0.0028       2.6043
       0.4084       4.4198
   2230.6953
       7.1469       3.9969       0.0193      65.6227      38.6250      35.5647
      84.8933      79.9624     215.4003    -999.2500     255.3032    -999.2500
      67.0499    -999.2500       0.1116       3.2987       0.0020       2.5034
       0.3483       3.7801
   2230.8477
       7.1032       3.2877       0.0217      62.6918      35.1707      29.2589
      98.0392     107.5032     296.9891    -999.2500     348.1634    -999.2500
      59.7079    -999.2500       0.1099       3.2771       0.0019       2.4730
       0.1930       3.5490
