#------------------------------------------------------------------------------
#
#   Created by  : [OpenWorks] Log Export Utility (LEXP)
#   Created on  : 2016-05-23 17:52:08
#   Project     : CANT971
#   User        : R5K
#   Interpreter : PEP
#
#------------------------------------------------------------------------------
~VERSION INFORMATION
VERS. 2.0 : CWLS Log ASCII Standard - version 2.0
WRAP. YES : Mulitple lines per depth step
~WELL INFORMATION
#MNEMONIC   .UNIT                                           VALUE :DESCRIPTION
#------------------------------------------------------------------------------
STRT        .M                                          1316.1428 :START DEPTH
STOP        .M                                          2794.8801 :STOP DEPTH
STEP        .M                                             0.1524 :STEP
NULL        .                                           -999.2500 :NULL VALUE
COMP        .                                             UNKNOWN :COMPANY
WELL        .                                       Cantarell1045 :WELL
FLD         .                                             UNKNOWN :FIELD
LOC         .                                             UNKNOWN :LOCATION
CNTY        .                                             UNKNOWN :COUNTY
STAT        .                                             UNKNOWN :STATE
CTRY        .                                             UNKNOWN :COUNTRY
SRVC        .                                             UNKNOWN :SERVICE COMPANY
DATE        .                                             UNKNOWN :LOG DATE
UWI         .                                              1045-V :UNIQUE WELL ID
XCOORD      .                                       598503.480000 :SURFACE X
YCOORD      .                                      2149274.380000 :SURFACE Y
LAT         .                                           19.436572 :LATITUDE
LON         .                                          -92.061672 :LONGITUDE
ELEV        .M                                             0.0000 :SURFACE ELEV
ELEV_TYPE   .                                                  NA :ELEV TYPE
~CURVE INFORMATION
#MNEMONIC.UNIT        API CODE       : CURVE DESCRIPTION
#------------------------------------------------------------------------------
DEPTH    .M                          : Measured Depth
CALI     .UNKNOWN     UNKNOWN        : CALI:litodensidad_final:rC:NONE:v0 (auto-composite)
CGR      .API         UNKNOWN        : CGR:Espectrometria:rC:NONE:v0 (auto-composite)
DRHO     .g/cm3       UNKNOWN        : DRHO:litodensidad_final:rC:NONE:v0 (auto-composite)
DT       .us/ft       UNKNOWN        : DT:PETROWORKS:rC:NONE:v2 
GR       .API         UNKNOWN        : GR:PETROWORKS:rC:NONE:v1 
GR-LWD   .UNKNOWN     UNKNOWN        : GR-LWD:PETROWORKS:rC:NONE:v1 
ILD-LWD  .ohm.m       UNKNOWN        : ILD-LWD:UNKNOWN:rC:NONE:v0 (auto-composite)
ILM-LWD  .ohm.m       UNKNOWN        : ILM-LWD:UNKNOWN:rC:NONE:v0 (auto-composite)
LLD      .ohm.m       UNKNOWN        : LLD:resistivos-final:rC:NONE:v0 (auto-composite)
LLD-LWD  .ohm.m       UNKNOWN        : LLD-LWD:UNKNOWN:rC:NONE:v0 (auto-composite)
LLS      .ohm.m       UNKNOWN        : LLS:resistivos-final:rC:NONE:v0 (auto-composite)
LLS-LWD  .ohm.m       UNKNOWN        : LLS-LWD:UNKNOWN:rC:NONE:v0 (auto-composite)
MSFL     .ohm.m       UNKNOWN        : MSFL:resistivos-final:rC:NONE:v0 (auto-composite)
MSFL-LWD .ohm.m       UNKNOWN        : MSFL-LWD:UNKNOWN:rC:NONE:v0 (auto-composite)
NPHI     .UNKNOWN     UNKNOWN        : NPHI:porosidad-Final:rC:NONE:v0 (auto-composite)
PEF      .UNKNOWN     UNKNOWN        : PEF:litodensidad_final:rC:NONE:v0 (auto-composite)
POTA     .wtpercent   UNKNOWN        : POTA:Espectrometria:rC:NONE:v0 (auto-composite)
RHOB     .g/cm3       UNKNOWN        : RHOB:litodensidad_final:rC:NONE:v0 (auto-composite)
THOR     .ppm         UNKNOWN        : THOR:Espectrometria:rC:NONE:v0 (auto-composite)
URAN     .ppm         UNKNOWN        : URAN:Espectrometria:rC:NONE:v0 (auto-composite)
~A
# ...
   1877.4320
       6.6227      31.6314      -1.0511    -999.2500      36.8300      64.9811
       1.5454       1.4647       0.6715    -999.2500       8.2511    -999.2500
   20000.0000    -999.2500       0.3559      12.7401       0.0132       1.7383
       3.7329       0.5791
   1877.5845
       6.6354      30.6458      -1.0594    -999.2500      37.9864      64.4150
       1.4655       1.4026       0.6710    -999.2500       7.6534    -999.2500
   20000.0000    -999.2500       0.3634      12.7157       0.0127       1.7295
       3.6594       0.8167
   1877.7368
       6.6240      31.5775      -1.0594    -999.2500      39.0165      63.0870
       1.3913       1.3587       0.6631    -999.2500       7.3265    -999.2500
   20000.0000    -999.2500       0.3610      12.7287       0.0122       1.7225
       4.1222       0.8303
   1877.8893
       6.6241      32.3748      -1.0555    -999.2500      39.4927      58.6763
       1.4145       1.3732       0.6408    -999.2500       6.9820    -999.2500
   20000.0000    -999.2500       0.3628      12.8069       0.0117       1.7221
       4.5243       0.7951
   1878.0416
       6.6300      31.7872      -1.0508    -999.2500      39.2860      57.3001
       1.5071       1.4313       0.6161    -999.2500       6.8134    -999.2500
   20000.0000    -999.2500       0.3600      12.8304       0.0113       1.7202
       4.5308       0.8358
   1878.1940
       6.6113      29.4590      -1.0419    -999.2500      38.6236      56.1312
       1.4649       1.3969       0.6170    -999.2500       6.6483    -999.2500
   20000.0000    -999.2500       0.3597      12.8054       0.0106       1.7068
       4.1555       1.0206
   1878.3464
       6.6121      28.5644      -1.0283    -999.2500      37.7318      63.0740
       1.1476       1.1501       0.6163    -999.2500       6.5039    -999.2500
   20000.0000    -999.2500       0.3565      12.8744       0.0104       1.7004
       3.9872       1.0252
   1878.4988
       6.6080      26.5142      -1.0067    -999.2500      36.1793      67.9204
       1.1269       1.1108       0.6295    -999.2500       6.1611    -999.2500
   20000.0000    -999.2500       0.3540      13.0554       0.0106       1.7032
       3.3038       1.0599
   1878.6512
       6.6180      25.1118      -0.9961    -999.2500      34.9210      69.0471
       1.1043       1.0853       0.6175    -999.2500       5.9284    -999.2500
   20000.0000    -999.2500       0.3564      13.1039       0.0105       1.7096
       2.9718       1.0928
   1878.8036
       6.6207      24.2557      -0.9899    -999.2500      33.8787      68.1992
       1.1204       1.1083       0.6173    -999.2500       5.7575    -999.2500
   20000.0000    -999.2500       0.3532      13.1374       0.0104       1.7332
       2.7377       1.0544
   1878.9561
       6.6213      26.3132      -0.9863    -999.2500      34.0258      65.9539
       1.1719       1.1578       0.6186    -999.2500       5.7069    -999.2500
   20000.0000    -999.2500       0.3582      13.3309       0.0109       1.7565
       3.1333       0.8524
   1879.1084
       6.6318      33.7355      -0.9821    -999.2500      35.6022      65.2837
       1.2221       1.2000       0.6045    -999.2500       5.8404    -999.2500
   20000.0000    -999.2500       0.3647      13.7364       0.0135       1.7679
       4.2057       0.1824
   1879.2609
       6.6205      38.5019      -0.9823    -999.2500      39.4185      66.3492
       1.2790       1.2456       0.6007    -999.2500       5.9820    -999.2500
   20000.0000    -999.2500       0.3583      13.9310       0.0147       1.7576
       5.0743       0.1140
   1879.4132
       6.6129      40.9919      -0.9882    -999.2500      41.7800      67.7382
       1.2491       1.2213       0.6018    -999.2500       6.0730    -999.2500
   20000.0000    -999.2500       0.3523      14.0070       0.0153       1.7489
       5.5412       0.1088
   1879.5657
       6.6166      38.9505      -0.9977    -999.2500      40.1771      67.9254
       1.1424       1.1347       0.6015    -999.2500       5.9421    -999.2500
   20000.0000    -999.2500       0.3556      14.0089       0.0147       1.7498
       5.2352       0.1208
   1879.7180
       6.6212      37.0200      -1.0087    -999.2500      38.6293      68.2376
       1.1174       1.1091       0.6023    -999.2500       5.7913    -999.2500
   20000.0000    -999.2500       0.3615      13.9980       0.0142       1.7478
       4.8662       0.1661
   1879.8704
       6.6339      35.9975      -1.0195    -999.2500      39.6740      70.9214
       1.2423       1.2048       0.5951    -999.2500       5.4454    -999.2500
   20000.0000    -999.2500       0.3654      13.8463       0.0138       1.7431
       4.7558       0.4092
   1880.0228
       6.6525      36.1581      -1.0245    -999.2500      40.7676      70.7461
       1.2150       1.1849       0.5935    -999.2500       5.2558    -999.2500
   20000.0000    -999.2500       0.3573      13.7838       0.0137       1.7439
       4.8158       0.5091
   1880.1752
       6.6453      37.7498      -1.0287    -999.2500      43.0419      71.1026
       1.1620       1.1357       0.5979    -999.2500       5.0574    -999.2500
   20000.0000    -999.2500       0.3398      13.8635       0.0133       1.7440
       5.4205       0.5867
   1880.3276
       6.6431      42.8576      -1.0271    -999.2500      45.4095      76.8625
       0.9338       0.9339       0.5969    -999.2500       4.8035    -999.2500
   20000.0000    -999.2500       0.3392      13.9281       0.0141       1.7330
       6.5467       0.2889
   1880.4800
       6.6166      48.9190      -1.0248    -999.2500      50.2195      75.8325
       0.9658       0.9511       0.5999    -999.2500       4.5204    -999.2500
   20000.0000    -999.2500       0.3540      13.9385       0.0162       1.7080
       7.4527       0.1410
   1880.6324
       6.6055      52.4661      -1.0253    -999.2500      53.5820      75.4776
       0.9961       0.9751       0.5958    -999.2500       4.4192    -999.2500
   20000.0000    -999.2500       0.3795      13.7780       0.0184       1.6985
       7.5631       0.1270
   1880.7848
       6.6062      49.1598      -1.0292    -999.2500      50.1628      73.6204
       1.0772       1.0562       0.6251    -999.2500       4.3433    -999.2500
   20000.0000    -999.2500       0.4043      13.4608       0.0194       1.7028
       6.2385       0.1356
   1880.9373
       6.6117      40.8206      -1.0350    -999.2500      44.6366      72.1706
       1.1303       1.1067       0.6377    -999.2500       4.2165    -999.2500
   20000.0000    -999.2500       0.3932      13.2716       0.0180       1.7128
       4.4230       0.4165
   1881.0896
       6.6126      30.1127      -1.0375    -999.2500      42.1107      71.7216
       1.1762       1.1457       0.6238    -999.2500       4.0577    -999.2500
   20000.0000    -999.2500       0.3694      13.0445       0.0158       1.7215
       2.2576       1.3354
   1881.2421
       6.6080      27.8046      -1.0337    -999.2500      41.3695      70.4276
       1.2695       1.2279       0.6196    -999.2500       3.8976    -999.2500
   20000.0000    -999.2500       0.3769      12.9000       0.0146       1.7141
       2.0989       1.5095
   1881.3944
       6.6144      28.7087      -1.0288    -999.2500      40.9116      66.6832
       1.3979       1.3520       0.6282    -999.2500       3.7148    -999.2500
   20000.0000    -999.2500       0.3857      12.8325       0.0140       1.6964
       2.5965       1.3499
   1881.5469
       6.6295      30.4557      -1.0277    -999.2500      41.2701      64.9967
       1.3929       1.3514       0.6525    -999.2500       3.6028    -999.2500
   20000.0000    -999.2500       0.3965      12.8267       0.0139       1.6941
       3.1170       1.1993
   1881.6992
       6.6356      35.0551      -1.0290    -999.2500      42.6940      63.2585
       1.3680       1.3315       0.6998    -999.2500       3.3593    -999.2500
   20000.0000    -999.2500       0.3993      12.8125       0.0155       1.7068
       3.7776       0.8663
