#------------------------------------------------------------------------------
#
#   Created by  : [OpenWorks] Log Export Utility (LEXP)
#   Created on  : 2016-05-23 17:52:08
#   Project     : CANT971
#   User        : R5K
#   Interpreter : PEP
#
#------------------------------------------------------------------------------
~VERSION INFORMATION
VERS. 2.0 : CWLS Log ASCII Standard - version 2.0
WRAP. YES : Mulitple lines per depth step
~WELL INFORMATION
#MNEMONIC   .UNIT                                           VALUE :DESCRIPTION
#------------------------------------------------------------------------------
STRT        .M                                          1316.1428 :START DEPTH
STOP        .M                                          2794.8801 :STOP DEPTH
STEP        .M                                             0.1524 :STEP
NULL        .                                           -999.2500 :NULL VALUE
COMP        .                                             UNKNOWN :COMPANY
WELL        .                                       Cantarell1045 :WELL
FLD         .                                             UNKNOWN :FIELD
LOC         .                                             UNKNOWN :LOCATION
CNTY        .                                             UNKNOWN :COUNTY
STAT        .                                             UNKNOWN :STATE
CTRY        .                                             UNKNOWN :COUNTRY
SRVC        .                                             UNKNOWN :SERVICE COMPANY
DATE        .                                             UNKNOWN :LOG DATE
UWI         .                                              1045-V :UNIQUE WELL ID
XCOORD      .                                       598503.480000 :SURFACE X
YCOORD      .                                      2149274.380000 :SURFACE Y
LAT         .                                           19.436572 :LATITUDE
LON         .                                          -92.061672 :LONGITUDE
ELEV        .M                                             0.0000 :SURFACE ELEV
ELEV_TYPE   .                                                  NA :ELEV TYPE
~CURVE INFORMATION
#MNEMONIC.UNIT        API CODE       : CURVE DESCRIPTION
#------------------------------------------------------------------------------
DEPTH    .M                          : Measured Depth
CALI     .UNKNOWN     UNKNOWN        : CALI:litodensidad_final:rC:NONE:v0 (auto-composite)
CGR      .API         UNKNOWN        : CGR:Espectrometria:rC:NONE:v0 (auto-composite)
DRHO     .g/cm3       UNKNOWN        : DRHO:litodensidad_final:rC:NONE:v0 (auto-composite)
DT       .us/ft       UNKNOWN        : DT:PETROWORKS:rC:NONE:v2 
GR       .API         UNKNOWN        : GR:PETROWORKS:rC:NONE:v1 
GR-LWD   .UNKNOWN     UNKNOWN        : GR-LWD:PETROWORKS:rC:NONE:v1 
ILD-LWD  .ohm.m       UNKNOWN        : ILD-LWD:UNKNOWN:rC:NONE:v0 (auto-composite)
ILM-LWD  .ohm.m       UNKNOWN        : ILM-LWD:UNKNOWN:rC:NONE:v0 (auto-composite)
LLD      .ohm.m       UNKNOWN        : LLD:resistivos-final:rC:NONE:v0 (auto-composite)
LLD-LWD  .ohm.m       UNKNOWN        : LLD-LWD:UNKNOWN:rC:NONE:v0 (auto-composite)
LLS      .ohm.m       UNKNOWN        : LLS:resistivos-final:rC:NONE:v0 (auto-composite)
LLS-LWD  .ohm.m       UNKNOWN        : LLS-LWD:UNKNOWN:rC:NONE:v0 (auto-composite)
MSFL     .ohm.m       UNKNOWN        : MSFL:resistivos-final:rC:NONE:v0 (auto-composite)
MSFL-LWD .ohm.m       UNKNOWN        : MSFL-LWD:UNKNOWN:rC:NONE:v0 (auto-composite)
NPHI     .UNKNOWN     UNKNOWN        : NPHI:porosidad-Final:rC:NONE:v0 (auto-composite)
PEF      .UNKNOWN     UNKNOWN        : PEF:litodensidad_final:rC:NONE:v0 (auto-composite)
POTA     .wtpercent   UNKNOWN        : POTA:Espectrometria:rC:NONE:v0 (auto-composite)
RHOB     .g/cm3       UNKNOWN        : RHOB:litodensidad_final:rC:NONE:v0 (auto-composite)
THOR     .ppm         UNKNOWN        : THOR:Espectrometria:rC:NONE:v0 (auto-composite)
URAN     .ppm         UNKNOWN        : URAN:Espectrometria:rC:NONE:v0 (auto-composite)
~A
# ...
   1837.6556
       6.6226    -999.2500      -1.7696     109.4556      30.6268      61.1122
       1.9191       1.8409    -999.2500    -999.2500    -999.2500    -999.2500
    -999.2500    -999.2500       0.4058      12.5968    -999.2500       0.9915
    -999.2500    -999.2500
   1837.8080
       6.6320    -999.2500      -1.7543     108.6338      30.5983      58.7959
       2.2088       2.0569    -999.2500    -999.2500    -999.2500    -999.2500
    -999.2500    -999.2500       0.4185      12.3792    -999.2500       1.0193
    -999.2500    -999.2500
   1837.9604
       6.6277    -999.2500      -1.7235     107.7264      29.6765      58.1815
       2.1958       2.0601    -999.2500    -999.2500    -999.2500    -999.2500
    -999.2500    -999.2500       0.4412      12.2233    -999.2500       1.0774
    -999.2500    -999.2500
   1838.1128
       6.6193    -999.2500      -1.6743     107.6358      29.2318      58.0548
       2.1479       2.0319    -999.2500    -999.2500    -999.2500    -999.2500
    -999.2500    -999.2500       0.4446      12.0294    -999.2500       1.1562
    -999.2500    -999.2500
   1838.2653
       6.6152    -999.2500      -1.6515     109.4345      28.7204      60.1207
       2.0422       1.9592    -999.2500    -999.2500    -999.2500    -999.2500
    -999.2500    -999.2500       0.4286      11.8875    -999.2500       1.1843
    -999.2500    -999.2500
   1838.4176
       6.6076    -999.2500      -1.6374     110.2887      29.7710      62.9614
       1.8979       1.8511    -999.2500    -999.2500    -999.2500    -999.2500
    -999.2500    -999.2500       0.4295      11.6996    -999.2500       1.1962
    -999.2500    -999.2500
   1838.5701
       6.6233    -999.2500      -1.6267     110.0547      32.2051      63.1090
       1.8775       1.8342    -999.2500    -999.2500    -999.2500    -999.2500
    -999.2500    -999.2500       0.4339      11.4474    -999.2500       1.1885
    -999.2500    -999.2500
   1838.7224
       6.6185    -999.2500      -1.6216     109.8717      33.4874      62.6580
       1.7507       1.7372    -999.2500    -999.2500    -999.2500    -999.2500
    -999.2500    -999.2500       0.4156      11.3957    -999.2500       1.1837
    -999.2500    -999.2500
   1838.8749
       6.6071    -999.2500      -1.6166     110.0526      34.0601      58.8331
       1.4104       1.4464    -999.2500    -999.2500    -999.2500    -999.2500
    -999.2500    -999.2500       0.4143      11.3630    -999.2500       1.1898
    -999.2500    -999.2500
   1839.0272
       6.6050    -999.2500      -1.6100     109.8270      32.4159      59.0945
       1.5514       1.5598    -999.2500    -999.2500    -999.2500    -999.2500
    -999.2500    -999.2500       0.4266      11.2458    -999.2500       1.2028
    -999.2500    -999.2500
   1839.1796
       6.6008    -999.2500      -1.5940     109.6294      33.6903      59.6565
       1.6937       1.6698    -999.2500    -999.2500    -999.2500    -999.2500
    -999.2500    -999.2500       0.4166      11.0837    -999.2500       1.2247
    -999.2500    -999.2500
   1839.3320
       6.6001    -999.2500      -1.5812     109.3904      33.6939      60.8918
       1.7442       1.7101    -999.2500    -999.2500    -999.2500    -999.2500
    -999.2500    -999.2500       0.4040      11.0627    -999.2500       1.2387
    -999.2500    -999.2500
   1839.4844
       6.6047    -999.2500      -1.5652     108.7525      32.7569      60.8871
       1.8471       1.7997    -999.2500    -999.2500    -999.2500    -999.2500
    -999.2500    -999.2500       0.3932      11.1179    -999.2500       1.2509
    -999.2500    -999.2500
   1839.6368
       6.5983    -999.2500      -1.5487     108.0131      29.1193      60.7592
       1.9161       1.8584    -999.2500    -999.2500    -999.2500    -999.2500
    -999.2500    -999.2500       0.3807      11.2127    -999.2500       1.2633
    -999.2500    -999.2500
   1839.7892
       6.5991    -999.2500      -1.5224     106.6658      28.9154      57.1180
       2.2111       2.1340    -999.2500    -999.2500    -999.2500    -999.2500
    -999.2500    -999.2500       0.3824      11.4344    -999.2500       1.2861
    -999.2500    -999.2500
   1839.9417
       6.6073    -999.2500      -1.5007     105.7444      28.2228      55.1400
       2.4295       2.3280    -999.2500    -999.2500    -999.2500    -999.2500
    -999.2500    -999.2500       0.3864      11.6547    -999.2500       1.3001
    -999.2500    -999.2500
   1840.0940
       6.6207    -999.2500      -1.4715     105.1239      28.1784      54.8127
       2.4958       2.3754    -999.2500    -999.2500    -999.2500    -999.2500
    -999.2500    -999.2500       0.3850      11.8690    -999.2500       1.3179
    -999.2500    -999.2500
   1840.2465
       6.6073    -999.2500      -1.4524     102.9684      27.4561      53.3785
       2.8976       2.6719       0.7369    -999.2500      83.8624    -999.2500
    -999.2500    -999.2500       0.3892      12.0446    -999.2500       1.3328
    -999.2500    -999.2500
   1840.3988
       6.5983    -999.2500      -1.4376     100.5039      28.7042      49.6286
       2.8580       2.6937       0.7482    -999.2500      72.8907    -999.2500
    -999.2500    -999.2500       0.3887      12.3988    -999.2500       1.3398
    -999.2500    -999.2500
   1840.5513
       6.5983    -999.2500      -1.4322     101.0984      30.1755      48.6057
       2.8553       2.6999       0.7543    -999.2500      67.8754    -999.2500
    -999.2500    -999.2500       0.3913      12.6568    -999.2500       1.3333
    -999.2500    -999.2500
   1840.7036
       6.5991    -999.2500      -1.4305     101.7667      28.7152      46.8183
       2.8446       2.7099       0.7651    -999.2500      61.5350    -999.2500
    -999.2500    -999.2500       0.3935      12.8114    -999.2500       1.3187
    -999.2500    -999.2500
   1840.8561
       6.6041    -999.2500      -1.4339     101.9587      28.1439      47.0176
       3.1074       2.8264       0.7547    -999.2500      56.5507    -999.2500
    -999.2500    -999.2500       0.3918      12.7499    -999.2500       1.3100
    -999.2500    -999.2500
   1841.0084
       6.5929    -999.2500      -1.4427     101.4164      27.0384      46.9483
       3.2606       2.9306       0.7304    -999.2500      49.9134    -999.2500
    -999.2500    -999.2500       0.3849      12.5876    -999.2500       1.3049
    -999.2500    -999.2500
   1841.1608
       6.5983    -999.2500      -1.4497     100.9644      25.5323      46.5929
       3.3236       2.9790       0.7219    -999.2500      46.8878    -999.2500
    -999.2500    -999.2500       0.3890      12.6015    -999.2500       1.2986
    -999.2500    -999.2500
   1841.3132
       6.5983    -999.2500      -1.4566     100.5095      22.7908      41.8988
       3.3517       3.0315       0.7380    -999.2500      44.7329    -999.2500
    -999.2500    -999.2500       0.4002      12.7365    -999.2500       1.2877
    -999.2500    -999.2500
   1841.4656
       6.5983    -999.2500      -1.4587      98.8797      21.6185      41.4907
       3.4286       3.0772       0.7398    -999.2500      45.1307    -999.2500
    -999.2500    -999.2500       0.4020      12.8335    -999.2500       1.2890
    -999.2500    -999.2500
   1841.6180
       6.5979    -999.2500      -1.4618      97.8159      21.4869      41.6226
       3.4716       3.1000       0.7504    -999.2500      46.3054    -999.2500
    -999.2500    -999.2500       0.4011      12.9920    -999.2500       1.2914
    -999.2500    -999.2500
   1841.7704
       6.5954    -999.2500      -1.4683      96.1127      23.7752      43.4396
       3.6143       3.2193       0.7395    -999.2500      49.4515    -999.2500
    -999.2500    -999.2500       0.4088      13.2913    -999.2500       1.2866
    -999.2500    -999.2500
   1841.9229
       6.5983    -999.2500      -1.4727      94.8714      24.8214      45.5664
       3.7481       3.3053       0.7192    -999.2500      52.2082    -999.2500
    -999.2500    -999.2500       0.4028      13.3975    -999.2500       1.2858
    -999.2500    -999.2500
