#------------------------------------------------------------------------------
#
#   Created by  : [OpenWorks] Log Export Utility (LEXP)
#   Created on  : 2016-05-23 17:52:08
#   Project     : CANT971
#   User        : R5K
#   Interpreter : PEP
#
#------------------------------------------------------------------------------
~VERSION INFORMATION
VERS. 2.0 : CWLS Log ASCII Standard - version 2.0
WRAP. YES : Mulitple lines per depth step
~WELL INFORMATION
#MNEMONIC   .UNIT                                           VALUE :DESCRIPTION
#------------------------------------------------------------------------------
STRT        .M                                          1316.1428 :START DEPTH
STOP        .M                                          2794.8801 :STOP DEPTH
STEP        .M                                             0.1524 :STEP
NULL        .                                           -999.2500 :NULL VALUE
COMP        .                                             UNKNOWN :COMPANY
WELL        .                                       Cantarell1045 :WELL
FLD         .                                             UNKNOWN :FIELD
LOC         .                                             UNKNOWN :LOCATION
CNTY        .                                             UNKNOWN :COUNTY
STAT        .                                             UNKNOWN :STATE
CTRY        .                                             UNKNOWN :COUNTRY
SRVC        .                                             UNKNOWN :SERVICE COMPANY
DATE        .                                             UNKNOWN :LOG DATE
UWI         .                                              1045-V :UNIQUE WELL ID
XCOORD      .                                       598503.480000 :SURFACE X
YCOORD      .                                      2149274.380000 :SURFACE Y
LAT         .                                           19.436572 :LATITUDE
LON         .                                          -92.061672 :LONGITUDE
ELEV        .M                                             0.0000 :SURFACE ELEV
ELEV_TYPE   .                                                  NA :ELEV TYPE
~CURVE INFORMATION
#MNEMONIC.UNIT        API CODE       : CURVE DESCRIPTION
#------------------------------------------------------------------------------
DEPTH    .M                          : Measured Depth
CALI     .UNKNOWN     UNKNOWN        : CALI:litodensidad_final:rC:NONE:v0 (auto-composite)
CGR      .API         UNKNOWN        : CGR:Espectrometria:rC:NONE:v0 (auto-composite)
DRHO     .g/cm3       UNKNOWN        : DRHO:litodensidad_final:rC:NONE:v0 (auto-composite)
DT       .us/ft       UNKNOWN        : DT:PETROWORKS:rC:NONE:v2 
GR       .API         UNKNOWN        : GR:PETROWORKS:rC:NONE:v1 
GR-LWD   .UNKNOWN     UNKNOWN        : GR-LWD:PETROWORKS:rC:NONE:v1 
ILD-LWD  .ohm.m       UNKNOWN        : ILD-LWD:UNKNOWN:rC:NONE:v0 (auto-composite)
ILM-LWD  .ohm.m       UNKNOWN        : ILM-LWD:UNKNOWN:rC:NONE:v0 (auto-composite)
LLD      .ohm.m       UNKNOWN        : LLD:resistivos-final:rC:NONE:v0 (auto-composite)
LLD-LWD  .ohm.m       UNKNOWN        : LLD-LWD:UNKNOWN:rC:NONE:v0 (auto-composite)
LLS      .ohm.m       UNKNOWN        : LLS:resistivos-final:rC:NONE:v0 (auto-composite)
LLS-LWD  .ohm.m       UNKNOWN        : LLS-LWD:UNKNOWN:rC:NONE:v0 (auto-composite)
MSFL     .ohm.m       UNKNOWN        : MSFL:resistivos-final:rC:NONE:v0 (auto-composite)
MSFL-LWD .ohm.m       UNKNOWN        : MSFL-LWD:UNKNOWN:rC:NONE:v0 (auto-composite)
NPHI     .UNKNOWN     UNKNOWN        : NPHI:porosidad-Final:rC:NONE:v0 (auto-composite)
PEF      .UNKNOWN     UNKNOWN        : PEF:litodensidad_final:rC:NONE:v0 (auto-composite)
POTA     .wtpercent   UNKNOWN        : POTA:Espectrometria:rC:NONE:v0 (auto-composite)
RHOB     .g/cm3       UNKNOWN        : RHOB:litodensidad_final:rC:NONE:v0 (auto-composite)
THOR     .ppm         UNKNOWN        : THOR:Espectrometria:rC:NONE:v0 (auto-composite)
URAN     .ppm         UNKNOWN        : URAN:Espectrometria:rC:NONE:v0 (auto-composite)
~A
# ...
   2421.0427
       6.9155    -999.2500       0.0031    -999.2500    -999.2500      40.8284
    -999.2500    -999.2500     468.1495     250.5068     305.9154     182.5936
     103.1193     131.9542       0.0802       3.4091    -999.2500       2.6658
    -999.2500    -999.2500
   2421.1953
       6.8866    -999.2500      -0.0006    -999.2500    -999.2500      41.7936
    -999.2500    -999.2500     505.5541     266.9655     323.7734     191.2150
      89.8923     124.8474    -999.2500       3.4483    -999.2500       2.6277
    -999.2500    -999.2500
   2421.3477
       6.8927    -999.2500      -0.0029    -999.2500    -999.2500      40.4767
    -999.2500    -999.2500     548.9206     285.5141     352.0434     195.4615
     108.7583     118.6613    -999.2500       3.4901    -999.2500       2.6218
    -999.2500    -999.2500
   2421.5000
       6.8654    -999.2500      -0.0047    -999.2500    -999.2500      44.1115
    -999.2500    -999.2500     605.0118     290.0814     391.7391     183.1880
      82.5140     108.5988    -999.2500       3.4862    -999.2500       2.6337
    -999.2500    -999.2500
   2421.6523
       6.8275    -999.2500      -0.0051    -999.2500    -999.2500      47.1871
    -999.2500    -999.2500     610.6211     282.0396     401.4676     174.5676
      65.6302     109.9538    -999.2500       3.4312    -999.2500       2.6244
    -999.2500    -999.2500
   2421.8049
       6.8886    -999.2500      -0.0054    -999.2500    -999.2500      48.2217
    -999.2500    -999.2500     552.8881     286.4308     363.2733     191.7314
      77.9396     121.3199    -999.2500       3.3790    -999.2500       2.5989
    -999.2500    -999.2500
   2421.9573
       6.9310    -999.2500      -0.0072    -999.2500    -999.2500      47.0834
    -999.2500    -999.2500     487.1349     292.0656     321.3817     192.6022
      94.4933     123.8170    -999.2500       3.4161    -999.2500       2.5925
    -999.2500    -999.2500
   2422.1096
       6.9772    -999.2500      -0.0108    -999.2500    -999.2500      47.1460
    -999.2500    -999.2500     405.4255     328.6438     262.2286     174.0051
     106.9693     123.8170    -999.2500       3.4732    -999.2500       2.6050
    -999.2500    -999.2500
   2422.2620
       6.9779    -999.2500      -0.0143    -999.2500    -999.2500      46.8434
    -999.2500    -999.2500     379.4750     403.4008     244.0930     172.6727
      96.7828     122.0841    -999.2500       3.4547    -999.2500       2.6153
    -999.2500    -999.2500
   2422.4143
       6.8909    -999.2500      -0.0214    -999.2500    -999.2500      46.2859
    -999.2500    -999.2500     374.2552     391.2147     240.8596     176.5092
      75.0372     110.2895    -999.2500       3.4223    -999.2500       2.6162
    -999.2500    -999.2500
   2422.5669
       6.9236    -999.2500      -0.0245    -999.2500    -999.2500      45.5365
    -999.2500    -999.2500     389.0183     301.1332     250.6147     153.3690
      88.8349      94.9981    -999.2500       3.4226    -999.2500       2.6206
    -999.2500    -999.2500
   2422.7192
       6.9554    -999.2500      -0.0219    -999.2500    -999.2500      45.7019
    -999.2500    -999.2500     419.3003     294.8270     269.0048     143.4337
     106.4099      93.4027    -999.2500       3.4146    -999.2500       2.6379
    -999.2500    -999.2500
   2422.8716
       7.0338    -999.2500      -0.0054    -999.2500    -999.2500      47.6345
    -999.2500    -999.2500     477.0384     274.5676     297.1274     135.6095
     171.6797      86.2815    -999.2500       3.3764    -999.2500       2.6591
    -999.2500    -999.2500
   2423.0239
       6.9877    -999.2500       0.0159    -999.2500    -999.2500      45.0023
    -999.2500    -999.2500     533.4625     259.4807     326.2787     156.3116
     163.6994      93.7044    -999.2500       3.3886    -999.2500       2.6486
    -999.2500    -999.2500
   2423.1765
       6.9957    -999.2500       0.0501    -999.2500    -999.2500      39.8573
    -999.2500    -999.2500     630.2561     269.0645     378.1516     188.1681
     136.6677     108.3426    -999.2500       3.4382    -999.2500       2.6368
    -999.2500    -999.2500
   2423.3289
       6.9686    -999.2500       0.0497    -999.2500    -999.2500      43.2765
    -999.2500    -999.2500     708.0356     274.7378     415.7381     219.3363
     161.5773     116.7294    -999.2500       3.4228    -999.2500       2.6410
    -999.2500    -999.2500
   2423.4812
       7.1143    -999.2500       0.0245    -999.2500    -999.2500      43.0012
    -999.2500    -999.2500     782.4197     303.9701     448.1606     266.7495
     214.0967     137.7116    -999.2500       3.3667    -999.2500       2.6441
    -999.2500    -999.2500
   2423.6335
       7.0337    -999.2500       0.0182    -999.2500    -999.2500      39.5015
    -999.2500    -999.2500     746.6443     394.8688     420.8608     294.9102
     121.4463     155.5012    -999.2500       3.3466    -999.2500       2.6332
    -999.2500    -999.2500
   2423.7861
       6.9854    -999.2500       0.0204    -999.2500    -999.2500      40.1642
    -999.2500    -999.2500     640.2314     467.4030     361.0143     315.6209
      61.5057     166.3784    -999.2500       3.3483    -999.2500       2.6045
    -999.2500    -999.2500
   2423.9385
       6.9474    -999.2500       0.0228    -999.2500    -999.2500      43.1313
    -999.2500    -999.2500     548.6514     454.7836     315.2421     314.2491
      67.8364     153.6644    -999.2500       3.3688    -999.2500       2.6009
    -999.2500    -999.2500
   2424.0908
       6.9820    -999.2500       0.0262    -999.2500    -999.2500      43.2132
    -999.2500    -999.2500     453.8362     405.4295     270.5649     268.1631
      86.0906     141.4595    -999.2500       3.3839    -999.2500       2.6247
    -999.2500    -999.2500
   2424.2432
       6.9870    -999.2500       0.0233    -999.2500    -999.2500      43.7114
    -999.2500    -999.2500     407.0642     349.1267     251.4678     218.0514
      82.2989     125.0949    -999.2500       3.3723    -999.2500       2.6502
    -999.2500    -999.2500
   2424.3955
       7.0090    -999.2500       0.0170    -999.2500    -999.2500      42.9813
    -999.2500    -999.2500     353.9969     310.0294     228.7765     177.8890
      61.9206     111.4293    -999.2500       3.3669    -999.2500       2.6607
    -999.2500    -999.2500
   2424.5481
       6.9899    -999.2500       0.0210    -999.2500    -999.2500      42.4035
    -999.2500    -999.2500     317.1429     298.9883     211.9839     158.2096
      48.8045     100.1619    -999.2500       3.3799    -999.2500       2.6421
    -999.2500    -999.2500
   2424.7004
       6.9897    -999.2500       0.0374    -999.2500    -999.2500      43.7170
    -999.2500    -999.2500     280.6043     294.3562     193.1598     159.1538
      42.7094      98.3123    -999.2500       3.4128    -999.2500       2.6346
    -999.2500    -999.2500
   2424.8528
       7.0334    -999.2500       0.0423    -999.2500    -999.2500      40.5957
    -999.2500    -999.2500     256.9042     284.5139     179.7441     151.1025
      73.8427      93.9994    -999.2500       3.4408    -999.2500       2.6540
    -999.2500    -999.2500
   2425.0051
       7.1268    -999.2500       0.0302    -999.2500    -999.2500      35.3380
    -999.2500    -999.2500     235.0069     314.2002     166.5754     156.1368
     123.2017      92.0235    -999.2500       3.4176    -999.2500       2.6723
    -999.2500    -999.2500
   2425.1577
       7.3373    -999.2500       0.0134    -999.2500    -999.2500      39.2496
    -999.2500    -999.2500     221.7645     311.6871     159.0388     158.4220
      94.1031      89.3850    -999.2500       3.3487    -999.2500       2.6632
    -999.2500    -999.2500
   2425.3101
       7.7202    -999.2500       0.0090    -999.2500    -999.2500      43.7916
    -999.2500    -999.2500     204.8982     247.5136     147.2231     134.8120
      32.5139      76.7079    -999.2500       3.3071    -999.2500       2.6200
    -999.2500    -999.2500
