#------------------------------------------------------------------------------
#
#   Created by  : [OpenWorks] Log Export Utility (LEXP)
#   Created on  : 2016-05-23 17:52:08
#   Project     : CANT971
#   User        : R5K
#   Interpreter : PEP
#
#------------------------------------------------------------------------------
~VERSION INFORMATION
VERS. 2.0 : CWLS Log ASCII Standard - version 2.0
WRAP. YES : Mulitple lines per depth step
~WELL INFORMATION
#MNEMONIC   .UNIT                                           VALUE :DESCRIPTION
#------------------------------------------------------------------------------
STRT        .M                                          1316.1428 :START DEPTH
STOP        .M                                          2794.8801 :STOP DEPTH
STEP        .M                                             0.1524 :STEP
NULL        .                                           -999.2500 :NULL VALUE
COMP        .                                             UNKNOWN :COMPANY
WELL        .                                       Cantarell1045 :WELL
FLD         .                                             UNKNOWN :FIELD
LOC         .                                             UNKNOWN :LOCATION
CNTY        .                                             UNKNOWN :COUNTY
STAT        .                                             UNKNOWN :STATE
CTRY        .                                             UNKNOWN :COUNTRY
SRVC        .                                             UNKNOWN :SERVICE COMPANY
DATE        .                                             UNKNOWN :LOG DATE
UWI         .                                              1045-V :UNIQUE WELL ID
XCOORD      .                                       598503.480000 :SURFACE X
YCOORD      .                                      2149274.380000 :SURFACE Y
LAT         .                                           19.436572 :LATITUDE
LON         .                                          -92.061672 :LONGITUDE
ELEV        .M                                             0.0000 :SURFACE ELEV
ELEV_TYPE   .                                                  NA :ELEV TYPE
~CURVE INFORMATION
#MNEMONIC.UNIT        API CODE       : CURVE DESCRIPTION
#------------------------------------------------------------------------------
DEPTH    .M                          : Measured Depth
CALI     .UNKNOWN     UNKNOWN        : CALI:litodensidad_final:rC:NONE:v0 (auto-composite)
CGR      .API         UNKNOWN        : CGR:Espectrometria:rC:NONE:v0 (auto-composite)
DRHO     .g/cm3       UNKNOWN        : DRHO:litodensidad_final:rC:NONE:v0 (auto-composite)
DT       .us/ft       UNKNOWN        : DT:PETROWORKS:rC:NONE:v2 
GR       .API         UNKNOWN        : GR:PETROWORKS:rC:NONE:v1 
GR-LWD   .UNKNOWN     UNKNOWN        : GR-LWD:PETROWORKS:rC:NONE:v1 
ILD-LWD  .ohm.m       UNKNOWN        : ILD-LWD:UNKNOWN:rC:NONE:v0 (auto-composite)
ILM-LWD  .ohm.m       UNKNOWN        : ILM-LWD:UNKNOWN:rC:NONE:v0 (auto-composite)
LLD      .ohm.m       UNKNOWN        : LLD:resistivos-final:rC:NONE:v0 (auto-composite)
LLD-LWD  .ohm.m       UNKNOWN        : LLD-LWD:UNKNOWN:rC:NONE:v0 (auto-composite)
LLS      .ohm.m       UNKNOWN        : LLS:resistivos-final:rC:NONE:v0 (auto-composite)
LLS-LWD  .ohm.m       UNKNOWN        : LLS-LWD:UNKNOWN:rC:NONE:v0 (auto-composite)
MSFL     .ohm.m       UNKNOWN        : MSFL:resistivos-final:rC:NONE:v0 (auto-composite)
MSFL-LWD .ohm.m       UNKNOWN        : MSFL-LWD:UNKNOWN:rC:NONE:v0 (auto-composite)
NPHI     .UNKNOWN     UNKNOWN        : NPHI:porosidad-Final:rC:NONE:v0 (auto-composite)
PEF      .UNKNOWN     UNKNOWN        : PEF:litodensidad_final:rC:NONE:v0 (auto-composite)
POTA     .wtpercent   UNKNOWN        : POTA:Espectrometria:rC:NONE:v0 (auto-composite)
RHOB     .g/cm3       UNKNOWN        : RHOB:litodensidad_final:rC:NONE:v0 (auto-composite)
THOR     .ppm         UNKNOWN        : THOR:Espectrometria:rC:NONE:v0 (auto-composite)
URAN     .ppm         UNKNOWN        : URAN:Espectrometria:rC:NONE:v0 (auto-composite)
~A
# ...
   2186.8040
       7.0035       7.2985       0.2567      78.4380      30.7906      24.8596
     246.8946     239.8836     405.2774    -999.2500     251.2732    -999.2500
      11.6185    -999.2500       0.0876       3.1125       0.0035       2.3894
       0.6643       2.6340
   2186.9565
       7.0129       7.1433       0.2453      78.4352      32.9057      25.8565
     255.4355     251.3317     412.1159    -999.2500     249.4305    -999.2500
      12.5901    -999.2500       0.0820       3.0494       0.0036       2.3213
       0.6106       2.8676
   2187.1089
       6.9238       7.7139       0.1759      78.2382      34.7429      26.3333
     255.2902     255.9431     410.9008    -999.2500     240.5819    -999.2500
      24.9396    -999.2500       0.0820       3.1590       0.0039       2.4062
       0.6497       3.0273
   2187.2612
       6.7646       6.7076       0.1157      77.9305      34.8023      25.5892
     260.5595     255.4485     404.4671    -999.2500     228.9821    -999.2500
      53.2538    -999.2500       0.0798       3.2665       0.0033       2.4821
       0.5847       3.1367
   2187.4136
       6.7907       5.0445       0.0658      78.0320      33.6434      24.5327
     263.8997     253.7908     386.4495    -999.2500     211.6416    -999.2500
      65.1730    -999.2500       0.0841       3.3330       0.0026       2.5357
       0.4114       3.1780
   2187.5659
       6.7942       3.8941       0.0622      78.6146      32.7124      24.7280
     256.1948     248.2845     377.2519    -999.2500     203.1989    -999.2500
      44.1679    -999.2500       0.0925       3.3512       0.0019       2.5731
       0.3572       3.2080
   2187.7185
       6.8168       3.2024       0.0532      79.0645      31.9124      25.8288
     249.5751     247.5153     379.9825    -999.2500     205.9646    -999.2500
      44.8555    -999.2500       0.0958       3.3444       0.0015       2.6086
       0.3121       3.1931
   2187.8708
       6.8399       2.8914       0.0159      79.1903      32.0914      29.8895
     282.2527     261.0674     407.1006    -999.2500     224.2656    -999.2500
      81.7053    -999.2500       0.0867       3.3018       0.0014       2.6413
       0.2843       3.2542
   2188.0232
       6.7922       2.9038       0.0047      78.9884      32.5661      31.4316
     277.7513     259.6605     444.7128    -999.2500     249.3599    -999.2500
     140.2488    -999.2500       0.0787       3.3230       0.0016       2.6603
       0.1822       3.3015
   2188.1755
       6.7656       2.7702       0.0187      76.8438      32.9002      32.3267
     269.2452     262.9172     505.2825    -999.2500     289.5981    -999.2500
     210.9367    -999.2500       0.0727       3.3991       0.0017       2.6611
       0.1292       3.3572
   2188.3281
       6.7550       2.4848       0.0264      73.0016      32.5373      30.2438
     273.1876     261.4600     513.5771    -999.2500     296.4593    -999.2500
     210.5392    -999.2500       0.0697       3.3871       0.0013       2.6329
       0.2051       3.3450
   2188.4805
       6.7839       3.0124       0.0205      70.1816      32.0632      31.9804
     257.2360     251.8761     475.7416    -999.2500     284.2884    -999.2500
     107.6113    -999.2500       0.0723       3.3013       0.0011       2.5865
       0.4047       3.2368
   2188.6328
       6.7756       3.7042       0.0115      69.4370      31.6197      39.6540
     246.0050     244.2887     417.0411    -999.2500     256.0782    -999.2500
      71.2169    -999.2500       0.0795       3.2559       0.0018       2.5446
       0.3200       3.1078
   2188.7852
       6.7283       5.2864       0.0041      69.4144      31.2722      42.6603
     251.5834     249.3883     360.6764    -999.2500     233.2776    -999.2500
     100.9643    -999.2500       0.0884       3.2240       0.0034       2.4818
       0.1339       2.8947
   2188.9377
       6.7367       5.5302       0.0084      70.0614      30.8711      41.6006
     261.5153     254.2022     342.1035    -999.2500     233.2172    -999.2500
     216.3975    -999.2500       0.0908       3.1602       0.0038       2.4532
       0.0460       2.8209
   2189.0901
       6.7415       5.4161       0.0190      72.1094      30.4506      35.1020
     253.8141     247.6402     344.6714    -999.2500     254.4178    -999.2500
     246.1065    -999.2500       0.0963       3.0279       0.0038       2.4470
       0.0245       2.7884
   2189.2424
       6.6315       4.3441       0.0177      74.7486      29.8819      29.3188
     240.4279     238.4285     345.9329    -999.2500     275.1479    -999.2500
      95.8879    -999.2500       0.1013       2.9808       0.0030       2.4592
       0.0246       2.8510
   2189.3948
       5.7184       4.7373       0.0108      76.1507      27.9288      26.4555
     237.5152     230.6922     288.2857    -999.2500     244.8365    -999.2500
      94.8651    -999.2500       0.1048       3.0043       0.0033       2.4890
       0.0231       2.5502
   2189.5471
       5.5149       6.3338       0.0132      76.5757      26.7141      26.6971
     241.1574     229.8800     221.9892    -999.2500     190.6873    -999.2500
     135.1283    -999.2500       0.1147       2.9310       0.0045       2.4539
       0.0221       2.2671
   2189.6997
       5.5864       1.9064       0.0091      78.6151      26.2319      27.5463
     247.1364     233.0672     148.9548    -999.2500     120.1703    -999.2500
     112.8980    -999.2500       0.1348       2.5081       0.0013       2.1338
       0.0232       2.6943
   2189.8521
       5.7973       1.8070      -0.0013      80.9511      27.0157      26.9209
     234.1404     225.5248     114.3307    -999.2500      87.2660    -999.2500
      71.6096    -999.2500       0.1523       1.8781       0.0012       1.6868
       0.0274       2.7923
   2190.0044
       6.5861       3.2080       0.0068      82.7226      29.9177      26.4428
     230.7556     227.0156      96.5390    -999.2500      73.0727    -999.2500
      45.0611    -999.2500       0.1678       1.0033       0.0022       1.1952
       0.0360       2.9863
   2190.1567
       7.5440       3.3899       0.0228      83.9771      32.5142      27.3471
     243.8018     232.6258      96.1192    -999.2500      75.0409    -999.2500
      42.3631    -999.2500       0.1643       0.7008       0.0023       1.0684
       0.0365       3.2462
   2190.3093
       7.9128       4.4351       0.0253      84.6373      33.7426      30.2160
     253.7070     234.7388     107.9718    -999.2500      90.5296    -999.2500
      12.9325    -999.2500       0.1650       0.6148       0.0030       1.0305
       0.0817       3.2647
   2190.4617
       7.9310       4.6415       0.0103      84.8497      34.2732      31.3166
     261.1921     244.8050     124.8673    -999.2500     110.7065    -999.2500
       8.9736    -999.2500       0.1719       0.6174       0.0028       1.0264
       0.1874       3.2913
   2190.6140
       7.6539       6.1908      -0.0247      84.2696      34.9621      31.1649
     277.3761     255.7404     147.8564    -999.2500     139.1083    -999.2500
      12.7238    -999.2500       0.1648       0.7996       0.0034       1.1308
       0.4172       3.2008
   2190.7664
       7.5929       7.6557      -0.0643      80.9774      36.0828      30.1105
     281.1028     262.1536     156.9594    -999.2500     151.4861    -999.2500
      13.5751    -999.2500       0.1551       1.1580       0.0036       1.2692
       0.7519       3.1655
   2190.9187
       7.7040       8.7304      -0.1150      74.0640      37.0559      28.5553
     279.2453     269.0264     162.3994    -999.2500     157.8717    -999.2500
       8.8277    -999.2500       0.1560       1.4889       0.0040       1.3370
       0.8985       3.1499
   2191.0713
       8.3095       9.3709      -0.1553      67.9167      38.3280      27.3885
     281.5653     270.0175     164.4389    -999.2500     156.8784    -999.2500
       4.3382    -999.2500       0.1576       1.4264       0.0040       1.2294
       1.0704       3.2282
