#------------------------------------------------------------------------------
#
#   Created by  : [OpenWorks] Log Export Utility (LEXP)
#   Created on  : 2016-05-23 17:52:08
#   Project     : CANT971
#   User        : R5K
#   Interpreter : PEP
#
#------------------------------------------------------------------------------
~VERSION INFORMATION
VERS. 2.0 : CWLS Log ASCII Standard - version 2.0
WRAP. YES : Mulitple lines per depth step
~WELL INFORMATION
#MNEMONIC   .UNIT                                           VALUE :DESCRIPTION
#------------------------------------------------------------------------------
STRT        .M                                          1316.1428 :START DEPTH
STOP        .M                                          2794.8801 :STOP DEPTH
STEP        .M                                             0.1524 :STEP
NULL        .                                           -999.2500 :NULL VALUE
COMP        .                                             UNKNOWN :COMPANY
WELL        .                                       Cantarell1045 :WELL
FLD         .                                             UNKNOWN :FIELD
LOC         .                                             UNKNOWN :LOCATION
CNTY        .                                             UNKNOWN :COUNTY
STAT        .                                             UNKNOWN :STATE
CTRY        .                                             UNKNOWN :COUNTRY
SRVC        .                                             UNKNOWN :SERVICE COMPANY
DATE        .                                             UNKNOWN :LOG DATE
UWI         .                                              1045-V :UNIQUE WELL ID
XCOORD      .                                       598503.480000 :SURFACE X
YCOORD      .                                      2149274.380000 :SURFACE Y
LAT         .                                           19.436572 :LATITUDE
LON         .                                          -92.061672 :LONGITUDE
ELEV        .M                                             0.0000 :SURFACE ELEV
ELEV_TYPE   .                                                  NA :ELEV TYPE
~CURVE INFORMATION
#MNEMONIC.UNIT        API CODE       : CURVE DESCRIPTION
#------------------------------------------------------------------------------
DEPTH    .M                          : Measured Depth
CALI     .UNKNOWN     UNKNOWN        : CALI:litodensidad_final:rC:NONE:v0 (auto-composite)
CGR      .API         UNKNOWN        : CGR:Espectrometria:rC:NONE:v0 (auto-composite)
DRHO     .g/cm3       UNKNOWN        : DRHO:litodensidad_final:rC:NONE:v0 (auto-composite)
DT       .us/ft       UNKNOWN        : DT:PETROWORKS:rC:NONE:v2 
GR       .API         UNKNOWN        : GR:PETROWORKS:rC:NONE:v1 
GR-LWD   .UNKNOWN     UNKNOWN        : GR-LWD:PETROWORKS:rC:NONE:v1 
ILD-LWD  .ohm.m       UNKNOWN        : ILD-LWD:UNKNOWN:rC:NONE:v0 (auto-composite)
ILM-LWD  .ohm.m       UNKNOWN        : ILM-LWD:UNKNOWN:rC:NONE:v0 (auto-composite)
LLD      .ohm.m       UNKNOWN        : LLD:resistivos-final:rC:NONE:v0 (auto-composite)
LLD-LWD  .ohm.m       UNKNOWN        : LLD-LWD:UNKNOWN:rC:NONE:v0 (auto-composite)
LLS      .ohm.m       UNKNOWN        : LLS:resistivos-final:rC:NONE:v0 (auto-composite)
LLS-LWD  .ohm.m       UNKNOWN        : LLS-LWD:UNKNOWN:rC:NONE:v0 (auto-composite)
MSFL     .ohm.m       UNKNOWN        : MSFL:resistivos-final:rC:NONE:v0 (auto-composite)
MSFL-LWD .ohm.m       UNKNOWN        : MSFL-LWD:UNKNOWN:rC:NONE:v0 (auto-composite)
NPHI     .UNKNOWN     UNKNOWN        : NPHI:porosidad-Final:rC:NONE:v0 (auto-composite)
PEF      .UNKNOWN     UNKNOWN        : PEF:litodensidad_final:rC:NONE:v0 (auto-composite)
POTA     .wtpercent   UNKNOWN        : POTA:Espectrometria:rC:NONE:v0 (auto-composite)
RHOB     .g/cm3       UNKNOWN        : RHOB:litodensidad_final:rC:NONE:v0 (auto-composite)
THOR     .ppm         UNKNOWN        : THOR:Espectrometria:rC:NONE:v0 (auto-composite)
URAN     .ppm         UNKNOWN        : URAN:Espectrometria:rC:NONE:v0 (auto-composite)
~A
# ...
   1992.3417
      10.2027      15.0248       0.0335      79.6374      26.3351      21.0976
       9.9053       9.6526      20.3312    -999.2500      19.5969    -999.2500
       7.9750    -999.2500       0.0866       4.4025       0.0084       2.4291
       0.9480       1.2509
   1992.4940
      10.2183      17.5113       0.0135      79.0424      31.1502      23.2421
      12.0030      11.5572      15.2266    -999.2500      13.7842    -999.2500
      10.3029    -999.2500       0.0901       4.3582       0.0103       2.4907
       0.8919       1.5724
   1992.6464
      10.2124      19.4261       0.0017      76.1429      33.6834      24.8499
      14.6314      14.0045      13.9828    -999.2500      12.3443    -999.2500
       9.7938    -999.2500       0.0826       4.3558       0.0110       2.5093
       1.1286       1.6001
   1992.7988
      10.1574      20.4219       0.0076      66.6415      32.8212      28.1491
      18.5848      18.0535      15.8232    -999.2500      15.2369    -999.2500
       8.4675    -999.2500       0.0579       4.4049       0.0104       2.5114
       1.6575       1.3921
   1992.9512
      10.2660      18.6245       0.0159      59.9006      29.4343      29.1328
      19.9658      20.4566      21.4097    -999.2500      24.9755    -999.2500
      23.6690    -999.2500       0.0368       4.5480       0.0091       2.5464
       1.6743       1.2326
   1993.1036
       9.8079      13.1984       0.0121      57.5124      22.6056      26.3748
      19.5263      19.4906      37.1521    -999.2500      52.9625    -999.2500
     131.9613    -999.2500       0.0145       4.8245       0.0069       2.6119
       0.9911       0.9711
   1993.2560
       9.6459       9.4962       0.0048      57.4519      18.6927      20.6122
      19.4634      19.5488      60.9843    -999.2500      79.5465    -999.2500
     199.3723    -999.2500       0.0091       4.9180       0.0054       2.6330
       0.5501       1.0170
   1993.4084
       9.5895       6.8698       0.0003      58.8686      17.1190      14.5419
      19.6299      21.2673     101.8395    -999.2500     103.0194    -999.2500
      84.4404    -999.2500       0.0138       4.8648       0.0040       2.6308
       0.3453       1.1174
   1993.5608
       9.5779       7.9614      -0.0036      60.3591      18.3602      14.9080
      19.3063      20.8947      97.6032    -999.2500      92.7015    -999.2500
      50.6431    -999.2500       0.0218       4.7396       0.0044       2.6043
       0.5009       1.1507
   1993.7133
       9.5986      12.8479      -0.0039      61.4733      20.9855      16.8720
      18.8840      20.3471      66.7417    -999.2500      60.0752    -999.2500
      14.5579    -999.2500       0.0335       4.5242       0.0068       2.5479
       0.9285       0.9137
   1993.8656
       9.5045      14.4780       0.0051      62.5287      22.7875      19.8684
      17.9846      19.3865      51.4520    -999.2500      46.1754    -999.2500
      16.4530    -999.2500       0.0416       4.4665       0.0085       2.5357
       0.7142       0.9245
   1994.0181
       9.3701      14.4991       0.0147      65.0487      24.2907      21.9757
      17.1200      18.3696      40.0216    -999.2500      35.7285    -999.2500
      19.0727    -999.2500       0.0482       4.5091       0.0094       2.5472
       0.3764       1.0862
   1994.1704
       9.3521      13.5091       0.0189      67.1807      25.8088      22.8547
      16.4216      17.5219      30.1455    -999.2500      25.6998    -999.2500
      20.8658    -999.2500       0.0537       4.6344       0.0095       2.5548
       0.0602       1.3776
   1994.3229
       9.3447      13.3359       0.0179      69.0300      25.9146      23.5410
      14.9972      15.7234      26.1783    -999.2500      22.1907    -999.2500
      15.4931    -999.2500       0.0566       4.6309       0.0091       2.5275
       0.1556       1.4012
   1994.4752
       9.2184      13.3917       0.0181      70.1293      25.6054      22.5382
      13.7804      13.9459      24.2896    -999.2500      21.1281    -999.2500
      15.0205    -999.2500       0.0567       4.5868       0.0087       2.5034
       0.3567       1.3593
   1994.6276
       9.1298      13.7374       0.0175      70.4918      25.7852      22.0998
      13.5333      13.6248      23.8399    -999.2500      21.6370    -999.2500
      12.5867    -999.2500       0.0545       4.6328       0.0084       2.5221
       0.5806       1.3427
   1994.7800
       9.0875      14.1226       0.0138      70.5724      27.0379      21.8400
      13.1838      13.1584      24.2075    -999.2500      23.1114    -999.2500
      10.4230    -999.2500       0.0512       4.6778       0.0081       2.5418
       0.7935       1.4335
   1994.9324
       9.0575      14.6860       0.0121      70.7434      28.6393      23.6413
      12.5576      12.3115      25.6525    -999.2500      25.1652    -999.2500
       8.9554    -999.2500       0.0501       4.6160       0.0085       2.5409
       0.7922       1.5556
   1995.0848
       8.9717      14.8422       0.0135      71.0550      30.1694      24.1454
      12.2360      12.0325      27.4526    -999.2500      27.2024    -999.2500
      10.3561    -999.2500       0.0469       4.5230       0.0087       2.5492
       0.7553       1.7115
   1995.2372
       8.8912      13.8933       0.0144      71.8234      30.6773      24.8175
      12.2704      12.1078      29.9895    -999.2500      29.2531    -999.2500
      12.5193    -999.2500       0.0457       4.5369       0.0080       2.5698
       0.7693       1.8690
   1995.3896
       8.8387      14.5395       0.0135      72.8449      31.5440      25.7156
      12.4746      12.3943      32.4803    -999.2500      30.5758    -999.2500
      14.4774    -999.2500       0.0458       4.6311       0.0077       2.5923
       1.0784       1.8828
   1995.5420
       8.9034      15.3642       0.0122      71.8373      33.1152      26.6472
      12.1696      12.1543      29.6651    -999.2500      28.3748    -999.2500
      13.9865    -999.2500       0.0484       4.6478       0.0072       2.5782
       1.5006       1.9632
   1995.6945
       9.0098      18.7247       0.0093      68.9787      37.0401      28.0294
      12.2147      12.1795      21.7276    -999.2500      22.7513    -999.2500
      10.4246    -999.2500       0.0583       4.5321       0.0079       2.5220
       2.1729       2.0790
   1995.8468
       9.1459      18.5367       0.0109      65.2444      40.2687      30.8162
      11.9833      11.9031      17.7621    -999.2500      18.7740    -999.2500
       8.3985    -999.2500       0.0589       4.4129       0.0082       2.4910
       1.9902       2.4247
   1995.9993
       9.1478      17.3511       0.0231      61.6397      41.4998      33.0672
      10.6557      10.6583      16.5536    -999.2500      16.6364    -999.2500
       7.0326    -999.2500       0.0455       4.3650       0.0094       2.5067
       1.1864       2.7255
   1996.1516
       9.2261      13.0667       0.0282      58.5706      39.4809      32.3386
      10.9955      10.9970      18.9450    -999.2500      23.3041    -999.2500
      20.4079    -999.2500       0.0302       4.4957       0.0078       2.5479
       0.6017       2.9736
   1996.3041
       9.0957       7.4722       0.0189      56.2879      32.7721      27.6826
      12.9228      12.7260      27.2982    -999.2500      53.4066    -999.2500
     100.0438    -999.2500       0.0081       4.7781       0.0050       2.6049
       0.1285       2.7539
   1996.4564
       9.0420       5.1050       0.0095      55.0582      28.0194      18.8643
      12.5076      12.3002      38.3844    -999.2500      92.5853    -999.2500
     169.5577    -999.2500       0.0020       4.8500       0.0035       2.6321
       0.0519       2.5388
   1996.6088
       9.0327       6.0968       0.0022      56.0148      25.9343      17.8451
      11.5720      11.4484      44.0931    -999.2500      99.1035    -999.2500
     168.9763    -999.2500       0.0120       4.7668       0.0042       2.6498
       0.0717       2.1918
