#------------------------------------------------------------------------------
#
#   Created by  : [OpenWorks] Log Export Utility (LEXP)
#   Created on  : 2016-05-23 17:52:08
#   Project     : CANT971
#   User        : R5K
#   Interpreter : PEP
#
#------------------------------------------------------------------------------
~VERSION INFORMATION
VERS. 2.0 : CWLS Log ASCII Standard - version 2.0
WRAP. YES : Mulitple lines per depth step
~WELL INFORMATION
#MNEMONIC   .UNIT                                           VALUE :DESCRIPTION
#------------------------------------------------------------------------------
STRT        .M                                          1316.1428 :START DEPTH
STOP        .M                                          2794.8801 :STOP DEPTH
STEP        .M                                             0.1524 :STEP
NULL        .                                           -999.2500 :NULL VALUE
COMP        .                                             UNKNOWN :COMPANY
WELL        .                                       Cantarell1045 :WELL
FLD         .                                             UNKNOWN :FIELD
LOC         .                                             UNKNOWN :LOCATION
CNTY        .                                             UNKNOWN :COUNTY
STAT        .                                             UNKNOWN :STATE
CTRY        .                                             UNKNOWN :COUNTRY
SRVC        .                                             UNKNOWN :SERVICE COMPANY
DATE        .                                             UNKNOWN :LOG DATE
UWI         .                                              1045-V :UNIQUE WELL ID
XCOORD      .                                       598503.480000 :SURFACE X
YCOORD      .                                      2149274.380000 :SURFACE Y
LAT         .                                           19.436572 :LATITUDE
LON         .                                          -92.061672 :LONGITUDE
ELEV        .M                                             0.0000 :SURFACE ELEV
ELEV_TYPE   .                                                  NA :ELEV TYPE
~CURVE INFORMATION
#MNEMONIC.UNIT        API CODE       : CURVE DESCRIPTION
#------------------------------------------------------------------------------
DEPTH    .M                          : Measured Depth
CALI     .UNKNOWN     UNKNOWN        : CALI:litodensidad_final:rC:NONE:v0 (auto-composite)
CGR      .API         UNKNOWN        : CGR:Espectrometria:rC:NONE:v0 (auto-composite)
DRHO     .g/cm3       UNKNOWN        : DRHO:litodensidad_final:rC:NONE:v0 (auto-composite)
DT       .us/ft       UNKNOWN        : DT:PETROWORKS:rC:NONE:v2 
GR       .API         UNKNOWN        : GR:PETROWORKS:rC:NONE:v1 
GR-LWD   .UNKNOWN     UNKNOWN        : GR-LWD:PETROWORKS:rC:NONE:v1 
ILD-LWD  .ohm.m       UNKNOWN        : ILD-LWD:UNKNOWN:rC:NONE:v0 (auto-composite)
ILM-LWD  .ohm.m       UNKNOWN        : ILM-LWD:UNKNOWN:rC:NONE:v0 (auto-composite)
LLD      .ohm.m       UNKNOWN        : LLD:resistivos-final:rC:NONE:v0 (auto-composite)
LLD-LWD  .ohm.m       UNKNOWN        : LLD-LWD:UNKNOWN:rC:NONE:v0 (auto-composite)
LLS      .ohm.m       UNKNOWN        : LLS:resistivos-final:rC:NONE:v0 (auto-composite)
LLS-LWD  .ohm.m       UNKNOWN        : LLS-LWD:UNKNOWN:rC:NONE:v0 (auto-composite)
MSFL     .ohm.m       UNKNOWN        : MSFL:resistivos-final:rC:NONE:v0 (auto-composite)
MSFL-LWD .ohm.m       UNKNOWN        : MSFL-LWD:UNKNOWN:rC:NONE:v0 (auto-composite)
NPHI     .UNKNOWN     UNKNOWN        : NPHI:porosidad-Final:rC:NONE:v0 (auto-composite)
PEF      .UNKNOWN     UNKNOWN        : PEF:litodensidad_final:rC:NONE:v0 (auto-composite)
POTA     .wtpercent   UNKNOWN        : POTA:Espectrometria:rC:NONE:v0 (auto-composite)
RHOB     .g/cm3       UNKNOWN        : RHOB:litodensidad_final:rC:NONE:v0 (auto-composite)
THOR     .ppm         UNKNOWN        : THOR:Espectrometria:rC:NONE:v0 (auto-composite)
URAN     .ppm         UNKNOWN        : URAN:Espectrometria:rC:NONE:v0 (auto-composite)
~A
# ...
   2147.0276
       6.8592       0.9813       0.0240      56.6883      36.2488      32.2064
     258.1085     231.3391    1419.4429    -999.2500    1944.2025    -999.2500
     961.2148    -999.2500       0.0431       3.2247       0.0006       2.6710
       0.0395       3.9242
   2147.1799
       6.9157       2.4628       0.0249      54.9754      35.1049      33.0024
     240.1868     220.5409    1294.1765    -999.2500    1673.1156    -999.2500
    1063.7491    -999.2500       0.0413       3.2063       0.0017       2.6998
       0.0323       3.6380
   2147.3325
       6.9192       5.1640       0.0277      52.4091      34.4711      33.7280
     262.5239     238.9488    1200.8185    -999.2500    1416.6422    -999.2500
     752.8336    -999.2500       0.0417       3.2553       0.0036       2.6933
       0.0276       3.2644
   2147.4849
       6.8624       6.9901       0.0359      49.0284      31.9422      32.9774
     282.1832     249.4218    1180.0945    -999.2500    1302.1349    -999.2500
     334.2279    -999.2500       0.0424       3.3233       0.0049       2.6902
       0.0275       2.7789
   2147.6372
       6.8442       6.7232       0.0404      46.5604      27.9285      31.2740
     307.6315     251.9026    1372.1597    -999.2500    1534.1445    -999.2500
     492.5286    -999.2500       0.0409       3.3179       0.0047       2.7118
       0.0549       2.3536
   2147.7896
       6.8505       6.4342       0.0449      46.7793      23.0037      29.9999
     318.3134     248.7797    1932.1737    -999.2500    2383.1689    -999.2500
    1234.2495    -999.2500       0.0352       3.2630       0.0037       2.7438
       0.3448       1.8369
   2147.9421
       6.8595       6.6255       0.0465      49.2364      20.3466      29.3425
     335.3465     242.6262    2771.2749    -999.2500    3943.0898    -999.2500
    2608.3945    -999.2500       0.0316       3.2355       0.0027       2.7572
       0.8084       1.5277
   2148.0945
       6.8504       6.4087       0.0486      52.4473      18.7448      29.1928
     368.2718     243.3548    4418.5215    -999.2500    7625.3706    -999.2500
    2075.1350    -999.2500       0.0293       3.2612       0.0012       2.7665
       1.3322       1.3493
   2148.2468
       6.8278       4.7508       0.0509      53.4817      19.3884      28.9450
     362.2508     239.0639    5438.5640    -999.2500    9574.3535    -999.2500
     577.3392    -999.2500       0.0289       3.2793       0.0006       2.7708
       1.1275       1.6452
   2148.3992
       6.8278       2.9076       0.0484      53.0119      20.4408      28.0969
     245.1260     198.6846    5403.1572    -999.2500    8352.4658    -999.2500
     489.4009    -999.2500       0.0286       3.2569       0.0002       2.7623
       0.7284       1.9498
   2148.5515
       6.8278       2.1226       0.0444      52.3446      20.1589      27.1609
     197.2396     178.7461    5306.0454    -999.2500    8245.0225    -999.2500
     591.5511    -999.2500       0.0300       3.2372       0.0004       2.7562
       0.4506       2.0111
   2148.7041
       6.8275       1.5539       0.0421      51.9054      19.7182      25.6867
     172.9084     158.6856    5040.1504    -999.2500    7733.2544    -999.2500
     793.6036    -999.2500       0.0330       3.2322       0.0009       2.7519
       0.1032       2.0215
   2148.8564
       6.8223       1.2119       0.0453      51.6552      18.9589      24.0600
     161.9113     138.2709    4662.5684    -999.2500    6824.3843    -999.2500
     771.2615    -999.2500       0.0353       3.2431       0.0007       2.7228
       0.0494       1.9809
   2149.0088
       6.8021       1.9013       0.0583      51.0514      17.6869      23.6864
     159.4247     133.9825    3959.7388    -999.2500    5148.6084    -999.2500
     688.1295    -999.2500       0.0383       3.2521       0.0009       2.6728
       0.1958       1.7466
   2149.1611
       6.8179       2.8334       0.0664      49.8024      17.1264      21.8552
     151.9082     115.7212    3406.8970    -999.2500    4076.5073    -999.2500
     540.8518    -999.2500       0.0401       3.2533       0.0008       2.6682
       0.4673       1.5852
   2149.3137
       6.8554       3.5949       0.0666      48.3932      17.3676      20.5289
     132.0925     102.1419    2893.4790    -999.2500    3274.6580    -999.2500
     404.5451    -999.2500       0.0428       3.2499       0.0011       2.6883
       0.6007       1.5315
   2149.4661
       6.8549       2.1841       0.0606      47.4257      17.9874      20.3158
     127.6873     101.3944    2639.5217    -999.2500    2886.6074    -999.2500
     403.6517    -999.2500       0.0447       3.2472       0.0007       2.6925
       0.3345       1.7575
   2149.6184
       6.8417       0.8381       0.0566      46.7494      18.7548      20.7701
     195.3820     175.8026    2447.9087    -999.2500    2584.0227    -999.2500
     379.0491    -999.2500       0.0460       3.2636       0.0004       2.6840
       0.0905       1.9909
   2149.7708
       6.8390       0.7581       0.0578      46.2100      19.5554      22.0072
     174.5173     152.6781    2274.6118    -999.2500    2303.2126    -999.2500
     217.6774    -999.2500       0.0488       3.3061       0.0002       2.6642
       0.1173       2.0919
   2149.9233
       6.8397       1.8426       0.0565      45.8848      19.5799      23.4929
      93.4590      65.4372    2176.2664    -999.2500    2120.1599    -999.2500
     297.6306    -999.2500       0.0491       3.3092       0.0008       2.6619
       0.1955       1.9747
   2150.0757
       6.8276       4.2452       0.0506      46.1898      19.3808      24.5851
     100.5445      68.8134    2103.0752    -999.2500    1992.6318    -999.2500
     547.3545    -999.2500       0.0509       3.2990       0.0016       2.6691
       0.5764       1.6897
   2150.2280
       6.8252       5.3019       0.0508      47.2291      18.7010      25.7690
     108.1431      73.2221    2029.6680    -999.2500    1891.3527    -999.2500
     354.6885    -999.2500       0.0532       3.3240       0.0022       2.6793
       0.6287       1.4910
   2150.3804
       6.8205       5.3448       0.0548      49.5782      18.5501      26.8689
     113.9709      79.7183    1894.5959    -999.2500    1733.3213    -999.2500
     139.9415    -999.2500       0.0561       3.3682       0.0026       2.6931
       0.4748       1.4679
   2150.5327
       6.8462       5.3915       0.0582      51.9654      19.1858      26.3775
     114.3487      79.9486    1826.0769    -999.2500    1675.0540    -999.2500
     154.1685    -999.2500       0.0569       3.3587       0.0029       2.6990
       0.3648       1.5367
   2150.6853
       6.8989       5.1570       0.0610      53.2355      20.3258      25.8777
     113.7958      79.9038    1740.3754    -999.2500    1613.6295    -999.2500
     171.6810    -999.2500       0.0562       3.3337       0.0034       2.7046
       0.0941       1.6866
   2150.8376
       6.9699       5.2809       0.0576      53.5052      21.3322      26.2387
     101.5167      78.9201    1676.3351    -999.2500    1582.0262    -999.2500
     180.2781    -999.2500       0.0544       3.3511       0.0037       2.7018
       0.0373       1.7885
   2150.9900
       6.9984       5.4045       0.0498      52.2855      22.1571      26.7271
      96.0892      78.5367    1557.4976    -999.2500    1478.2192    -999.2500
     231.1733    -999.2500       0.0530       3.3662       0.0037       2.6916
       0.0779       1.8675
   2151.1423
       7.0338       5.9611       0.0439      51.0167      22.6111      28.0338
      98.6631      81.4708    1375.5197    -999.2500    1289.1998    -999.2500
     339.4418    -999.2500       0.0552       3.3327       0.0037       2.6802
       0.2148       1.8545
   2151.2949
       7.0365       5.8745       0.0238      51.9887      23.0322      28.4584
     106.3732      85.5708    1043.8965    -999.2500     945.4091    -999.2500
     298.1564    -999.2500       0.0600       3.2785       0.0032       2.6360
       0.3987       1.9172
