#------------------------------------------------------------------------------
#
#   Created by  : [OpenWorks] Log Export Utility (LEXP)
#   Created on  : 2016-05-23 17:52:08
#   Project     : CANT971
#   User        : R5K
#   Interpreter : PEP
#
#------------------------------------------------------------------------------
~VERSION INFORMATION
VERS. 2.0 : CWLS Log ASCII Standard - version 2.0
WRAP. YES : Mulitple lines per depth step
~WELL INFORMATION
#MNEMONIC   .UNIT                                           VALUE :DESCRIPTION
#------------------------------------------------------------------------------
STRT        .M                                          1316.1428 :START DEPTH
STOP        .M                                          2794.8801 :STOP DEPTH
STEP        .M                                             0.1524 :STEP
NULL        .                                           -999.2500 :NULL VALUE
COMP        .                                             UNKNOWN :COMPANY
WELL        .                                       Cantarell1045 :WELL
FLD         .                                             UNKNOWN :FIELD
LOC         .                                             UNKNOWN :LOCATION
CNTY        .                                             UNKNOWN :COUNTY
STAT        .                                             UNKNOWN :STATE
CTRY        .                                             UNKNOWN :COUNTRY
SRVC        .                                             UNKNOWN :SERVICE COMPANY
DATE        .                                             UNKNOWN :LOG DATE
UWI         .                                              1045-V :UNIQUE WELL ID
XCOORD      .                                       598503.480000 :SURFACE X
YCOORD      .                                      2149274.380000 :SURFACE Y
LAT         .                                           19.436572 :LATITUDE
LON         .                                          -92.061672 :LONGITUDE
ELEV        .M                                             0.0000 :SURFACE ELEV
ELEV_TYPE   .                                                  NA :ELEV TYPE
~CURVE INFORMATION
#MNEMONIC.UNIT        API CODE       : CURVE DESCRIPTION
#------------------------------------------------------------------------------
DEPTH    .M                          : Measured Depth
CALI     .UNKNOWN     UNKNOWN        : CALI:litodensidad_final:rC:NONE:v0 (auto-composite)
CGR      .API         UNKNOWN        : CGR:Espectrometria:rC:NONE:v0 (auto-composite)
DRHO     .g/cm3       UNKNOWN        : DRHO:litodensidad_final:rC:NONE:v0 (auto-composite)
DT       .us/ft       UNKNOWN        : DT:PETROWORKS:rC:NONE:v2 
GR       .API         UNKNOWN        : GR:PETROWORKS:rC:NONE:v1 
GR-LWD   .UNKNOWN     UNKNOWN        : GR-LWD:PETROWORKS:rC:NONE:v1 
ILD-LWD  .ohm.m       UNKNOWN        : ILD-LWD:UNKNOWN:rC:NONE:v0 (auto-composite)
ILM-LWD  .ohm.m       UNKNOWN        : ILM-LWD:UNKNOWN:rC:NONE:v0 (auto-composite)
LLD      .ohm.m       UNKNOWN        : LLD:resistivos-final:rC:NONE:v0 (auto-composite)
LLD-LWD  .ohm.m       UNKNOWN        : LLD-LWD:UNKNOWN:rC:NONE:v0 (auto-composite)
LLS      .ohm.m       UNKNOWN        : LLS:resistivos-final:rC:NONE:v0 (auto-composite)
LLS-LWD  .ohm.m       UNKNOWN        : LLS-LWD:UNKNOWN:rC:NONE:v0 (auto-composite)
MSFL     .ohm.m       UNKNOWN        : MSFL:resistivos-final:rC:NONE:v0 (auto-composite)
MSFL-LWD .ohm.m       UNKNOWN        : MSFL-LWD:UNKNOWN:rC:NONE:v0 (auto-composite)
NPHI     .UNKNOWN     UNKNOWN        : NPHI:porosidad-Final:rC:NONE:v0 (auto-composite)
PEF      .UNKNOWN     UNKNOWN        : PEF:litodensidad_final:rC:NONE:v0 (auto-composite)
POTA     .wtpercent   UNKNOWN        : POTA:Espectrometria:rC:NONE:v0 (auto-composite)
RHOB     .g/cm3       UNKNOWN        : RHOB:litodensidad_final:rC:NONE:v0 (auto-composite)
THOR     .ppm         UNKNOWN        : THOR:Espectrometria:rC:NONE:v0 (auto-composite)
URAN     .ppm         UNKNOWN        : URAN:Espectrometria:rC:NONE:v0 (auto-composite)
~A
# ...
   2032.1180
       9.3705      28.5360       0.0082      84.0982      38.9543      46.9929
       4.6444       4.6456       5.2024    -999.2500       3.8382    -999.2500
       1.5513    -999.2500       0.4937       0.4932       0.0192       0.8472
       0.4571       1.1815
   2032.2704
      11.1939      23.1064       0.0055      89.7540      33.4528      46.1430
       4.7179       4.7050       5.0633    -999.2500       3.7973    -999.2500
       1.3445    -999.2500       0.5618       0.4497       0.0157       0.8297
       0.3401       1.1508
   2032.4229
      13.3309      21.7236       0.0037      98.5814      29.5261      45.7658
       4.9838       4.9259       5.0418    -999.2500       3.8000    -999.2500
       1.2726    -999.2500       0.5998       0.4245       0.0137       0.8205
       0.7068       0.8727
   2032.5752
      17.6008      22.2498       0.0013      99.2708      25.7023      46.5372
       5.2406       5.1565       5.1541    -999.2500       3.8776    -999.2500
       1.2921    -999.2500       0.5889       0.4142       0.0131       0.8140
       1.1237       0.3827
   2032.7277
      18.6277      22.6882      -0.0003      95.5817      24.0265      46.9802
       5.2997       5.2187       5.3159    -999.2500       4.0187    -999.2500
       1.3187    -999.2500       0.5477       0.4235       0.0137       0.8117
       0.9880       0.1483
   2032.8800
      19.6753      22.4229      -0.0009      92.1277      23.9109      47.0722
       5.3464       5.3053       5.5753    -999.2500       4.2572    -999.2500
       1.3515    -999.2500       0.4684       0.4452       0.0133       0.8110
       1.0907       0.1631
   2033.0325
      18.5744      21.7576       0.0006      90.5170      24.6812      45.5681
       5.3951       5.4097       5.7444    -999.2500       4.4193    -999.2500
       1.3522    -999.2500       0.3966       0.4584       0.0123       0.8162
       1.3037       0.3259
   2033.1848
      17.3474      22.1680       0.0032      88.8621      26.1385      44.3599
       5.3920       5.4353       5.8919    -999.2500       4.5837    -999.2500
       1.3230    -999.2500       0.3359       0.4635       0.0116       0.8299
       1.6988       0.4429
   2033.3373
      17.3488      21.3538       0.0047      88.3948      27.5367      42.1151
       5.2470       5.3317       5.9217    -999.2500       4.6746    -999.2500
       1.3621    -999.2500       0.3445       0.4664       0.0113       0.8381
       1.5567       0.6985
   2033.4896
      10.8042      20.1331       0.0054      88.2168      27.4852      39.6403
       5.0093       5.0937       5.9415    -999.2500       4.7508    -999.2500
       1.5325    -999.2500       0.3890       0.4746       0.0111       0.8340
       1.2971       0.7697
   2033.6420
       8.7686      20.2234       0.0043      88.0300      28.1515      39.4749
       4.9842       5.0492       5.8967    -999.2500       4.7520    -999.2500
       1.7212    -999.2500       0.4300       0.4686       0.0126       0.8248
       0.7207       0.8824
   2033.7944
       8.0365      20.8709       0.0020      87.9159      29.2859      39.4568
       4.9724       5.0185       5.8017    -999.2500       4.7457    -999.2500
       1.9871    -999.2500       0.4481       0.4473       0.0146       0.8187
       0.1219       0.9461
   2033.9468
       7.9960      20.7217       0.0001      87.7010      29.8495      41.8218
       4.7719       4.7506       5.6484    -999.2500       4.7129    -999.2500
       2.0552    -999.2500       0.4680       0.4416       0.0146       0.8158
       0.0924       1.0264
   2034.0992
       8.4351      18.7589      -0.0025      87.4612      28.9516      42.4623
       4.5867       4.5670       5.3233    -999.2500       4.4880    -999.2500
       1.6142    -999.2500       0.5570       0.4604       0.0124       0.8101
       0.3902       1.1184
   2034.2516
       9.1270      19.0293      -0.0039      87.2260      27.7667      43.3197
       4.5479       4.5107       5.0311    -999.2500       4.2305    -999.2500
       1.3508    -999.2500       0.6093       0.4699       0.0118       0.8067
       0.7284       0.9751
   2034.4041
      10.7068      19.5429      -0.0036      87.0322      26.4677      47.1344
       4.0203       4.0216       4.6169    -999.2500       3.8990    -999.2500
       1.2484    -999.2500       0.6399       0.4481       0.0119       0.8072
       0.8240       0.7516
   2034.5564
      12.8724      20.2188      -0.0021      87.0046      26.5278      50.6168
       3.5384       3.5720       4.3399    -999.2500       3.7104    -999.2500
       1.2428    -999.2500       0.6685       0.4309       0.0123       0.8086
       0.8628       0.6917
   2034.7089
      16.7840      20.9159       0.0004      87.0272      28.0801      52.0041
       3.4424       3.4657       4.0606    -999.2500       3.6147    -999.2500
       1.2420    -999.2500       0.6616       0.4476       0.0122       0.8082
       1.0730       0.8085
   2034.8612
      16.1681      20.3919       0.0007      87.1029      29.4011      53.2422
       3.3916       3.3714       3.9906    -999.2500       3.5652    -999.2500
       1.2592    -999.2500       0.6279       0.4683       0.0119       0.8076
       1.0683       0.9861
   2035.0137
      13.1349      18.1825      -0.0001      87.1347      31.3608      53.7898
       3.3549       3.3019       4.0898    -999.2500       3.6662    -999.2500
       1.3928    -999.2500       0.5276       0.4674       0.0128       0.8096
       0.0906       1.4975
   2035.1660
      10.6253      20.3481       0.0000      87.1366      31.9363      53.7395
       3.3220       3.2772       4.3065    -999.2500       3.7677    -999.2500
       1.5546    -999.2500       0.5139       0.4676       0.0138       0.8132
       0.2904       1.2877
   2035.3185
       9.4660      23.5414       0.0021      87.1366      34.5285      53.9622
       3.1663       3.1465       4.6342    -999.2500       3.9596    -999.2500
       1.7771    -999.2500       0.4748       0.4978       0.0157       0.8335
       0.4497       1.2134
   2035.4708
       7.8094      26.2146       0.0099      87.1366      38.3885      55.5053
       3.0257       3.0328       5.2411    -999.2500       4.4084    -999.2500
       1.8692    -999.2500       0.3798       0.6399       0.0173       0.9561
       0.5548       1.3587
   2035.6232
       7.7179      27.2389       0.0169      88.2618      41.5474      56.5512
       3.0483       3.0585       5.6191    -999.2500       4.7425    -999.2500
       1.8299    -999.2500       0.3502       0.8854       0.0178       1.1466
       0.6635       1.5905
   2035.7756
       8.0643      29.6516       0.0233      94.1795      44.5121      57.2171
       3.0949       3.1045       5.9631    -999.2500       5.1369    -999.2500
       1.6191    -999.2500       0.3512       1.2437       0.0184       1.3771
       1.1239       1.6614
   2035.9280
       8.5089      31.2069       0.0222     105.2614      45.7762      55.1774
       3.4359       3.4199       5.9437    -999.2500       5.1847    -999.2500
       1.5172    -999.2500       0.3644       1.1782       0.0185       1.3099
       1.5124       1.6236
   2036.0804
       8.9776      32.8404       0.0140     114.1520      46.1982      51.7577
       3.5117       3.5108       5.7234    -999.2500       4.9417    -999.2500
       1.4687    -999.2500       0.3803       0.7903       0.0193       1.0268
       1.6728       1.4949
   2036.2328
       8.8628      32.3951       0.0063     114.4562      45.2463      49.6554
       3.5614       3.5710       5.5621    -999.2500       4.6987    -999.2500
       1.4899    -999.2500       0.3953       0.5799       0.0196       0.8801
       1.4160       1.4308
   2036.3853
       8.1214      32.0709       0.0010     106.0682      43.4598      48.1531
       3.6814       3.7077       5.4476    -999.2500       4.4715    -999.2500
       1.5969    -999.2500       0.4049       0.4972       0.0201       0.8293
       1.1371       1.2696
