#------------------------------------------------------------------------------
#
#   Created by  : [OpenWorks] Log Export Utility (LEXP)
#   Created on  : 2016-05-23 17:52:08
#   Project     : CANT971
#   User        : R5K
#   Interpreter : PEP
#
#------------------------------------------------------------------------------
~VERSION INFORMATION
VERS. 2.0 : CWLS Log ASCII Standard - version 2.0
WRAP. YES : Mulitple lines per depth step
~WELL INFORMATION
#MNEMONIC   .UNIT                                           VALUE :DESCRIPTION
#------------------------------------------------------------------------------
STRT        .M                                          1316.1428 :START DEPTH
STOP        .M                                          2794.8801 :STOP DEPTH
STEP        .M                                             0.1524 :STEP
NULL        .                                           -999.2500 :NULL VALUE
COMP        .                                             UNKNOWN :COMPANY
WELL        .                                       Cantarell1045 :WELL
FLD         .                                             UNKNOWN :FIELD
LOC         .                                             UNKNOWN :LOCATION
CNTY        .                                             UNKNOWN :COUNTY
STAT        .                                             UNKNOWN :STATE
CTRY        .                                             UNKNOWN :COUNTRY
SRVC        .                                             UNKNOWN :SERVICE COMPANY
DATE        .                                             UNKNOWN :LOG DATE
UWI         .                                              1045-V :UNIQUE WELL ID
XCOORD      .                                       598503.480000 :SURFACE X
YCOORD      .                                      2149274.380000 :SURFACE Y
LAT         .                                           19.436572 :LATITUDE
LON         .                                          -92.061672 :LONGITUDE
ELEV        .M                                             0.0000 :SURFACE ELEV
ELEV_TYPE   .                                                  NA :ELEV TYPE
~CURVE INFORMATION
#MNEMONIC.UNIT        API CODE       : CURVE DESCRIPTION
#------------------------------------------------------------------------------
DEPTH    .M                          : Measured Depth
CALI     .UNKNOWN     UNKNOWN        : CALI:litodensidad_final:rC:NONE:v0 (auto-composite)
CGR      .API         UNKNOWN        : CGR:Espectrometria:rC:NONE:v0 (auto-composite)
DRHO     .g/cm3       UNKNOWN        : DRHO:litodensidad_final:rC:NONE:v0 (auto-composite)
DT       .us/ft       UNKNOWN        : DT:PETROWORKS:rC:NONE:v2 
GR       .API         UNKNOWN        : GR:PETROWORKS:rC:NONE:v1 
GR-LWD   .UNKNOWN     UNKNOWN        : GR-LWD:PETROWORKS:rC:NONE:v1 
ILD-LWD  .ohm.m       UNKNOWN        : ILD-LWD:UNKNOWN:rC:NONE:v0 (auto-composite)
ILM-LWD  .ohm.m       UNKNOWN        : ILM-LWD:UNKNOWN:rC:NONE:v0 (auto-composite)
LLD      .ohm.m       UNKNOWN        : LLD:resistivos-final:rC:NONE:v0 (auto-composite)
LLD-LWD  .ohm.m       UNKNOWN        : LLD-LWD:UNKNOWN:rC:NONE:v0 (auto-composite)
LLS      .ohm.m       UNKNOWN        : LLS:resistivos-final:rC:NONE:v0 (auto-composite)
LLS-LWD  .ohm.m       UNKNOWN        : LLS-LWD:UNKNOWN:rC:NONE:v0 (auto-composite)
MSFL     .ohm.m       UNKNOWN        : MSFL:resistivos-final:rC:NONE:v0 (auto-composite)
MSFL-LWD .ohm.m       UNKNOWN        : MSFL-LWD:UNKNOWN:rC:NONE:v0 (auto-composite)
NPHI     .UNKNOWN     UNKNOWN        : NPHI:porosidad-Final:rC:NONE:v0 (auto-composite)
PEF      .UNKNOWN     UNKNOWN        : PEF:litodensidad_final:rC:NONE:v0 (auto-composite)
POTA     .wtpercent   UNKNOWN        : POTA:Espectrometria:rC:NONE:v0 (auto-composite)
RHOB     .g/cm3       UNKNOWN        : RHOB:litodensidad_final:rC:NONE:v0 (auto-composite)
THOR     .ppm         UNKNOWN        : THOR:Espectrometria:rC:NONE:v0 (auto-composite)
URAN     .ppm         UNKNOWN        : URAN:Espectrometria:rC:NONE:v0 (auto-composite)
~A
# ...
   1917.2084
       9.9037      27.2148       0.1709     116.0096      39.3982      36.9836
       2.7234       2.5791       4.1769    -999.2500       3.6417    -999.2500
       1.9566    -999.2500       0.3197       3.0483       0.0128       1.7421
       2.6447       1.3638
   1917.3608
      10.1080      28.9933       0.1798     109.5745      39.5341      38.8910
       2.5194       2.4876       4.1909    -999.2500       3.6729    -999.2500
       2.0602    -999.2500       0.3231       3.1940       0.0125       1.8337
       3.2634       1.1630
   1917.5132
      11.1777      31.0254       0.1957      97.1819      40.7030      39.6616
       2.6540       2.6114       4.2192    -999.2500       3.7234    -999.2500
       2.2754    -999.2500       0.3031       3.8247       0.0117       2.1092
       4.1697       1.0848
   1917.6656
      12.0471      31.1039       0.1960      79.7217      41.4891      39.8941
       2.8096       2.7474       4.2441    -999.2500       3.7401    -999.2500
       2.6331    -999.2500       0.2895       4.1072       0.0116       2.2079
       4.2306       1.1559
   1917.8180
      12.5334      31.5691       0.1830      68.5710      41.8326      39.4030
       2.8464       2.7840       4.2839    -999.2500       3.6960    -999.2500
       2.8661    -999.2500       0.2910       4.2150       0.0122       2.2233
       4.1283       1.1521
   1917.9705
      11.5800      32.6740       0.1991      67.1622      40.7774      38.7852
       2.8572       2.8123       4.4263    -999.2500       3.6882    -999.2500
       2.5701    -999.2500       0.2924       4.1549       0.0131       2.0998
       4.0757       0.9048
   1918.1228
      11.8158      32.0611       0.2378      66.9269      39.6176      38.4855
       2.9122       2.8747       4.6476    -999.2500       3.8530    -999.2500
       2.3189    -999.2500       0.2757       4.0441       0.0126       1.9866
       4.0873       0.8432
   1918.2753
      12.5725      29.8826       0.2281      68.6049      38.2887      37.3495
       3.3249       3.2578       5.2913    -999.2500       4.3694    -999.2500
       3.1514    -999.2500       0.2407       3.9642       0.0119       2.0117
       3.7513       0.9248
   1918.4276
      13.1883      25.4523       0.1615      70.7200      38.5159      35.4005
       3.7248       3.6045       6.1510    -999.2500       5.1490    -999.2500
       4.3233    -999.2500       0.1953       4.0766       0.0106       2.2044
       3.0063       1.4554
   1918.5801
      12.7683      23.9065       0.0667      72.0806      38.7983      34.1711
       4.0313       3.9188       7.6857    -999.2500       6.3212    -999.2500
       7.0180    -999.2500       0.1464       4.1729       0.0108       2.4249
       2.5009       1.6726
   1918.7324
       9.6642      23.6660       0.0251      74.3353      37.6139      31.9687
       4.5977       4.5328       9.0119    -999.2500       7.2718    -999.2500
       8.9426    -999.2500       0.1334       4.1509       0.0112       2.4707
       2.2560       1.5522
   1918.8848
       8.7540      24.7507       0.0069      80.6003      36.8258      30.0090
       4.5655       4.5692      10.1977    -999.2500       7.8798    -999.2500
       8.7571    -999.2500       0.1341       4.2050       0.0123       2.4910
       2.1590       1.3499
   1919.0372
       8.7583      25.8395       0.0117      86.7105      35.8566      29.7973
       4.5679       4.5276      10.2487    -999.2500       7.7437    -999.2500
       7.8679    -999.2500       0.1373       4.2612       0.0135       2.4897
       1.9603       1.1129
   1919.1896
       8.7576      27.1974       0.0231      88.9494      35.0201      29.8426
       4.6828       4.5659       9.7430    -999.2500       7.1948    -999.2500
       5.9682    -999.2500       0.1405       4.2619       0.0145       2.4709
       1.9577       0.8699
   1919.3420
       8.7308      28.0182       0.0262      89.1906      34.7635      29.5818
       5.0465       4.7955       9.1942    -999.2500       6.7046    -999.2500
       6.6861    -999.2500       0.1450       4.2016       0.0138       2.4635
       2.4829       0.7512
   1919.4944
       8.8669      29.0671       0.0095      87.2559      34.5363      29.1538
       5.0904       4.8540       8.6543    -999.2500       6.1382    -999.2500
       6.5639    -999.2500       0.1490       4.0933       0.0129       2.4701
       3.1208       0.6141
   1919.6469
       8.5485      28.2066      -0.0080      83.0073      33.9545      28.6696
       5.0334       4.8534       8.5377    -999.2500       6.0273    -999.2500
       5.8412    -999.2500       0.1439       4.0377       0.0119       2.4763
       3.2797       0.6413
   1919.7992
       8.5571      26.9046      -0.0153      77.0475      33.1125      26.7945
       5.2120       5.2169       9.1189    -999.2500       6.5562    -999.2500
       4.5106    -999.2500       0.1359       4.0460       0.0108       2.4687
       3.3648       0.6824
   1919.9517
       8.4801      24.8531      -0.0106      73.1610      32.3689      26.3429
       6.3388       6.2479      10.6442    -999.2500       8.2176    -999.2500
       5.8589    -999.2500       0.1201       4.1186       0.0098       2.4572
       3.1667       0.8488
   1920.1040
       8.1779      20.7507       0.0022      72.1192      30.2043      26.2742
       7.0031       6.8294      14.7987    -999.2500      12.5004    -999.2500
       7.6738    -999.2500       0.0876       4.2143       0.0087       2.4558
       2.4353       1.0387
   1920.2565
       7.9061      17.2514       0.0082      71.8002      27.7744      24.5241
       9.9141       9.5048      19.9859    -999.2500      17.2894    -999.2500
      10.6544    -999.2500       0.0714       4.3016       0.0079       2.4793
       1.7639       1.1923
   1920.4088
       7.6878      10.8189       0.0033      71.7885      23.6576      20.2688
      12.8107      12.3835      29.3767    -999.2500      24.5355    -999.2500
      22.8787    -999.2500       0.0605       4.5927       0.0067       2.5320
       0.3960       1.3980
   1920.5613
       7.6345       9.2341      -0.0023      72.9065      20.8332      19.1607
      13.1469      12.7489      34.6526    -999.2500      27.7440    -999.2500
      34.8608    -999.2500       0.0592       4.7926       0.0062       2.5256
       0.1708       1.3018
   1920.7136
       7.6769       9.8055       0.0082      74.8291      17.7214      16.8967
      15.2074      14.8450      38.2067    -999.2500      30.2348    -999.2500
      14.8865    -999.2500       0.0614       4.7382       0.0052       2.4400
       0.7366       0.8643
   1920.8660
       7.7673       9.2544       0.0200      75.7784      16.1480      12.2942
      20.7464      20.0745      38.9913    -999.2500      30.9961    -999.2500
      11.1654    -999.2500       0.0646       4.5510       0.0048       2.3952
       0.7244       0.7670
   1921.0184
       7.7297       8.2452       0.0184      74.7827      14.7863      11.8908
      21.4690      20.8310      41.0697    -999.2500      32.8769    -999.2500
      14.4953    -999.2500       0.0645       4.4704       0.0041       2.4050
       0.7042       0.7299
   1921.1708
       7.6194       7.5345       0.0014      70.9118      13.8317      11.5675
      22.4667      21.9696      47.5435    -999.2500      38.5807    -999.2500
      24.1736    -999.2500       0.0619       4.5763       0.0035       2.4924
       0.7479       0.6947
   1921.3232
       7.6360       6.7248      -0.0011      66.1877      14.0854      12.1247
      27.0561      25.6293      54.0645    -999.2500      43.2475    -999.2500
      25.4408    -999.2500       0.0643       4.6500       0.0026       2.5168
       0.8632       0.8196
   1921.4756
       7.7904       6.1714      -0.0016      62.9819      14.5007      12.3025
      27.2327      26.1550      64.2361    -999.2500      50.5791    -999.2500
      17.5442    -999.2500       0.0662       4.7204       0.0021       2.4694
       0.9171       0.9301
