#------------------------------------------------------------------------------
#
#   Created by  : [OpenWorks] Log Export Utility (LEXP)
#   Created on  : 2016-05-23 17:52:08
#   Project     : CANT971
#   User        : R5K
#   Interpreter : PEP
#
#------------------------------------------------------------------------------
~VERSION INFORMATION
VERS. 2.0 : CWLS Log ASCII Standard - version 2.0
WRAP. YES : Mulitple lines per depth step
~WELL INFORMATION
#MNEMONIC   .UNIT                                           VALUE :DESCRIPTION
#------------------------------------------------------------------------------
STRT        .M                                          1316.1428 :START DEPTH
STOP        .M                                          2794.8801 :STOP DEPTH
STEP        .M                                             0.1524 :STEP
NULL        .                                           -999.2500 :NULL VALUE
COMP        .                                             UNKNOWN :COMPANY
WELL        .                                       Cantarell1045 :WELL
FLD         .                                             UNKNOWN :FIELD
LOC         .                                             UNKNOWN :LOCATION
CNTY        .                                             UNKNOWN :COUNTY
STAT        .                                             UNKNOWN :STATE
CTRY        .                                             UNKNOWN :COUNTRY
SRVC        .                                             UNKNOWN :SERVICE COMPANY
DATE        .                                             UNKNOWN :LOG DATE
UWI         .                                              1045-V :UNIQUE WELL ID
XCOORD      .                                       598503.480000 :SURFACE X
YCOORD      .                                      2149274.380000 :SURFACE Y
LAT         .                                           19.436572 :LATITUDE
LON         .                                          -92.061672 :LONGITUDE
ELEV        .M                                             0.0000 :SURFACE ELEV
ELEV_TYPE   .                                                  NA :ELEV TYPE
~CURVE INFORMATION
#MNEMONIC.UNIT        API CODE       : CURVE DESCRIPTION
#------------------------------------------------------------------------------
DEPTH    .M                          : Measured Depth
CALI     .UNKNOWN     UNKNOWN        : CALI:litodensidad_final:rC:NONE:v0 (auto-composite)
CGR      .API         UNKNOWN        : CGR:Espectrometria:rC:NONE:v0 (auto-composite)
DRHO     .g/cm3       UNKNOWN        : DRHO:litodensidad_final:rC:NONE:v0 (auto-composite)
DT       .us/ft       UNKNOWN        : DT:PETROWORKS:rC:NONE:v2 
GR       .API         UNKNOWN        : GR:PETROWORKS:rC:NONE:v1 
GR-LWD   .UNKNOWN     UNKNOWN        : GR-LWD:PETROWORKS:rC:NONE:v1 
ILD-LWD  .ohm.m       UNKNOWN        : ILD-LWD:UNKNOWN:rC:NONE:v0 (auto-composite)
ILM-LWD  .ohm.m       UNKNOWN        : ILM-LWD:UNKNOWN:rC:NONE:v0 (auto-composite)
LLD      .ohm.m       UNKNOWN        : LLD:resistivos-final:rC:NONE:v0 (auto-composite)
LLD-LWD  .ohm.m       UNKNOWN        : LLD-LWD:UNKNOWN:rC:NONE:v0 (auto-composite)
LLS      .ohm.m       UNKNOWN        : LLS:resistivos-final:rC:NONE:v0 (auto-composite)
LLS-LWD  .ohm.m       UNKNOWN        : LLS-LWD:UNKNOWN:rC:NONE:v0 (auto-composite)
MSFL     .ohm.m       UNKNOWN        : MSFL:resistivos-final:rC:NONE:v0 (auto-composite)
MSFL-LWD .ohm.m       UNKNOWN        : MSFL-LWD:UNKNOWN:rC:NONE:v0 (auto-composite)
NPHI     .UNKNOWN     UNKNOWN        : NPHI:porosidad-Final:rC:NONE:v0 (auto-composite)
PEF      .UNKNOWN     UNKNOWN        : PEF:litodensidad_final:rC:NONE:v0 (auto-composite)
POTA     .wtpercent   UNKNOWN        : POTA:Espectrometria:rC:NONE:v0 (auto-composite)
RHOB     .g/cm3       UNKNOWN        : RHOB:litodensidad_final:rC:NONE:v0 (auto-composite)
THOR     .ppm         UNKNOWN        : THOR:Espectrometria:rC:NONE:v0 (auto-composite)
URAN     .ppm         UNKNOWN        : URAN:Espectrometria:rC:NONE:v0 (auto-composite)
~A
# ...
   1952.5652
       7.6033      11.4439      -0.0228      64.4900      16.8819      26.4708
       6.6596       6.3545      24.7405    -999.2500      28.9179    -999.2500
      35.8360    -999.2500       0.0429       4.5062       0.0034       2.5233
       1.9052       0.6008
   1952.7177
       7.5881      12.2351      -0.0156      64.2029      18.3115      29.9757
       4.9878       5.0733      20.6774    -999.2500      25.0859    -999.2500
      34.4441    -999.2500       0.0541       4.3393       0.0042       2.5085
       1.8231       0.6643
   1952.8700
       7.6509      16.0104       0.0611      63.7251      21.4887      28.7151
       6.5038       6.4078      10.9411    -999.2500      14.3547    -999.2500
      12.8530    -999.2500       0.0840       4.2240       0.0066       2.4499
       1.9251       0.6118
   1953.0225
       7.6946      19.4892       0.1441      62.9819      24.0101      23.8944
       8.9768       8.5438       7.4799    -999.2500       8.2303    -999.2500
       5.7556    -999.2500       0.1022       4.3033       0.0086       2.3857
       2.1213       0.5033
   1953.1748
       7.7937      20.0272       0.1727      62.1829      25.2553      20.2005
       9.6990       9.2767       6.6099    -999.2500       6.8234    -999.2500
       5.1108    -999.2500       0.1188       4.4574       0.0096       2.3671
       1.8736       0.5885
   1953.3273
       7.8056      16.5470       0.0976      61.4963      24.4414      15.3697
      10.0847      10.3811       8.2768    -999.2500       9.2945    -999.2500
      10.7657    -999.2500       0.1020       4.5600       0.0080       2.4283
       1.5176       0.8768
   1953.4796
       8.0712      10.8516       0.0065      60.6297      21.6701      11.4448
      12.4343      13.0536      13.1718    -999.2500      15.8741    -999.2500
      19.5014    -999.2500       0.0748       4.7006       0.0055       2.5075
       0.9104       1.2062
   1953.6321
       8.1147       7.3265      -0.0113      59.4801      18.4413      10.6252
      14.0278      14.1169      19.7997    -999.2500      22.7537    -999.2500
      18.9905    -999.2500       0.0695       4.7258       0.0039       2.5151
       0.5145       1.2331
   1953.7844
       8.0669       4.9127      -0.0143      57.7149      14.4866       9.9917
      16.4374      15.8336      30.3249    -999.2500      31.9758    -999.2500
      20.1379    -999.2500       0.0710       4.7364       0.0027       2.4896
       0.3318       1.0615
   1953.9368
       8.1137       4.1732      -0.0121      55.9868      12.5647       9.7903
      16.9493      16.8946      36.1503    -999.2500      36.4241    -999.2500
      24.6298    -999.2500       0.0752       4.7678       0.0016       2.4706
       0.5450       0.9317
   1954.0892
       8.0840       4.7826      -0.0128      55.8685      11.3218       9.6847
      16.8964      17.0049      38.5763    -999.2500      38.2286    -999.2500
      28.4031    -999.2500       0.0794       4.7518       0.0010       2.4609
       0.9525       0.7337
   1954.2416
       8.0627       6.1720      -0.0151      57.3099      10.5228       9.6058
      16.9589      17.2793      37.3731    -999.2500      37.0130    -999.2500
      28.5936    -999.2500       0.0819       4.7046       0.0014       2.4573
       1.2136       0.4848
   1954.3940
       8.1273       5.6310      -0.0156      60.9929      10.2038       9.3884
      17.7282      18.2118      34.1944    -999.2500      33.4834    -999.2500
      23.6273    -999.2500       0.0902       4.6853       0.0016       2.4378
       0.9825       0.5088
   1954.5464
       8.1675       5.8575      -0.0164      65.2802      10.1104       9.1407
      18.4376      18.9192      32.4832    -999.2500      30.9766    -999.2500
      20.4671    -999.2500       0.0975       4.6837       0.0015       2.3979
       1.0801       0.4778
   1954.6989
       8.1462       8.8944      -0.0157      70.0989      10.0962       8.6791
      18.9588      19.3835      31.6670    -999.2500      28.9079    -999.2500
      15.4551    -999.2500       0.1115       4.6360       0.0016       2.3351
       1.8713       0.1291
   1954.8512
       8.1389       9.6164      -0.0076      74.9616      10.1170       8.1143
      19.8738      20.1623      31.6084    -999.2500      27.8257    -999.2500
      15.8575    -999.2500       0.1228       4.6035       0.0019       2.3141
       1.9803       0.0611
   1955.0037
       8.2353       9.4547       0.0012      79.4884      10.1115       8.1040
      20.9878      21.1618      31.7578    -999.2500      26.9795    -999.2500
      17.7207    -999.2500       0.1299       4.6089       0.0017       2.3037
       2.0137       0.0693
   1955.1560
       8.2283       7.9606       0.0003      83.4472       9.9744       8.2377
      21.3346      21.4893      31.0773    -999.2500      26.0567    -999.2500
      19.2821    -999.2500       0.1366       4.6192       0.0011       2.2843
       1.8410       0.2256
   1955.3085
       8.1667       4.7722      -0.0020      86.1494       9.8940       8.4801
      21.9223      22.0051      29.6775    -999.2500      24.9542    -999.2500
      17.1799    -999.2500       0.1399       4.6157       0.0001       2.2643
       1.2961       0.5647
   1955.4608
       8.1900       3.3652      -0.0032      87.3995       9.9072       8.5247
      22.8239      22.9560      29.4841    -999.2500      24.9957    -999.2500
      17.8860    -999.2500       0.1403       4.5931       0.0002       2.2586
       0.8948       0.7285
   1955.6133
       8.3162       2.0997      -0.0033      87.7236       9.6006       8.3152
      23.0991      23.2852      30.3321    -999.2500      26.0347    -999.2500
      17.3301    -999.2500       0.1461       4.5639       0.0004       2.2534
       0.4531       0.8327
   1955.7656
       8.2557       2.0383      -0.0003      87.6629       9.4177       8.0287
      23.3703      23.7608      32.0485    -999.2500      27.6948    -999.2500
      15.8559    -999.2500       0.1449       4.5597       0.0008       2.2491
       0.2490       0.8233
   1955.9180
       8.1410       2.1927       0.0041      87.3010       9.0647       7.8537
      23.0344      23.8770      34.8598    -999.2500      30.2395    -999.2500
      13.8205    -999.2500       0.1418       4.5703       0.0013       2.2460
       0.0962       0.7619
   1956.0704
       8.1556       2.2681       0.0101      86.0460       8.6245       7.9289
      22.8719      23.7598      39.6373    -999.2500      34.5412    -999.2500
      13.6209    -999.2500       0.1409       4.6116       0.0015       2.2674
       0.0505       0.6999
   1956.2228
       8.1942       1.6681       0.0118      84.0147       8.1273       8.2558
      22.6829      23.5340      43.2259    -999.2500      37.8673    -999.2500
      15.5961    -999.2500       0.1377       4.6567       0.0011       2.2978
       0.0501       0.7181
   1956.3752
       8.1425       0.5190       0.0137      81.2751       8.3600       9.8354
      21.9838      22.5880      47.2236    -999.2500      41.6855    -999.2500
      18.7767    -999.2500       0.1318       4.6988       0.0003       2.3256
       0.0420       0.8816
   1956.5276
       8.1407       0.5474       0.0165      78.5125       8.3232      11.4577
      21.0306      21.2925      47.2541    -999.2500      41.3944    -999.2500
      24.2096    -999.2500       0.1216       4.7002       0.0002       2.3370
       0.0942       0.8664
   1956.6801
       8.1354       0.6982       0.0203      76.1053       9.2570      12.1883
      20.6508      20.7282      45.0119    -999.2500      38.5047    -999.2500
      29.1993    -999.2500       0.1050       4.6895       0.0002       2.3589
       0.1357       0.9560
   1956.8324
       8.0362       0.8905       0.0302      74.1771      10.6019      12.7933
      20.7018      20.7120      41.4862    -999.2500      34.5956    -999.2500
      26.2887    -999.2500       0.0959       4.6535       0.0005       2.3591
       0.0499       1.0827
