#------------------------------------------------------------------------------
#
#   Created by  : [OpenWorks] Log Export Utility (LEXP)
#   Created on  : 2016-05-23 17:52:08
#   Project     : CANT971
#   User        : R5K
#   Interpreter : PEP
#
#------------------------------------------------------------------------------
~VERSION INFORMATION
VERS. 2.0 : CWLS Log ASCII Standard - version 2.0
WRAP. YES : Mulitple lines per depth step
~WELL INFORMATION
#MNEMONIC   .UNIT                                           VALUE :DESCRIPTION
#------------------------------------------------------------------------------
STRT        .M                                          1316.1428 :START DEPTH
STOP        .M                                          2794.8801 :STOP DEPTH
STEP        .M                                             0.1524 :STEP
NULL        .                                           -999.2500 :NULL VALUE
COMP        .                                             UNKNOWN :COMPANY
WELL        .                                       Cantarell1045 :WELL
FLD         .                                             UNKNOWN :FIELD
LOC         .                                             UNKNOWN :LOCATION
CNTY        .                                             UNKNOWN :COUNTY
STAT        .                                             UNKNOWN :STATE
CTRY        .                                             UNKNOWN :COUNTRY
SRVC        .                                             UNKNOWN :SERVICE COMPANY
DATE        .                                             UNKNOWN :LOG DATE
UWI         .                                              1045-V :UNIQUE WELL ID
XCOORD      .                                       598503.480000 :SURFACE X
YCOORD      .                                      2149274.380000 :SURFACE Y
LAT         .                                           19.436572 :LATITUDE
LON         .                                          -92.061672 :LONGITUDE
ELEV        .M                                             0.0000 :SURFACE ELEV
ELEV_TYPE   .                                                  NA :ELEV TYPE
~CURVE INFORMATION
#MNEMONIC.UNIT        API CODE       : CURVE DESCRIPTION
#------------------------------------------------------------------------------
DEPTH    .M                          : Measured Depth
CALI     .UNKNOWN     UNKNOWN        : CALI:litodensidad_final:rC:NONE:v0 (auto-composite)
CGR      .API         UNKNOWN        : CGR:Espectrometria:rC:NONE:v0 (auto-composite)
DRHO     .g/cm3       UNKNOWN        : DRHO:litodensidad_final:rC:NONE:v0 (auto-composite)
DT       .us/ft       UNKNOWN        : DT:PETROWORKS:rC:NONE:v2 
GR       .API         UNKNOWN        : GR:PETROWORKS:rC:NONE:v1 
GR-LWD   .UNKNOWN     UNKNOWN        : GR-LWD:PETROWORKS:rC:NONE:v1 
ILD-LWD  .ohm.m       UNKNOWN        : ILD-LWD:UNKNOWN:rC:NONE:v0 (auto-composite)
ILM-LWD  .ohm.m       UNKNOWN        : ILM-LWD:UNKNOWN:rC:NONE:v0 (auto-composite)
LLD      .ohm.m       UNKNOWN        : LLD:resistivos-final:rC:NONE:v0 (auto-composite)
LLD-LWD  .ohm.m       UNKNOWN        : LLD-LWD:UNKNOWN:rC:NONE:v0 (auto-composite)
LLS      .ohm.m       UNKNOWN        : LLS:resistivos-final:rC:NONE:v0 (auto-composite)
LLS-LWD  .ohm.m       UNKNOWN        : LLS-LWD:UNKNOWN:rC:NONE:v0 (auto-composite)
MSFL     .ohm.m       UNKNOWN        : MSFL:resistivos-final:rC:NONE:v0 (auto-composite)
MSFL-LWD .ohm.m       UNKNOWN        : MSFL-LWD:UNKNOWN:rC:NONE:v0 (auto-composite)
NPHI     .UNKNOWN     UNKNOWN        : NPHI:porosidad-Final:rC:NONE:v0 (auto-composite)
PEF      .UNKNOWN     UNKNOWN        : PEF:litodensidad_final:rC:NONE:v0 (auto-composite)
POTA     .wtpercent   UNKNOWN        : POTA:Espectrometria:rC:NONE:v0 (auto-composite)
RHOB     .g/cm3       UNKNOWN        : RHOB:litodensidad_final:rC:NONE:v0 (auto-composite)
THOR     .ppm         UNKNOWN        : THOR:Espectrometria:rC:NONE:v0 (auto-composite)
URAN     .ppm         UNKNOWN        : URAN:Espectrometria:rC:NONE:v0 (auto-composite)
~A
# ...
   2306.1333
       7.4653       5.6110       0.0793      62.4240      30.0617      28.9769
    -999.2500    -999.2500     428.4748     344.9676     189.3179     211.0047
      54.2589     137.5134       0.0921       3.1464       0.0024       2.3930
       0.6353       2.7244
   2306.2856
       7.5396       6.4395       0.0965      61.7343      32.3436      28.0742
    -999.2500    -999.2500     387.1897     306.8990     170.0917     173.9987
      97.1540     123.7802       0.0909       3.0802       0.0031       2.4536
       0.5931       2.8861
   2306.4380
       7.6299       6.2478       0.0888      60.6061      33.4189      26.9226
    -999.2500    -999.2500     344.3061     293.6430     152.7358     156.3316
     122.9003     120.0749       0.0968       3.0219       0.0035       2.5139
       0.3964       3.0283
   2306.5903
       7.7371       6.0923       0.0731      59.5013      32.7426      25.4342
    -999.2500    -999.2500     300.0723     320.6589     137.1340     158.1354
      82.5634     116.2984       0.1121       3.0101       0.0033       2.5324
       0.4329       2.9672
   2306.7429
       7.8122       5.2974       0.0801      58.9741      31.1290      25.5292
    -999.2500    -999.2500     275.4942     340.4868     129.0305     155.9572
      50.6833     106.7396       0.1217       2.9879       0.0026       2.4848
       0.4646       2.8840
   2306.8953
       8.1017       3.2896       0.1258      59.4772      28.0003      25.0611
    -999.2500    -999.2500     251.1207     349.0179     122.0424     169.9490
      20.6569      98.6881       0.1318       2.7704       0.0018       2.3755
       0.2314       2.6891
   2307.0476
       8.2603       2.4155       0.1667      60.4426      27.3171      22.5784
    -999.2500    -999.2500     235.6739     356.8088     116.7613     194.4552
       9.2311      89.7922       0.1412       2.4274       0.0015       2.2748
       0.0922       2.7700
   2307.2000
       8.5452       1.6825       0.1687      62.1039      27.5396      22.8320
    -999.2500    -999.2500     211.1192     314.9625     105.3538     170.9107
       4.9467      70.5573       0.1606       2.0069       0.0011       2.1466
       0.0549       2.9045
   2307.3525
       8.9215       1.8176       0.1291      65.8748      25.8467      23.3334
    -999.2500    -999.2500     188.6805     247.1502      94.2432     125.5957
       3.5942      57.2221       0.1857       1.7208       0.0011       1.9419
       0.0678       2.6839
   2307.5049
       9.7147       2.7641       0.0767      70.8247      22.1725      23.2164
    -999.2500    -999.2500     162.5032     199.3221      80.8634      97.4828
       2.0311      56.5674       0.2210       1.1548       0.0014       1.4873
       0.2354       2.1099
   2307.6572
      10.7828       3.0976       0.0598      75.5914      21.1080      22.4809
    -999.2500    -999.2500     151.3930     188.8154      75.8138     102.3531
       1.6018      67.9635       0.2466       0.7684       0.0017       1.2053
       0.1969       2.0048
   2307.8096
      12.5745       3.9829       0.0538      78.4187      20.4417      23.1151
    -999.2500    -999.2500     147.1800     226.0580      75.1361     132.0216
       1.4567      92.3694       0.2825       0.5540       0.0027       1.0618
       0.0517       1.8250
   2307.9619
      12.9578       4.6044       0.0590      78.9766      20.2491      24.5861
    -999.2500    -999.2500     156.6693     281.9765      82.2018     164.8430
       1.5955     113.6518       0.2918       0.5449       0.0030       1.0929
       0.1097       1.7445
   2308.1145
      10.4893       5.0852       0.0765      79.2843      19.8347      25.0010
    -999.2500    -999.2500     186.7314     318.7456     102.1883     169.4513
       1.6543     111.4533       0.2316       0.5521       0.0026       1.1788
       0.4073       1.6342
   2308.2668
      10.3042       5.1571       0.0950      79.5851      20.2270      26.1523
    -999.2500    -999.2500     216.6208     318.0483     120.4753     155.0521
       2.0255      92.4147       0.1893       0.5704       0.0022       1.2287
       0.5787       1.6881
   2308.4192
       8.6992       5.1129       0.1189      79.5275      20.0247      29.3208
    -999.2500    -999.2500     250.2764     298.6732     139.6862     138.6502
       3.7510      79.7241       0.1676       0.6463       0.0020       1.3151
       0.6735       1.6568
   2308.5715
       8.3110       4.3282       0.1544      78.5487      20.3546      30.8101
    -999.2500    -999.2500     270.7036     251.3069     148.5251     114.1137
      10.5675      69.4484       0.1501       0.8821       0.0020       1.6066
       0.4374       1.7847
   2308.7241
       8.5539       3.7172       0.1692      76.8497      21.1719      28.8659
    -999.2500    -999.2500     246.8220     209.2932     134.2483      98.4905
      13.1135      65.2813       0.1575       1.0579       0.0021       1.8221
       0.2396       1.9415
   2308.8765
       9.1619       3.2450       0.1712      74.7614      23.1528      28.3204
    -999.2500    -999.2500     195.8733     205.6630     103.9184      94.3856
       6.1081      66.3848       0.1854       1.1387       0.0022       1.8542
       0.0631       2.2251
   2309.0288
       9.1218       3.2790       0.1613      70.3316      24.6904      25.8446
    -999.2500    -999.2500     169.5738     208.2239      85.4794      78.3361
       3.9443      54.6372       0.1964       1.1774       0.0017       1.7671
       0.2363       2.3850
   2309.1812
       9.2483       3.0554       0.1371      64.9450      25.5032      24.2752
    -999.2500    -999.2500     155.7410     208.2427      74.1032      73.3609
       3.2823      51.1620       0.2105       1.3247       0.0015       1.6746
       0.2628       2.5120
   2309.3337
       8.5213       2.7969       0.1217      59.9657      23.9952      21.8713
    -999.2500    -999.2500     162.6789     208.2543      74.8474      78.1063
       4.1703      54.4339       0.2091       1.4155       0.0012       1.6423
       0.3174       2.3584
   2309.4861
       8.2384       4.1066       0.1208      60.0042      21.4171      19.7382
    -999.2500    -999.2500     188.3179    -999.2500      85.5918     103.3633
       4.8868      64.3919       0.1916       1.6571       0.0010       1.7686
       0.7867       1.9255
   2309.6384
       8.3426       4.0066       0.1355      63.3348      19.2296      18.5884
    -999.2500    -999.2500     220.5111    -999.2500      99.5278     123.2594
       4.5292      69.7412       0.1680       2.0753       0.0011       1.9920
       0.6945       1.6899
   2309.7908
       8.7149       3.7329       0.1859      65.2603      17.2679      18.1517
    -999.2500    -999.2500     262.0273    -999.2500     115.8350     104.4659
       3.4424      60.9507       0.1443       2.4859       0.0014       2.1905
       0.4859       1.5008
   2309.9431
       8.8076       3.5242       0.2617      65.8494      16.7304      18.4910
    -999.2500    -999.2500     290.7606    -999.2500     126.0268      87.6338
       4.2504      53.7156       0.1336       2.5576       0.0017       2.2316
       0.3093       1.4667
   2310.0957
       8.0233       3.8826       0.3285      64.3041      17.3276      20.0202
    -999.2500    -999.2500     327.3144    -999.2500     137.4043     114.5719
       6.6220      67.6811       0.1301       2.6335       0.0026       2.2523
       0.0734       1.4883
   2310.2480
       7.5771       4.2069       0.2922      63.7666      17.9018      20.8655
    -999.2500    -999.2500     365.3636    -999.2500     150.9976     153.2323
      13.0675      86.0512       0.1259       2.7733       0.0029       2.3099
       0.0543       1.5219
   2310.4004
       7.6950       3.8700       0.1766      64.1852      17.0361      19.5376
    -999.2500    -999.2500     439.1045    -999.2500     174.3376     160.0179
      32.3107      89.8116       0.1006       2.9975       0.0026       2.4098
       0.0543       1.4486
