#------------------------------------------------------------------------------
#
#   Created by  : [OpenWorks] Log Export Utility (LEXP)
#   Created on  : 2016-05-23 17:52:08
#   Project     : CANT971
#   User        : R5K
#   Interpreter : PEP
#
#------------------------------------------------------------------------------
~VERSION INFORMATION
VERS. 2.0 : CWLS Log ASCII Standard - version 2.0
WRAP. YES : Mulitple lines per depth step
~WELL INFORMATION
#MNEMONIC   .UNIT                                           VALUE :DESCRIPTION
#------------------------------------------------------------------------------
STRT        .M                                          1316.1428 :START DEPTH
STOP        .M                                          2794.8801 :STOP DEPTH
STEP        .M                                             0.1524 :STEP
NULL        .                                           -999.2500 :NULL VALUE
COMP        .                                             UNKNOWN :COMPANY
WELL        .                                       Cantarell1045 :WELL
FLD         .                                             UNKNOWN :FIELD
LOC         .                                             UNKNOWN :LOCATION
CNTY        .                                             UNKNOWN :COUNTY
STAT        .                                             UNKNOWN :STATE
CTRY        .                                             UNKNOWN :COUNTRY
SRVC        .                                             UNKNOWN :SERVICE COMPANY
DATE        .                                             UNKNOWN :LOG DATE
UWI         .                                              1045-V :UNIQUE WELL ID
XCOORD      .                                       598503.480000 :SURFACE X
YCOORD      .                                      2149274.380000 :SURFACE Y
LAT         .                                           19.436572 :LATITUDE
LON         .                                          -92.061672 :LONGITUDE
ELEV        .M                                             0.0000 :SURFACE ELEV
ELEV_TYPE   .                                                  NA :ELEV TYPE
~CURVE INFORMATION
#MNEMONIC.UNIT        API CODE       : CURVE DESCRIPTION
#------------------------------------------------------------------------------
DEPTH    .M                          : Measured Depth
CALI     .UNKNOWN     UNKNOWN        : CALI:litodensidad_final:rC:NONE:v0 (auto-composite)
CGR      .API         UNKNOWN        : CGR:Espectrometria:rC:NONE:v0 (auto-composite)
DRHO     .g/cm3       UNKNOWN        : DRHO:litodensidad_final:rC:NONE:v0 (auto-composite)
DT       .us/ft       UNKNOWN        : DT:PETROWORKS:rC:NONE:v2 
GR       .API         UNKNOWN        : GR:PETROWORKS:rC:NONE:v1 
GR-LWD   .UNKNOWN     UNKNOWN        : GR-LWD:PETROWORKS:rC:NONE:v1 
ILD-LWD  .ohm.m       UNKNOWN        : ILD-LWD:UNKNOWN:rC:NONE:v0 (auto-composite)
ILM-LWD  .ohm.m       UNKNOWN        : ILM-LWD:UNKNOWN:rC:NONE:v0 (auto-composite)
LLD      .ohm.m       UNKNOWN        : LLD:resistivos-final:rC:NONE:v0 (auto-composite)
LLD-LWD  .ohm.m       UNKNOWN        : LLD-LWD:UNKNOWN:rC:NONE:v0 (auto-composite)
LLS      .ohm.m       UNKNOWN        : LLS:resistivos-final:rC:NONE:v0 (auto-composite)
LLS-LWD  .ohm.m       UNKNOWN        : LLS-LWD:UNKNOWN:rC:NONE:v0 (auto-composite)
MSFL     .ohm.m       UNKNOWN        : MSFL:resistivos-final:rC:NONE:v0 (auto-composite)
MSFL-LWD .ohm.m       UNKNOWN        : MSFL-LWD:UNKNOWN:rC:NONE:v0 (auto-composite)
NPHI     .UNKNOWN     UNKNOWN        : NPHI:porosidad-Final:rC:NONE:v0 (auto-composite)
PEF      .UNKNOWN     UNKNOWN        : PEF:litodensidad_final:rC:NONE:v0 (auto-composite)
POTA     .wtpercent   UNKNOWN        : POTA:Espectrometria:rC:NONE:v0 (auto-composite)
RHOB     .g/cm3       UNKNOWN        : RHOB:litodensidad_final:rC:NONE:v0 (auto-composite)
THOR     .ppm         UNKNOWN        : THOR:Espectrometria:rC:NONE:v0 (auto-composite)
URAN     .ppm         UNKNOWN        : URAN:Espectrometria:rC:NONE:v0 (auto-composite)
~A
# ...
   2111.6709
       6.6796       4.5010       0.1424      61.1544      39.3193      35.8011
     255.1608     221.2419     355.6472    -999.2500     171.0758    -999.2500
     175.3022    -999.2500       0.0646       3.4449       0.0026       2.6796
       0.2633       3.8707
   2111.8232
       6.6942       2.4777       0.1618      60.9654      40.8745      34.9018
     267.1482     228.9684     359.8409    -999.2500     167.1636    -999.2500
     128.8552    -999.2500       0.0578       3.5459       0.0012       2.6627
       0.2387       4.2689
   2111.9756
       6.7456       0.9823       0.1821      61.3206      45.0878      34.2330
     266.4029     229.3316     346.0524    -999.2500     152.1416    -999.2500
     135.4005    -999.2500       0.0600       3.5888       0.0004       2.5991
       0.1208       4.9367
   2112.1279
       6.7751       1.2086       0.1668      62.0336      46.6249      32.0312
     240.4036     214.8840     321.9811    -999.2500     138.9913    -999.2500
     166.6721    -999.2500       0.0648       3.5207       0.0004       2.5947
       0.2029       5.0531
   2112.2805
       6.7602       2.5749       0.1286      63.6080      45.3940      30.9324
     221.4162     200.2850     292.8149    -999.2500     128.4267    -999.2500
     188.8522    -999.2500       0.0744       3.4131       0.0004       2.6544
       0.5839       4.7730
   2112.4329
       6.8106       3.0512       0.1070      67.4689      44.5984      30.2684
     201.7499     185.5145     263.3082    -999.2500     119.8708    -999.2500
     139.4725    -999.2500       0.0803       3.3408       0.0004       2.6736
       0.7225       4.6247
   2112.5852
       6.8601       2.9959       0.0997      72.2889      42.0242      30.2663
     185.0870     168.8438     211.8415    -999.2500     101.2705    -999.2500
      70.5353    -999.2500       0.0902       3.2663       0.0003       2.6331
       0.7134       4.3660
   2112.7375
       6.9985       4.0715       0.1308      75.1866      38.3799      30.7929
     174.5501     155.9107     175.7392    -999.2500      84.9368    -999.2500
      19.1390    -999.2500       0.1107       3.1550       0.0015       2.4996
       0.5637       3.8127
   2112.8901
       7.2638       5.0871       0.1848      76.3301      35.7557      31.9805
     169.8302     148.9347     142.7437    -999.2500      68.1766    -999.2500
       4.7312    -999.2500       0.1371       2.7871       0.0024       2.1805
       0.5008       3.4080
   2113.0425
       7.5249       6.3722       0.2173      77.1440      35.3265      32.0549
     168.0086     144.8327     129.6117    -999.2500      61.9521    -999.2500
       5.8909    -999.2500       0.1617       2.4926       0.0027       1.9950
       0.7269       3.2151
   2113.1948
       8.1804       7.5735       0.2437      77.9327      37.4893      31.6846
     162.9043     137.7444     119.3457    -999.2500      58.0330    -999.2500
      11.6032    -999.2500       0.2031       2.6062       0.0030       2.0817
       0.9768       3.3341
   2113.3472
       8.6212       8.5563       0.2386      78.2297      40.5969      31.0010
     152.1251     129.4139     112.9720    -999.2500      55.0429    -999.2500
      13.0284    -999.2500       0.2172       2.9144       0.0028       2.1966
       1.3029       3.5654
   2113.4995
       8.3199       7.8292       0.2144      78.0197      43.5304      30.8339
     148.7065     127.8870     108.3354    -999.2500      51.9438    -999.2500
       4.3710    -999.2500       0.2263       2.8068       0.0027       2.0237
       1.1382       4.0137
   2113.6521
       8.0221       8.2403       0.1963      77.2785      43.4352      31.9312
     145.2598     125.0658     110.3709    -999.2500      52.3572    -999.2500
       2.5114    -999.2500       0.2270       2.2824       0.0031       1.7351
       1.1006       3.9357
   2113.8044
       7.3380       7.0115       0.1767      75.9168      39.2853      35.8426
     134.7502     118.8238     123.9947    -999.2500      60.5735    -999.2500
       2.2672    -999.2500       0.2075       1.7774       0.0038       1.5563
       0.4882       3.5627
   2113.9568
       7.3407       6.3531       0.1714      74.9281      35.7148      38.0240
     128.3260     114.4201     140.5445    -999.2500      69.9638    -999.2500
       5.9662    -999.2500       0.1955       1.9201       0.0039       1.7742
       0.2347       3.2614
   2114.1091
       7.0382       3.8630       0.1749      74.2815      33.3528      37.1105
     119.0901     108.8168     165.5677    -999.2500      81.0728    -999.2500
      24.7585    -999.2500       0.1502       2.4197       0.0027       2.2749
       0.0268       3.2492
   2114.2617
       6.8642       1.0612       0.2238      73.7468      35.6523      34.9576
     112.0153     103.7485     176.2722    -999.2500      84.0010    -999.2500
      53.7710    -999.2500       0.1132       2.5618       0.0007       2.4908
       0.0286       3.7945
   2114.4141
       6.8599       0.6641       0.3651      73.2803      43.5486      33.3250
     105.4150      97.7782     185.8681    -999.2500      84.0923    -999.2500
      25.1578    -999.2500       0.0909       2.4150       0.0004       2.5708
       0.0458       4.8262
   2114.5664
       6.8312       0.6681       0.4063      72.7353      47.1534      35.4525
     100.6441      93.0720     202.3249    -999.2500      92.6844    -999.2500
      17.9710    -999.2500       0.0897       2.3918       0.0004       2.5643
       0.0449       5.1709
   2114.7188
       6.8437       1.9763       0.3480      71.5495      49.7460      39.8500
      95.6247      87.9686     232.7966    -999.2500     109.3763    -999.2500
      31.8901    -999.2500       0.0808       2.5606       0.0013       2.5831
       0.0414       5.3178
   2114.8713
       6.9525       3.1632       0.2087      70.0917      51.1275      44.0803
      95.6195      86.4162     283.2733    -999.2500     134.2842    -999.2500
      98.1209    -999.2500       0.0736       2.8663       0.0022       2.6659
       0.0344       5.3473
   2115.0237
       6.9961       3.5825       0.1915      67.8291      49.6054      39.9387
      95.7948      86.0232     281.1891    -999.2500     132.1798    -999.2500
     128.3359    -999.2500       0.0873       2.9149       0.0025       2.7076
       0.0328       5.1296
   2115.1760
       7.2555       4.5309       0.2186      63.5474      45.0329      31.5679
      91.5569      82.0445     225.8278    -999.2500     103.5030    -999.2500
      71.6147    -999.2500       0.1183       2.8713       0.0031       2.6774
       0.0373       4.5119
   2115.3284
       7.6998       5.2772       0.2141      61.0621      40.1280      31.4475
      96.3245      85.1392     189.1418    -999.2500      83.3949    -999.2500
      30.0983    -999.2500       0.1405       2.8277       0.0037       2.5514
       0.0388       3.8784
   2115.4807
       8.2157       6.3757       0.1904      59.0580      35.1002      31.9124
      97.7078      86.7739     166.4033    -999.2500      70.4330    -999.2500
      13.5350    -999.2500       0.1591       2.7190       0.0045       2.3414
       0.0318       3.1778
   2115.6333
       8.3280       6.8257       0.1769      58.2507      35.3183      30.6178
      94.7927      84.5076     182.1423    -999.2500      80.6799    -999.2500
      16.6184    -999.2500       0.1637       2.6653       0.0048       2.3109
       0.0505       3.1811
   2115.7856
       7.4423       6.9980       0.1694      57.7014      37.8556      30.6463
      89.1844      80.2336     232.4473    -999.2500     110.5276    -999.2500
      49.9157    -999.2500       0.1372       2.7315       0.0048       2.4443
       0.0655       3.4417
   2115.9380
       6.9046       7.2925       0.1627      56.9053      38.1923      31.7649
      85.2213      77.6079     280.3954    -999.2500     133.5457    -999.2500
     110.5115    -999.2500       0.1081       2.8672       0.0049       2.5701
       0.1101       3.4445
