#------------------------------------------------------------------------------
#
#   Created by  : [OpenWorks] Log Export Utility (LEXP)
#   Created on  : 2016-05-23 17:52:08
#   Project     : CANT971
#   User        : R5K
#   Interpreter : PEP
#
#------------------------------------------------------------------------------
~VERSION INFORMATION
VERS. 2.0 : CWLS Log ASCII Standard - version 2.0
WRAP. YES : Mulitple lines per depth step
~WELL INFORMATION
#MNEMONIC   .UNIT                                           VALUE :DESCRIPTION
#------------------------------------------------------------------------------
STRT        .M                                          1316.1428 :START DEPTH
STOP        .M                                          2794.8801 :STOP DEPTH
STEP        .M                                             0.1524 :STEP
NULL        .                                           -999.2500 :NULL VALUE
COMP        .                                             UNKNOWN :COMPANY
WELL        .                                       Cantarell1045 :WELL
FLD         .                                             UNKNOWN :FIELD
LOC         .                                             UNKNOWN :LOCATION
CNTY        .                                             UNKNOWN :COUNTY
STAT        .                                             UNKNOWN :STATE
CTRY        .                                             UNKNOWN :COUNTRY
SRVC        .                                             UNKNOWN :SERVICE COMPANY
DATE        .                                             UNKNOWN :LOG DATE
UWI         .                                              1045-V :UNIQUE WELL ID
XCOORD      .                                       598503.480000 :SURFACE X
YCOORD      .                                      2149274.380000 :SURFACE Y
LAT         .                                           19.436572 :LATITUDE
LON         .                                          -92.061672 :LONGITUDE
ELEV        .M                                             0.0000 :SURFACE ELEV
ELEV_TYPE   .                                                  NA :ELEV TYPE
~CURVE INFORMATION
#MNEMONIC.UNIT        API CODE       : CURVE DESCRIPTION
#------------------------------------------------------------------------------
DEPTH    .M                          : Measured Depth
CALI     .UNKNOWN     UNKNOWN        : CALI:litodensidad_final:rC:NONE:v0 (auto-composite)
CGR      .API         UNKNOWN        : CGR:Espectrometria:rC:NONE:v0 (auto-composite)
DRHO     .g/cm3       UNKNOWN        : DRHO:litodensidad_final:rC:NONE:v0 (auto-composite)
DT       .us/ft       UNKNOWN        : DT:PETROWORKS:rC:NONE:v2 
GR       .API         UNKNOWN        : GR:PETROWORKS:rC:NONE:v1 
GR-LWD   .UNKNOWN     UNKNOWN        : GR-LWD:PETROWORKS:rC:NONE:v1 
ILD-LWD  .ohm.m       UNKNOWN        : ILD-LWD:UNKNOWN:rC:NONE:v0 (auto-composite)
ILM-LWD  .ohm.m       UNKNOWN        : ILM-LWD:UNKNOWN:rC:NONE:v0 (auto-composite)
LLD      .ohm.m       UNKNOWN        : LLD:resistivos-final:rC:NONE:v0 (auto-composite)
LLD-LWD  .ohm.m       UNKNOWN        : LLD-LWD:UNKNOWN:rC:NONE:v0 (auto-composite)
LLS      .ohm.m       UNKNOWN        : LLS:resistivos-final:rC:NONE:v0 (auto-composite)
LLS-LWD  .ohm.m       UNKNOWN        : LLS-LWD:UNKNOWN:rC:NONE:v0 (auto-composite)
MSFL     .ohm.m       UNKNOWN        : MSFL:resistivos-final:rC:NONE:v0 (auto-composite)
MSFL-LWD .ohm.m       UNKNOWN        : MSFL-LWD:UNKNOWN:rC:NONE:v0 (auto-composite)
NPHI     .UNKNOWN     UNKNOWN        : NPHI:porosidad-Final:rC:NONE:v0 (auto-composite)
PEF      .UNKNOWN     UNKNOWN        : PEF:litodensidad_final:rC:NONE:v0 (auto-composite)
POTA     .wtpercent   UNKNOWN        : POTA:Espectrometria:rC:NONE:v0 (auto-composite)
RHOB     .g/cm3       UNKNOWN        : RHOB:litodensidad_final:rC:NONE:v0 (auto-composite)
THOR     .ppm         UNKNOWN        : THOR:Espectrometria:rC:NONE:v0 (auto-composite)
URAN     .ppm         UNKNOWN        : URAN:Espectrometria:rC:NONE:v0 (auto-composite)
~A
# ...
   2071.8945
       6.9035      11.3825       0.1127      65.2105      65.5309      54.2683
      44.0117      43.8503      56.9502    -999.2500      56.6776    -999.2500
      67.9590    -999.2500       0.1176       3.2689       0.0059       2.6085
       0.8922       6.0165
   2072.0469
       6.9283       8.9955       0.1151      64.0107      66.6464      54.9814
      44.8309      44.5515      57.4148    -999.2500      57.8984    -999.2500
      64.1409    -999.2500       0.1136       3.2747       0.0054       2.5984
       0.3927       6.4104
   2072.1992
       6.9110       5.3092       0.1279      61.5878      69.1717      57.1331
      46.5653      46.2530      60.7430    -999.2500      62.1406    -999.2500
      46.6374    -999.2500       0.1038       3.2997       0.0037       2.6076
       0.0275       7.1644
   2072.3516
       6.9066       4.4376       0.1444      59.2694      70.1004      57.7771
      47.3939      47.3285      63.4328    -999.2500      65.1369    -999.2500
      33.4775    -999.2500       0.1010       3.3147       0.0029       2.6184
       0.1104       7.3131
   2072.5039
       6.9075       5.0895       0.1711      56.1712      70.7784      57.8850
      48.4435      48.4683      62.9225    -999.2500      65.0481    -999.2500
      28.4391    -999.2500       0.1002       3.3540       0.0027       2.6143
       0.3586       7.3322
   2072.6565
       6.9143       6.9224       0.2013      55.1383      69.8209      58.1674
      50.2130      49.9767      56.7785    -999.2500      58.9798    -999.2500
      26.5347    -999.2500       0.1041       3.4099       0.0033       2.5855
       0.6386       7.0099
   2072.8088
       6.9058      10.8027       0.2857      55.4552      67.8058      58.8370
      51.6141      51.2262      45.7052    -999.2500      47.4964    -999.2500
      12.6251    -999.2500       0.1082       3.4379       0.0052       2.4654
       1.0072       6.3340
   2072.9612
       6.8979      12.5888       0.3393      57.6489      66.5171      59.2467
      52.3430      52.0734      39.3237    -999.2500      40.0631    -999.2500
       5.9530    -999.2500       0.1109       3.3162       0.0059       2.2960
       1.2338       6.0015
   2073.1135
       6.8816      13.1261       0.3066      60.6036      65.7172      60.4103
      52.8056      53.1376      35.3354    -999.2500      35.1962    -999.2500
       3.1956    -999.2500       0.1104       3.0737       0.0060       2.0593
       1.3318       5.8549
   2073.2661
       6.8493      11.8103       0.2373      62.9310      65.1824      60.3894
      52.7254      52.9488      36.8032    -999.2500      36.9856    -999.2500
       3.8842    -999.2500       0.1084       3.0304       0.0053       2.0085
       1.2594       5.9399
   2073.4185
       6.8493      10.4063       0.1929      64.2674      65.1433      59.8344
      52.6405      52.4104      41.2533    -999.2500      41.9906    -999.2500
       8.4821    -999.2500       0.1033       3.1061       0.0046       2.0830
       1.1208       6.0891
   2073.5708
       6.8494       8.8470       0.1707      64.3953      65.9470      59.5026
      53.4860      52.9618      51.9517    -999.2500      53.3531    -999.2500
      29.0395    -999.2500       0.0970       3.3349       0.0036       2.3481
       1.0870       6.3543
   2073.7231
       6.8505       7.9509       0.1614      63.3043      67.1250      59.7398
      54.2319      53.3551      61.0223    -999.2500      61.9949    -999.2500
      57.5033    -999.2500       0.0946       3.4541       0.0032       2.4858
       0.9935       6.5846
   2073.8757
       6.8563       6.6006       0.1704      59.6905      69.2225      60.3058
      54.4711      53.6376      71.8922    -999.2500      71.8650    -999.2500
      60.7700    -999.2500       0.0888       3.5500       0.0026       2.5523
       0.8226       6.9761
   2074.0281
       6.8549       6.8403       0.1747      54.7454      69.9141      61.8679
      54.7720      54.3972      77.1233    -999.2500      76.2110    -999.2500
      62.0514    -999.2500       0.0851       3.5828       0.0025       2.5664
       0.9538       7.0216
   2074.1804
       6.8499       8.7891       0.1584      51.1435      69.1003      62.7465
      55.2057      54.9404      81.7135    -999.2500      79.7878    -999.2500
      63.9419    -999.2500       0.0830       3.5799       0.0029       2.5727
       1.3456       6.7164
   2074.3328
       6.8546       9.2741       0.1528      49.9868      67.5776      60.9756
      53.0052      52.7146      83.5329    -999.2500      80.6033    -999.2500
      61.0084    -999.2500       0.0822       3.5806       0.0033       2.5742
       1.3037       6.4886
   2074.4851
       6.8495       7.4683       0.1568      49.9726      65.7784      57.8543
      50.2011      49.6826      84.9130    -999.2500      80.4992    -999.2500
      52.5471    -999.2500       0.0833       3.5876       0.0030       2.5745
       0.9237       6.4816
   2074.6377
       6.8531       6.0494       0.1552      50.1535      65.6525      53.1980
      47.4948      46.7048      85.3300    -999.2500      79.7306    -999.2500
      49.6800    -999.2500       0.0835       3.5405       0.0024       2.5684
       0.7516       6.6350
   2074.7900
       6.8760       5.9144       0.1486      50.7004      66.1127      53.0226
      47.0608      45.9006      84.9394    -999.2500      78.2192    -999.2500
      56.1464    -999.2500       0.0851       3.4571       0.0022       2.5697
       0.8206       6.6988
   2074.9424
       6.9054       7.2947       0.1477      52.1685      66.8191      54.7210
      46.4869      44.7396      83.1236    -999.2500      76.0542    -999.2500
      73.0360    -999.2500       0.0863       3.4145       0.0027       2.5747
       0.9977       6.6296
   2075.0947
       6.8951       6.1320       0.1561      54.0293      66.8982      55.9328
      46.3531      44.1172      78.7121    -999.2500      71.5937    -999.2500
      57.3603    -999.2500       0.0908       3.3538       0.0027       2.5541
       0.6736       6.7671
   2075.2473
       6.8916       3.7908       0.1596      55.8011      66.2952      57.2031
      47.2661      44.5141      75.2791    -999.2500      68.1305    -999.2500
      54.2978    -999.2500       0.0923       3.3060       0.0018       2.5315
       0.3492       6.9656
   2075.3997
       6.8862       1.3476       0.1478      57.5554      64.4405      58.8007
      49.4072      46.5078      72.5049    -999.2500      65.3898    -999.2500
      58.1127    -999.2500       0.0907       3.2818       0.0009       2.5437
       0.0252       7.0026
   2075.5520
       6.8844       2.2481       0.1390      58.9222      63.2394      58.5411
      50.3825      48.1702      72.5312    -999.2500      65.4764    -999.2500
      57.0473    -999.2500       0.0885       3.2913       0.0015       2.5755
       0.0317       6.7899
   2075.7043
       6.8787       5.2759       0.1428      59.3170      62.7747      57.9807
      50.7183      49.2433      74.8422    -999.2500      67.8585    -999.2500
      55.8974    -999.2500       0.0860       3.3075       0.0037       2.5950
       0.0472       6.3878
   2075.8569
       6.8779       6.5125       0.1490      57.9023      63.2880      57.8859
      50.0106      48.7739      76.8846    -999.2500      69.8543    -999.2500
      58.7654    -999.2500       0.0838       3.3009       0.0045       2.5740
       0.0523       6.3212
   2076.0093
       6.8797       5.6897       0.1465      55.7498      63.8753      57.5459
      49.8772      49.0602      79.2882    -999.2500      71.9156    -999.2500
      63.2250    -999.2500       0.0821       3.2866       0.0039       2.5495
       0.0529       6.4856
   2076.1616
       6.8986       4.1205       0.1369      54.1286      63.6044      55.0726
      49.7668      48.4591      80.4401    -999.2500      72.5747    -999.2500
      61.7066    -999.2500       0.0845       3.2905       0.0028       2.5667
       0.0487       6.6277
