#------------------------------------------------------------------------------
#
#   Created by  : [OpenWorks] Log Export Utility (LEXP)
#   Created on  : 2016-05-23 17:52:08
#   Project     : CANT971
#   User        : R5K
#   Interpreter : PEP
#
#------------------------------------------------------------------------------
~VERSION INFORMATION
VERS. 2.0 : CWLS Log ASCII Standard - version 2.0
WRAP. YES : Mulitple lines per depth step
~WELL INFORMATION
#MNEMONIC   .UNIT                                           VALUE :DESCRIPTION
#------------------------------------------------------------------------------
STRT        .M                                          1316.1428 :START DEPTH
STOP        .M                                          2794.8801 :STOP DEPTH
STEP        .M                                             0.1524 :STEP
NULL        .                                           -999.2500 :NULL VALUE
COMP        .                                             UNKNOWN :COMPANY
WELL        .                                       Cantarell1045 :WELL
FLD         .                                             UNKNOWN :FIELD
LOC         .                                             UNKNOWN :LOCATION
CNTY        .                                             UNKNOWN :COUNTY
STAT        .                                             UNKNOWN :STATE
CTRY        .                                             UNKNOWN :COUNTRY
SRVC        .                                             UNKNOWN :SERVICE COMPANY
DATE        .                                             UNKNOWN :LOG DATE
UWI         .                                              1045-V :UNIQUE WELL ID
XCOORD      .                                       598503.480000 :SURFACE X
YCOORD      .                                      2149274.380000 :SURFACE Y
LAT         .                                           19.436572 :LATITUDE
LON         .                                          -92.061672 :LONGITUDE
ELEV        .M                                             0.0000 :SURFACE ELEV
ELEV_TYPE   .                                                  NA :ELEV TYPE
~CURVE INFORMATION
#MNEMONIC.UNIT        API CODE       : CURVE DESCRIPTION
#------------------------------------------------------------------------------
DEPTH    .M                          : Measured Depth
CALI     .UNKNOWN     UNKNOWN        : CALI:litodensidad_final:rC:NONE:v0 (auto-composite)
CGR      .API         UNKNOWN        : CGR:Espectrometria:rC:NONE:v0 (auto-composite)
DRHO     .g/cm3       UNKNOWN        : DRHO:litodensidad_final:rC:NONE:v0 (auto-composite)
DT       .us/ft       UNKNOWN        : DT:PETROWORKS:rC:NONE:v2 
GR       .API         UNKNOWN        : GR:PETROWORKS:rC:NONE:v1 
GR-LWD   .UNKNOWN     UNKNOWN        : GR-LWD:PETROWORKS:rC:NONE:v1 
ILD-LWD  .ohm.m       UNKNOWN        : ILD-LWD:UNKNOWN:rC:NONE:v0 (auto-composite)
ILM-LWD  .ohm.m       UNKNOWN        : ILM-LWD:UNKNOWN:rC:NONE:v0 (auto-composite)
LLD      .ohm.m       UNKNOWN        : LLD:resistivos-final:rC:NONE:v0 (auto-composite)
LLD-LWD  .ohm.m       UNKNOWN        : LLD-LWD:UNKNOWN:rC:NONE:v0 (auto-composite)
LLS      .ohm.m       UNKNOWN        : LLS:resistivos-final:rC:NONE:v0 (auto-composite)
LLS-LWD  .ohm.m       UNKNOWN        : LLS-LWD:UNKNOWN:rC:NONE:v0 (auto-composite)
MSFL     .ohm.m       UNKNOWN        : MSFL:resistivos-final:rC:NONE:v0 (auto-composite)
MSFL-LWD .ohm.m       UNKNOWN        : MSFL-LWD:UNKNOWN:rC:NONE:v0 (auto-composite)
NPHI     .UNKNOWN     UNKNOWN        : NPHI:porosidad-Final:rC:NONE:v0 (auto-composite)
PEF      .UNKNOWN     UNKNOWN        : PEF:litodensidad_final:rC:NONE:v0 (auto-composite)
POTA     .wtpercent   UNKNOWN        : POTA:Espectrometria:rC:NONE:v0 (auto-composite)
RHOB     .g/cm3       UNKNOWN        : RHOB:litodensidad_final:rC:NONE:v0 (auto-composite)
THOR     .ppm         UNKNOWN        : THOR:Espectrometria:rC:NONE:v0 (auto-composite)
URAN     .ppm         UNKNOWN        : URAN:Espectrometria:rC:NONE:v0 (auto-composite)
~A
# ...
   2266.3569
       7.2594       2.9136       0.0420      49.8165      18.5355      23.4370
    -999.2500    -999.2500     854.4099     390.3305     529.8230     309.9438
     219.7031     233.6302       0.0424       3.2468       0.0020       2.6039
       0.0260       1.7346
   2266.5093
       7.0665       4.4451       0.0770      48.8205      18.9752      23.6239
    -999.2500    -999.2500     868.5568     369.0472     548.5347     296.6775
     285.0967     226.6842       0.0398       3.2300       0.0030       2.5279
       0.0529       1.6091
   2266.6616
       7.0380       5.6295       0.0979      47.8560      19.9483      23.7601
    -999.2500    -999.2500     865.1998     375.9552     553.9346     288.0312
     466.8633     210.7643       0.0408       3.2185       0.0039       2.5677
       0.0601       1.6056
   2266.8140
       7.1897       4.6568       0.0841      46.6606      19.5610      23.3706
    -999.2500    -999.2500     822.8547     414.3876     532.0858     289.4005
     225.3990     214.4600       0.0434       3.2254       0.0028       2.6700
       0.2072       1.6529
   2266.9663
       7.2471       5.6798       0.0686      46.7560      19.3933      23.0291
    -999.2500    -999.2500     790.2282     417.4859     507.0266     285.7735
      57.2720     222.1534       0.0429       3.2542       0.0028       2.6467
       0.4824       1.5276
   2267.1189
       7.2267       6.2451       0.0726      47.0676      19.1092      23.0579
    -999.2500    -999.2500     770.0045     393.2150     493.1693     266.4690
      53.3754     207.5248       0.0427       3.2608       0.0027       2.5671
       0.6945       1.4341
   2267.2712
       7.0634       7.0107       0.0923      47.3026      18.6233      24.0805
    -999.2500    -999.2500     782.1144     387.8874     515.5753     252.4554
     150.9903     186.7293       0.0450       3.1713       0.0027       2.5033
       0.9041       1.2934
   2267.4236
       7.0835       6.6294       0.0912      47.5044      18.3594      25.0137
    -999.2500    -999.2500     817.7595     402.1552     557.1856     241.5922
     499.6868     183.3341       0.0461       3.1065       0.0024       2.5262
       0.9263       1.3056
   2267.5759
       7.2653       6.0742       0.0993      48.1091      18.3969      24.8519
    -999.2500    -999.2500     875.5867     435.3430     617.4336     236.1730
      42.9761     181.3921       0.0451       3.0900       0.0020       2.5405
       0.9314       1.3689
   2267.7285
       7.2833       5.5430       0.1161      49.1579      18.9793      23.5971
    -999.2500    -999.2500     838.9324     470.4122     602.7457     264.8486
      72.2395     200.2324       0.0469       3.1109       0.0016       2.5250
       0.9490       1.4964
   2267.8809
       7.1802       4.1953       0.1203      50.6453      20.1982      23.0877
    -999.2500    -999.2500     674.1603     475.9373     485.9434     289.4353
     252.1706     221.7715       0.0522       3.1598       0.0012       2.5161
       0.6949       1.7781
   2268.0332
       7.1174       4.1637       0.1186      52.9315      21.3914      24.5207
    -999.2500    -999.2500     537.5986     465.5660     385.1688     288.2960
      91.6631     223.5389       0.0576       3.1350       0.0018       2.4902
       0.4513       1.9196
   2268.1855
       7.2637       5.3914       0.1182      54.6241      22.9785      25.9911
    -999.2500    -999.2500     418.4079     464.7960     287.2511     275.7607
      14.9773     196.7105       0.0631       2.9123       0.0033       2.3705
       0.2152       1.9569
   2268.3381
       7.3102       6.6084       0.1147      55.3970      24.9322      29.4378
    -999.2500    -999.2500     386.1604     471.6258     265.8803     265.5224
      23.9722     174.2949       0.0652       2.7884       0.0045       2.3166
       0.0999       2.0437
   2268.4905
       7.3096       7.9046       0.1202      56.0239      28.5327      33.7650
    -999.2500    -999.2500     390.7536     462.9513     279.0817     253.8809
      76.5576     166.8612       0.0685       2.9252       0.0055       2.3831
       0.0450       2.2830
   2268.6428
       7.0718       9.0683       0.1336      56.4278      32.5719      39.3252
    -999.2500    -999.2500     419.8522     429.4338     318.1233     239.0127
      93.0731     161.8826       0.0706       3.0700       0.0059       2.4470
       0.2401       2.5997
   2268.7952
       6.9861      12.5062       0.1440      55.4210      39.7799      46.6689
    -999.2500    -999.2500     462.0712     431.4207     372.1533     243.1282
     104.1801     164.8573       0.0650       3.1280       0.0069       2.5250
       0.8200       3.1023
   2268.9475
       6.9890      15.0630       0.1322      54.4340      45.0360      55.2602
    -999.2500    -999.2500     468.8965     459.0845     390.1539     267.6015
     138.7168     176.3756       0.0606       3.1685       0.0076       2.6010
       1.2439       3.3399
   2269.1001
       7.0462      17.6428       0.1042      52.9103      47.7668      60.2749
    -999.2500    -999.2500     438.7512     471.6476     377.4788     294.2768
     120.5578     194.1746       0.0622       3.2169       0.0087       2.6257
       1.5679       3.4045
   2269.2524
       7.0849      18.3821       0.1018      51.0111      46.8936      56.1409
    -999.2500    -999.2500     402.7194     502.4881     354.9329     337.3153
     165.2257     223.2394       0.0646       3.2172       0.0090       2.5896
       1.6581       3.1943
   2269.4048
       7.0169      15.4237       0.1134      50.2518      42.7013      50.3866
    -999.2500    -999.2500     357.3740     573.5799     329.7121     428.0676
     541.9849     262.0016       0.0669       3.2190       0.0080       2.5872
       1.1970       2.9990
   2269.5571
       7.0224      13.7106       0.1002      50.4674      39.8036      49.9584
    -999.2500    -999.2500     325.0159     648.6218     305.6912     533.4778
     694.0875     284.6458       0.0704       3.2618       0.0071       2.6196
       1.0850       2.9100
   2269.7097
       7.1114      10.5850       0.0684      51.2728      37.4531      51.1168
    -999.2500    -999.2500     293.9306     697.1047     274.9865     586.3950
     101.6365     282.6015       0.0752       3.3513       0.0052       2.6053
       0.9231       2.9735
   2269.8621
       7.1793       9.5168       0.0727      52.5512      36.2316      50.3827
    -999.2500    -999.2500     287.6655     711.9965     267.0379     574.8215
      32.7408     266.0698       0.0783       3.3802       0.0046       2.5253
       0.8685       2.9901
   2270.0144
       7.0707       8.9829       0.1145      53.5350      33.8947      44.4989
    -999.2500    -999.2500     304.9474     726.4560     279.8341     451.8091
      19.3694     228.2920       0.0826       3.3770       0.0042       2.4209
       0.8678       2.7676
   2270.1667
       6.9895       8.4599       0.1414      53.8760      31.3285      36.7065
    -999.2500    -999.2500     344.1444     773.4265     318.3377     344.8091
      21.6558     204.4137       0.0809       3.3797       0.0040       2.4571
       0.8232       2.5464
   2270.3193
       6.9926       6.9589       0.1507      53.6398      28.1399      31.7496
    -999.2500    -999.2500     421.8074     822.2295     394.7103     358.0185
      21.5376     213.5220       0.0741       3.3838       0.0033       2.5449
       0.6517       2.3673
   2270.4717
       6.9915       3.9921       0.1323      52.6120      24.6718      28.5463
    -999.2500    -999.2500     620.8086     859.5674     599.4356     392.2570
      28.7346     226.4634       0.0646       3.3721       0.0025       2.6162
       0.1520       2.2948
   2270.6240
       6.9696       3.1894       0.1094      51.0775      23.4738      26.7925
    -999.2500    -999.2500     891.3607     839.5854     884.2176     379.3268
      89.7017     224.5444       0.0579       3.3493       0.0021       2.5863
       0.0540       2.2582
