#------------------------------------------------------------------------------
#
#   Created by  : [OpenWorks] Log Export Utility (LEXP)
#   Created on  : 2016-05-23 17:52:08
#   Project     : CANT971
#   User        : R5K
#   Interpreter : PEP
#
#------------------------------------------------------------------------------
~VERSION INFORMATION
VERS. 2.0 : CWLS Log ASCII Standard - version 2.0
WRAP. YES : Mulitple lines per depth step
~WELL INFORMATION
#MNEMONIC   .UNIT                                           VALUE :DESCRIPTION
#------------------------------------------------------------------------------
STRT        .M                                          1316.1428 :START DEPTH
STOP        .M                                          2794.8801 :STOP DEPTH
STEP        .M                                             0.1524 :STEP
NULL        .                                           -999.2500 :NULL VALUE
COMP        .                                             UNKNOWN :COMPANY
WELL        .                                       Cantarell1045 :WELL
FLD         .                                             UNKNOWN :FIELD
LOC         .                                             UNKNOWN :LOCATION
CNTY        .                                             UNKNOWN :COUNTY
STAT        .                                             UNKNOWN :STATE
CTRY        .                                             UNKNOWN :COUNTRY
SRVC        .                                             UNKNOWN :SERVICE COMPANY
DATE        .                                             UNKNOWN :LOG DATE
UWI         .                                              1045-V :UNIQUE WELL ID
XCOORD      .                                       598503.480000 :SURFACE X
YCOORD      .                                      2149274.380000 :SURFACE Y
LAT         .                                           19.436572 :LATITUDE
LON         .                                          -92.061672 :LONGITUDE
ELEV        .M                                             0.0000 :SURFACE ELEV
ELEV_TYPE   .                                                  NA :ELEV TYPE
~CURVE INFORMATION
#MNEMONIC.UNIT        API CODE       : CURVE DESCRIPTION
#------------------------------------------------------------------------------
DEPTH    .M                          : Measured Depth
CALI     .UNKNOWN     UNKNOWN        : CALI:litodensidad_final:rC:NONE:v0 (auto-composite)
CGR      .API         UNKNOWN        : CGR:Espectrometria:rC:NONE:v0 (auto-composite)
DRHO     .g/cm3       UNKNOWN        : DRHO:litodensidad_final:rC:NONE:v0 (auto-composite)
DT       .us/ft       UNKNOWN        : DT:PETROWORKS:rC:NONE:v2 
GR       .API         UNKNOWN        : GR:PETROWORKS:rC:NONE:v1 
GR-LWD   .UNKNOWN     UNKNOWN        : GR-LWD:PETROWORKS:rC:NONE:v1 
ILD-LWD  .ohm.m       UNKNOWN        : ILD-LWD:UNKNOWN:rC:NONE:v0 (auto-composite)
ILM-LWD  .ohm.m       UNKNOWN        : ILM-LWD:UNKNOWN:rC:NONE:v0 (auto-composite)
LLD      .ohm.m       UNKNOWN        : LLD:resistivos-final:rC:NONE:v0 (auto-composite)
LLD-LWD  .ohm.m       UNKNOWN        : LLD-LWD:UNKNOWN:rC:NONE:v0 (auto-composite)
LLS      .ohm.m       UNKNOWN        : LLS:resistivos-final:rC:NONE:v0 (auto-composite)
LLS-LWD  .ohm.m       UNKNOWN        : LLS-LWD:UNKNOWN:rC:NONE:v0 (auto-composite)
MSFL     .ohm.m       UNKNOWN        : MSFL:resistivos-final:rC:NONE:v0 (auto-composite)
MSFL-LWD .ohm.m       UNKNOWN        : MSFL-LWD:UNKNOWN:rC:NONE:v0 (auto-composite)
NPHI     .UNKNOWN     UNKNOWN        : NPHI:porosidad-Final:rC:NONE:v0 (auto-composite)
PEF      .UNKNOWN     UNKNOWN        : PEF:litodensidad_final:rC:NONE:v0 (auto-composite)
POTA     .wtpercent   UNKNOWN        : POTA:Espectrometria:rC:NONE:v0 (auto-composite)
RHOB     .g/cm3       UNKNOWN        : RHOB:litodensidad_final:rC:NONE:v0 (auto-composite)
THOR     .ppm         UNKNOWN        : THOR:Espectrometria:rC:NONE:v0 (auto-composite)
URAN     .ppm         UNKNOWN        : URAN:Espectrometria:rC:NONE:v0 (auto-composite)
~A
# ...
   2381.2664
       6.6959       7.5418       0.1544     135.0051      25.3032      34.0010
    -999.2500    -999.2500     314.1479     175.5979     241.6549     143.2702
      33.7856      94.6964       0.0879       3.0074       0.0052       2.3251
       0.0580       1.9838
   2381.4187
       6.6291       7.6451       0.1509     135.0495      24.2831      31.0883
    -999.2500    -999.2500     329.2537     176.4724     259.3642     147.9873
      35.4722      96.5458       0.0891       3.0113       0.0051       2.3548
       0.1410       1.8576
   2381.5713
       6.7220       7.7596       0.1217     135.1039      22.1821      27.6342
    -999.2500    -999.2500     378.3895     178.4842     314.4355     154.5950
      51.2933      99.8787       0.0972       3.0302       0.0044       2.3562
       0.4692       1.6105
   2381.7236
       6.5365       7.3579       0.1261     135.1274      19.6972      24.4828
    -999.2500    -999.2500     424.9716     183.9715     366.5324     159.5888
      56.7950     106.6808       0.0988       3.0644       0.0035       2.3143
       0.6990       1.3757
   2381.8760
       6.5806       6.6133       0.1565     135.1491      16.6698      21.2799
    -999.2500    -999.2500     477.6194     197.4807     434.1983     169.6602
      51.0364     117.9493       0.0881       3.1539       0.0028       2.3214
       0.7833       1.1096
   2382.0283
       6.6407       6.1722       0.1568     135.1523      15.0675      19.1158
    -999.2500    -999.2500     484.4702     198.4807     456.8761     170.1398
      60.3691     122.7971       0.0881       3.2164       0.0024       2.3665
       0.8043       0.9882
   2382.1809
       6.5791       4.9163       0.1419     135.1523      14.6889      19.1227
    -999.2500    -999.2500     436.0204     180.7895     431.9444     153.3742
      81.2873     115.1599       0.0912       3.2286       0.0018       2.3918
       0.6860       1.0917
   2382.3333
       6.6314       3.8519       0.1356     135.1523      15.5670      20.0481
    -999.2500    -999.2500     350.9950     158.5444     358.1776     130.1781
     100.6004      99.3877       0.0945       3.1780       0.0019       2.3645
       0.3424       1.3050
   2382.4856
       6.5288       3.7902       0.1360     135.1523      18.1358      23.0292
    -999.2500    -999.2500     240.3904     140.1411     246.5049     115.6576
      94.2439      88.8984       0.0981       3.1457       0.0023       2.3292
       0.1790       1.5905
   2382.6379
       6.4876       4.6495       0.1416     135.1523      21.8338      27.8491
    -999.2500    -999.2500     184.6152     126.3001     185.4230     107.6517
      85.0002      82.3506       0.0975       3.1821       0.0029       2.3669
       0.1653       1.9241
   2382.7905
       6.4551       6.0488       0.1327     135.1523      26.3414      33.0458
    -999.2500    -999.2500     143.6749     116.1169     136.3241     100.5852
      80.7096      76.5034       0.0895       3.2295       0.0040       2.4537
       0.1277       2.2454
   2382.9429
       6.4747       8.4584       0.1089     135.1523      29.3335      38.1389
    -999.2500    -999.2500     135.9461     112.7499     125.7420     101.0749
      68.1886      75.3564       0.0859       3.2653       0.0044       2.4982
       0.6672       2.3274
   2383.0952
       6.5092      11.8288       0.0858     135.1523      31.0131      41.3648
    -999.2500    -999.2500     144.5708     116.5187     132.6061     105.8200
      50.4961      78.0775       0.0844       3.3356       0.0044       2.5018
       1.5930       2.1810
   2383.2476
       6.4914      12.4170       0.0824     135.1523      29.5011      40.1155
    -999.2500    -999.2500     167.1891     118.8167     154.8669     103.0478
      61.7800      76.9364       0.0824       3.3643       0.0043       2.4814
       1.8035       1.9186
   2383.3999
       6.5502      10.0608       0.0784     135.1523      25.1633      35.4022
    -999.2500    -999.2500     220.3053     115.1623     205.8468     100.3912
     119.1741      77.5876       0.0834       3.3305       0.0037       2.4390
       1.3854       1.6372
   2383.5525
       6.4993       8.2413       0.0768     135.1523      21.6614      28.9840
    -999.2500    -999.2500     275.1173     110.4329     257.3501     104.3287
     166.3434      83.9461       0.0802       3.3008       0.0032       2.3888
       1.0785       1.5039
   2383.7048
       6.4504       5.8993       0.0817     135.1523      17.9804      24.8040
    -999.2500    -999.2500     365.6174     106.3163     349.5344     108.7749
     257.7281      90.5721       0.0700       3.2999       0.0026       2.3683
       0.6303       1.3133
   2383.8572
       6.4292       5.8896       0.0812     135.1523      15.6983      22.3463
    -999.2500    -999.2500     443.0733      99.3115     436.6675     111.7395
     336.8175      96.4926       0.0672       3.3315       0.0027       2.4192
       0.6050       1.1007
   2384.0095
       6.4532       4.2953       0.0815     135.1523      13.2321      19.2380
    -999.2500    -999.2500     543.2349      88.6671     556.5018     113.7687
     224.3999      99.7536       0.0709       3.4244       0.0023       2.5136
       0.2996       0.9789
   2384.1621
       6.4603       3.3352       0.0826     135.1523      12.2970      17.0938
    -999.2500    -999.2500     600.3494      77.7119     616.4753     112.2066
     145.7564      99.8844       0.0736       3.4849       0.0021       2.5590
       0.1108       0.9868
   2384.3145
       6.5027       2.5726       0.0732     135.1523      13.0602      16.3431
    -999.2500    -999.2500     590.4784      63.6550     586.6759      92.6600
     117.5345      88.6199       0.0786       3.5003       0.0017       2.5639
       0.0440       1.1774
   2384.4668
       6.4922       2.0198       0.0648     135.1523      13.1315      15.6751
    -999.2500    -999.2500     507.2333      56.1036     485.0901      75.2738
     112.9035      75.2412       0.0852       3.4726       0.0013       2.5293
       0.0408       1.2357
   2384.6191
       6.5143       1.9555       0.0578     135.1523      13.4679      15.7828
    -999.2500    -999.2500     386.6957      52.9627     362.3713      61.1850
     105.4584      64.5176       0.0915       3.4258       0.0013       2.5124
       0.0425       1.2768
   2384.7717
       6.5973       2.4211       0.0444     135.1523      14.8081      16.8799
    -999.2500    -999.2500     141.5417      52.1819     161.7747      45.3405
      19.8034      48.4137       0.1051       3.3057       0.0016       2.4782
       0.0413       1.3667
   2384.9241
       6.7819       3.9346       0.0583     135.1523      17.7053      26.5697
    -999.2500    -999.2500      63.2607      49.8398      82.3943      33.5823
       8.3213      29.8336       0.1288       3.1521       0.0027       2.3198
       0.0539       1.5275
   2385.0764
       7.1491       5.9352       0.1347     135.1523      22.9912      47.8836
    -999.2500    -999.2500      26.2436      41.6019      29.6265      26.2641
       4.9501      16.7683       0.1793       2.8219       0.0040       1.9769
       0.0853       1.9058
   2385.2288
       7.2305       9.3716       0.1677     135.1523      26.8104      66.1691
    -999.2500    -999.2500      17.7622      27.0662      15.3098      18.1233
       4.2533      10.2014       0.2086       2.4737       0.0058       1.8021
       0.3430       1.9438
   2385.3811
       6.6027      16.4361       0.1515     135.1523      31.3529      62.6390
    -999.2500    -999.2500      15.8171      19.2885      12.9734      12.0216
       2.3497       7.7637       0.2321       2.2867       0.0081       1.8849
       1.4409       1.6773
   2385.5337
       6.5886      21.1578       0.1323     135.1523      32.0442      46.4895
    -999.2500    -999.2500      21.2719      26.5766      20.4408      13.5114
       4.4739       9.2902       0.1754       2.6469       0.0100       2.2053
       2.0451       1.2115
