#------------------------------------------------------------------------------
#
#   Created by  : [OpenWorks] Log Export Utility (LEXP)
#   Created on  : 2016-05-11 12:13:36
#   Project     : CANT971
#   User        : R5K
#   Interpreter : PEP
#
#------------------------------------------------------------------------------
~VERSION INFORMATION
VERS. 2.0 : CWLS Log ASCII Standard - version 2.0
WRAP.  NO : One line per depth step
~WELL INFORMATION
#MNEMONIC   .UNIT                                           VALUE :DESCRIPTION
#------------------------------------------------------------------------------
STRT        .M                                           715.0607 :START DEPTH
STOP        .M                                          3288.1824 :STOP DEPTH
STEP        .M                                             0.1524 :STEP
NULL        .                                           -999.2500 :NULL VALUE
COMP        .                                   PEMEX EXPL & PROD :COMPANY
WELL        .                                               1047D :WELL
FLD         .                                           CANTARELL :FIELD
LOC         .                                             UNKNOWN :LOCATION
CNTY        .                                      CD. DEL CARMEN :COUNTY
STAT        .                                            CAMPECHE :STATE
CTRY        .                                              MEXICO :COUNTRY
SRVC        .                                             UNKNOWN :SERVICE COMPANY
DATE        .                                             UNKNOWN :LOG DATE
UWI         .                                          3060000501 :UNIQUE WELL ID
XCOORD      .                                       601388.630000 :SURFACE X
YCOORD      .                                      2149877.482000 :SURFACE Y
LAT         .                                           19.441878 :LATITUDE
LON         .                                          -92.034159 :LONGITUDE
ELEV        .M                                            28.0000 :SURFACE ELEV
ELEV_TYPE   .                                                  KB :ELEV TYPE
~CURVE INFORMATION
#MNEMONIC.UNIT        API CODE       : CURVE DESCRIPTION
#------------------------------------------------------------------------------
DEPTH    .M                          : Measured Depth
CALI     .inches      UNKNOWN        : CALI:registros:rC:NONE:v0 (auto-composite)
DRHO     .g/cm3       UNKNOWN        : DRHO:registros:rC:NONE:v0 (auto-composite)
DT       .us/ft       UNKNOWN        : DT:registros:rC:NONE:v0 (auto-composite)
GR       .API         UNKNOWN        : GR:registros:rC:NONE:v0 (auto-composite)
ILD      .ohm.m       UNKNOWN        : ILD:registros:rC:NONE:v0 (auto-composite)
ILM      .ohm.m       UNKNOWN        : ILM:registros:rC:NONE:v0 (auto-composite)
LLD      .ohm.m       UNKNOWN        : LLD:registros:rC:NONE:v0 (auto-composite)
LLS      .ohm.m       UNKNOWN        : LLS:registros:rC:NONE:v0 (auto-composite)
MSFL     .ohm.m       UNKNOWN        : MSFL:registros:rC:NONE:v0 (auto-composite)
NPHI     .v/v_decimal UNKNOWN        : NPHI:registros:rC:NONE:v0 (auto-composite)
PEF      .UNKNOWN     UNKNOWN        : PEF:registros:rC:NONE:v0 (auto-composite)
RHOB     .g/cm3       UNKNOWN        : RHOB:registros:rC:NONE:v0 (auto-composite)
~A     DEPTH         CALI         DRHO           DT           GR          ILD          ILM          LLD          LLS         MSFL         NPHI          PEF         RHOB
# ...
   3282.6960      10.3530       0.0280    -999.2500    -999.2500    -999.2500    -999.2500     190.8470     185.2740      45.5890       0.2371       3.5990       2.2000
   3282.8484      10.3660       0.0270    -999.2500    -999.2500    -999.2500    -999.2500     191.1248     185.2845      45.5915       0.2390       3.5724       2.1007
   3283.0007      10.3790       0.0260    -999.2500    -999.2500    -999.2500    -999.2500     191.4030     185.2950      45.5940       0.2409       3.5460       2.0020
   3283.1531      10.4001       0.0245    -999.2500    -999.2500    -999.2500    -999.2500     191.0943     185.2925     889.4126       0.2412       3.5445       1.9779
   3283.3054      10.4210       0.0230    -999.2500    -999.2500    -999.2500    -999.2500     190.7850     185.2900    1734.7710       0.2415       3.5430       1.9540
   3283.4580      10.4140       0.0215    -999.2500    -999.2500    -999.2500    -999.2500     190.8045     185.2680    1867.6125       0.2398       3.5696       1.9555
   3283.6104      10.4070       0.0200    -999.2500    -999.2500    -999.2500    -999.2500     190.8240     185.2460    2000.5000       0.2382       3.5960       1.9570
   3283.7627      10.3975       0.0175    -999.2500    -999.2500    -999.2500    -999.2500     190.6581     185.2425    2000.5000       0.2369       3.6391       1.9565
   3283.9150      10.3880       0.0150    -999.2500    -999.2500    -999.2500    -999.2500     190.4920     185.2390    2000.5000       0.2356       3.6820       1.9560
   3284.0676      10.3790       0.0140    -999.2500    -999.2500    -999.2500    -999.2500     190.4675     185.2470    2000.5000       0.2419       3.6529       1.9520
   3284.2200      10.3700       0.0130    -999.2500    -999.2500    -999.2500    -999.2500     190.4430     185.2550    2000.5000       0.2480       3.6240       1.9480
   3284.3723      10.3655       0.0145    -999.2500    -999.2500    -999.2500    -999.2500     190.5065     185.2220    2000.5000       0.2533       3.6064       1.9309
   3284.5247      10.3610       0.0160    -999.2500    -999.2500    -999.2500    -999.2500     190.5700     185.1890    2000.5000       0.2586       3.5890       1.9140
   3284.6772      10.3610       0.0175    -999.2500    -999.2500    -999.2500    -999.2500     190.3906     185.1365    2000.5000       0.2610       3.6161       1.9135
   3284.8296      10.3610       0.0190    -999.2500    -999.2500    -999.2500    -999.2500     190.2110     185.0840    2000.5000       0.2633       3.6430       1.9130
   3284.9819      10.3570       0.0190    -999.2500    -999.2500    -999.2500    -999.2500     190.3249     185.1560    2000.5000       0.2633       3.6897       1.9165
   3285.1343      10.3530       0.0190    -999.2500    -999.2500    -999.2500    -999.2500     190.4390     185.2280    2000.5000       0.2633       3.7360       1.9200
   3285.2866      10.3510       0.0185    -999.2500    -999.2500    -999.2500    -999.2500     190.2856     185.1685    2000.5000       0.2632       3.7656       1.9310
   3285.4392      10.3490       0.0180    -999.2500    -999.2500    -999.2500    -999.2500     190.1320     185.1090    2000.5000       0.2632       3.7950       1.9420
   3285.5916      10.3625       0.0170    -999.2500    -999.2500    -999.2500    -999.2500     190.3164     185.0985    2000.5000       0.2632       3.7789       1.9485
   3285.7439      10.3760       0.0160    -999.2500    -999.2500    -999.2500    -999.2500     190.5010     185.0880    2000.5000       0.2631       3.7630       1.9550
   3285.8962      10.3860       0.0140    -999.2500    -999.2500    -999.2500    -999.2500     190.4211     185.0735    2000.5000       0.2631       3.7429       1.9565
   3286.0488      10.3960       0.0120    -999.2500    -999.2500    -999.2500    -999.2500     190.3410     185.0590    2000.5000       0.2631       3.7230       1.9580
   3286.2012      10.4010       0.0100    -999.2500    -999.2500    -999.2500    -999.2500     190.1821     185.0545    2000.5000       0.2631       3.6949       1.9580
   3286.3535      10.4060       0.0080    -999.2500    -999.2500    -999.2500    -999.2500     190.0230     185.0500    2000.5000       0.2630       3.6670       1.9580
   3286.5059      10.3970       0.0065    -999.2500    -999.2500    -999.2500    -999.2500     190.3288     185.0710    2000.5000       0.2630       3.6474       1.9610
   3286.6584      10.3880       0.0050    -999.2500    -999.2500    -999.2500    -999.2500     190.6350     185.0920    2000.5000       0.2630       3.6280       1.9640
   3286.8108      10.3745       0.0045    -999.2500    -999.2500    -999.2500    -999.2500     190.5786     184.9891    2000.5000       0.2629       3.6180       1.9640
   3286.9631      10.3610       0.0040    -999.2500    -999.2500    -999.2500    -999.2500     190.5220     184.8860    2000.5000       0.2629       3.6080       1.9640
   3287.1155      10.3560       0.0040    -999.2500    -999.2500    -999.2500    -999.2500     190.4646     184.9270    2000.5000       0.2629       3.6246       1.9640
   3287.2678      10.3510       0.0040    -999.2500    -999.2500    -999.2500    -999.2500     190.4070     184.9680    2000.5000       0.2629       3.6410       1.9640
   3287.4204       5.1599      -0.1234    -999.2500    -999.2500    -999.2500    -999.2500    -999.2500    -999.2500    -999.2500       0.2628       1.8150       1.9600
   3287.5728       0.0000      -0.2500    -999.2500    -999.2500    -999.2500    -999.2500    -999.2500    -999.2500    -999.2500       0.2628       0.0000       1.9560
   3287.7251       0.0000      -0.2500    -999.2500    -999.2500    -999.2500    -999.2500    -999.2500    -999.2500    -999.2500       0.2628       0.0000       1.9545
   3287.8774       0.0000      -0.2500    -999.2500    -999.2500    -999.2500    -999.2500    -999.2500    -999.2500    -999.2500       0.2627       0.0000       1.9530
   3288.0300       0.0000      -0.2500    -999.2500    -999.2500    -999.2500    -999.2500    -999.2500    -999.2500    -999.2500       0.2627       0.0000       1.9530
   3288.1824       0.0000      -0.2500    -999.2500    -999.2500    -999.2500    -999.2500    -999.2500    -999.2500    -999.2500       0.2627       0.0000       1.9530
