#------------------------------------------------------------------------------
#
#   Created by  : [OpenWorks] Log Export Utility (LEXP)
#   Created on  : 2016-05-11 12:13:36
#   Project     : CANT971
#   User        : R5K
#   Interpreter : PEP
#
#------------------------------------------------------------------------------
~VERSION INFORMATION
VERS. 2.0 : CWLS Log ASCII Standard - version 2.0
WRAP.  NO : One line per depth step
~WELL INFORMATION
#MNEMONIC   .UNIT                                           VALUE :DESCRIPTION
#------------------------------------------------------------------------------
STRT        .M                                           715.0607 :START DEPTH
STOP        .M                                          3288.1824 :STOP DEPTH
STEP        .M                                             0.1524 :STEP
NULL        .                                           -999.2500 :NULL VALUE
COMP        .                                   PEMEX EXPL & PROD :COMPANY
WELL        .                                               1047D :WELL
FLD         .                                           CANTARELL :FIELD
LOC         .                                             UNKNOWN :LOCATION
CNTY        .                                      CD. DEL CARMEN :COUNTY
STAT        .                                            CAMPECHE :STATE
CTRY        .                                              MEXICO :COUNTRY
SRVC        .                                             UNKNOWN :SERVICE COMPANY
DATE        .                                             UNKNOWN :LOG DATE
UWI         .                                          3060000501 :UNIQUE WELL ID
XCOORD      .                                       601388.630000 :SURFACE X
YCOORD      .                                      2149877.482000 :SURFACE Y
LAT         .                                           19.441878 :LATITUDE
LON         .                                          -92.034159 :LONGITUDE
ELEV        .M                                            28.0000 :SURFACE ELEV
ELEV_TYPE   .                                                  KB :ELEV TYPE
~CURVE INFORMATION
#MNEMONIC.UNIT        API CODE       : CURVE DESCRIPTION
#------------------------------------------------------------------------------
DEPTH    .M                          : Measured Depth
CALI     .inches      UNKNOWN        : CALI:registros:rC:NONE:v0 (auto-composite)
DRHO     .g/cm3       UNKNOWN        : DRHO:registros:rC:NONE:v0 (auto-composite)
DT       .us/ft       UNKNOWN        : DT:registros:rC:NONE:v0 (auto-composite)
GR       .API         UNKNOWN        : GR:registros:rC:NONE:v0 (auto-composite)
ILD      .ohm.m       UNKNOWN        : ILD:registros:rC:NONE:v0 (auto-composite)
ILM      .ohm.m       UNKNOWN        : ILM:registros:rC:NONE:v0 (auto-composite)
LLD      .ohm.m       UNKNOWN        : LLD:registros:rC:NONE:v0 (auto-composite)
LLS      .ohm.m       UNKNOWN        : LLS:registros:rC:NONE:v0 (auto-composite)
MSFL     .ohm.m       UNKNOWN        : MSFL:registros:rC:NONE:v0 (auto-composite)
NPHI     .v/v_decimal UNKNOWN        : NPHI:registros:rC:NONE:v0 (auto-composite)
PEF      .UNKNOWN     UNKNOWN        : PEF:registros:rC:NONE:v0 (auto-composite)
RHOB     .g/cm3       UNKNOWN        : RHOB:registros:rC:NONE:v0 (auto-composite)
~A     DEPTH         CALI         DRHO           DT           GR          ILD          ILM          LLD          LLS         MSFL         NPHI          PEF         RHOB
# ...
   2638.9583      12.4290       0.0200    -999.2500      33.9660    -999.2500    -999.2500     212.0770     146.5670     134.7920       0.0356       2.9630       2.7550
   2639.1108      12.4175       0.0195    -999.2500      37.0938    -999.2500    -999.2500     193.0571     134.1583      92.0812       0.0396       2.9896       2.7685
   2639.2632      12.4060       0.0190    -999.2500      40.2190    -999.2500    -999.2500     174.0530     121.7600      49.4060       0.0435       3.0160       2.7820
   2639.4155      12.3894       0.0185    -999.2500      39.8529    -999.2500    -999.2500     156.5828     110.6921      62.6767       0.0425       3.0607       2.7775
   2639.5679      12.3730       0.0180    -999.2500      39.4870    -999.2500    -999.2500     139.1250      99.6320      75.9380       0.0415       3.1050       2.7730
   2639.7202      12.3605       0.0170    -999.2500      38.9463    -999.2500    -999.2500     152.7890     108.7347      71.1241       0.0363       3.1517       2.7524
   2639.8728      12.3480       0.0160    -999.2500      38.4060    -999.2500    -999.2500     166.4450     117.8320      66.3130       0.0311       3.1980       2.7320
   2640.0251      12.3485       0.0150    -999.2500      40.2349    -999.2500    -999.2500     256.2046     171.1997      97.0075       0.0316       3.2216       2.7345
   2640.1775      12.3490       0.0140    -999.2500      42.0630    -999.2500    -999.2500     345.9230     224.5430     127.6880       0.0320       3.2450       2.7370
   2640.3298      12.3515       0.0130    -999.2500      38.2339    -999.2500    -999.2500     320.1711     209.6060     113.8186       0.0403       3.2329       2.7460
   2640.4824      12.3540       0.0120    -999.2500      34.4060    -999.2500    -999.2500     294.4690     194.6980      99.9760       0.0485       3.2210       2.7550
   2640.6348      12.3585       0.0110    -999.2500      35.6251    -999.2500    -999.2500     220.2369     147.5819      57.8524       0.0639       3.1974       2.7450
   2640.7871      12.3630       0.0100    -999.2500      36.8440    -999.2500    -999.2500     146.1390     100.5510      15.8050       0.0792       3.1740       2.7350
   2640.9395      12.3680       0.0090    -999.2500      36.5783    -999.2500    -999.2500     158.5970     107.8171      22.5972       0.0765       3.1504       2.7224
   2641.0920      12.3730       0.0080    -999.2500      36.3130    -999.2500    -999.2500     171.0340     115.0710      29.3780       0.0738       3.1270       2.7100
   2641.2444      12.3775       0.0070    -999.2500      36.6413    -999.2500    -999.2500     203.9306     134.2689     149.4700       0.0634       3.1150       2.7005
   2641.3967      12.3820       0.0060    -999.2500      36.9690    -999.2500    -999.2500     236.7760     153.4370     269.3750       0.0530       3.1030       2.6910
   2641.5491      12.3845       0.0050    -999.2500      34.1435    -999.2500    -999.2500     312.2290     193.7974     257.8352       0.0533       3.1100       2.6960
   2641.7014      12.3870       0.0040    -999.2500      31.3220    -999.2500    -999.2500     387.5740     234.1000     246.3120       0.0536       3.1170       2.7010
   2641.8540      12.3850       0.0030    -999.2500      26.0325    -999.2500    -999.2500     584.9919     330.7951     344.2825       0.0569       3.1446       2.6890
   2642.0063      12.3830       0.0020    -999.2500      20.7500    -999.2500    -999.2500     782.1520     427.3640     442.1250       0.0602       3.1720       2.6770
   2642.1587      12.3800       0.0015    -999.2500      21.1958    -999.2500    -999.2500    1347.0842     647.8873     296.6331       0.0667       3.2207       2.6569
   2642.3110      12.3770       0.0010    -999.2500      21.6410    -999.2500    -999.2500    1911.3490     868.1500     151.3130       0.0732       3.2690       2.6370
   2642.4636      12.3755       0.0010    -999.2500      20.7185    -999.2500    -999.2500    3400.1938    1269.5443     179.0431       0.0781       3.3262       2.6380
   2642.6160      12.3740       0.0010    -999.2500      19.7970    -999.2500    -999.2500    4887.4678    1670.5150     206.7440       0.0829       3.3830       2.6390
   2642.7683      12.3610       0.0015    -999.2500      20.5959    -999.2500    -999.2500    4384.7837    1529.3334     299.3526       0.0787       3.4708       2.6440
   2642.9207      12.3480       0.0020    -999.2500      21.3940    -999.2500    -999.2500    3882.5669    1388.2830     391.8750       0.0745       3.5580       2.6490
   2643.0732      12.3164       0.0035    -999.2500      26.1639    -999.2500    -999.2500    2606.6689     979.4326     284.8004       0.0665       3.7617       2.6691
   2643.2256      12.2850       0.0050    -999.2500      30.9300    -999.2500    -999.2500    1331.7970     570.9110     177.8120       0.0586       3.9640       2.6890
   2643.3779      12.2539       0.0060    -999.2500      35.0219    -999.2500    -999.2500     906.4520     404.0863     289.5064       0.0520       3.9369       2.7357
   2643.5303      12.2230       0.0070    -999.2500      39.1110    -999.2500    -999.2500     481.3960     237.3750     401.1250       0.0455       3.9100       2.7820
   2643.6826      12.2044       0.0080    -999.2500      40.5089    -999.2500    -999.2500     385.7615     190.2640     341.0849       0.0400       3.7725       2.7790
   2643.8352      12.1860       0.0090    -999.2500      41.9060    -999.2500    -999.2500     290.1800     143.1790     281.0780       0.0345       3.6360       2.7760
   2643.9875      12.1699       0.0080    -999.2500      41.5934    -999.2500    -999.2500     199.5236     103.9651     152.8396       0.0364       3.4529       2.7725
   2644.1399      12.1540       0.0070    -999.2500      41.2810    -999.2500    -999.2500     108.9060      64.7680      24.6560       0.0383       3.2710       2.7690
   2644.2922      12.1565       0.0070    -999.2500      54.2780    -999.2500    -999.2500     110.7878      65.2990      40.2333       0.0506       3.1771       2.7278
   2644.4448      12.1590       0.0070    -999.2500      67.2710    -999.2500    -999.2500     112.6660      65.8290      55.7810       0.0628       3.0840       2.6870
   2644.5972      12.1650       0.0075    -999.2500     107.5456    -999.2500    -999.2500      90.8046      54.6471      31.7341       0.0981       3.0604       2.5268
   2644.7495      12.1710       0.0080    -999.2500     147.8130    -999.2500    -999.2500      68.9820      43.4850       7.7300       0.1330       3.0370       2.3680
   2644.9019      12.1820       0.0090    -999.2500     127.0769    -999.2500    -999.2500      70.1605      43.9979       8.3520       0.1822       3.0345       2.3735
   2645.0544      12.1930       0.0100    -999.2500     106.3750    -999.2500    -999.2500      71.3370      44.5100       8.9730       0.2310       3.0320       2.3790
   2645.2068      12.2040       0.0120    -999.2500      80.6809    -999.2500    -999.2500      73.3630      45.5468      10.4601       0.2082       3.0290       2.4372
   2645.3591      12.2150       0.0140    -999.2500      55.0260    -999.2500    -999.2500      75.3860      46.5820      11.9450       0.1856       3.0260       2.4950
   2645.5115      12.2215       0.0160    -999.2500      46.0222    -999.2500    -999.2500      83.2315      50.2170      21.1469       0.1530       3.0140       2.5818
   2645.6638      12.2280       0.0180    -999.2500      37.0310    -999.2500    -999.2500      91.0660      53.8470      30.3360       0.1206       3.0020       2.6680
   2645.8164      12.2310       0.0195    -999.2500      37.3437    -999.2500    -999.2500     120.3257      66.4615      49.8054       0.1037       3.0125       2.7041
   2645.9688      12.2340       0.0210    -999.2500      37.6560    -999.2500    -999.2500     149.5480      79.0600      69.2500       0.0870       3.0230       2.7400
   2646.1211      12.2330       0.0220    -999.2500      39.8097    -999.2500    -999.2500     199.0835     102.1263      67.6556       0.0739       3.0466       2.7495
