#------------------------------------------------------------------------------
#
#   Created by  : [OpenWorks] Log Export Utility (LEXP)
#   Created on  : 2016-05-11 12:13:36
#   Project     : CANT971
#   User        : R5K
#   Interpreter : PEP
#
#------------------------------------------------------------------------------
~VERSION INFORMATION
VERS. 2.0 : CWLS Log ASCII Standard - version 2.0
WRAP.  NO : One line per depth step
~WELL INFORMATION
#MNEMONIC   .UNIT                                           VALUE :DESCRIPTION
#------------------------------------------------------------------------------
STRT        .M                                           715.0607 :START DEPTH
STOP        .M                                          3288.1824 :STOP DEPTH
STEP        .M                                             0.1524 :STEP
NULL        .                                           -999.2500 :NULL VALUE
COMP        .                                   PEMEX EXPL & PROD :COMPANY
WELL        .                                               1047D :WELL
FLD         .                                           CANTARELL :FIELD
LOC         .                                             UNKNOWN :LOCATION
CNTY        .                                      CD. DEL CARMEN :COUNTY
STAT        .                                            CAMPECHE :STATE
CTRY        .                                              MEXICO :COUNTRY
SRVC        .                                             UNKNOWN :SERVICE COMPANY
DATE        .                                             UNKNOWN :LOG DATE
UWI         .                                          3060000501 :UNIQUE WELL ID
XCOORD      .                                       601388.630000 :SURFACE X
YCOORD      .                                      2149877.482000 :SURFACE Y
LAT         .                                           19.441878 :LATITUDE
LON         .                                          -92.034159 :LONGITUDE
ELEV        .M                                            28.0000 :SURFACE ELEV
ELEV_TYPE   .                                                  KB :ELEV TYPE
~CURVE INFORMATION
#MNEMONIC.UNIT        API CODE       : CURVE DESCRIPTION
#------------------------------------------------------------------------------
DEPTH    .M                          : Measured Depth
CALI     .inches      UNKNOWN        : CALI:registros:rC:NONE:v0 (auto-composite)
DRHO     .g/cm3       UNKNOWN        : DRHO:registros:rC:NONE:v0 (auto-composite)
DT       .us/ft       UNKNOWN        : DT:registros:rC:NONE:v0 (auto-composite)
GR       .API         UNKNOWN        : GR:registros:rC:NONE:v0 (auto-composite)
ILD      .ohm.m       UNKNOWN        : ILD:registros:rC:NONE:v0 (auto-composite)
ILM      .ohm.m       UNKNOWN        : ILM:registros:rC:NONE:v0 (auto-composite)
LLD      .ohm.m       UNKNOWN        : LLD:registros:rC:NONE:v0 (auto-composite)
LLS      .ohm.m       UNKNOWN        : LLS:registros:rC:NONE:v0 (auto-composite)
MSFL     .ohm.m       UNKNOWN        : MSFL:registros:rC:NONE:v0 (auto-composite)
NPHI     .v/v_decimal UNKNOWN        : NPHI:registros:rC:NONE:v0 (auto-composite)
PEF      .UNKNOWN     UNKNOWN        : PEF:registros:rC:NONE:v0 (auto-composite)
RHOB     .g/cm3       UNKNOWN        : RHOB:registros:rC:NONE:v0 (auto-composite)
~A     DEPTH         CALI         DRHO           DT           GR          ILD          ILM          LLD          LLS         MSFL         NPHI          PEF         RHOB
# ...
   2478.0239    -999.2500    -999.2500    -999.2500      14.0610    -999.2500    -999.2500       0.1180       0.2570       0.1890    -999.2500    -999.2500    -999.2500
   2478.1763    -999.2500    -999.2500    -999.2500      13.8779    -999.2500    -999.2500       0.1185       0.2470       0.1900    -999.2500    -999.2500    -999.2500
   2478.3286    -999.2500    -999.2500    -999.2500      13.6950    -999.2500    -999.2500       0.1190       0.2370       0.1910    -999.2500    -999.2500    -999.2500
   2478.4812    -999.2500    -999.2500    -999.2500      13.8951    -999.2500    -999.2500       0.1245       0.2560       0.1840    -999.2500    -999.2500    -999.2500
   2478.6335    -999.2500    -999.2500    -999.2500      14.0950    -999.2500    -999.2500       0.1300       0.2750       0.1770    -999.2500    -999.2500    -999.2500
   2478.7859    -999.2500    -999.2500    -999.2500      14.5928    -999.2500    -999.2500       0.1295       0.2705       0.1700    -999.2500    -999.2500    -999.2500
   2478.9382    -999.2500    -999.2500    -999.2500      15.0900    -999.2500    -999.2500       0.1290       0.2660       0.1630    -999.2500    -999.2500    -999.2500
   2479.0908    -999.2500    -999.2500    -999.2500      15.6603    -999.2500    -999.2500       0.1300       0.2610       0.2130    -999.2500    -999.2500    -999.2500
   2479.2432    -999.2500    -999.2500    -999.2500      16.2300    -999.2500    -999.2500       0.1310       0.2560       0.2630    -999.2500    -999.2500    -999.2500
   2479.3955    -999.2500    -999.2500    -999.2500      17.0219    -999.2500    -999.2500       0.1320       0.2640       0.2215    -999.2500    -999.2500    -999.2500
   2479.5479    -999.2500    -999.2500    -999.2500      17.8130    -999.2500    -999.2500       0.1330       0.2720       0.1800    -999.2500    -999.2500    -999.2500
   2479.7004    -999.2500    -999.2500    -999.2500      17.6484    -999.2500    -999.2500       0.1290       0.2680       0.1700    -999.2500    -999.2500    -999.2500
   2479.8528    -999.2500    -999.2500    -999.2500      17.4840    -999.2500    -999.2500       0.1250       0.2640       0.1600    -999.2500    -999.2500    -999.2500
   2480.0051    -999.2500    -999.2500    -999.2500      16.9373    -999.2500    -999.2500       0.1190       0.2440       0.1805    -999.2500    -999.2500    -999.2500
   2480.1575    -219.5630      -0.2500    -999.2500      16.3910    -999.2500    -999.2500       0.1130       0.2240       0.2010      -2.3127    -219.5630    -219.5630
   2480.3098    -104.3340    -999.2500    -999.2500      16.8631    -999.2500    -999.2500       0.1170       0.2455       0.1930      -1.0552    -104.9727    -108.4642
   2480.4624       9.9080    -999.2500    -999.2500      17.3350    -999.2500    -999.2500       0.1210       0.2670       0.1850       0.1914       8.6360       1.6830
   2480.6147       9.9075    -999.2500    -999.2500      17.5425    -999.2500    -999.2500       0.1170       0.2530       0.1950       0.2191       9.3209       1.8166
   2480.7671       9.9070    -999.2500    -999.2500      17.7500    -999.2500    -999.2500       0.1130       0.2390       0.2050       0.2466      10.0000       1.9490
   2480.9194       9.9070    -999.2500    -999.2500      15.8752    -999.2500    -999.2500       0.1135       0.2285       0.2215       0.2568      10.0000       1.9490
   2481.0720       9.9070    -999.2500    -999.2500      14.0010    -999.2500    -999.2500       0.1140       0.2180       0.2380       0.2669      10.0000       1.9490
   2481.2244       9.9065    -999.2500    -999.2500      13.5905    -999.2500    -999.2500       0.1250       0.2515       0.2290       0.2751      10.0000       1.9490
   2481.3767       9.9060    -999.2500    -999.2500      13.1800    -999.2500    -999.2500       0.1360       0.2850       0.2200       0.2834      10.0000       1.9490
   2481.5291       9.9055    -999.2500    -999.2500      14.2540    -999.2500    -999.2500       0.1310       0.2790       0.2305       0.2825      10.0000       1.9490
   2481.6816       9.9050    -999.2500    -999.2500      15.3280    -999.2500    -999.2500       0.1260       0.2730       0.2410       0.2816      10.0000       1.9490
   2481.8340       9.9045    -999.2500    -999.2500      16.5705    -999.2500    -999.2500       0.1160       0.2480       0.2615       0.2772      10.0000       1.9490
   2481.9863       9.9040    -999.2500    -999.2500      17.8130    -999.2500    -999.2500       0.1060       0.2230       0.2820       0.2728      10.0000       1.9490
   2482.1387       9.9035    -999.2500    -999.2500      17.1700    -999.2500    -999.2500       0.1260       0.2675       0.2780       0.2756      10.0000       1.9490
   2482.2910       9.9030    -999.2500    -999.2500      16.5280    -999.2500    -999.2500       0.1460       0.3120       0.2740       0.2784      10.0000       1.9490
   2482.4436       9.9025    -999.2500    -999.2500      14.9855    -999.2500    -999.2500       0.1435       0.3210       0.1879       0.2974      10.0000       1.9490
   2482.5959       9.9020    -999.2500    -999.2500      13.4450    -999.2500    -999.2500       0.1410       0.3300       0.1020       0.3163      10.0000       1.9490
   2482.7483       9.9020    -999.2500    -999.2500      15.1180    -999.2500    -999.2500       0.1245       0.2695       0.2031       0.3347      10.0000       1.9490
   2482.9006       9.9020    -999.2500    -999.2500      16.7890    -999.2500    -999.2500       0.1080       0.2090       0.3040       0.3530      10.0000       1.9490
   2483.0532       9.9015    -999.2500    -999.2500      17.9676    -999.2500    -999.2500       0.1125       0.2310       0.2510       0.3478      10.0000       1.9490
   2483.2056       9.9010    -999.2500    -999.2500      19.1450    -999.2500    -999.2500       0.1170       0.2530       0.1980       0.3426      10.0000       1.9490
   2483.3579       9.9005    -999.2500    -999.2500      20.4871    -999.2500    -999.2500       0.1190       0.2505       0.1910       0.3418      10.0000       1.9490
   2483.5103       9.9000    -999.2500    -999.2500      21.8280    -999.2500    -999.2500       0.1210       0.2480       0.1840       0.3409      10.0000       1.9490
   2483.6628       9.8995    -999.2500    -999.2500      20.6165    -999.2500    -999.2500       0.1310       0.2740       0.2316       0.3598      10.0000       1.9490
   2483.8152       9.8990    -999.2500    -999.2500      19.4060    -999.2500    -999.2500       0.1410       0.3000       0.2790       0.3786      10.0000       1.9490
   2483.9675       9.8985    -999.2500    -999.2500      20.2133    -999.2500    -999.2500       0.1300       0.2685       0.2995       0.3878      10.0000       1.9490
   2484.1199       9.8980    -999.2500    -999.2500      21.0200    -999.2500    -999.2500       0.1190       0.2370       0.3200       0.3969      10.0000       1.9490
   2484.2722       9.8975    -999.2500    -999.2500      21.4631    -999.2500    -999.2500       0.1205       0.2400       0.4246       0.3839      10.0000       1.9490
   2484.4248       9.8970    -999.2500    -999.2500      21.9060    -999.2500    -999.2500       0.1220       0.2430       0.5290       0.3710      10.0000       1.9490
   2484.5771       9.8965    -999.2500    -999.2500      20.5322    -999.2500    -999.2500       0.1195       0.2435       0.5095       0.3772      10.0000       1.9490
   2484.7295       9.8960    -999.2500    -999.2500      19.1590    -999.2500    -999.2500       0.1170       0.2440       0.4900       0.3834      10.0000       1.9490
   2484.8818       9.8960    -999.2500    -999.2500      18.3139    -999.2500    -999.2500       0.1230       0.2625       0.7693       0.3972      10.0005       1.9490
   2485.0344       9.8960    -999.2500    -999.2500      17.4690    -999.2500    -999.2500       0.1290       0.2810       1.0480       0.4108      10.0010       1.9490
   2485.1868       9.8955    -999.2500    -999.2500      18.5456    -999.2500    -999.2500       0.1285       0.2745       2.5528       0.3774      10.0010       1.9490
