#------------------------------------------------------------------------------
#
#   Created by  : [OpenWorks] Log Export Utility (LEXP)
#   Created on  : 2016-05-11 12:13:36
#   Project     : CANT971
#   User        : R5K
#   Interpreter : PEP
#
#------------------------------------------------------------------------------
~VERSION INFORMATION
VERS. 2.0 : CWLS Log ASCII Standard - version 2.0
WRAP.  NO : One line per depth step
~WELL INFORMATION
#MNEMONIC   .UNIT                                           VALUE :DESCRIPTION
#------------------------------------------------------------------------------
STRT        .M                                           715.0607 :START DEPTH
STOP        .M                                          3288.1824 :STOP DEPTH
STEP        .M                                             0.1524 :STEP
NULL        .                                           -999.2500 :NULL VALUE
COMP        .                                   PEMEX EXPL & PROD :COMPANY
WELL        .                                               1047D :WELL
FLD         .                                           CANTARELL :FIELD
LOC         .                                             UNKNOWN :LOCATION
CNTY        .                                      CD. DEL CARMEN :COUNTY
STAT        .                                            CAMPECHE :STATE
CTRY        .                                              MEXICO :COUNTRY
SRVC        .                                             UNKNOWN :SERVICE COMPANY
DATE        .                                             UNKNOWN :LOG DATE
UWI         .                                          3060000501 :UNIQUE WELL ID
XCOORD      .                                       601388.630000 :SURFACE X
YCOORD      .                                      2149877.482000 :SURFACE Y
LAT         .                                           19.441878 :LATITUDE
LON         .                                          -92.034159 :LONGITUDE
ELEV        .M                                            28.0000 :SURFACE ELEV
ELEV_TYPE   .                                                  KB :ELEV TYPE
~CURVE INFORMATION
#MNEMONIC.UNIT        API CODE       : CURVE DESCRIPTION
#------------------------------------------------------------------------------
DEPTH    .M                          : Measured Depth
CALI     .inches      UNKNOWN        : CALI:registros:rC:NONE:v0 (auto-composite)
DRHO     .g/cm3       UNKNOWN        : DRHO:registros:rC:NONE:v0 (auto-composite)
DT       .us/ft       UNKNOWN        : DT:registros:rC:NONE:v0 (auto-composite)
GR       .API         UNKNOWN        : GR:registros:rC:NONE:v0 (auto-composite)
ILD      .ohm.m       UNKNOWN        : ILD:registros:rC:NONE:v0 (auto-composite)
ILM      .ohm.m       UNKNOWN        : ILM:registros:rC:NONE:v0 (auto-composite)
LLD      .ohm.m       UNKNOWN        : LLD:registros:rC:NONE:v0 (auto-composite)
LLS      .ohm.m       UNKNOWN        : LLS:registros:rC:NONE:v0 (auto-composite)
MSFL     .ohm.m       UNKNOWN        : MSFL:registros:rC:NONE:v0 (auto-composite)
NPHI     .v/v_decimal UNKNOWN        : NPHI:registros:rC:NONE:v0 (auto-composite)
PEF      .UNKNOWN     UNKNOWN        : PEF:registros:rC:NONE:v0 (auto-composite)
RHOB     .g/cm3       UNKNOWN        : RHOB:registros:rC:NONE:v0 (auto-composite)
~A     DEPTH         CALI         DRHO           DT           GR          ILD          ILM          LLD          LLS         MSFL         NPHI          PEF         RHOB
# ...
   3172.9680      10.6850       0.0300      48.8540      32.5630    -999.2500    -999.2500      84.9100      67.6930      41.2530       0.0384       3.3440       2.7780
   3173.1204      10.6549       0.0270      49.8835      33.1440    -999.2500    -999.2500      76.0135      61.4347      75.5101       0.0349       3.4027       2.8096
   3173.2727      10.6250       0.0240      50.9210      33.7240    -999.2500    -999.2500      67.1050      55.1680     109.8130       0.0315       3.4610       2.8410
   3173.4250      10.6024       0.0215      53.0730      36.2707    -999.2500    -999.2500      60.6218      50.2866      89.6158       0.0254       3.5097       2.8405
   3173.5776      10.5800       0.0190      55.2420      38.8130    -999.2500    -999.2500      54.1290      45.3980      69.3890       0.0193       3.5580       2.8400
   3173.7300      10.5680       0.0195      56.7028      37.4924    -999.2500    -999.2500      59.5465      49.2735      45.7568       0.0212       3.5540       2.8144
   3173.8823      10.5560       0.0200      58.1730      36.1740    -999.2500    -999.2500      64.9640      53.1490      22.1250       0.0231       3.5500       2.7890
   3174.0347      10.5425       0.0225      55.6318      33.5696    -999.2500    -999.2500      75.5649      60.2786      40.0770       0.0465       3.5259       2.7278
   3174.1870      10.5290       0.0250      53.0740      30.9690    -999.2500    -999.2500      86.1670      67.4090      58.0310       0.0697       3.5020       2.6670
   3174.3396      10.5099       0.0280      46.2597      33.4427    -999.2500    -999.2500      85.4626      66.6201      53.7355       0.1016       3.4674       2.7056
   3174.4919      10.4910       0.0310      39.4000      35.9130    -999.2500    -999.2500      84.7580      65.8310      49.4390       0.1332       3.4330       2.7440
   3174.6443      10.4639       0.0300      34.6990      47.3231    -999.2500    -999.2500      63.6378      49.9544      37.8301       0.1232       3.4109       2.7821
   3174.7966      10.4370       0.0290      29.9660      58.7190    -999.2500    -999.2500      42.5100      34.0720      26.2170       0.1132       3.3890       2.8200
   3174.9492      10.4119       0.0285      42.9256      57.4298    -999.2500    -999.2500      32.9733      26.7963      18.4774       0.1019       3.3725       2.7859
   3175.1016      10.3870       0.0280      55.9750      56.1420    -999.2500    -999.2500      23.4320      19.5170      10.7340       0.0907       3.3560       2.7520
   3175.2539      10.3679       0.0270      32.3358      50.2416    -999.2500    -999.2500      25.2229      20.8646      33.7194       0.0874       3.3399       2.6526
   3175.4062      10.3490       0.0260       8.5300      44.3470    -999.2500    -999.2500      27.0150      22.2130      56.7190       0.0842       3.3240       2.5540
   3175.5588      10.3360       0.0265      15.9783      37.4520    -999.2500    -999.2500      32.0246      26.2420      40.8184       0.0968       3.3170       2.2113
   3175.7112      10.3230       0.0270      23.4800      30.5630    -999.2500    -999.2500      37.0380      30.2740      24.9060       0.1093       3.3100       1.8710
   3175.8635      10.3165       0.0285      39.0532      32.5547    -999.2500    -999.2500      40.6574      33.2957      43.0077       0.1615       3.3200       1.9929
   3176.0159      10.3100       0.0300      54.7400      34.5450    -999.2500    -999.2500      44.2800      36.3200      61.1250       0.2134       3.3300       2.1140
   3176.1682      10.2949       0.0330      54.6404      41.4316    -999.2500    -999.2500      36.6448      30.5374      55.6027       0.1872       3.3591       2.3042
   3176.3208      10.2800       0.0360      54.5400      48.3140    -999.2500    -999.2500      29.0020      24.7490      50.0750       0.1611       3.3880       2.4930
   3176.4731      10.2589       0.0355      54.0269      52.6736    -999.2500    -999.2500      21.4302      18.5030      26.1669       0.1375       3.4081       2.6034
   3176.6255      10.2380       0.0350      53.5100      57.0310    -999.2500    -999.2500      13.8500      12.2500       2.2320       0.1140       3.4280       2.7130
   3176.7778      10.2199       0.0340      52.9302      53.1802    -999.2500    -999.2500      15.2661      13.3513       2.6877       0.1096       3.4260       2.7436
   3176.9304      10.2020       0.0330      52.3460      49.3370    -999.2500    -999.2500      16.6840      14.4540       3.1440       0.1051       3.4240       2.7740
   3177.0828      10.2030       0.0305      51.8405      45.4915    -999.2500    -999.2500      19.1703      16.5915      37.7668       0.0936       3.4220       2.7720
   3177.2351      10.2040       0.0280      51.3310      41.6530    -999.2500    -999.2500      21.6600      18.7320      72.4370       0.0823       3.4200       2.7700
   3177.3875      10.2145       0.0250      51.0680      40.1847    -999.2500    -999.2500      27.7609      23.5969      69.4392       0.0710       3.4210       2.7825
   3177.5400      10.2250       0.0220      50.8030      38.7190    -999.2500    -999.2500      33.8710      28.4690      66.4370       0.0597       3.4220       2.7950
   3177.6924      10.2115       0.0200      51.2092      40.4859    -999.2500    -999.2500      33.0420      27.8580      47.5857       0.0542       3.4250       2.8136
   3177.8447      10.1980       0.0180      51.6180      42.2500    -999.2500    -999.2500      32.2130      27.2470      28.7340       0.0487       3.4280       2.8320
   3177.9971      10.1649       0.0170      51.4216      40.7924    -999.2500    -999.2500      36.0492      30.0748      28.9380       0.0439       3.4325       2.8486
   3178.1494      10.1320       0.0160      51.2240      39.3370    -999.2500    -999.2500      39.8860      32.9030      29.1420       0.0391       3.4370       2.8650
   3178.3020      10.1320       0.0175      51.0326      36.8073    -999.2500    -999.2500      45.0613      37.1574      39.4526       0.0344       3.4420       2.8600
   3178.4543      10.1320       0.0190      50.8400      34.2810    -999.2500    -999.2500      50.2380      41.4130      49.7660       0.0298       3.4470       2.8550
   3178.6067      10.1320       0.0220      51.0896      34.3590    -999.2500    -999.2500      52.0331      43.0227      68.1919       0.0261       3.4565       2.8460
   3178.7590      10.1320       0.0250      51.3410      34.4370    -999.2500    -999.2500      53.8290      44.6330      86.6250       0.0225       3.4660       2.8370
   3178.9116      10.1320       0.0280      51.8393      33.9372    -999.2500    -999.2500      65.2445      52.8879      78.0647       0.0255       3.4810       2.8315
   3179.0640      10.1320       0.0310      52.3410      33.4380    -999.2500    -999.2500      76.6660      61.1470      69.5000       0.0286       3.4960       2.8260
   3179.2163      10.1360       0.0350      51.8079      32.2679    -999.2500    -999.2500      93.3526      74.4372      75.4041       0.0341       3.5196       2.8285
   3179.3687      10.1400       0.0390      51.2710      31.0990    -999.2500    -999.2500     110.0500      87.7360      81.3120       0.0395       3.5430       2.8310
   3179.5212      10.1500       0.0450      50.5964      28.4314    -999.2500    -999.2500     120.2576      97.8101      74.1902       0.0432       3.5274       2.8260
   3179.6736      10.1600       0.0510      49.9170      25.7660    -999.2500    -999.2500     130.4730     107.8920      67.0630       0.0468       3.5120       2.8210
   3179.8259      10.1525       0.0505      50.2214      26.6748    -999.2500    -999.2500     116.9846      97.9660      78.9012       0.0536       3.4814       2.8075
   3179.9783      10.1450       0.0500      50.5280      27.5830    -999.2500    -999.2500     103.4840      88.0310      90.7500       0.0604       3.4510       2.7940
   3180.1306      10.1274       0.0475      51.1098      29.5891    -999.2500    -999.2500      85.2258      74.2141      80.6822       0.0598       3.4149       2.7960
