#------------------------------------------------------------------------------
#
#   Created by  : [OpenWorks] Log Export Utility (LEXP)
#   Created on  : 2016-05-11 12:13:36
#   Project     : CANT971
#   User        : R5K
#   Interpreter : PEP
#
#------------------------------------------------------------------------------
~VERSION INFORMATION
VERS. 2.0 : CWLS Log ASCII Standard - version 2.0
WRAP.  NO : One line per depth step
~WELL INFORMATION
#MNEMONIC   .UNIT                                           VALUE :DESCRIPTION
#------------------------------------------------------------------------------
STRT        .M                                           715.0607 :START DEPTH
STOP        .M                                          3288.1824 :STOP DEPTH
STEP        .M                                             0.1524 :STEP
NULL        .                                           -999.2500 :NULL VALUE
COMP        .                                   PEMEX EXPL & PROD :COMPANY
WELL        .                                               1047D :WELL
FLD         .                                           CANTARELL :FIELD
LOC         .                                             UNKNOWN :LOCATION
CNTY        .                                      CD. DEL CARMEN :COUNTY
STAT        .                                            CAMPECHE :STATE
CTRY        .                                              MEXICO :COUNTRY
SRVC        .                                             UNKNOWN :SERVICE COMPANY
DATE        .                                             UNKNOWN :LOG DATE
UWI         .                                          3060000501 :UNIQUE WELL ID
XCOORD      .                                       601388.630000 :SURFACE X
YCOORD      .                                      2149877.482000 :SURFACE Y
LAT         .                                           19.441878 :LATITUDE
LON         .                                          -92.034159 :LONGITUDE
ELEV        .M                                            28.0000 :SURFACE ELEV
ELEV_TYPE   .                                                  KB :ELEV TYPE
~CURVE INFORMATION
#MNEMONIC.UNIT        API CODE       : CURVE DESCRIPTION
#------------------------------------------------------------------------------
DEPTH    .M                          : Measured Depth
CALI     .inches      UNKNOWN        : CALI:registros:rC:NONE:v0 (auto-composite)
DRHO     .g/cm3       UNKNOWN        : DRHO:registros:rC:NONE:v0 (auto-composite)
DT       .us/ft       UNKNOWN        : DT:registros:rC:NONE:v0 (auto-composite)
GR       .API         UNKNOWN        : GR:registros:rC:NONE:v0 (auto-composite)
ILD      .ohm.m       UNKNOWN        : ILD:registros:rC:NONE:v0 (auto-composite)
ILM      .ohm.m       UNKNOWN        : ILM:registros:rC:NONE:v0 (auto-composite)
LLD      .ohm.m       UNKNOWN        : LLD:registros:rC:NONE:v0 (auto-composite)
LLS      .ohm.m       UNKNOWN        : LLS:registros:rC:NONE:v0 (auto-composite)
MSFL     .ohm.m       UNKNOWN        : MSFL:registros:rC:NONE:v0 (auto-composite)
NPHI     .v/v_decimal UNKNOWN        : NPHI:registros:rC:NONE:v0 (auto-composite)
PEF      .UNKNOWN     UNKNOWN        : PEF:registros:rC:NONE:v0 (auto-composite)
RHOB     .g/cm3       UNKNOWN        : RHOB:registros:rC:NONE:v0 (auto-composite)
~A     DEPTH         CALI         DRHO           DT           GR          ILD          ILM          LLD          LLS         MSFL         NPHI          PEF         RHOB
# ...
   2748.6863      14.0080       0.0440    -999.2500      10.4770    -999.2500    -999.2500     256.6140     182.5120     125.3330       0.0512       3.3720       2.7210
   2748.8386      13.9814       0.0465    -999.2500      10.7041    -999.2500    -999.2500     340.1069     231.0416      95.8160       0.0491       3.3284       2.7285
   2748.9912      13.9550       0.0490    -999.2500      10.9310    -999.2500    -999.2500     423.5600     279.5480      66.3130       0.0470       3.2850       2.7360
   2749.1436      13.9716       0.0515    -999.2500      15.9099    -999.2500    -999.2500     528.9905     346.8948      97.2229       0.0424       3.1972       2.7521
   2749.2959      13.9880       0.0540    -999.2500      20.8870    -999.2500    -999.2500     634.3840     414.2180     128.1220       0.0379       3.1100       2.7680
   2749.4482      14.0186       0.0570    -999.2500      27.8508    -999.2500    -999.2500     586.6756     377.0278     150.2825       0.0314       3.0889       2.7806
   2749.6008      14.0490       0.0600    -999.2500      34.8130    -999.2500    -999.2500     538.9780     339.8460     172.4380       0.0250       3.0680       2.7930
   2749.7532      14.0691       0.0620    -999.2500      33.0389    -999.2500    -999.2500     531.9081     342.5231     166.0622       0.0235       3.0765       2.7915
   2749.9055      14.0890       0.0640    -999.2500      31.2650    -999.2500    -999.2500     524.8390     345.2000     159.6870       0.0220       3.0850       2.7900
   2750.0579      14.0980       0.0655    -999.2500      27.7547    -999.2500    -999.2500     499.9264     328.9152     280.5012       0.0223       3.1447       2.7860
   2750.2104      14.1070       0.0670    -999.2500      24.2500    -999.2500    -999.2500     475.0530     312.6560     401.1250       0.0225       3.2040       2.7820
   2750.3628      14.0924       0.0685    -999.2500      25.5009    -999.2500    -999.2500     446.0480     295.2159     265.3076       0.0251       3.2713       2.7689
   2750.5151      14.0780       0.0700    -999.2500      26.7500    -999.2500    -999.2500     417.0850     277.8010     129.6870       0.0278       3.3380       2.7560
   2750.6675      14.1016       0.0715    -999.2500      28.3491    -999.2500    -999.2500     425.4055     279.1304     199.5773       0.0397       3.4143       2.7495
   2750.8198      14.1250       0.0730    -999.2500      29.9460    -999.2500    -999.2500     433.7150     280.4580     269.3750       0.0515       3.4900       2.7430
   2750.9724      14.1601       0.0715    -999.2500      34.8259    -999.2500    -999.2500     430.4195     277.6924     189.9424       0.0628       3.5568       2.7144
   2751.1248      14.1950       0.0700    -999.2500      39.7000    -999.2500    -999.2500     427.1280     274.9300     110.6050       0.0739       3.6230       2.6860
   2751.2771      14.1358       0.0625    -999.2500      48.6153    -999.2500    -999.2500     342.6166     216.6317      97.2673       0.0781       3.6872       2.7006
   2751.4294      14.0770       0.0550    -999.2500      57.5210    -999.2500    -999.2500     258.1960     158.3960      83.9440       0.0822       3.7510       2.7150
   2751.5820      14.0108       0.0435    -999.2500      65.6709    -999.2500    -999.2500     263.7812     160.4365      45.1706       0.0679       3.7058       2.7501
   2751.7344      13.9450       0.0320    -999.2500      73.8130    -999.2500    -999.2500     269.3610     162.4750       6.4340       0.0536       3.6610       2.7850
   2751.8867      13.8998       0.0280    -999.2500      66.3099    -999.2500    -999.2500     346.7488     200.7522      90.3455       0.0539       3.6173       2.7740
   2752.0391      13.8550       0.0240    -999.2500      58.8130    -999.2500    -999.2500     424.0730     238.9980     174.1880       0.0541       3.5740       2.7630
   2752.1917      13.8495       0.0220    -999.2500      63.7207    -999.2500    -999.2500     403.6999     233.8657     104.5227       0.0590       3.5404       2.7615
   2752.3440      13.8440       0.0200    -999.2500      68.6250    -999.2500    -999.2500     383.3410     228.7370      34.9060       0.0639       3.5070       2.7600
   2752.4963      13.8570       0.0200    -999.2500      67.7888    -999.2500    -999.2500     330.2248     196.8134      56.5512       0.0592       3.4940       2.7434
   2752.6487      13.8700       0.0200    -999.2500      66.9530    -999.2500    -999.2500     277.1390     164.9080      78.1840       0.0544       3.4810       2.7270
   2752.8010      13.8881       0.0220    -999.2500      61.4543    -999.2500    -999.2500     269.9939     158.4896      98.5340       0.0447       3.4981       2.7491
   2752.9536      13.9060       0.0240    -999.2500      55.9580    -999.2500    -999.2500     262.8520     152.0740     118.8750       0.0350       3.5150       2.7710
   2753.1060      13.9246       0.0265    -999.2500      49.1379    -999.2500    -999.2500     303.7250     172.4798      87.6980       0.0278       3.5270       2.7861
   2753.2583      13.9430       0.0290    -999.2500      42.3200    -999.2500    -999.2500     344.5850     192.8790      56.5310       0.0206       3.5390       2.8010
   2753.4106      13.9616       0.0310    -999.2500      39.7357    -999.2500    -999.2500     395.4850     216.0527     132.1789       0.0215       3.5480       2.8030
   2753.5632      13.9800       0.0330    -999.2500      37.1560    -999.2500    -999.2500     446.3750     239.2220     207.8120       0.0225       3.5570       2.8050
   2753.7156      13.9815       0.0295    -999.2500      39.9553    -999.2500    -999.2500     419.0771     226.0335     143.2473       0.0346       3.5394       2.7854
   2753.8679      13.9830       0.0260    -999.2500      42.7500    -999.2500    -999.2500     391.7810     212.8460      78.6870       0.0465       3.5220       2.7660
   2754.0203      13.9654       0.0190    -999.2500      38.8250    -999.2500    -999.2500     354.7264     194.9807     100.0790       0.0580       3.4969       2.7514
   2754.1729      13.9480       0.0120    -999.2500      34.9060    -999.2500    -999.2500     317.7290     177.1430     121.4380       0.0693       3.4720       2.7370
   2754.3252      13.9184       0.0085    -999.2500      36.0978    -999.2500    -999.2500     272.1452     153.9681      99.0191       0.0718       3.4323       2.7495
   2754.4775      13.8890       0.0050    -999.2500      37.2880    -999.2500    -999.2500     226.6260     130.8260      76.6320       0.0742       3.3930       2.7620
   2754.6299      13.8609       0.0050    -999.2500      38.7760    -999.2500    -999.2500     217.6212     125.4660      72.6880       0.0772       3.4071       2.7630
   2754.7822      13.8330       0.0050    -999.2500      40.2620    -999.2500    -999.2500     208.6280     120.1130      68.7490       0.0802       3.4210       2.7640
   2754.9348      13.8656       0.0060    -999.2500      43.4829    -999.2500    -999.2500     218.9610     126.6308      67.1321       0.0916       3.4612       2.7414
   2755.0872      13.8980       0.0070    -999.2500      46.7000    -999.2500    -999.2500     229.2820     133.1410      65.5170       0.1030       3.5010       2.7190
   2755.2395      13.8880       0.0095    -999.2500      50.2739    -999.2500    -999.2500     205.9178     122.0227      60.2032       0.1063       3.5532       2.6989
   2755.3918      13.8780       0.0120    -999.2500      53.8440    -999.2500    -999.2500     182.5780     110.9160      54.8950       0.1095       3.6050       2.6790
   2755.5444      13.8082       0.0145    -999.2500      43.2632    -999.2500    -999.2500     167.6322     102.7673      51.1528       0.1003       3.5879       2.6875
   2755.6968      13.7390       0.0170    -999.2500      32.6920    -999.2500    -999.2500     152.7000      94.6260      47.4140       0.0911       3.5710       2.6960
   2755.8491      13.6437       0.0235    -999.2500      26.3980    -999.2500    -999.2500     172.1342     106.3011      46.0345       0.0833       3.4932       2.7015
