#------------------------------------------------------------------------------
#
#   Created by  : [OpenWorks] Log Export Utility (LEXP)
#   Created on  : 2016-05-11 12:13:36
#   Project     : CANT971
#   User        : R5K
#   Interpreter : PEP
#
#------------------------------------------------------------------------------
~VERSION INFORMATION
VERS. 2.0 : CWLS Log ASCII Standard - version 2.0
WRAP.  NO : One line per depth step
~WELL INFORMATION
#MNEMONIC   .UNIT                                           VALUE :DESCRIPTION
#------------------------------------------------------------------------------
STRT        .M                                           715.0607 :START DEPTH
STOP        .M                                          3288.1824 :STOP DEPTH
STEP        .M                                             0.1524 :STEP
NULL        .                                           -999.2500 :NULL VALUE
COMP        .                                   PEMEX EXPL & PROD :COMPANY
WELL        .                                               1047D :WELL
FLD         .                                           CANTARELL :FIELD
LOC         .                                             UNKNOWN :LOCATION
CNTY        .                                      CD. DEL CARMEN :COUNTY
STAT        .                                            CAMPECHE :STATE
CTRY        .                                              MEXICO :COUNTRY
SRVC        .                                             UNKNOWN :SERVICE COMPANY
DATE        .                                             UNKNOWN :LOG DATE
UWI         .                                          3060000501 :UNIQUE WELL ID
XCOORD      .                                       601388.630000 :SURFACE X
YCOORD      .                                      2149877.482000 :SURFACE Y
LAT         .                                           19.441878 :LATITUDE
LON         .                                          -92.034159 :LONGITUDE
ELEV        .M                                            28.0000 :SURFACE ELEV
ELEV_TYPE   .                                                  KB :ELEV TYPE
~CURVE INFORMATION
#MNEMONIC.UNIT        API CODE       : CURVE DESCRIPTION
#------------------------------------------------------------------------------
DEPTH    .M                          : Measured Depth
CALI     .inches      UNKNOWN        : CALI:registros:rC:NONE:v0 (auto-composite)
DRHO     .g/cm3       UNKNOWN        : DRHO:registros:rC:NONE:v0 (auto-composite)
DT       .us/ft       UNKNOWN        : DT:registros:rC:NONE:v0 (auto-composite)
GR       .API         UNKNOWN        : GR:registros:rC:NONE:v0 (auto-composite)
ILD      .ohm.m       UNKNOWN        : ILD:registros:rC:NONE:v0 (auto-composite)
ILM      .ohm.m       UNKNOWN        : ILM:registros:rC:NONE:v0 (auto-composite)
LLD      .ohm.m       UNKNOWN        : LLD:registros:rC:NONE:v0 (auto-composite)
LLS      .ohm.m       UNKNOWN        : LLS:registros:rC:NONE:v0 (auto-composite)
MSFL     .ohm.m       UNKNOWN        : MSFL:registros:rC:NONE:v0 (auto-composite)
NPHI     .v/v_decimal UNKNOWN        : NPHI:registros:rC:NONE:v0 (auto-composite)
PEF      .UNKNOWN     UNKNOWN        : PEF:registros:rC:NONE:v0 (auto-composite)
RHOB     .g/cm3       UNKNOWN        : RHOB:registros:rC:NONE:v0 (auto-composite)
~A     DEPTH         CALI         DRHO           DT           GR          ILD          ILM          LLD          LLS         MSFL         NPHI          PEF         RHOB
# ...
   3231.4895      10.3460       0.0230      67.0690      87.3130    -999.2500    -999.2500     182.6390     236.1680      96.8750       0.1545       3.4300       2.5480
   3231.6418      10.3189       0.0245      69.6977      88.9860    -999.2500    -999.2500     198.8060     250.3104     111.4866       0.1543       3.4456       2.5726
   3231.7944      10.2920       0.0260      72.3470      90.6560    -999.2500    -999.2500     214.9960     264.4730     126.1190       0.1540       3.4610       2.5970
   3231.9468      10.2594       0.0280      73.3356      92.9234    -999.2500    -999.2500     241.4180     302.0334     168.1834       0.1424       3.4675       2.6206
   3232.0991      10.2270       0.0300      74.3320      95.1870    -999.2500    -999.2500     267.8810     339.6520     210.3130       0.1308       3.4740       2.6440
   3232.2515      10.2270       0.0320      72.1035      89.6968    -999.2500    -999.2500     216.6225     278.5152     128.2098       0.1360       3.4770       2.5969
   3232.4038      10.2270       0.0340      69.8570      84.2150    -999.2500    -999.2500     165.2780     217.2760      45.9690       0.1412       3.4800       2.5500
   3232.5564      10.2280       0.0355      66.4376      80.1361    -999.2500    -999.2500     145.0820     193.3494      56.7689       0.1500       3.4800       2.5510
   3232.7087      10.2290       0.0370      62.9900      76.0630    -999.2500    -999.2500     124.8820     169.4180      67.5710       0.1587       3.4800       2.5520
   3232.8611      10.2330       0.0365      61.5356      81.7226    -999.2500    -999.2500     184.9938     240.3920      82.3191       0.1612       3.4765       2.5751
   3233.0134      10.2370       0.0360      60.0690      87.3750    -999.2500    -999.2500     245.1250     311.3890      97.0720       0.1637       3.4730       2.5980
   3233.1660      10.2435       0.0355      63.0418      86.8697    -999.2500    -999.2500     227.5494     286.8560     163.4896       0.1371       3.4610       2.6135
   3233.3184      10.2500       0.0350      66.0350      86.3650    -999.2500    -999.2500     209.9660     262.3120     229.9370       0.1105       3.4490       2.6290
   3233.4707      10.2590       0.0335      72.7156      84.5736    -999.2500    -999.2500     188.5636     238.1349     156.4271       0.0899       3.4063       2.6360
   3233.6230      10.2680       0.0320      79.4430      82.7840    -999.2500    -999.2500     167.1490     213.9440      82.8750       0.0694       3.3640       2.6430
   3233.7756      10.2715       0.0300      79.0903      72.4233    -999.2500    -999.2500     184.5629     231.0690     147.8832       0.0747       3.3138       2.6129
   3233.9280      10.2750       0.0280      78.7350      62.0720    -999.2500    -999.2500     201.9890     248.2060     212.9370       0.0799       3.2640       2.5830
   3234.0803      10.2755       0.0265      73.9558      52.4388    -999.2500    -999.2500     293.7901     337.1263     199.8469       0.0977       3.2168       2.5584
   3234.2327      10.2760       0.0250      69.1420      42.8130    -999.2500    -999.2500     385.6670     426.1200     186.7460       0.1153       3.1700       2.5340
   3234.3850      10.2810       0.0235      69.2008      49.2181    -999.2500    -999.2500     455.9980     486.6572     171.7866       0.1711       3.1098       2.5149
   3234.5376      10.2860       0.0220      69.2600      55.6190    -999.2500    -999.2500     526.3960     547.2520     156.8130       0.2266       3.0500       2.4960
   3234.6899      10.2850       0.0205      71.8647      73.2496    -999.2500    -999.2500     519.7066     537.5027     184.8599       0.2164       3.1197       2.5121
   3234.8423      10.2840       0.0190      74.4890      90.8710    -999.2500    -999.2500     513.0100     527.7430     212.9370       0.2063       3.1890       2.5280
   3234.9946      10.2760       0.0200      71.3370      96.4095    -999.2500    -999.2500     389.2415     417.6227     146.9767       0.1849       3.3119       2.5561
   3235.1472      10.2680       0.0210      68.1610     101.9370    -999.2500    -999.2500     265.3240     307.3700      80.9370       0.1636       3.4340       2.5840
   3235.2996      10.2535       0.0225      64.5196      97.1685    -999.2500    -999.2500     285.1109     329.0356     124.9708       0.1468       3.5378       2.5765
   3235.4519      10.2390       0.0240      60.8500      92.4090    -999.2500    -999.2500     304.9240     350.7300     169.0630       0.1301       3.6410       2.5690
   3235.6042      10.2179       0.0240      59.4007      85.5110    -999.2500    -999.2500     350.5668     403.3287     165.3887       0.1427       3.7484       2.5560
   3235.7568      10.1970       0.0240      57.9400      78.6250    -999.2500    -999.2500     396.2760     456.0040     161.7090       0.1553       3.8550       2.5430
   3235.9092      10.2005       0.0230      61.3384      80.1137    -999.2500    -999.2500     287.9660     342.4607     114.8290       0.1680       3.8369       2.5651
   3236.0615      10.2040       0.0220      64.7640      81.6000    -999.2500    -999.2500     179.4850     228.7380      67.8750       0.1806       3.8190       2.5870
   3236.2139      10.2140       0.0200      69.3423      82.2070    -999.2500    -999.2500     152.2193     195.9175      86.5201       0.1522       3.7563       2.6096
   3236.3662      10.2240       0.0180      73.9580      82.8130    -999.2500    -999.2500     124.9070     163.0410     105.1970       0.1241       3.6940       2.6320
   3236.5188      10.2451       0.0145      75.3333      75.3109    -999.2500    -999.2500     147.6754     189.4020     116.2257       0.0889       3.5927       2.6430
   3236.6711      10.2660       0.0110      76.7200      67.8190    -999.2500    -999.2500     170.4490     215.7690     127.2570       0.0540       3.4920       2.6540
   3236.8235      10.3066       0.0090      73.0315      52.0717    -999.2500    -999.2500     252.3760     306.3205     226.2985       0.0710       3.4098       2.6395
   3236.9758      10.3470       0.0070      69.3120      36.3440    -999.2500    -999.2500     334.3320     396.9040     325.3750       0.0878       3.3280       2.6250
   3237.1284      10.4127       0.0050      66.2272      40.0506    -999.2500    -999.2500     460.1773     506.7407     312.2771       0.1144       3.2658       2.5698
   3237.2808      10.4780       0.0030      63.1210      43.7530    -999.2500    -999.2500     586.0830     616.6300     299.1730       0.1408       3.2040       2.5150
   3237.4331      10.6767       0.0025      61.5306      55.5039    -999.2500    -999.2500     401.1180     444.1272     211.1756       0.1398       3.1453       2.5250
   3237.5854      10.8740       0.0020      59.9290      67.2430    -999.2500    -999.2500     216.0410     271.5200     123.1250       0.1387       3.0870       2.5350
   3237.7380      11.1018       0.0025      62.1067      78.6265    -999.2500    -999.2500     177.4991     225.0880     131.5594       0.1202       3.0453       2.5581
   3237.8904      11.3280       0.0030      64.3000      90.0000    -999.2500    -999.2500     138.9290     178.6220     140.0000       0.1017       3.0040       2.5810
   3238.0427      11.4831       0.0045      66.6923      86.1066    -999.2500    -999.2500     149.3121     192.6740     239.0201       0.0847       3.0552       2.6176
   3238.1951      11.6370       0.0060      69.1020      82.2160    -999.2500    -999.2500     159.7040     206.7380     338.1250       0.0678       3.1060       2.6540
   3238.3474      11.7905       0.0075      70.3773      76.3307    -999.2500    -999.2500     235.8551     289.2809     261.8185       0.0792       3.1622       2.6324
   3238.5000      11.9430       0.0090      71.6620      70.4490    -999.2500    -999.2500     312.0810     371.9050     185.4370       0.0907       3.2180       2.6110
   3238.6523      11.6379       0.0100      72.8142      62.9571    -999.2500    -999.2500     351.2973     413.7133     361.9957       0.1087       3.2767       2.5829
