#------------------------------------------------------------------------------
#
#   Created by  : [OpenWorks] Log Export Utility (LEXP)
#   Created on  : 2016-05-11 12:13:36
#   Project     : CANT971
#   User        : R5K
#   Interpreter : PEP
#
#------------------------------------------------------------------------------
~VERSION INFORMATION
VERS. 2.0 : CWLS Log ASCII Standard - version 2.0
WRAP.  NO : One line per depth step
~WELL INFORMATION
#MNEMONIC   .UNIT                                           VALUE :DESCRIPTION
#------------------------------------------------------------------------------
STRT        .M                                           715.0607 :START DEPTH
STOP        .M                                          3288.1824 :STOP DEPTH
STEP        .M                                             0.1524 :STEP
NULL        .                                           -999.2500 :NULL VALUE
COMP        .                                   PEMEX EXPL & PROD :COMPANY
WELL        .                                               1047D :WELL
FLD         .                                           CANTARELL :FIELD
LOC         .                                             UNKNOWN :LOCATION
CNTY        .                                      CD. DEL CARMEN :COUNTY
STAT        .                                            CAMPECHE :STATE
CTRY        .                                              MEXICO :COUNTRY
SRVC        .                                             UNKNOWN :SERVICE COMPANY
DATE        .                                             UNKNOWN :LOG DATE
UWI         .                                          3060000501 :UNIQUE WELL ID
XCOORD      .                                       601388.630000 :SURFACE X
YCOORD      .                                      2149877.482000 :SURFACE Y
LAT         .                                           19.441878 :LATITUDE
LON         .                                          -92.034159 :LONGITUDE
ELEV        .M                                            28.0000 :SURFACE ELEV
ELEV_TYPE   .                                                  KB :ELEV TYPE
~CURVE INFORMATION
#MNEMONIC.UNIT        API CODE       : CURVE DESCRIPTION
#------------------------------------------------------------------------------
DEPTH    .M                          : Measured Depth
CALI     .inches      UNKNOWN        : CALI:registros:rC:NONE:v0 (auto-composite)
DRHO     .g/cm3       UNKNOWN        : DRHO:registros:rC:NONE:v0 (auto-composite)
DT       .us/ft       UNKNOWN        : DT:registros:rC:NONE:v0 (auto-composite)
GR       .API         UNKNOWN        : GR:registros:rC:NONE:v0 (auto-composite)
ILD      .ohm.m       UNKNOWN        : ILD:registros:rC:NONE:v0 (auto-composite)
ILM      .ohm.m       UNKNOWN        : ILM:registros:rC:NONE:v0 (auto-composite)
LLD      .ohm.m       UNKNOWN        : LLD:registros:rC:NONE:v0 (auto-composite)
LLS      .ohm.m       UNKNOWN        : LLS:registros:rC:NONE:v0 (auto-composite)
MSFL     .ohm.m       UNKNOWN        : MSFL:registros:rC:NONE:v0 (auto-composite)
NPHI     .v/v_decimal UNKNOWN        : NPHI:registros:rC:NONE:v0 (auto-composite)
PEF      .UNKNOWN     UNKNOWN        : PEF:registros:rC:NONE:v0 (auto-composite)
RHOB     .g/cm3       UNKNOWN        : RHOB:registros:rC:NONE:v0 (auto-composite)
~A     DEPTH         CALI         DRHO           DT           GR          ILD          ILM          LLD          LLS         MSFL         NPHI          PEF         RHOB
# ...
   2909.6208      11.5470       0.0190    -999.2500      50.3130    -999.2500    -999.2500     622.6630     370.7470     325.3750       0.0729       3.6040       2.7350
   2909.7732      11.5425       0.0210    -999.2500      42.0726    -999.2500    -999.2500     552.6665     340.8708     389.6200       0.0699       3.6381       2.7255
   2909.9255      11.5380       0.0230    -999.2500      33.8440    -999.2500    -999.2500     482.6590     310.9900     453.8750       0.0669       3.6720       2.7160
   2910.0779      11.5425       0.0245    -999.2500      34.6370    -999.2500    -999.2500     539.9319     323.6437     411.7964       0.0590       3.6645       2.6924
   2910.2302      11.5470       0.0260    -999.2500      35.4290    -999.2500    -999.2500     597.2210     336.3010     369.7060       0.0512       3.6570       2.6690
   2910.3828      11.5545       0.0265    -999.2500      51.9118    -999.2500    -999.2500     491.2361     293.9221     292.5827       0.0513       3.6148       2.6866
   2910.5352      11.5620       0.0270    -999.2500      68.3750    -999.2500    -999.2500     385.2080     251.5260     215.4280       0.0514       3.5730       2.7040
   2910.6875      11.5675       0.0250    -999.2500      68.0098    -999.2500    -999.2500     270.1525     188.6444     118.5607       0.0533       3.5198       2.7206
   2910.8398      11.5730       0.0230    -999.2500      67.6450    -999.2500    -999.2500     155.2200     125.8300      21.7970       0.0551       3.4670       2.7370
   2910.9924      11.5805       0.0200    -999.2500      61.5876    -999.2500    -999.2500     161.7361     129.8119      31.7297       0.0570       3.4404       2.7275
   2911.1448      11.5880       0.0170    -999.2500      55.5360    -999.2500    -999.2500     168.2460     133.7900      41.6530       0.0589       3.4140       2.7180
   2911.2971      11.5965       0.0155    -999.2500      49.1719    -999.2500    -999.2500     217.8893     165.6020     247.8483       0.0599       3.4010       2.7019
   2911.4495      11.6050       0.0140    -999.2500      42.8130    -999.2500    -999.2500     267.4920     197.3880     453.8750       0.0609       3.3880       2.6860
   2911.6021      11.6130       0.0130    -999.2500      43.9069    -999.2500    -999.2500     267.4225     195.4378     374.5506       0.0701       3.3775       2.6674
   2911.7544      11.6210       0.0120    -999.2500      45.0000    -999.2500    -999.2500     267.3530     193.4890     295.2810       0.0791       3.3670       2.6490
   2911.9067      11.6200       0.0105    -999.2500      43.5931    -999.2500    -999.2500     264.3912     188.9747     190.2673       0.0777       3.3389       2.6691
   2912.0591      11.6190       0.0090    -999.2500      42.1870    -999.2500    -999.2500     261.4310     184.4630      85.3130       0.0762       3.3110       2.6890
   2912.2114      11.6160       0.0090    -999.2500      51.5486    -999.2500    -999.2500     255.0776     175.2660      89.6044       0.0638       3.2789       2.7532
   2912.3640      11.6130       0.0090    -999.2500      60.9060    -999.2500    -999.2500     248.7270     166.0730      93.8940       0.0515       3.2470       2.8170
   2912.5164      11.6005       0.0090    -999.2500      50.0293    -999.2500    -999.2500     254.3009     167.8438     143.0468       0.0661       3.2495       2.7698
   2912.6687      11.5880       0.0090    -999.2500      39.1560    -999.2500    -999.2500     259.8730     169.6140     192.1840       0.0807       3.2520       2.7230
   2912.8210      11.5664       0.0080    -999.2500      45.0833    -999.2500    -999.2500     324.3226     195.8635     283.5381       0.0771       3.2650       2.7456
   2912.9736      11.5450       0.0070    -999.2500      51.0000    -999.2500    -999.2500     388.7600     222.1080     374.8750       0.0734       3.2780       2.7680
   2913.1260      11.5450       0.0070    -999.2500      48.8983    -999.2500    -999.2500     521.3802     258.7102     234.0265       0.0600       3.3252       2.7630
   2913.2783      11.5450       0.0070    -999.2500      46.8000    -999.2500    -999.2500     653.9920     295.3100      93.1870       0.0467       3.3720       2.7580
   2913.4307      11.5495       0.0075    -999.2500      35.9777    -999.2500    -999.2500     850.9909     326.9540     300.1496       0.0509       3.3494       2.7344
   2913.5833      11.5540       0.0080    -999.2500      25.1720    -999.2500    -999.2500    1048.0020     358.6000     507.1250       0.0551       3.3270       2.7110
   2913.7356      11.5655       0.0085    -999.2500      26.2443    -999.2500    -999.2500    2098.5557     471.7449     499.4377       0.0672       3.2678       2.7366
   2913.8879      11.5770       0.0090    -999.2500      27.3150    -999.2500    -999.2500    3149.3059     584.9110     491.7490       0.0792       3.2090       2.7620
   2914.0403      11.5845       0.0095    -999.2500      32.2542    -999.2500    -999.2500    2212.3208     475.3856     348.5529       0.0704       3.1478       2.7570
   2914.1926      11.5920       0.0100    -999.2500      37.1870    -999.2500    -999.2500    1275.0430     365.8260     205.3120       0.0617       3.0870       2.7520
   2914.3452      11.5930       0.0100    -999.2500      36.5932    -999.2500    -999.2500     872.9601     288.7804     235.3369       0.0635       3.0890       2.7520
   2914.4976      11.5940       0.0100    -999.2500      36.0000    -999.2500    -999.2500     470.7010     211.7010     265.3750       0.0652       3.0910       2.7520
   2914.6499      11.5990       0.0100    -999.2500      40.2837    -999.2500    -999.2500     412.0516     195.0264     261.1003       0.0637       3.1256       2.7565
   2914.8022      11.6040       0.0100    -999.2500      44.5630    -999.2500    -999.2500     353.4630     178.3690     256.8300       0.0622       3.1600       2.7610
   2914.9548      11.6040       0.0095    -999.2500      42.4370    -999.2500    -999.2500     325.2472     170.7815     191.7603       0.0578       3.1595       2.7665
   2915.1072      11.6040       0.0090    -999.2500      40.3130    -999.2500    -999.2500     297.0570     163.2010     126.7500       0.0534       3.1590       2.7720
   2915.2595      11.6015       0.0090    -999.2500      41.3829    -999.2500    -999.2500     264.7708     151.7925     131.2833       0.0614       3.1510       2.7625
   2915.4119      11.5990       0.0090    -999.2500      42.4520    -999.2500    -999.2500     232.5100     140.3930     135.8130       0.0692       3.1430       2.7530
   2915.5642      11.5880       0.0095    -999.2500      49.6814    -999.2500    -999.2500     209.9500     129.8885     121.3847       0.0653       3.1290       2.7410
   2915.7168      11.5770       0.0100    -999.2500      56.9060    -999.2500    -999.2500     187.4050     119.3910     106.9660       0.0613       3.1150       2.7290
   2915.8691      11.5539       0.0105    -999.2500      52.7104    -999.2500    -999.2500     190.1682     120.3658      94.6417       0.0634       3.1075       2.7235
   2916.0215      11.5310       0.0110    -999.2500      48.5170    -999.2500    -999.2500     192.9300     121.3400      82.3240       0.0655       3.1000       2.7180
   2916.1738      11.5335       0.0115    -999.2500      41.9757    -999.2500    -999.2500     205.1860     127.0192      59.1573       0.0759       3.1151       2.6909
   2916.3264      11.5360       0.0120    -999.2500      35.4370    -999.2500    -999.2500     217.4370     132.6960      36.0000       0.0862       3.1300       2.6640
   2916.4788      11.5395       0.0130    -999.2500      42.6900    -999.2500    -999.2500     239.3161     149.1948      52.4433       0.1084       3.1721       2.6254
   2916.6311      11.5430       0.0140    -999.2500      49.9410    -999.2500    -999.2500     261.1890     165.6890      68.8820       0.1305       3.2140       2.5870
   2916.7834      11.5440       0.0145    -999.2500      69.1124    -999.2500    -999.2500     273.4780     165.6790     102.8502       0.1237       3.2862       2.6241
