#------------------------------------------------------------------------------
#
#   Created by  : [OpenWorks] Log Export Utility (LEXP)
#   Created on  : 2016-05-11 12:13:36
#   Project     : CANT971
#   User        : R5K
#   Interpreter : PEP
#
#------------------------------------------------------------------------------
~VERSION INFORMATION
VERS. 2.0 : CWLS Log ASCII Standard - version 2.0
WRAP.  NO : One line per depth step
~WELL INFORMATION
#MNEMONIC   .UNIT                                           VALUE :DESCRIPTION
#------------------------------------------------------------------------------
STRT        .M                                           715.0607 :START DEPTH
STOP        .M                                          3288.1824 :STOP DEPTH
STEP        .M                                             0.1524 :STEP
NULL        .                                           -999.2500 :NULL VALUE
COMP        .                                   PEMEX EXPL & PROD :COMPANY
WELL        .                                               1047D :WELL
FLD         .                                           CANTARELL :FIELD
LOC         .                                             UNKNOWN :LOCATION
CNTY        .                                      CD. DEL CARMEN :COUNTY
STAT        .                                            CAMPECHE :STATE
CTRY        .                                              MEXICO :COUNTRY
SRVC        .                                             UNKNOWN :SERVICE COMPANY
DATE        .                                             UNKNOWN :LOG DATE
UWI         .                                          3060000501 :UNIQUE WELL ID
XCOORD      .                                       601388.630000 :SURFACE X
YCOORD      .                                      2149877.482000 :SURFACE Y
LAT         .                                           19.441878 :LATITUDE
LON         .                                          -92.034159 :LONGITUDE
ELEV        .M                                            28.0000 :SURFACE ELEV
ELEV_TYPE   .                                                  KB :ELEV TYPE
~CURVE INFORMATION
#MNEMONIC.UNIT        API CODE       : CURVE DESCRIPTION
#------------------------------------------------------------------------------
DEPTH    .M                          : Measured Depth
CALI     .inches      UNKNOWN        : CALI:registros:rC:NONE:v0 (auto-composite)
DRHO     .g/cm3       UNKNOWN        : DRHO:registros:rC:NONE:v0 (auto-composite)
DT       .us/ft       UNKNOWN        : DT:registros:rC:NONE:v0 (auto-composite)
GR       .API         UNKNOWN        : GR:registros:rC:NONE:v0 (auto-composite)
ILD      .ohm.m       UNKNOWN        : ILD:registros:rC:NONE:v0 (auto-composite)
ILM      .ohm.m       UNKNOWN        : ILM:registros:rC:NONE:v0 (auto-composite)
LLD      .ohm.m       UNKNOWN        : LLD:registros:rC:NONE:v0 (auto-composite)
LLS      .ohm.m       UNKNOWN        : LLS:registros:rC:NONE:v0 (auto-composite)
MSFL     .ohm.m       UNKNOWN        : MSFL:registros:rC:NONE:v0 (auto-composite)
NPHI     .v/v_decimal UNKNOWN        : NPHI:registros:rC:NONE:v0 (auto-composite)
PEF      .UNKNOWN     UNKNOWN        : PEF:registros:rC:NONE:v0 (auto-composite)
RHOB     .g/cm3       UNKNOWN        : RHOB:registros:rC:NONE:v0 (auto-composite)
~A     DEPTH         CALI         DRHO           DT           GR          ILD          ILM          LLD          LLS         MSFL         NPHI          PEF         RHOB
# ...
   2851.0991      12.0350       0.1410    -999.2500      25.2380    -999.2500    -999.2500    1627.4080     393.7390     175.9460       0.0238       3.1650       2.8040
   2851.2515      11.9768       0.1335    -999.2500      23.7348    -999.2500    -999.2500    1889.0250     434.1336     158.0671       0.0247       3.2875       2.8115
   2851.4038      11.9190       0.1260    -999.2500      22.2340    -999.2500    -999.2500    2150.6609     474.5310     140.1870       0.0257       3.4090       2.8190
   2851.5564      11.8889       0.1044    -999.2500      22.2695    -999.2500    -999.2500    2196.6724     482.7557     157.6803       0.0246       3.5219       2.8120
   2851.7087      11.8590       0.0830    -999.2500      22.3050    -999.2500    -999.2500    2242.6931     490.9820     175.1770       0.0234       3.6340       2.8050
   2851.8611      11.8234       0.0654    -999.2500      22.6087    -999.2500    -999.2500    2347.4446     505.5988     234.5715       0.0199       3.7153       2.8090
   2852.0134      11.7880       0.0480    -999.2500      22.9120    -999.2500    -999.2500    2452.0620     520.1970     293.8900       0.0163       3.7960       2.8130
   2852.1660      11.7604       0.0415    -999.2500      23.4413    -999.2500    -999.2500    2652.3999     544.1428     338.5332       0.0175       3.7819       2.8055
   2852.3184      11.7330       0.0350    -999.2500      23.9700    -999.2500    -999.2500    2852.5071     568.0610     383.1250       0.0188       3.7680       2.7980
   2852.4707      11.7230       0.0315    -999.2500      24.0600    -999.2500    -999.2500    3675.8894     646.5753     372.7057       0.0236       3.7238       2.7724
   2852.6230      11.7130       0.0280    -999.2500      24.1500    -999.2500    -999.2500    4498.4258     725.0090     362.2970       0.0284       3.6800       2.7470
   2852.7756      11.7110       0.0245    -999.2500      26.6076    -999.2500    -999.2500    4267.4429     714.8584     296.0872       0.0278       3.6399       2.7234
   2852.9280      11.7090       0.0210    -999.2500      29.0630    -999.2500    -999.2500    4036.6680     704.7170     229.9370       0.0273       3.6000       2.7000
   2853.0803      11.7050       0.0170    -999.2500      27.9506    -999.2500    -999.2500    2891.9260     604.5916     249.6637       0.0251       3.5734       2.7141
   2853.2327      11.7010       0.0130    -999.2500      26.8390    -999.2500    -999.2500    1748.0730     504.5440     269.3750       0.0229       3.5470       2.7280
   2853.3850      11.6890       0.0135    -999.2500      22.4416    -999.2500    -999.2500    1066.6423     374.7358     137.6937       0.0199       3.5274       2.7666
   2853.5376      11.6770       0.0140    -999.2500      18.0470    -999.2500    -999.2500     385.6550     245.0120       6.0980       0.0169       3.5080       2.8050
   2853.6899      11.6499       0.0140    -999.2500      18.4691    -999.2500    -999.2500     404.6745     255.4022       9.8165       0.0144       3.4674       2.8231
   2853.8423      11.6230       0.0140    -999.2500      18.8910    -999.2500    -999.2500     423.6840     265.7870      13.5330       0.0118       3.4270       2.8410
   2853.9946      11.5904       0.0155    -999.2500      18.7270    -999.2500    -999.2500     514.1886     305.2039      75.0608       0.0095       3.3156       2.8661
   2854.1472      11.5580       0.0170    -999.2500      18.5630    -999.2500    -999.2500     604.6570     344.6050     136.5640       0.0072       3.2050       2.8910
   2854.2996      11.5685       0.0165    -999.2500      18.1569    -999.2500    -999.2500     937.4286     416.3258     330.4311       0.0075       3.2190       2.8890
   2854.4519      11.5790       0.0160    -999.2500      17.7510    -999.2500    -999.2500    1270.1090     488.0270     524.2450       0.0078       3.2330       2.8870
   2854.6042      11.5715       0.0150    -999.2500      16.8277    -999.2500    -999.2500    1244.6206     485.3038     621.5047       0.0091       3.2842       2.8649
   2854.7568      11.5640       0.0140    -999.2500      15.9060    -999.2500    -999.2500    1219.1360     482.5810     718.7500       0.0103       3.3350       2.8430
   2854.9092      11.5369       0.0130    -999.2500      16.5680    -999.2500    -999.2500    1103.4612     464.0208     467.1536       0.0125       3.4148       2.8470
   2855.0615      11.5100       0.0120    -999.2500      17.2290    -999.2500    -999.2500     987.7890     445.4610     215.5630       0.0147       3.4940       2.8510
   2855.2139      11.4799       0.0115    -999.2500      18.7441    -999.2500    -999.2500     761.4621     394.2226     369.1486       0.0177       3.4764       2.8470
   2855.3662      11.4500       0.0110    -999.2500      20.2570    -999.2500    -999.2500     535.1120     342.9790     522.7500       0.0206       3.4590       2.8430
   2855.5188      11.4324       0.0105    -999.2500      21.5309    -999.2500    -999.2500    1069.2010     396.7514     429.0837       0.0355       3.4675       2.8244
   2855.6711      11.4150       0.0100    -999.2500      22.8030    -999.2500    -999.2500    1603.4120     450.5360     335.3960       0.0503       3.4760       2.8060
   2855.8235      11.4165       0.0105    -999.2500      39.8341    -999.2500    -999.2500    1022.3989     324.6139     180.1636       0.0482       3.5021       2.8261
   2855.9758      11.4180       0.0110    -999.2500      56.8440    -999.2500    -999.2500     442.1110     198.8490      25.1250       0.0461       3.5280       2.8460
   2856.1284      11.4536       0.0120    -999.2500      55.8259    -999.2500    -999.2500     235.1745     116.7345     404.6503       0.0398       3.5581       2.8355
   2856.2808      11.4890       0.0130    -999.2500      54.8090    -999.2500    -999.2500      28.4700      34.7120     783.7500       0.0336       3.5880       2.8250
   2856.4331      11.6978       0.0140    -999.2500      49.6599    -999.2500    -999.2500     301.8403     174.7713     607.3495       0.0284       3.5810       2.8260
   2856.5854      11.9050       0.0150    -999.2500      44.5160    -999.2500    -999.2500     574.9380     314.6910     431.1250       0.0233       3.5740       2.8270
   2856.7380      12.4625       0.0160    -999.2500      36.0013    -999.2500    -999.2500     567.5318     313.7856     452.1256       0.0160       3.5439       2.8310
   2856.8904      13.0160       0.0170    -999.2500      27.4940    -999.2500    -999.2500     560.1320     312.8810     473.1080       0.0088       3.5140       2.8350
   2857.0427      13.7822       0.0185    -999.2500      22.6822    -999.2500    -999.2500     541.1129     305.7999     690.5101       0.0098       3.4648       2.8220
   2857.1951      14.5430       0.0200    -999.2500      17.8740    -999.2500    -999.2500     522.1080     298.7240     907.7500       0.0107       3.4160       2.8090
   2857.3474      15.0794       0.0225    -999.2500      16.8187    -999.2500    -999.2500     544.0428     324.7576     791.7770       0.0106       3.3688       2.8130
   2857.5000      15.6120       0.0250    -999.2500      15.7640    -999.2500    -999.2500     565.9640     350.7750     675.8760       0.0104       3.3220       2.8170
   2857.6523      15.9456       0.0275    -999.2500      14.1816    -999.2500    -999.2500     633.2571     349.2411     354.9211       0.0108       3.3295       2.8285
   2857.8047      16.2770       0.0300    -999.2500      12.6000    -999.2500    -999.2500     700.5170     347.7080      34.1250       0.0111       3.3370       2.8400
   2857.9570      15.9514       0.0325    -999.2500      12.3510    -999.2500    -999.2500     802.3333     398.6099      41.4543       0.0104       3.3641       2.7999
   2858.1096      15.6280       0.0350    -999.2500      12.1020    -999.2500    -999.2500     904.1120     449.4930      48.7810       0.0096       3.3910       2.7600
   2858.2620      14.5053       0.0380    -999.2500      12.2225    -999.2500    -999.2500    1154.4220     446.6317     399.3082       0.0098       3.4266       2.7635
