#------------------------------------------------------------------------------
#
#   Created by  : [OpenWorks] Log Export Utility (LEXP)
#   Created on  : 2016-05-11 12:13:36
#   Project     : CANT971
#   User        : R5K
#   Interpreter : PEP
#
#------------------------------------------------------------------------------
~VERSION INFORMATION
VERS. 2.0 : CWLS Log ASCII Standard - version 2.0
WRAP.  NO : One line per depth step
~WELL INFORMATION
#MNEMONIC   .UNIT                                           VALUE :DESCRIPTION
#------------------------------------------------------------------------------
STRT        .M                                           715.0607 :START DEPTH
STOP        .M                                          3288.1824 :STOP DEPTH
STEP        .M                                             0.1524 :STEP
NULL        .                                           -999.2500 :NULL VALUE
COMP        .                                   PEMEX EXPL & PROD :COMPANY
WELL        .                                               1047D :WELL
FLD         .                                           CANTARELL :FIELD
LOC         .                                             UNKNOWN :LOCATION
CNTY        .                                      CD. DEL CARMEN :COUNTY
STAT        .                                            CAMPECHE :STATE
CTRY        .                                              MEXICO :COUNTRY
SRVC        .                                             UNKNOWN :SERVICE COMPANY
DATE        .                                             UNKNOWN :LOG DATE
UWI         .                                          3060000501 :UNIQUE WELL ID
XCOORD      .                                       601388.630000 :SURFACE X
YCOORD      .                                      2149877.482000 :SURFACE Y
LAT         .                                           19.441878 :LATITUDE
LON         .                                          -92.034159 :LONGITUDE
ELEV        .M                                            28.0000 :SURFACE ELEV
ELEV_TYPE   .                                                  KB :ELEV TYPE
~CURVE INFORMATION
#MNEMONIC.UNIT        API CODE       : CURVE DESCRIPTION
#------------------------------------------------------------------------------
DEPTH    .M                          : Measured Depth
CALI     .inches      UNKNOWN        : CALI:registros:rC:NONE:v0 (auto-composite)
DRHO     .g/cm3       UNKNOWN        : DRHO:registros:rC:NONE:v0 (auto-composite)
DT       .us/ft       UNKNOWN        : DT:registros:rC:NONE:v0 (auto-composite)
GR       .API         UNKNOWN        : GR:registros:rC:NONE:v0 (auto-composite)
ILD      .ohm.m       UNKNOWN        : ILD:registros:rC:NONE:v0 (auto-composite)
ILM      .ohm.m       UNKNOWN        : ILM:registros:rC:NONE:v0 (auto-composite)
LLD      .ohm.m       UNKNOWN        : LLD:registros:rC:NONE:v0 (auto-composite)
LLS      .ohm.m       UNKNOWN        : LLS:registros:rC:NONE:v0 (auto-composite)
MSFL     .ohm.m       UNKNOWN        : MSFL:registros:rC:NONE:v0 (auto-composite)
NPHI     .v/v_decimal UNKNOWN        : NPHI:registros:rC:NONE:v0 (auto-composite)
PEF      .UNKNOWN     UNKNOWN        : PEF:registros:rC:NONE:v0 (auto-composite)
RHOB     .g/cm3       UNKNOWN        : RHOB:registros:rC:NONE:v0 (auto-composite)
~A     DEPTH         CALI         DRHO           DT           GR          ILD          ILM          LLD          LLS         MSFL         NPHI          PEF         RHOB
# ...
   2587.7520      23.1610       0.0910    -999.2500      38.4060    -999.2500    -999.2500      83.6400      87.8560     165.8120       0.1299       3.0250       2.7170
   2587.9043      23.1535       0.0930    -999.2500      38.6967    -999.2500    -999.2500      82.8966      86.8019     101.3232       0.1125       3.0215       2.7205
   2588.0566      23.1460       0.0950    -999.2500      38.9870    -999.2500    -999.2500      82.1540      85.7490      36.9060       0.0952       3.0180       2.7240
   2588.2092      23.1139       0.1030    -999.2500      40.2911    -999.2500    -999.2500      87.7132      90.7970     122.4010       0.0823       2.9859       2.7135
   2588.3616      23.0820       0.1110    -999.2500      41.5940    -999.2500    -999.2500      93.2670      95.8400     207.8120       0.0696       2.9540       2.7030
   2588.5139      22.8943       0.1175    -999.2500      41.2974    -999.2500    -999.2500      89.0262      91.7657     116.6013       0.0733       2.8802       2.6603
   2588.6663      22.7080       0.1240    -999.2500      41.0010    -999.2500    -999.2500      84.7890      87.6950      25.4690       0.0770       2.8070       2.6180
   2588.8188      22.0406       0.1285    -999.2500      39.9221    -999.2500    -999.2500      73.6444      76.9921      57.4022       0.0909       2.7558       2.6240
   2588.9712      21.3780       0.1330    -999.2500      38.8440    -999.2500    -999.2500      62.5080      66.2970      89.3120       0.1048       2.7050       2.6300
   2589.1235      19.1628       0.1460    -999.2500      39.6628    -999.2500    -999.2500      81.1077      82.9621      56.4505       0.1009       2.6899       2.6496
   2589.2759      16.9630       0.1590    -999.2500      40.4810    -999.2500    -999.2500      99.6960      99.6170      23.6090       0.0971       2.6750       2.6690
   2589.4282      16.9645       0.1580    -999.2500      44.0539    -999.2500    -999.2500      99.0418      99.2506      78.2048       0.0862       2.6554       2.6946
   2589.5808      16.9660       0.1570    -999.2500      47.6250    -999.2500    -999.2500      98.3890      98.8850     132.6870       0.0754       2.6360       2.7200
   2589.7332      17.0016       0.1540    -999.2500      46.9204    -999.2500    -999.2500      92.9727      85.7777      78.2278       0.0771       2.5908       2.7150
   2589.8855      17.0370       0.1510    -999.2500      46.2160    -999.2500    -999.2500      87.5670      72.6960      23.8750       0.0788       2.5460       2.7100
   2590.0378      17.1806       0.1440    -999.2500      44.4473    -999.2500    -999.2500      78.7930      72.8301      71.4185       0.0833       2.4601       2.6980
   2590.1904      17.3230       0.1370    -999.2500      42.6790    -999.2500    -999.2500      70.0350      72.9640     118.8750       0.0877       2.3750       2.6860
   2590.3428      17.5861       0.1385    -999.2500      41.1209    -999.2500    -999.2500      71.8666      75.0903     117.3717       0.0931       2.2866       2.6599
   2590.4951      17.8470       0.1400    -999.2500      39.5630    -999.2500    -999.2500      73.6950      77.2130     115.8710       0.0985       2.1990       2.6340
   2590.6475      18.1939       0.1480    -999.2500      39.9718    -999.2500    -999.2500      65.4039      69.1731      94.3200       0.0949       2.1629       2.6340
   2590.8000      18.5380       0.1560    -999.2500      40.3800    -999.2500    -999.2500      57.1260      61.1460      72.8030       0.0913       2.1270       2.6340
   2590.9524      18.8979       0.1696    -999.2500      43.8956    -999.2500    -999.2500      60.6190      64.2988      49.3845       0.0697       2.1054       2.6491
   2591.1047      19.2550       0.1830    -999.2500      47.4060    -999.2500    -999.2500      64.1070      67.4470      26.0000       0.0483       2.0840       2.6640
   2591.2571      19.8001       0.1785    -999.2500      47.0458    -999.2500    -999.2500      76.2496      80.0584     152.1464       0.0490       2.0504       2.7077
   2591.4094      20.3410       0.1740    -999.2500      46.6860    -999.2500    -999.2500      88.3760      92.6530     278.1250       0.0497       2.0170       2.7510
   2591.5620      21.6946       0.1604    -999.2500      45.1551    -999.2500    -999.2500      82.9607      87.6640     203.5987       0.0552       2.0441       2.6883
   2591.7144      23.0380       0.1470    -999.2500      43.6260    -999.2500    -999.2500      77.5520      82.6810     129.1620       0.0607       2.0710       2.6260
   2591.8667      23.0199       0.1495    -999.2500      41.6955    -999.2500    -999.2500      83.2746      87.6537      71.4834       0.0720       2.1638       2.6320
   2592.0190      23.0020       0.1520    -999.2500      39.7670    -999.2500    -999.2500      88.9910      92.6210      13.8670       0.0831       2.2560       2.6380
   2592.1716      22.8615       0.1605    -999.2500      38.9146    -999.2500    -999.2500      87.9180      91.3979      21.2775       0.0830       2.3368       2.6551
   2592.3240      22.7220       0.1690    -999.2500      38.0630    -999.2500    -999.2500      86.8460      90.1760      28.6810       0.0828       2.4170       2.6720
   2592.4763      22.3537       0.1810    -999.2500      40.0323    -999.2500    -999.2500      94.5742      97.7321      90.6477       0.0738       2.4376       2.6855
   2592.6287      21.9880       0.1930    -999.2500      42.0000    -999.2500    -999.2500     102.2960     105.2820     152.5630       0.0647       2.4580       2.6990
   2592.7812      21.5364       0.1875    -999.2500      41.6719    -999.2500    -999.2500      97.0337     100.7679     144.3991       0.0673       2.4620       2.6513
   2592.9336      21.0880       0.1820    -999.2500      41.3440    -999.2500    -999.2500      91.7750      96.2570     136.2410       0.0698       2.4660       2.6040
   2593.0859      20.7087       0.1634    -999.2500      39.7811    -999.2500    -999.2500      80.3997      85.8495      73.7900       0.0791       2.4851       2.6130
   2593.2383      20.3320       0.1450    -999.2500      38.2190    -999.2500    -999.2500      69.0310      75.4480      11.3750       0.0883       2.5040       2.6220
   2593.3906      19.7074       0.1284    -999.2500      40.7821    -999.2500    -999.2500      71.1246      76.7143      15.4772       0.0850       2.5035       2.6461
   2593.5432      19.0880       0.1120    -999.2500      43.3440    -999.2500    -999.2500      73.2140      77.9780      19.5710       0.0816       2.5030       2.6700
   2593.6956      19.1548       0.1025    -999.2500      42.8319    -999.2500    -999.2500      84.4203      88.7854      88.9463       0.0713       2.4884       2.6856
   2593.8479      19.2210       0.0930    -999.2500      42.3200    -999.2500    -999.2500      95.6050      99.5720     158.1880       0.0610       2.4740       2.7010
   2594.0002      19.4053       0.0950    -999.2500      41.0884    -999.2500    -999.2500      92.9626      97.4731     150.7898       0.0637       2.4097       2.6649
   2594.1528      19.5880       0.0970    -999.2500      39.8570    -999.2500    -999.2500      90.3250      95.3780     143.4050       0.0664       2.3460       2.6290
   2594.3052      19.7165       0.1035    -999.2500      39.2435    -999.2500    -999.2500      83.8456      87.2357      84.4812       0.0740       2.2376       2.6345
   2594.4575      19.8440       0.1100    -999.2500      38.6300    -999.2500    -999.2500      77.3770      79.1070      25.6560       0.0815       2.1300       2.6400
   2594.6099      20.0900       0.1175    -999.2500      36.2817    -999.2500    -999.2500      74.8485      79.3202      48.9085       0.0862       2.1526       2.6631
   2594.7625      20.3340       0.1250    -999.2500      33.9370    -999.2500    -999.2500      72.3240      79.5330      72.1250       0.0907       2.1750       2.6860
   2594.9148      20.7963       0.1386    -999.2500      34.7151    -999.2500    -999.2500      69.0442      76.9031      38.9784       0.0889       2.2498       2.6564
