#------------------------------------------------------------------------------
#
#   Created by  : [OpenWorks] Log Export Utility (LEXP)
#   Created on  : 2016-05-11 12:13:36
#   Project     : CANT971
#   User        : R5K
#   Interpreter : PEP
#
#------------------------------------------------------------------------------
~VERSION INFORMATION
VERS. 2.0 : CWLS Log ASCII Standard - version 2.0
WRAP.  NO : One line per depth step
~WELL INFORMATION
#MNEMONIC   .UNIT                                           VALUE :DESCRIPTION
#------------------------------------------------------------------------------
STRT        .M                                           715.0607 :START DEPTH
STOP        .M                                          3288.1824 :STOP DEPTH
STEP        .M                                             0.1524 :STEP
NULL        .                                           -999.2500 :NULL VALUE
COMP        .                                   PEMEX EXPL & PROD :COMPANY
WELL        .                                               1047D :WELL
FLD         .                                           CANTARELL :FIELD
LOC         .                                             UNKNOWN :LOCATION
CNTY        .                                      CD. DEL CARMEN :COUNTY
STAT        .                                            CAMPECHE :STATE
CTRY        .                                              MEXICO :COUNTRY
SRVC        .                                             UNKNOWN :SERVICE COMPANY
DATE        .                                             UNKNOWN :LOG DATE
UWI         .                                          3060000501 :UNIQUE WELL ID
XCOORD      .                                       601388.630000 :SURFACE X
YCOORD      .                                      2149877.482000 :SURFACE Y
LAT         .                                           19.441878 :LATITUDE
LON         .                                          -92.034159 :LONGITUDE
ELEV        .M                                            28.0000 :SURFACE ELEV
ELEV_TYPE   .                                                  KB :ELEV TYPE
~CURVE INFORMATION
#MNEMONIC.UNIT        API CODE       : CURVE DESCRIPTION
#------------------------------------------------------------------------------
DEPTH    .M                          : Measured Depth
CALI     .inches      UNKNOWN        : CALI:registros:rC:NONE:v0 (auto-composite)
DRHO     .g/cm3       UNKNOWN        : DRHO:registros:rC:NONE:v0 (auto-composite)
DT       .us/ft       UNKNOWN        : DT:registros:rC:NONE:v0 (auto-composite)
GR       .API         UNKNOWN        : GR:registros:rC:NONE:v0 (auto-composite)
ILD      .ohm.m       UNKNOWN        : ILD:registros:rC:NONE:v0 (auto-composite)
ILM      .ohm.m       UNKNOWN        : ILM:registros:rC:NONE:v0 (auto-composite)
LLD      .ohm.m       UNKNOWN        : LLD:registros:rC:NONE:v0 (auto-composite)
LLS      .ohm.m       UNKNOWN        : LLS:registros:rC:NONE:v0 (auto-composite)
MSFL     .ohm.m       UNKNOWN        : MSFL:registros:rC:NONE:v0 (auto-composite)
NPHI     .v/v_decimal UNKNOWN        : NPHI:registros:rC:NONE:v0 (auto-composite)
PEF      .UNKNOWN     UNKNOWN        : PEF:registros:rC:NONE:v0 (auto-composite)
RHOB     .g/cm3       UNKNOWN        : RHOB:registros:rC:NONE:v0 (auto-composite)
~A     DEPTH         CALI         DRHO           DT           GR          ILD          ILM          LLD          LLS         MSFL         NPHI          PEF         RHOB
# ...
   3012.0334      11.5010       0.0180      51.7710      24.6090    -999.2500    -999.2500     417.8460     282.8820     325.3750       0.0399       3.4450       2.8040
   3012.1860      11.5005       0.0180      51.6119      24.6165    -999.2500    -999.2500     332.9050     241.5831     226.0975       0.0333       3.5127       2.8080
   3012.3384      11.5000       0.0180      51.4520      24.6240    -999.2500    -999.2500     247.9040     200.2550     126.7500       0.0266       3.5800       2.8120
   3012.4907      11.5025       0.0180      51.8613      25.6109    -999.2500    -999.2500     227.1301     187.9146     138.3392       0.0241       3.7100       2.8090
   3012.6431      11.5050       0.0180      52.2730      26.5970    -999.2500    -999.2500     206.3390     175.5640     149.9380       0.0215       3.8390       2.8060
   3012.7954      11.5100       0.0160      52.0471      28.4991    -999.2500    -999.2500     170.7210     151.5355      96.1767       0.0259       3.7969       2.8361
   3012.9480      11.5150       0.0140      51.8200      30.4000    -999.2500    -999.2500     135.0690     127.4840      42.3640       0.0302       3.7550       2.8660
   3013.1003      11.5070       0.0125      53.1939      30.8406    -999.2500    -999.2500     125.8151     120.7693      34.8205       0.0309       3.6547       2.8469
   3013.2527      11.4990       0.0110      54.5760      31.2810    -999.2500    -999.2500     116.5660     114.0580      27.2810       0.0315       3.5550       2.8280
   3013.4050      11.4739       0.0095      53.3462      33.5314    -999.2500    -999.2500     120.4503     117.2446      70.9636       0.0366       3.4592       2.7954
   3013.5576      11.4490       0.0080      52.1090      35.7810    -999.2500    -999.2500     124.3330     120.4300     114.6290       0.0418       3.3640       2.7630
   3013.7100      11.3677       0.0085      51.1146      32.5246    -999.2500    -999.2500     149.3034     135.6120     177.1039       0.0446       3.2893       2.7665
   3013.8623      11.2870       0.0090      50.1140      29.2690    -999.2500    -999.2500     174.2670     150.7900     239.5620       0.0475       3.2150       2.7700
   3014.0146      11.2664       0.0095      50.4833      26.7258    -999.2500    -999.2500     201.2724     167.2212     148.3215       0.0436       3.2451       2.7876
   3014.1672      11.2460       0.0100      50.8550      24.1870    -999.2500    -999.2500     228.2740     183.6500      57.0940       0.0398       3.2750       2.8050
   3014.3196      11.2450       0.0105      52.6562      25.7117    -999.2500    -999.2500     242.3401     188.7685     139.5017       0.0343       3.3196       2.8085
   3014.4719      11.2440       0.0110      54.4690      27.2340    -999.2500    -999.2500     256.4060     193.8870     221.9080       0.0287       3.3640       2.8120
   3014.6243      11.2475       0.0115      55.4174      27.1484    -999.2500    -999.2500     317.6157     224.8443     237.7341       0.0288       3.3996       2.8150
   3014.7766      11.2510       0.0120      56.3720      27.0630    -999.2500    -999.2500     378.8320     255.8050     253.5620       0.0289       3.4350       2.8180
   3014.9292      11.2550       0.0115      56.2743      27.5213    -999.2500    -999.2500     354.2514     243.2415     201.5006       0.0257       3.4450       2.8135
   3015.0815      11.2590       0.0110      56.1760      27.9790    -999.2500    -999.2500     329.6650     230.6750     149.4270       0.0226       3.4550       2.8090
   3015.2339      11.2590       0.0115      56.0694      28.8220    -999.2500    -999.2500     283.8127     205.3270     133.3414       0.0312       3.4505       2.7990
   3015.3862      11.2590       0.0120      55.9620      29.6640    -999.2500    -999.2500     237.9440     179.9700     117.2500       0.0398       3.4460       2.7890
   3015.5388      11.2530       0.0125      56.5694      29.8321    -999.2500    -999.2500     214.1883     166.5118     117.6559       0.0443       3.4284       2.7935
   3015.6912      11.2470       0.0130      57.1810      30.0000    -999.2500    -999.2500     190.4210     153.0470     118.0620       0.0487       3.4110       2.7980
   3015.8435      11.2334       0.0150      56.6076      30.8484    -999.2500    -999.2500     173.5641     140.9012      82.9167       0.0444       3.3990       2.8065
   3015.9958      11.2200       0.0170      56.0310      31.6960    -999.2500    -999.2500     156.6970     128.7480      47.7500       0.0400       3.3870       2.8150
   3016.1484      11.2185       0.0185      56.5775      33.3782    -999.2500    -999.2500     141.7410     116.8059      57.9338       0.0419       3.3955       2.7989
   3016.3008      11.2170       0.0200      57.1270      35.0590    -999.2500    -999.2500     126.7740     104.8550      68.1250       0.0438       3.4040       2.7830
   3016.4531      11.2210       0.0200      57.3389      37.9081    -999.2500    -999.2500     137.9197     112.0404      67.8911       0.0537       3.4311       2.7705
   3016.6055      11.2250       0.0200      57.5520      40.7550    -999.2500    -999.2500     149.0750     119.2320      67.6570       0.0635       3.4580       2.7580
   3016.7578      11.2300       0.0205      56.3644      46.2542    -999.2500    -999.2500     129.4957     107.0430      57.1307       0.0676       3.4886       2.7585
   3016.9104      11.2350       0.0210      55.1700      51.7500    -999.2500    -999.2500     109.8970      94.8420      46.5940       0.0716       3.5190       2.7590
   3017.0627      11.2320       0.0220      54.1530      49.2179    -999.2500    -999.2500      84.9524      75.5423      53.5487       0.0732       3.5250       2.7605
   3017.2151      11.2290       0.0230      53.1300      46.6870    -999.2500    -999.2500      60.0200      56.2520      60.5000       0.0748       3.5310       2.7620
   3017.3674      11.2109       0.0240      54.1718      49.0314    -999.2500    -999.2500      51.8615      49.1492      46.8880       0.0686       3.5300       2.7640
   3017.5200      11.1930       0.0250      55.2200      51.3750    -999.2500    -999.2500      43.7060      42.0490      33.2810       0.0624       3.5290       2.7660
   3017.6724      11.1769       0.0265      55.7907      48.5502    -999.2500    -999.2500      41.8138      40.3168      37.3280       0.0544       3.5069       2.7780
   3017.8247      11.1610       0.0280      56.3650      45.7260    -999.2500    -999.2500      39.9220      38.5850      41.3740       0.0465       3.4850       2.7900
   3017.9771      11.1454       0.0310      55.7479      43.6037    -999.2500    -999.2500      45.4898      42.5077      47.7969       0.0456       3.4614       2.7940
   3018.1296      11.1300       0.0340      55.1270      41.4850    -999.2500    -999.2500      51.0570      46.4300      54.2190       0.0446       3.4380       2.7980
   3018.2820      11.1335       0.0375      55.9493      37.4268    -999.2500    -999.2500      65.6819      57.4414      50.9620       0.0557       3.4144       2.7819
   3018.4343      11.1370       0.0410      56.7770      33.3750    -999.2500    -999.2500      80.3070      68.4530      47.7050       0.0667       3.3910       2.7660
   3018.5867      11.1410       0.0465      56.5796      35.8438    -999.2500    -999.2500      67.7254      59.2346      33.2595       0.0736       3.3749       2.7675
   3018.7390      11.1450       0.0520      56.3810      38.3090    -999.2500    -999.2500      55.1420      50.0150      18.8120       0.0805       3.3590       2.7690
   3018.8916      11.1500       0.0475      55.1197      41.1149    -999.2500    -999.2500      46.6776      42.2425      66.1188       0.0753       3.3585       2.7705
   3019.0439      11.1550       0.0430      53.8500      43.9170    -999.2500    -999.2500      38.2110      34.4680     113.4380       0.0702       3.3580       2.7720
   3019.1963      11.1520       0.0395      56.6769      46.4095    -999.2500    -999.2500      39.7012      35.3193      89.0518       0.0658       3.4022       2.7805
