#------------------------------------------------------------------------------
#
#   Created by  : [OpenWorks] Log Export Utility (LEXP)
#   Created on  : 2016-05-11 12:13:36
#   Project     : CANT971
#   User        : R5K
#   Interpreter : PEP
#
#------------------------------------------------------------------------------
~VERSION INFORMATION
VERS. 2.0 : CWLS Log ASCII Standard - version 2.0
WRAP.  NO : One line per depth step
~WELL INFORMATION
#MNEMONIC   .UNIT                                           VALUE :DESCRIPTION
#------------------------------------------------------------------------------
STRT        .M                                           715.0607 :START DEPTH
STOP        .M                                          3288.1824 :STOP DEPTH
STEP        .M                                             0.1524 :STEP
NULL        .                                           -999.2500 :NULL VALUE
COMP        .                                   PEMEX EXPL & PROD :COMPANY
WELL        .                                               1047D :WELL
FLD         .                                           CANTARELL :FIELD
LOC         .                                             UNKNOWN :LOCATION
CNTY        .                                      CD. DEL CARMEN :COUNTY
STAT        .                                            CAMPECHE :STATE
CTRY        .                                              MEXICO :COUNTRY
SRVC        .                                             UNKNOWN :SERVICE COMPANY
DATE        .                                             UNKNOWN :LOG DATE
UWI         .                                          3060000501 :UNIQUE WELL ID
XCOORD      .                                       601388.630000 :SURFACE X
YCOORD      .                                      2149877.482000 :SURFACE Y
LAT         .                                           19.441878 :LATITUDE
LON         .                                          -92.034159 :LONGITUDE
ELEV        .M                                            28.0000 :SURFACE ELEV
ELEV_TYPE   .                                                  KB :ELEV TYPE
~CURVE INFORMATION
#MNEMONIC.UNIT        API CODE       : CURVE DESCRIPTION
#------------------------------------------------------------------------------
DEPTH    .M                          : Measured Depth
CALI     .inches      UNKNOWN        : CALI:registros:rC:NONE:v0 (auto-composite)
DRHO     .g/cm3       UNKNOWN        : DRHO:registros:rC:NONE:v0 (auto-composite)
DT       .us/ft       UNKNOWN        : DT:registros:rC:NONE:v0 (auto-composite)
GR       .API         UNKNOWN        : GR:registros:rC:NONE:v0 (auto-composite)
ILD      .ohm.m       UNKNOWN        : ILD:registros:rC:NONE:v0 (auto-composite)
ILM      .ohm.m       UNKNOWN        : ILM:registros:rC:NONE:v0 (auto-composite)
LLD      .ohm.m       UNKNOWN        : LLD:registros:rC:NONE:v0 (auto-composite)
LLS      .ohm.m       UNKNOWN        : LLS:registros:rC:NONE:v0 (auto-composite)
MSFL     .ohm.m       UNKNOWN        : MSFL:registros:rC:NONE:v0 (auto-composite)
NPHI     .v/v_decimal UNKNOWN        : NPHI:registros:rC:NONE:v0 (auto-composite)
PEF      .UNKNOWN     UNKNOWN        : PEF:registros:rC:NONE:v0 (auto-composite)
RHOB     .g/cm3       UNKNOWN        : RHOB:registros:rC:NONE:v0 (auto-composite)
~A     DEPTH         CALI         DRHO           DT           GR          ILD          ILM          LLD          LLS         MSFL         NPHI          PEF         RHOB
# ...
   2690.1648      14.3870       0.0930    -999.2500      22.1250    -999.2500    -999.2500     295.4070      93.1980     174.1880       0.1051       3.2860       2.6070
   2690.3171      14.3609       0.0955    -999.2500      24.7787    -999.2500    -999.2500     296.9174      94.8380     101.4641       0.1007       3.3567       2.6150
   2690.4695      14.3350       0.0980    -999.2500      27.4310    -999.2500    -999.2500     298.4270      96.4770      28.7810       0.0964       3.4270       2.6230
   2690.6218      14.3154       0.1020    -999.2500      36.3424    -999.2500    -999.2500     351.1075     111.5348      30.7639       0.0888       3.5178       2.6391
   2690.7744      14.2960       0.1060    -999.2500      45.2500    -999.2500    -999.2500     403.7650     126.5860      32.7460       0.0813       3.6080       2.6550
   2690.9268      14.2669       0.1130    -999.2500      41.2429    -999.2500    -999.2500     526.4590     156.3636      77.9425       0.0763       3.7068       2.6781
   2691.0791      14.2380       0.1200    -999.2500      37.2370    -999.2500    -999.2500     649.1150     186.1320     123.1250       0.0713       3.8050       2.7010
   2691.2314      14.1983       0.1230    -999.2500      33.2511    -999.2500    -999.2500     630.3272     177.5553      99.6666       0.0734       3.7935       2.6985
   2691.3840      14.1590       0.1260    -999.2500      29.2660    -999.2500    -999.2500     611.5730     168.9940      76.2500       0.0755       3.7820       2.6960
   2691.5364      14.1329       0.1250    -999.2500      29.5130    -999.2500    -999.2500     583.7029     158.0039      78.9713       0.0804       3.7489       2.7010
   2691.6887      14.1070       0.1240    -999.2500      29.7600    -999.2500    -999.2500     555.8790     147.0320      81.6880       0.0852       3.7160       2.7060
   2691.8411      14.0950       0.1205    -999.2500      29.8886    -999.2500    -999.2500     460.4023     123.9833      69.6468       0.0958       3.6563       2.6749
   2691.9934      14.0830       0.1170    -999.2500      30.0170    -999.2500    -999.2500     365.0720     100.9700      57.6240       0.1063       3.5970       2.6440
   2692.1460      14.0544       0.0999    -999.2500      31.5566    -999.2500    -999.2500     381.5616     106.4248      51.3701       0.1055       3.5714       2.6470
   2692.2983      14.0260       0.0830    -999.2500      33.0940    -999.2500    -999.2500     398.0280     111.8720      45.1250       0.1048       3.5460       2.6500
   2692.4507      13.9949       0.0705    -999.2500      33.0180    -999.2500    -999.2500     565.9208     156.4231      70.4538       0.0999       3.5656       2.6605
   2692.6030      13.9640       0.0580    -999.2500      32.9420    -999.2500    -999.2500     733.5980     200.9170      95.7500       0.0950       3.5850       2.6710
   2692.7556      13.9670       0.0475    -999.2500      32.7029    -999.2500    -999.2500     721.5205     199.5737      83.2948       0.0904       3.6076       2.6760
   2692.9080      13.9700       0.0370    -999.2500      32.4640    -999.2500    -999.2500     709.4570     198.2320      70.8540       0.0859       3.6300       2.6810
   2693.0603      13.9785       0.0280    -999.2500      31.8137    -999.2500    -999.2500     677.7421     188.0798      62.6102       0.0800       3.6531       2.6840
   2693.2126      13.9870       0.0190    -999.2500      31.1640    -999.2500    -999.2500     646.0600     177.9380      54.3750       0.0741       3.6760       2.6870
   2693.3652      13.9840       0.0125    -999.2500      30.1736    -999.2500    -999.2500     655.5353     178.0075      74.4901       0.0702       3.6660       2.7005
   2693.5176      13.9810       0.0060    -999.2500      29.1840    -999.2500    -999.2500     665.0020     178.0770      94.5870       0.0664       3.6560       2.7140
   2693.6699      13.9489       0.0010    -999.2500      27.6929    -999.2500    -999.2500     645.1077     174.2205     126.3999       0.0670       3.6394       2.7205
   2693.8223      13.9170      -0.0040    -999.2500      26.2030    -999.2500    -999.2500     625.2290     170.3670     158.1880       0.0676       3.6230       2.7270
   2693.9746      13.8513      -0.0030    -999.2500      27.6645    -999.2500    -999.2500     545.8245     156.5060     142.3833       0.0700       3.6009       2.7325
   2694.1272      13.7860      -0.0020    -999.2500      29.1250    -999.2500    -999.2500     466.4720     142.6540     126.5890       0.0723       3.5790       2.7380
   2694.2795      13.7985       0.0015    -999.2500      30.3833    -999.2500    -999.2500     474.1515     149.3383     117.2880       0.0756       3.5554       2.7154
   2694.4319      13.8110       0.0050    -999.2500      31.6410    -999.2500    -999.2500     481.8270     156.0190     107.9920       0.0790       3.5320       2.6930
   2694.5842      13.8516       0.0110    -999.2500      30.7268    -999.2500    -999.2500     480.9218     173.3525      75.7550       0.0853       3.5079       2.6815
   2694.7368      13.8920       0.0170    -999.2500      29.8130    -999.2500    -999.2500     480.0170     190.6790      43.5310       0.0915       3.4840       2.6700
   2694.8892      13.8780       0.0371    -999.2500      31.0832    -999.2500    -999.2500     445.7242     187.8911      56.2358       0.0877       3.4579       2.6825
   2695.0415      13.8640       0.0570    -999.2500      32.3530    -999.2500    -999.2500     411.4410     185.1040      68.9370       0.0839       3.4320       2.6950
   2695.1938      13.8776       0.0851    -999.2500      35.2726    -999.2500    -999.2500     373.4717     173.4102      58.7315       0.0808       3.4215       2.6799
   2695.3464      13.8910       0.1130    -999.2500      38.1870    -999.2500    -999.2500     335.5690     161.7370      48.5440       0.0777       3.4110       2.6650
   2695.4988      14.2981       0.1271    -999.2500      37.5715    -999.2500    -999.2500     321.9444     152.7081      37.1457       0.0757       3.4406       2.6409
   2695.6511      14.7020       0.1410    -999.2500      36.9570    -999.2500    -999.2500     308.3420     143.6940      25.7660       0.0737       3.4700       2.6170
   2695.8035      15.0102       0.1475    -999.2500      33.4178    -999.2500    -999.2500     364.2145     166.9575      45.1416       0.0685       3.5448       2.6466
   2695.9558      15.3160       0.1540    -999.2500      29.8840    -999.2500    -999.2500     420.0030     190.1860      64.4880       0.0634       3.6190       2.6760
   2696.1084      15.6101       0.1605    -999.2500      27.8106    -999.2500    -999.2500     547.9211     245.9564      82.3813       0.0540       3.6481       2.7086
   2696.2607      15.9020       0.1670    -999.2500      25.7400    -999.2500    -999.2500     675.6630     301.6500     100.2500       0.0448       3.6770       2.7410
   2696.4131      16.1811       0.1795    -999.2500      22.4124    -999.2500    -999.2500     795.9259     346.4506      88.0864       0.0469       3.6193       2.7204
   2696.5654      16.4580       0.1920    -999.2500      19.0890    -999.2500    -999.2500     916.0380     391.1950      75.9380       0.0490       3.5620       2.7000
   2696.7180      16.6191       0.2050    -999.2500      16.9963    -999.2500    -999.2500    1319.1866     518.8474     137.8249       0.0549       3.4390       2.6905
   2696.8704      16.7790       0.2180    -999.2500      14.9060    -999.2500    -999.2500    1721.8810     646.3560     199.6420       0.0606       3.3170       2.6810
   2697.0227      16.1236       0.2416    -999.2500      15.9455    -999.2500    -999.2500    2187.7578     863.6920     369.2810       0.0603       3.2171       2.6925
   2697.1750      15.4730       0.2650    -999.2500      16.9840    -999.2500    -999.2500    2653.1680    1080.8101     538.7500       0.0600       3.1180       2.7040
   2697.3276      15.0936       0.2775    -999.2500      16.7009    -999.2500    -999.2500    2981.3022    1214.9277     480.7811       0.0575       3.0904       2.7090
