#------------------------------------------------------------------------------
#
#   Created by  : [OpenWorks] Log Export Utility (LEXP)
#   Created on  : 2016-05-11 12:13:36
#   Project     : CANT971
#   User        : R5K
#   Interpreter : PEP
#
#------------------------------------------------------------------------------
~VERSION INFORMATION
VERS. 2.0 : CWLS Log ASCII Standard - version 2.0
WRAP.  NO : One line per depth step
~WELL INFORMATION
#MNEMONIC   .UNIT                                           VALUE :DESCRIPTION
#------------------------------------------------------------------------------
STRT        .M                                           715.0607 :START DEPTH
STOP        .M                                          3288.1824 :STOP DEPTH
STEP        .M                                             0.1524 :STEP
NULL        .                                           -999.2500 :NULL VALUE
COMP        .                                   PEMEX EXPL & PROD :COMPANY
WELL        .                                               1047D :WELL
FLD         .                                           CANTARELL :FIELD
LOC         .                                             UNKNOWN :LOCATION
CNTY        .                                      CD. DEL CARMEN :COUNTY
STAT        .                                            CAMPECHE :STATE
CTRY        .                                              MEXICO :COUNTRY
SRVC        .                                             UNKNOWN :SERVICE COMPANY
DATE        .                                             UNKNOWN :LOG DATE
UWI         .                                          3060000501 :UNIQUE WELL ID
XCOORD      .                                       601388.630000 :SURFACE X
YCOORD      .                                      2149877.482000 :SURFACE Y
LAT         .                                           19.441878 :LATITUDE
LON         .                                          -92.034159 :LONGITUDE
ELEV        .M                                            28.0000 :SURFACE ELEV
ELEV_TYPE   .                                                  KB :ELEV TYPE
~CURVE INFORMATION
#MNEMONIC.UNIT        API CODE       : CURVE DESCRIPTION
#------------------------------------------------------------------------------
DEPTH    .M                          : Measured Depth
CALI     .inches      UNKNOWN        : CALI:registros:rC:NONE:v0 (auto-composite)
DRHO     .g/cm3       UNKNOWN        : DRHO:registros:rC:NONE:v0 (auto-composite)
DT       .us/ft       UNKNOWN        : DT:registros:rC:NONE:v0 (auto-composite)
GR       .API         UNKNOWN        : GR:registros:rC:NONE:v0 (auto-composite)
ILD      .ohm.m       UNKNOWN        : ILD:registros:rC:NONE:v0 (auto-composite)
ILM      .ohm.m       UNKNOWN        : ILM:registros:rC:NONE:v0 (auto-composite)
LLD      .ohm.m       UNKNOWN        : LLD:registros:rC:NONE:v0 (auto-composite)
LLS      .ohm.m       UNKNOWN        : LLS:registros:rC:NONE:v0 (auto-composite)
MSFL     .ohm.m       UNKNOWN        : MSFL:registros:rC:NONE:v0 (auto-composite)
NPHI     .v/v_decimal UNKNOWN        : NPHI:registros:rC:NONE:v0 (auto-composite)
PEF      .UNKNOWN     UNKNOWN        : PEF:registros:rC:NONE:v0 (auto-composite)
RHOB     .g/cm3       UNKNOWN        : RHOB:registros:rC:NONE:v0 (auto-composite)
~A     DEPTH         CALI         DRHO           DT           GR          ILD          ILM          LLD          LLS         MSFL         NPHI          PEF         RHOB
# ...
   3070.5552      10.6160       0.0270      50.8450      48.4160    -999.2500    -999.2500     153.4020     154.2670     201.1980       0.0349       3.5480       2.8440
   3070.7075      10.6295       0.0265      51.2421      49.1303    -999.2500    -999.2500     126.9599     130.9027     124.4418       0.0268       3.5339       2.8430
   3070.8599      10.6430       0.0260      51.6420      49.8440    -999.2500    -999.2500     100.4970     107.5200      47.6250       0.0186       3.5200       2.8420
   3071.0125      10.6565       0.0250      52.3833      48.5686    -999.2500    -999.2500     102.9999     109.8179      51.4562       0.0199       3.5044       2.8310
   3071.1648      10.6700       0.0240      53.1300      47.2940    -999.2500    -999.2500     105.5050     112.1180      55.2910       0.0211       3.4890       2.8200
   3071.3171      10.6695       0.0230      52.9680      39.8479    -999.2500    -999.2500     202.1417     191.8765     103.5149       0.0301       3.4679       2.8215
   3071.4695      10.6690       0.0220      52.8050      32.4060    -999.2500    -999.2500     298.8790     271.7180     151.7890       0.0391       3.4470       2.8230
   3071.6218      10.6665       0.0195      51.5767      37.1725    -999.2500    -999.2500     289.6764     264.3768     255.5215       0.0389       3.4239       2.8225
   3071.7744      10.6640       0.0170      50.3410      41.9370    -999.2500    -999.2500     280.4630     257.0270     359.3750       0.0387       3.4010       2.8220
   3071.9268      10.6550       0.0155      50.3839      41.8505    -999.2500    -999.2500     202.7875     191.8544     211.8211       0.0373       3.3774       2.8225
   3072.0791      10.6460       0.0140      50.4270      41.7640    -999.2500    -999.2500     125.1360     126.7020      64.3130       0.0358       3.3540       2.8230
   3072.2314      10.6460       0.0130      51.0057      40.1150    -999.2500    -999.2500     148.8432     148.4350      68.2999       0.0322       3.3560       2.8245
   3072.3840      10.6460       0.0120      51.5880      38.4690    -999.2500    -999.2500     172.5460     170.1640      72.2860       0.0287       3.3580       2.8260
   3072.5364      10.6490       0.0120      51.5561      43.8485    -999.2500    -999.2500     167.3708     165.7409     275.7115       0.0218       3.3751       2.8340
   3072.6887      10.6520       0.0120      51.5240      49.2190    -999.2500    -999.2500     162.1960     161.3180     479.1250       0.0149       3.3920       2.8420
   3072.8411      10.6655       0.0125      51.0690      48.3183    -999.2500    -999.2500     126.4262     129.2241     259.7103       0.0254       3.4256       2.8164
   3072.9934      10.6790       0.0130      50.6110      47.4190    -999.2500    -999.2500      90.6540      97.1280      40.2810       0.0359       3.4590       2.7910
   3073.1460      10.6976       0.0135      48.1492      40.2670    -999.2500    -999.2500     105.7970     112.0051     211.6865       0.0359       3.5097       2.7920
   3073.2983      10.7160       0.0140      45.6710      33.1250    -999.2500    -999.2500     120.9430     126.8850     383.1250       0.0359       3.5600       2.7930
   3073.4507      10.7140       0.0140      45.7702      37.9251    -999.2500    -999.2500      96.7683     103.2033     206.1531       0.0348       3.5600       2.8126
   3073.6030      10.7120       0.0140      45.8700      42.7190    -999.2500    -999.2500      72.5860      79.5140      29.1250       0.0336       3.5600       2.8320
   3073.7556      10.7000       0.0145      48.0630      42.1687    -999.2500    -999.2500      72.7805      79.6525      32.4488       0.0256       3.5510       2.8275
   3073.9080      10.6880       0.0150      50.2710      41.6190    -999.2500    -999.2500      72.9750      79.7910      35.7740       0.0176       3.5420       2.8230
   3074.0603      10.6734       0.0165      40.9705      38.3868    -999.2500    -999.2500      76.1896      82.6392      94.1519       0.0181       3.4943       2.8235
   3074.2126      10.6590       0.0180      31.6050      35.1580    -999.2500    -999.2500      79.4060      85.4890     152.5630       0.0187       3.4470       2.8240
   3074.3652      10.6424       0.0195      32.7958      33.3402    -999.2500    -999.2500      94.4228      99.6756     135.7249       0.0225       3.3597       2.8094
   3074.5176      10.6260       0.0210      33.9950      31.5240    -999.2500    -999.2500     109.4500     113.8720     118.8750       0.0263       3.2730       2.7950
   3074.6699      10.6265       0.0235      40.4461      27.5650    -999.2500    -999.2500     158.1285     153.3813     121.3900       0.0258       3.2760       2.7960
   3074.8223      10.6270       0.0260      46.9440      23.6090    -999.2500    -999.2500     206.8470     192.9230     123.9070       0.0253       3.2790       2.7970
   3074.9746      10.6325       0.0300      48.7867      24.2357    -999.2500    -999.2500     204.1328     191.3772     205.6023       0.0215       3.2991       2.8035
   3075.1272      10.6380       0.0340      50.6430      24.8620    -999.2500    -999.2500     201.4160     189.8300     287.3750       0.0177       3.3190       2.8100
   3075.2795      10.6465       0.0340      50.3125      30.6670    -999.2500    -999.2500     146.3495     143.5893     163.8941       0.0182       3.3491       2.8175
   3075.4319      10.6550       0.0340      49.9800      36.4690    -999.2500    -999.2500      91.2240      97.2990      40.2810       0.0187       3.3790       2.8250
   3075.5842      10.6665       0.0330      50.0488      32.8508    -999.2500    -999.2500     106.4184     111.1387     136.6143       0.0225       3.3775       2.8240
   3075.7368      10.6780       0.0320      50.1180      29.2340    -999.2500    -999.2500     121.6310     124.9950     233.0630       0.0262       3.3760       2.8230
   3075.8892      10.6956       0.0320      50.5447      29.4755    -999.2500    -999.2500     118.5796     122.2606     219.0080       0.0262       3.3645       2.8245
   3076.0415      10.7130       0.0320      50.9740      29.7170    -999.2500    -999.2500     115.5290     119.5270     204.9570       0.0262       3.3530       2.8260
   3076.1938      10.7245       0.0325      51.5666      31.1988    -999.2500    -999.2500      96.0730     100.1565     154.2341       0.0253       3.3239       2.8370
   3076.3464      10.7360       0.0330      52.1630      32.6780    -999.2500    -999.2500      76.6200      80.7890     103.5190       0.0244       3.2950       2.8480
   3076.4988      10.7410       0.0360      52.1127      34.2468    -999.2500    -999.2500      79.4185      83.5105      71.0405       0.0246       3.2228       2.8249
   3076.6511      10.7460       0.0390      52.0620      35.8130    -999.2500    -999.2500      82.2170      86.2320      38.5630       0.0248       3.1510       2.8020
   3076.8035      10.7460       0.0425      51.5267      30.9343    -999.2500    -999.2500     143.7550     140.3559     202.7110       0.0300       3.1520       2.8045
   3076.9558      10.7460       0.0460      50.9880      26.0630    -999.2500    -999.2500     205.2990     194.4850     366.8750       0.0352       3.1530       2.8070
   3077.1084      10.7450       0.0515      49.3539      27.0357    -999.2500    -999.2500     199.8501     190.5054     327.8469       0.0350       3.1610       2.8326
   3077.2607      10.7440       0.0570      47.7090      28.0070    -999.2500    -999.2500     194.4000     186.5250     288.8100       0.0349       3.1690       2.8580
   3077.4131      10.7395       0.0565      46.5031      41.9808    -999.2500    -999.2500     164.9011     162.8481     182.9899       0.0335       3.1996       2.8575
   3077.5654      10.7350       0.0560      45.2890      55.9370    -999.2500    -999.2500     135.3920     139.1630      77.1330       0.0321       3.2300       2.8570
   3077.7180      10.7320       0.0520      45.6089      54.8429    -999.2500    -999.2500     105.6675     108.4493      53.5876       0.0274       3.2902       2.8570
