#------------------------------------------------------------------------------
#
#   Created by  : [OpenWorks] Log Export Utility (LEXP)
#   Created on  : 2016-05-11 12:13:36
#   Project     : CANT971
#   User        : R5K
#   Interpreter : PEP
#
#------------------------------------------------------------------------------
~VERSION INFORMATION
VERS. 2.0 : CWLS Log ASCII Standard - version 2.0
WRAP.  NO : One line per depth step
~WELL INFORMATION
#MNEMONIC   .UNIT                                           VALUE :DESCRIPTION
#------------------------------------------------------------------------------
STRT        .M                                           715.0607 :START DEPTH
STOP        .M                                          3288.1824 :STOP DEPTH
STEP        .M                                             0.1524 :STEP
NULL        .                                           -999.2500 :NULL VALUE
COMP        .                                   PEMEX EXPL & PROD :COMPANY
WELL        .                                               1047D :WELL
FLD         .                                           CANTARELL :FIELD
LOC         .                                             UNKNOWN :LOCATION
CNTY        .                                      CD. DEL CARMEN :COUNTY
STAT        .                                            CAMPECHE :STATE
CTRY        .                                              MEXICO :COUNTRY
SRVC        .                                             UNKNOWN :SERVICE COMPANY
DATE        .                                             UNKNOWN :LOG DATE
UWI         .                                          3060000501 :UNIQUE WELL ID
XCOORD      .                                       601388.630000 :SURFACE X
YCOORD      .                                      2149877.482000 :SURFACE Y
LAT         .                                           19.441878 :LATITUDE
LON         .                                          -92.034159 :LONGITUDE
ELEV        .M                                            28.0000 :SURFACE ELEV
ELEV_TYPE   .                                                  KB :ELEV TYPE
~CURVE INFORMATION
#MNEMONIC.UNIT        API CODE       : CURVE DESCRIPTION
#------------------------------------------------------------------------------
DEPTH    .M                          : Measured Depth
CALI     .inches      UNKNOWN        : CALI:registros:rC:NONE:v0 (auto-composite)
DRHO     .g/cm3       UNKNOWN        : DRHO:registros:rC:NONE:v0 (auto-composite)
DT       .us/ft       UNKNOWN        : DT:registros:rC:NONE:v0 (auto-composite)
GR       .API         UNKNOWN        : GR:registros:rC:NONE:v0 (auto-composite)
ILD      .ohm.m       UNKNOWN        : ILD:registros:rC:NONE:v0 (auto-composite)
ILM      .ohm.m       UNKNOWN        : ILM:registros:rC:NONE:v0 (auto-composite)
LLD      .ohm.m       UNKNOWN        : LLD:registros:rC:NONE:v0 (auto-composite)
LLS      .ohm.m       UNKNOWN        : LLS:registros:rC:NONE:v0 (auto-composite)
MSFL     .ohm.m       UNKNOWN        : MSFL:registros:rC:NONE:v0 (auto-composite)
NPHI     .v/v_decimal UNKNOWN        : NPHI:registros:rC:NONE:v0 (auto-composite)
PEF      .UNKNOWN     UNKNOWN        : PEF:registros:rC:NONE:v0 (auto-composite)
RHOB     .g/cm3       UNKNOWN        : RHOB:registros:rC:NONE:v0 (auto-composite)
~A     DEPTH         CALI         DRHO           DT           GR          ILD          ILM          LLD          LLS         MSFL         NPHI          PEF         RHOB
# ...
   2799.8928      11.3400       0.0350    -999.2500      12.8130    -999.2500    -999.2500     316.3980     150.5850     267.5870       0.1110       3.4210       2.6100
   2800.0452      11.3345       0.0345    -999.2500      12.9650    -999.2500    -999.2500     318.8922     151.5356     147.4453       0.0846       3.3849       2.6712
   2800.1975      11.3290       0.0340    -999.2500      13.1170    -999.2500    -999.2500     321.3860     152.4860      27.3280       0.0584       3.3490       2.7320
   2800.3499      11.3170       0.0330    -999.2500      12.9373    -999.2500    -999.2500     361.1460     169.0421     124.1992       0.0584       3.3113       2.7305
   2800.5024      11.3050       0.0320    -999.2500      12.7580    -999.2500    -999.2500     400.9030     185.5970     221.0630       0.0585       3.2740       2.7290
   2800.6548      11.3055       0.0280    -999.2500      12.7975    -999.2500    -999.2500     867.1026     415.0264     217.1586       0.0593       3.2358       2.7039
   2800.8071      11.3060       0.0240    -999.2500      12.8370    -999.2500    -999.2500    1333.3250     644.4670     213.2540       0.0600       3.1980       2.6790
   2800.9595      11.3150       0.0205    -999.2500      14.2125    -999.2500    -999.2500    1250.8951     608.6654     155.5548       0.0701       3.1644       2.6815
   2801.1118      11.3240       0.0170    -999.2500      15.5860    -999.2500    -999.2500    1168.5830     572.9150      97.9380       0.0801       3.1310       2.6840
   2801.2644      11.3767       0.0155    -999.2500      14.9761    -999.2500    -999.2500     776.1648     369.3736     162.4795       0.0800       3.0838       2.7237
   2801.4167      11.4290       0.0140    -999.2500      14.3670    -999.2500    -999.2500     384.2570     166.0970     226.9370       0.0798       3.0370       2.7630
   2801.5691      11.5213       0.0120    -999.2500      14.4240    -999.2500    -999.2500     336.7901     166.1170     162.9619       0.0742       3.0184       2.7334
   2801.7214      11.6130       0.0100    -999.2500      14.4810    -999.2500    -999.2500     289.3790     166.1370      99.0620       0.0686       3.0000       2.7040
   2801.8740      11.6531       0.0095    -999.2500      14.9758    -999.2500    -999.2500     281.8470     163.5486     118.5097       0.0686       3.0060       2.7060
   2802.0264      11.6930       0.0090    -999.2500      15.4700    -999.2500    -999.2500     274.3230     160.9630     137.9370       0.0687       3.0120       2.7080
   2802.1787      11.6870       0.0090    -999.2500      16.0293    -999.2500    -999.2500     222.9017     136.3451     129.2395       0.0692       3.0687       2.7371
   2802.3311      11.6810       0.0090    -999.2500      16.5880    -999.2500    -999.2500     171.5280     111.7500     120.5500       0.0696       3.1250       2.7660
   2802.4836      11.6253       0.0095    -999.2500      19.2626    -999.2500    -999.2500     119.3431      78.2041      81.2748       0.0736       3.2459       2.7655
   2802.6360      11.5700       0.0100    -999.2500      21.9350    -999.2500    -999.2500      67.2000      44.6850      42.0310       0.0776       3.3660       2.7650
   2802.7883      11.4666       0.0115    -999.2500      28.0861    -999.2500    -999.2500      58.4961      39.3297      40.6545       0.0904       3.3615       2.7605
   2802.9407      11.3640       0.0130    -999.2500      34.2330    -999.2500    -999.2500      49.7980      33.9780      39.2790       0.1030       3.3570       2.7560
   2803.0930      11.3655       0.0150    -999.2500      37.7730    -999.2500    -999.2500      31.5065      21.2055      35.5410       0.1294       3.2637       2.7304
   2803.2456      11.3670       0.0170    -999.2500      41.3110    -999.2500    -999.2500      13.2250       8.4400      31.8050       0.1556       3.1710       2.7050
   2803.3979      11.3800       0.0215    -999.2500      46.8792    -999.2500    -999.2500      13.2740       8.5825      18.4172       0.1682       3.1710       2.6749
   2803.5503      11.3930       0.0260    -999.2500      52.4450    -999.2500    -999.2500      13.3230       8.7250       5.0350       0.1807       3.1710       2.6450
   2803.7026      11.4116       0.0295    -999.2500      56.9107    -999.2500    -999.2500      14.1661       8.7180       5.1570       0.1805       3.1740       2.6525
   2803.8552      11.4300       0.0330    -999.2500      61.3750    -999.2500    -999.2500      15.0090       8.7110       5.2790       0.1802       3.1770       2.6600
   2804.0076      11.4561       0.0370    -999.2500      61.2360    -999.2500    -999.2500      13.6654       8.2155       6.4226       0.1757       3.2758       2.7167
   2804.1599      11.4820       0.0410    -999.2500      61.0970    -999.2500    -999.2500      12.3220       7.7200       7.5660       0.1712       3.3740       2.7730
   2804.3123      11.4629       0.0410    -999.2500      59.3661    -999.2500    -999.2500      12.4765       7.8370       8.1775       0.1056       3.3725       2.7886
   2804.4648      11.4440       0.0410    -999.2500      57.6380    -999.2500    -999.2500      12.6310       7.9540       8.7890       0.0406       3.3710       2.8040
   2804.6172      11.4445       0.0375    -999.2500      52.1113    -999.2500    -999.2500      14.7629       9.4869      57.6116       0.0409       3.3354       2.8015
   2804.7695      11.4450       0.0340    -999.2500      46.5930    -999.2500    -999.2500      16.8950      11.0200     106.4380       0.0411       3.3000       2.7990
   2804.9219      11.4500       0.0340    -999.2500      43.1846    -999.2500    -999.2500      53.8563      29.9597     103.9227       0.0450       3.3010       2.7769
   2805.0742      11.4550       0.0340    -999.2500      39.7810    -999.2500    -999.2500      90.7660      48.8730     101.4110       0.0488       3.3020       2.7550
   2805.2268      11.4967       0.0355    -999.2500      40.4970    -999.2500    -999.2500      86.1861      46.7416      85.4379       0.0669       3.3356       2.6963
   2805.3792      11.5380       0.0370    -999.2500      41.2120    -999.2500    -999.2500      81.6120      44.6130      69.4850       0.0849       3.3690       2.6380
   2805.5315      11.6675       0.0415    -999.2500      47.9223    -999.2500    -999.2500      51.1015      28.4177      36.9679       0.1069       3.3665       2.6566
   2805.6838      11.7960       0.0460    -999.2500      54.6250    -999.2500    -999.2500      20.6260      12.2410       4.4880       0.1288       3.3640       2.6750
   2805.8364      12.0489       0.0550    -999.2500      54.0527    -999.2500    -999.2500      20.8771      12.2905      18.8608       0.1345       3.3233       2.6640
   2805.9888      12.3000       0.0640    -999.2500      53.4810    -999.2500    -999.2500      21.1280      12.3400      33.2190       0.1400       3.2830       2.6530
   2806.1411      12.2920       0.0725    -999.2500      49.3266    -999.2500    -999.2500      33.5826      13.1284      29.3578       0.2234       3.2845       2.3885
   2806.2935      12.2840       0.0810    -999.2500      45.1760    -999.2500    -999.2500      46.0260      13.9160      25.5000       0.3061       3.2860       2.1260
   2806.4460      12.2122       0.0805    -999.2500      42.4935    -999.2500    -999.2500      45.7199      18.0136      37.2390       0.3056       3.3006       2.1476
   2806.5984      12.1410       0.0800    -999.2500      39.8130    -999.2500    -999.2500      45.4140      22.1080      48.9690       0.3050       3.3150       2.1690
   2806.7507      12.0030       0.0775    -999.2500      40.5482    -999.2500    -999.2500      42.8587      21.7569      41.4321       0.2906       3.3702       2.3311
   2806.9031      11.8660       0.0750    -999.2500      41.2830    -999.2500    -999.2500      40.3050      21.4060      33.9000       0.2762       3.4250       2.4920
   2807.0554      11.7581       0.0695    -999.2500      47.4246    -999.2500    -999.2500      31.5267      17.6615      17.9644       0.1994       3.5028       2.6144
