#------------------------------------------------------------------------------
#
#   Created by  : [OpenWorks] Log Export Utility (LEXP)
#   Created on  : 2016-05-11 12:13:36
#   Project     : CANT971
#   User        : R5K
#   Interpreter : PEP
#
#------------------------------------------------------------------------------
~VERSION INFORMATION
VERS. 2.0 : CWLS Log ASCII Standard - version 2.0
WRAP.  NO : One line per depth step
~WELL INFORMATION
#MNEMONIC   .UNIT                                           VALUE :DESCRIPTION
#------------------------------------------------------------------------------
STRT        .M                                           715.0607 :START DEPTH
STOP        .M                                          3288.1824 :STOP DEPTH
STEP        .M                                             0.1524 :STEP
NULL        .                                           -999.2500 :NULL VALUE
COMP        .                                   PEMEX EXPL & PROD :COMPANY
WELL        .                                               1047D :WELL
FLD         .                                           CANTARELL :FIELD
LOC         .                                             UNKNOWN :LOCATION
CNTY        .                                      CD. DEL CARMEN :COUNTY
STAT        .                                            CAMPECHE :STATE
CTRY        .                                              MEXICO :COUNTRY
SRVC        .                                             UNKNOWN :SERVICE COMPANY
DATE        .                                             UNKNOWN :LOG DATE
UWI         .                                          3060000501 :UNIQUE WELL ID
XCOORD      .                                       601388.630000 :SURFACE X
YCOORD      .                                      2149877.482000 :SURFACE Y
LAT         .                                           19.441878 :LATITUDE
LON         .                                          -92.034159 :LONGITUDE
ELEV        .M                                            28.0000 :SURFACE ELEV
ELEV_TYPE   .                                                  KB :ELEV TYPE
~CURVE INFORMATION
#MNEMONIC.UNIT        API CODE       : CURVE DESCRIPTION
#------------------------------------------------------------------------------
DEPTH    .M                          : Measured Depth
CALI     .inches      UNKNOWN        : CALI:registros:rC:NONE:v0 (auto-composite)
DRHO     .g/cm3       UNKNOWN        : DRHO:registros:rC:NONE:v0 (auto-composite)
DT       .us/ft       UNKNOWN        : DT:registros:rC:NONE:v0 (auto-composite)
GR       .API         UNKNOWN        : GR:registros:rC:NONE:v0 (auto-composite)
ILD      .ohm.m       UNKNOWN        : ILD:registros:rC:NONE:v0 (auto-composite)
ILM      .ohm.m       UNKNOWN        : ILM:registros:rC:NONE:v0 (auto-composite)
LLD      .ohm.m       UNKNOWN        : LLD:registros:rC:NONE:v0 (auto-composite)
LLS      .ohm.m       UNKNOWN        : LLS:registros:rC:NONE:v0 (auto-composite)
MSFL     .ohm.m       UNKNOWN        : MSFL:registros:rC:NONE:v0 (auto-composite)
NPHI     .v/v_decimal UNKNOWN        : NPHI:registros:rC:NONE:v0 (auto-composite)
PEF      .UNKNOWN     UNKNOWN        : PEF:registros:rC:NONE:v0 (auto-composite)
RHOB     .g/cm3       UNKNOWN        : RHOB:registros:rC:NONE:v0 (auto-composite)
~A     DEPTH         CALI         DRHO           DT           GR          ILD          ILM          LLD          LLS         MSFL         NPHI          PEF         RHOB
# ...
   2960.8271      11.4360       0.0070      51.9420      33.5580    -999.2500    -999.2500     277.4310     154.0810     205.3120       0.0723       3.3220       2.7880
   2960.9795      11.4325       0.0060      51.2708      31.0465    -999.2500    -999.2500     247.8609     144.0511     157.4193       0.0626       3.3250       2.8005
   2961.1318      11.4290       0.0050      50.5960      28.5380    -999.2500    -999.2500     218.2780     134.0170     109.5060       0.0531       3.3280       2.8130
   2961.2844      11.4215       0.0040      49.7233      25.7595    -999.2500    -999.2500     226.0128     136.8127      69.6001       0.0470       3.3496       2.8030
   2961.4368      11.4140       0.0030      48.8460      22.9840    -999.2500    -999.2500     233.7520     139.6100      29.6720       0.0410       3.3710       2.7930
   2961.5891      11.4005       0.0025      48.2322      24.2336    -999.2500    -999.2500     249.5681     145.8774      65.5598       0.0410       3.3956       2.7890
   2961.7415      11.3870       0.0020      47.6150      25.4820    -999.2500    -999.2500     265.3950     152.1490     101.4720       0.0410       3.4200       2.7850
   2961.8940      11.3659       0.0015      47.1762      28.5077    -999.2500    -999.2500     230.0973     136.4898     181.3912       0.0370       3.4451       2.7755
   2962.0464      11.3450       0.0010      46.7350      31.5310    -999.2500    -999.2500     194.7710     120.8180     261.3750       0.0331       3.4700       2.7660
   2962.1987      11.3390       0.0005      47.0466      31.1329    -999.2500    -999.2500     197.2778     121.9829     170.7507       0.0334       3.4499       2.7740
   2962.3511      11.3330       0.0000      47.3600      30.7350    -999.2500    -999.2500     199.7830     123.1470      80.1870       0.0336       3.4300       2.7820
   2962.5034      11.3325       0.0005      48.2434      30.1869    -999.2500    -999.2500     230.3288     138.1911     250.4522       0.0319       3.3884       2.8021
   2962.6560      11.3320       0.0010      49.1320      29.6390    -999.2500    -999.2500     260.8580     153.2270     420.6250       0.0302       3.3470       2.8220
   2962.8083      11.3190       0.0025      51.1579      28.4753    -999.2500    -999.2500     237.5601     143.2814     261.5918       0.0273       3.2848       2.8391
   2962.9607      11.3060       0.0040      53.1960      27.3120    -999.2500    -999.2500     214.2720     133.3400     102.6250       0.0244       3.2230       2.8560
   2963.1130      11.2804       0.0060      52.6676      24.4062    -999.2500    -999.2500     219.5783     134.2101     272.3998       0.0278       3.2285       2.8254
   2963.2656      11.2550       0.0080      52.1360      21.5060    -999.2500    -999.2500     224.8830     135.0800     442.1250       0.0312       3.2340       2.7950
   2963.4180      11.2364       0.0110      50.0012      20.2989    -999.2500    -999.2500     307.6979     170.5455     423.4139       0.0351       3.2802       2.7955
   2963.5703      11.2180       0.0140      47.8530      19.0940    -999.2500    -999.2500     390.4990     206.0050     404.7060       0.0389       3.3260       2.7960
   2963.7227      11.2060       0.0170      48.3385      19.6394    -999.2500    -999.2500     365.2860     197.7363     253.9749       0.0366       3.3696       2.8121
   2963.8752      11.1940       0.0200      48.8270      20.1840    -999.2500    -999.2500     340.0740     189.4680     103.2500       0.0343       3.4130       2.8280
   2964.0276      11.1910       0.0230      49.1096      20.4042    -999.2500    -999.2500     291.2596     170.0653     180.3092       0.0287       3.4371       2.8481
   2964.1799      11.1880       0.0260      49.3940      20.6240    -999.2500    -999.2500     242.4410     150.6610     257.3750       0.0230       3.4610       2.8680
   2964.3323      11.1805       0.0295      50.7905      22.3837    -999.2500    -999.2500     261.9774     154.1556     162.8849       0.0245       3.4339       2.8494
   2964.4846      11.1730       0.0330      52.1940      24.1410    -999.2500    -999.2500     281.5180     157.6510      68.3750       0.0260       3.4070       2.8310
   2964.6372      11.1665       0.0380      59.0633      25.0321    -999.2500    -999.2500     293.9914     159.2677      94.0712       0.0253       3.3679       2.8119
   2964.7896      11.1600       0.0430      65.9680      25.9220    -999.2500    -999.2500     306.4690     160.8850     119.7760       0.0246       3.3290       2.7930
   2964.9419      11.1545       0.0475      78.8565      25.4827    -999.2500    -999.2500     288.0807     156.8984     145.6780       0.0284       3.2868       2.7880
   2965.0942      11.1490       0.0520      91.8130      25.0440    -999.2500    -999.2500     269.6840     152.9100     171.5920       0.0321       3.2450       2.7830
   2965.2468      11.1455       0.0565      90.8287      24.4897    -999.2500    -999.2500     272.3557     150.2888     229.4665       0.0407       3.2184       2.7519
   2965.3992      11.1420       0.0610      89.8390      23.9360    -999.2500    -999.2500     275.0290     147.6660     287.3750       0.0492       3.1920       2.7210
   2965.5515      11.1525       0.0650      87.3205      22.2327    -999.2500    -999.2500     266.1467     143.3760     189.5439       0.0586       3.1769       2.7014
   2965.7039      11.1630       0.0690      84.7880      20.5310    -999.2500    -999.2500     257.2580     139.0830      91.6430       0.0679       3.1620       2.6820
   2965.8564      11.1786       0.0705      74.9394      20.6325    -999.2500    -999.2500     253.2452     136.7460      69.2714       0.0597       3.1761       2.7006
   2966.0088      11.1940       0.0720      65.0350      20.7340    -999.2500    -999.2500     249.2290     134.4070      46.8810       0.0515       3.1900       2.7190
   2966.1611      11.2121       0.0710      66.9151      20.6995    -999.2500    -999.2500     240.9394     130.8699      43.0328       0.0411       3.2121       2.7611
   2966.3135      11.2300       0.0700      68.8060      20.6650    -999.2500    -999.2500     232.6550     127.3350      39.1870       0.0307       3.2340       2.8030
   2966.4658      11.2380       0.0680      64.9305      20.5045    -999.2500    -999.2500     211.9282     118.2872      48.5084       0.0264       3.2270       2.8025
   2966.6184      11.2460       0.0660      61.0320      20.3440    -999.2500    -999.2500     191.2120     109.2440      57.8250       0.0222       3.2200       2.8020
   2966.7708      11.2475       0.0625      57.3671      22.4944    -999.2500    -999.2500     207.5457     115.6467      68.8861       0.0259       3.1944       2.7614
   2966.9231      11.2490       0.0590      53.6800      24.6440    -999.2500    -999.2500     223.8730     122.0470      79.9430       0.0296       3.1690       2.7210
   2967.0754      11.2560       0.0545      58.6811      25.8386    -999.2500    -999.2500     221.9147     121.2624      85.7208       0.0472       3.1319       2.6924
   2967.2280      11.2630       0.0500      63.7130      27.0310    -999.2500    -999.2500     219.9570     120.4780      91.4970       0.0646       3.0950       2.6640
   2967.3804      11.2755       0.0430      76.2580      26.4930    -999.2500    -999.2500     214.6861     117.8988     112.5934       0.0767       3.1116       2.6730
   2967.5327      11.2880       0.0360      88.8820      25.9560    -999.2500    -999.2500     209.4160     115.3200     133.6870       0.0887       3.1280       2.6820
   2967.6851      11.3091       0.0310      84.5753      24.5614    -999.2500    -999.2500     198.7549     112.2605      85.0307       0.0880       3.1551       2.6880
   2967.8376      11.3300       0.0260      80.2410      23.1690    -999.2500    -999.2500     188.0940     109.2010      36.3750       0.0872       3.1820       2.6940
   2967.9900      11.3511       0.0235      70.6200      20.4655    -999.2500    -999.2500     181.1889     107.3391      50.2182       0.0777       3.1539       2.7276
