#------------------------------------------------------------------------------
#
#   Created by  : [OpenWorks] Log Export Utility (LEXP)
#   Created on  : 2016-05-11 12:13:36
#   Project     : CANT971
#   User        : R5K
#   Interpreter : PEP
#
#------------------------------------------------------------------------------
~VERSION INFORMATION
VERS. 2.0 : CWLS Log ASCII Standard - version 2.0
WRAP.  NO : One line per depth step
~WELL INFORMATION
#MNEMONIC   .UNIT                                           VALUE :DESCRIPTION
#------------------------------------------------------------------------------
STRT        .M                                           715.0607 :START DEPTH
STOP        .M                                          3288.1824 :STOP DEPTH
STEP        .M                                             0.1524 :STEP
NULL        .                                           -999.2500 :NULL VALUE
COMP        .                                   PEMEX EXPL & PROD :COMPANY
WELL        .                                               1047D :WELL
FLD         .                                           CANTARELL :FIELD
LOC         .                                             UNKNOWN :LOCATION
CNTY        .                                      CD. DEL CARMEN :COUNTY
STAT        .                                            CAMPECHE :STATE
CTRY        .                                              MEXICO :COUNTRY
SRVC        .                                             UNKNOWN :SERVICE COMPANY
DATE        .                                             UNKNOWN :LOG DATE
UWI         .                                          3060000501 :UNIQUE WELL ID
XCOORD      .                                       601388.630000 :SURFACE X
YCOORD      .                                      2149877.482000 :SURFACE Y
LAT         .                                           19.441878 :LATITUDE
LON         .                                          -92.034159 :LONGITUDE
ELEV        .M                                            28.0000 :SURFACE ELEV
ELEV_TYPE   .                                                  KB :ELEV TYPE
~CURVE INFORMATION
#MNEMONIC.UNIT        API CODE       : CURVE DESCRIPTION
#------------------------------------------------------------------------------
DEPTH    .M                          : Measured Depth
CALI     .inches      UNKNOWN        : CALI:registros:rC:NONE:v0 (auto-composite)
DRHO     .g/cm3       UNKNOWN        : DRHO:registros:rC:NONE:v0 (auto-composite)
DT       .us/ft       UNKNOWN        : DT:registros:rC:NONE:v0 (auto-composite)
GR       .API         UNKNOWN        : GR:registros:rC:NONE:v0 (auto-composite)
ILD      .ohm.m       UNKNOWN        : ILD:registros:rC:NONE:v0 (auto-composite)
ILM      .ohm.m       UNKNOWN        : ILM:registros:rC:NONE:v0 (auto-composite)
LLD      .ohm.m       UNKNOWN        : LLD:registros:rC:NONE:v0 (auto-composite)
LLS      .ohm.m       UNKNOWN        : LLS:registros:rC:NONE:v0 (auto-composite)
MSFL     .ohm.m       UNKNOWN        : MSFL:registros:rC:NONE:v0 (auto-composite)
NPHI     .v/v_decimal UNKNOWN        : NPHI:registros:rC:NONE:v0 (auto-composite)
PEF      .UNKNOWN     UNKNOWN        : PEF:registros:rC:NONE:v0 (auto-composite)
RHOB     .g/cm3       UNKNOWN        : RHOB:registros:rC:NONE:v0 (auto-composite)
~A     DEPTH         CALI         DRHO           DT           GR          ILD          ILM          LLD          LLS         MSFL         NPHI          PEF         RHOB
# ...
   3121.7615      12.0050       0.0760      48.1360      31.2190    -999.2500    -999.2500     216.5220     193.1620     241.7820       0.0476       3.2690       2.7690
   3121.9138      12.0180       0.0584      47.0247      31.5026    -999.2500    -999.2500     213.2412     190.1336     222.6332       0.0474       3.2891       2.7790
   3122.0664      12.0310       0.0410      45.9050      31.7860    -999.2500    -999.2500     209.9570     187.1020     203.4640       0.0473       3.3090       2.7890
   3122.2188      12.0310       0.0315      46.2044      36.4410    -999.2500    -999.2500     153.9408     143.0527     133.9299       0.0446       3.3075       2.8046
   3122.3711      12.0310       0.0220      46.5060      41.0940    -999.2500    -999.2500      97.8580      98.9510      64.3130       0.0419       3.3060       2.8200
   3122.5234      12.0310       0.0160      48.0754      39.6486    -999.2500    -999.2500     104.9019     105.4607      64.6963       0.0350       3.2995       2.8255
   3122.6760      12.0310       0.0100      49.6570      38.2060    -999.2500    -999.2500     111.9550     111.9790      65.0800       0.0282       3.2930       2.8310
   3122.8284      12.0330       0.0055      51.9119      34.6899    -999.2500    -999.2500     132.5262     130.4640      74.1202       0.0225       3.2674       2.8330
   3122.9807      12.0350       0.0010      54.1810      31.1800    -999.2500    -999.2500     153.0940     148.9460      83.1590       0.0167       3.2420       2.8350
   3123.1331      12.0430      -0.0020      54.9107      28.0639    -999.2500    -999.2500     199.6163     180.7771     192.8940       0.0182       3.2430       2.8445
   3123.2856      12.0510      -0.0050      55.6450      24.9530    -999.2500    -999.2500     246.1370     212.6070     302.6250       0.0197       3.2440       2.8540
   3123.4380      12.0731      -0.0045      56.5037      26.0443    -999.2500    -999.2500     238.6653     207.0597     188.9426       0.0273       3.2606       2.8430
   3123.5903      12.0950      -0.0040      57.3680      27.1340    -999.2500    -999.2500     231.1930     201.5120      75.2500       0.0348       3.2770       2.8320
   3123.7427      12.1467      -0.0025      56.9758      30.7305    -999.2500    -999.2500     208.9479     184.0804     103.4655       0.0478       3.3367       2.8034
   3123.8950      12.1980      -0.0010      56.5810      34.3220    -999.2500    -999.2500     186.6980     166.6450     131.6870       0.0607       3.3960       2.7750
   3124.0476      12.4738       0.0005      54.9869      38.1789    -999.2500    -999.2500     160.3335     144.7962     119.4876       0.0740       3.5038       2.7504
   3124.2000      12.7480       0.0020      53.3820      42.0310    -999.2500    -999.2500     133.9600     122.9400     107.2840       0.0873       3.6110       2.7260
   3124.3523      13.2725       0.0040      53.9680      41.6128    -999.2500    -999.2500     109.5537     102.2163      77.3990       0.0852       3.6030       2.7375
   3124.5046      13.7930       0.0060      54.5580      41.1950    -999.2500    -999.2500      85.1360      81.4830      47.5000       0.0832       3.5950       2.7490
   3124.6572      14.3465       0.0075      57.2002      39.4046    -999.2500    -999.2500      86.0552      82.1533      71.3679       0.0709       3.5709       2.7801
   3124.8096      14.8960       0.0090      59.8610      37.6160    -999.2500    -999.2500      86.9750      82.8240      95.2500       0.0587       3.5470       2.8110
   3124.9619      14.6993       0.0105      59.7364      35.3695    -999.2500    -999.2500      91.1490      86.6071      77.3499       0.0631       3.5144       2.8015
   3125.1143      14.5040       0.0120      59.6110      33.1250    -999.2500    -999.2500      95.3260      90.3930      59.4370       0.0674       3.4820       2.7920
   3125.2668      14.0373       0.0130      58.7422      33.5747    -999.2500    -999.2500     102.6464      97.1227      92.6105       0.0784       3.4474       2.7659
   3125.4192      13.5740       0.0140      57.8670      34.0240    -999.2500    -999.2500     109.9730     103.8580     125.8120       0.0893       3.4130       2.7400
   3125.5715      13.2654       0.0145      57.8989      38.1383    -999.2500    -999.2500     107.2003     100.7560      69.8626       0.0862       3.3799       2.7420
   3125.7239      12.9590       0.0150      57.9310      42.2500    -999.2500    -999.2500     104.4250      97.6510      13.8590       0.0831       3.3470       2.7440
   3125.8762      12.5591       0.0150      58.5512      42.1250    -999.2500    -999.2500      86.2095      79.8992      19.9312       0.0748       3.3520       2.7425
   3126.0288      12.1620       0.0150      59.1760      42.0000    -999.2500    -999.2500      67.9740      62.1280      26.0100       0.0665       3.3570       2.7410
   3126.1812      11.7938       0.0150      57.9671      42.1095    -999.2500    -999.2500      71.6767      65.2316      53.5367       0.0692       3.3751       2.7375
   3126.3335      11.4280       0.0150      56.7490      42.2190    -999.2500    -999.2500      75.3840      68.3390      81.0970       0.0718       3.3930       2.7340
   3126.4858      11.4044       0.0145      56.9368      42.0218    -999.2500    -999.2500     106.4206      93.1218      86.8881       0.0819       3.3810       2.7260
   3126.6384      11.3810       0.0140      57.1260      41.8250    -999.2500    -999.2500     137.4990     117.9380      92.6870       0.0919       3.3690       2.7180
   3126.7908      11.3619       0.0130      56.9037      40.8822    -999.2500    -999.2500     137.3900     117.8340      89.4708       0.0902       3.3334       2.7210
   3126.9431      11.3430       0.0120      56.6800      39.9410    -999.2500    -999.2500     137.2810     117.7300      86.2550       0.0886       3.2980       2.7240
   3127.0955      11.3300       0.0115      55.6234      38.4378    -999.2500    -999.2500     128.6480     111.1735      70.1430       0.0848       3.3025       2.7295
   3127.2480      11.3170       0.0110      54.5600      36.9370    -999.2500    -999.2500     120.0150     104.6170      54.0310       0.0810       3.3070       2.7350
   3127.4004      11.2994       0.0105      53.3360      37.1817    -999.2500    -999.2500     107.3173      94.4796      55.4934       0.0784       3.3045       2.7395
   3127.5527      11.2820       0.0100      52.1040      37.4260    -999.2500    -999.2500      94.6180      84.3410      56.9560       0.0757       3.3020       2.7440
   3127.7051      11.2629       0.0085      51.9276      39.2612    -999.2500    -999.2500      93.9171      84.4660      71.3512       0.0692       3.2935       2.7570
   3127.8574      11.2440       0.0070      51.7500      41.0940    -999.2500    -999.2500      93.2160      84.5910      85.7500       0.0628       3.2850       2.7700
   3128.0100      11.2249       0.0045      51.3658      40.2190    -999.2500    -999.2500      93.4510      85.0664      58.0596       0.0530       3.2629       2.7795
   3128.1624      11.2060       0.0020      50.9790      39.3450    -999.2500    -999.2500      93.6860      85.5420      30.3590       0.0432       3.2410       2.7890
   3128.3147      11.1940       0.0005      49.9306      35.7020    -999.2500    -999.2500     102.3119      92.8087      38.2290       0.0397       3.1808       2.7915
   3128.4670      11.1820      -0.0010      48.8750      32.0630    -999.2500    -999.2500     110.9420     100.0790      46.1030       0.0361       3.1210       2.7940
   3128.6196      11.1755       0.0010      47.7146      32.2346    -999.2500    -999.2500     128.8569     114.4850      74.6676       0.0343       3.1361       2.7980
   3128.7720      11.1690       0.0030      46.5460      32.4060    -999.2500    -999.2500     146.7830     128.9000     103.2500       0.0326       3.1510       2.8020
   3128.9243      11.1484       0.0075      47.0701      31.5987    -999.2500    -999.2500     151.7372     131.8524     102.3443       0.0294       3.2102       2.8130
