#------------------------------------------------------------------------------
#
#   Created by  : [OpenWorks] Log Export Utility (LEXP)
#   Created on  : 2016-05-11 12:13:36
#   Project     : CANT971
#   User        : R5K
#   Interpreter : PEP
#
#------------------------------------------------------------------------------
~VERSION INFORMATION
VERS. 2.0 : CWLS Log ASCII Standard - version 2.0
WRAP.  NO : One line per depth step
~WELL INFORMATION
#MNEMONIC   .UNIT                                           VALUE :DESCRIPTION
#------------------------------------------------------------------------------
STRT        .M                                           715.0607 :START DEPTH
STOP        .M                                          3288.1824 :STOP DEPTH
STEP        .M                                             0.1524 :STEP
NULL        .                                           -999.2500 :NULL VALUE
COMP        .                                   PEMEX EXPL & PROD :COMPANY
WELL        .                                               1047D :WELL
FLD         .                                           CANTARELL :FIELD
LOC         .                                             UNKNOWN :LOCATION
CNTY        .                                      CD. DEL CARMEN :COUNTY
STAT        .                                            CAMPECHE :STATE
CTRY        .                                              MEXICO :COUNTRY
SRVC        .                                             UNKNOWN :SERVICE COMPANY
DATE        .                                             UNKNOWN :LOG DATE
UWI         .                                          3060000501 :UNIQUE WELL ID
XCOORD      .                                       601388.630000 :SURFACE X
YCOORD      .                                      2149877.482000 :SURFACE Y
LAT         .                                           19.441878 :LATITUDE
LON         .                                          -92.034159 :LONGITUDE
ELEV        .M                                            28.0000 :SURFACE ELEV
ELEV_TYPE   .                                                  KB :ELEV TYPE
~CURVE INFORMATION
#MNEMONIC.UNIT        API CODE       : CURVE DESCRIPTION
#------------------------------------------------------------------------------
DEPTH    .M                          : Measured Depth
CALI     .inches      UNKNOWN        : CALI:registros:rC:NONE:v0 (auto-composite)
DRHO     .g/cm3       UNKNOWN        : DRHO:registros:rC:NONE:v0 (auto-composite)
DT       .us/ft       UNKNOWN        : DT:registros:rC:NONE:v0 (auto-composite)
GR       .API         UNKNOWN        : GR:registros:rC:NONE:v0 (auto-composite)
ILD      .ohm.m       UNKNOWN        : ILD:registros:rC:NONE:v0 (auto-composite)
ILM      .ohm.m       UNKNOWN        : ILM:registros:rC:NONE:v0 (auto-composite)
LLD      .ohm.m       UNKNOWN        : LLD:registros:rC:NONE:v0 (auto-composite)
LLS      .ohm.m       UNKNOWN        : LLS:registros:rC:NONE:v0 (auto-composite)
MSFL     .ohm.m       UNKNOWN        : MSFL:registros:rC:NONE:v0 (auto-composite)
NPHI     .v/v_decimal UNKNOWN        : NPHI:registros:rC:NONE:v0 (auto-composite)
PEF      .UNKNOWN     UNKNOWN        : PEF:registros:rC:NONE:v0 (auto-composite)
RHOB     .g/cm3       UNKNOWN        : RHOB:registros:rC:NONE:v0 (auto-composite)
~A     DEPTH         CALI         DRHO           DT           GR          ILD          ILM          LLD          LLS         MSFL         NPHI          PEF         RHOB
# ...
   2529.2302      23.6020       0.1080    -999.2500      58.2500    -999.2500    -999.2500       6.9030       4.2430       8.6050       0.2040       2.9020       2.5380
   2529.3828      23.5890       0.1085    -999.2500      58.1780    -999.2500    -999.2500       6.8955       4.5227       5.8398       0.1983       3.0566       2.5380
   2529.5352      23.5760       0.1090    -999.2500      58.1060    -999.2500    -999.2500       6.8880       4.8020       3.0780       0.1927       3.2100       2.5380
   2529.6875      23.5614       0.1155    -999.2500      56.5992    -999.2500    -999.2500       6.7019       4.8495     112.1288       0.1831       3.2085       2.5500
   2529.8398      23.5470       0.1220    -999.2500      55.0940    -999.2500    -999.2500       6.5160       4.8970     221.0630       0.1734       3.2070       2.5620
   2529.9924      23.5329       0.1335    -999.2500      56.6102    -999.2500    -999.2500       6.6170       5.1496     204.4932       0.1737       3.1568       2.5439
   2530.1448      23.5190       0.1450    -999.2500      58.1250    -999.2500    -999.2500       6.7180       5.4020     187.9390       0.1739       3.1070       2.5260
   2530.2971      23.5115       0.1585    -999.2500      57.9554    -999.2500    -999.2500       6.6595       5.3435      95.3947       0.1781       3.1070       2.5315
   2530.4495      23.5040       0.1720    -999.2500      57.7860    -999.2500    -999.2500       6.6010       5.2850       2.9260       0.1823       3.1070       2.5370
   2530.6021      23.5045       0.1835    -999.2500      55.3307    -999.2500    -999.2500       6.6430       5.3060      15.1410       0.1818       3.1075       2.5370
   2530.7544      23.5050       0.1950    -999.2500      52.8770    -999.2500    -999.2500       6.6850       5.3270      27.3280       0.1813       3.1080       2.5370
   2530.9067      23.5120       0.2075    -999.2500      51.0030    -999.2500    -999.2500       7.5504       5.7339      25.3223       0.1597       3.1276       2.5209
   2531.0591      23.5190       0.2200    -999.2500      49.1300    -999.2500    -999.2500       8.4140       6.1400      23.3210       0.1381       3.1470       2.5050
   2531.2114      23.5280       0.2295    -999.2500      48.7629    -999.2500    -999.2500       8.3790       6.1010      13.0405       0.1427       3.1460       2.3278
   2531.3640      23.5370       0.2390    -999.2500      48.3960    -999.2500    -999.2500       8.3440       6.0620       2.7810       0.1472       3.1450       2.1520
   2531.5164      23.5470       0.2455    -999.2500      44.1503    -999.2500    -999.2500       7.8280       5.5445       2.0118       0.2099       3.1309       2.1389
   2531.6687      23.5570       0.2520    -999.2500      39.9060    -999.2500    -999.2500       7.3130       5.0280       1.2440       0.2722       3.1170       2.1260
   2531.8210      23.5560       0.2615    -999.2500      41.7812    -999.2500    -999.2500       6.3301       4.3654       1.3986       0.3943       3.0884       1.9663
   2531.9736      23.5550       0.2710    -999.2500      43.6560    -999.2500    -999.2500       5.3490       3.7040       1.5530       0.5155       3.0600       1.8080
   2532.1260      23.5455       0.2700    -999.2500      43.5185    -999.2500    -999.2500       5.1488       3.6314       1.1867       0.5135       2.9752       1.8110
   2532.2783      23.5360       0.2690    -999.2500      43.3810    -999.2500    -999.2500       4.9490       3.5590       0.8210       0.5116       2.8910       1.8140
   2532.4307      23.5260       0.2595    -999.2500      40.6104    -999.2500    -999.2500       5.0721       3.5635       0.8855       0.4855       2.7545       2.0022
   2532.5833      23.5160       0.2500    -999.2500      37.8440    -999.2500    -999.2500       5.1950       3.5680       0.9500       0.4596       2.6190       2.1890
   2532.7356      23.5065       0.2440    -999.2500      37.8645    -999.2500    -999.2500       4.9718       3.6195       0.9325       0.4323       2.5357       2.1795
   2532.8879      23.4970       0.2380    -999.2500      37.8850    -999.2500    -999.2500       4.7490       3.6710       0.9150       0.4052       2.4530       2.1700
   2533.0403      23.4975       0.2305    -999.2500      38.2232    -999.2500    -999.2500       4.7710       3.6950       2.1573       0.3912       2.4585       1.9973
   2533.1926      23.4980       0.2230    -999.2500      38.5610    -999.2500    -999.2500       4.7930       3.7190       3.3980       0.3774       2.4640       1.8260
   2533.3452      23.5075       0.2094    -999.2500      40.7193    -999.2500    -999.2500       5.1307       3.9471       3.3525       0.3304       2.5343       1.9148
   2533.4976      23.5170       0.1960    -999.2500      42.8750    -999.2500    -999.2500       5.4680       4.1750       3.3070       0.2837       2.6040       2.0030
   2533.6499      23.5436       0.1885    -999.2500      41.5148    -999.2500    -999.2500       7.1919       5.1380       2.8523       0.2083       2.6728       1.9764
   2533.8022      23.5700       0.1810    -999.2500      40.1560    -999.2500    -999.2500       8.9140       6.1000       2.3980       0.1334       2.7410       1.9500
   2533.9548      23.5871       0.1725    -999.2500      41.0469    -999.2500    -999.2500       8.8165       6.0290       1.6377       0.1369       2.7581       2.0539
   2534.1072      23.6040       0.1640    -999.2500      41.9370    -999.2500    -999.2500       8.7190       5.9580       0.8780       0.1403       2.7750       2.1570
   2534.2595      23.6035       0.1550    -999.2500      41.8500    -999.2500    -999.2500       7.6101       5.0421       0.9075       0.1810       2.8096       2.1570
   2534.4119      23.6030       0.1460    -999.2500      41.7630    -999.2500    -999.2500       6.5020       4.1270       0.9370       0.2214       2.8440       2.1570
   2534.5642      23.5945       0.1460    -999.2500      39.5528    -999.2500    -999.2500       6.5230       4.1360       0.7022       0.2500       2.9504       2.1384
   2534.7168      23.5860       0.1460    -999.2500      37.3440    -999.2500    -999.2500       6.5440       4.1450       0.4680       0.2784       3.0560       2.1200
   2534.8691      23.5760       0.1490    -999.2500      39.6571    -999.2500    -999.2500       7.7012       4.8437       0.4815       0.3011       3.1368       2.1250
   2535.0215      23.5660       0.1520    -999.2500      41.9690    -999.2500    -999.2500       8.8560       5.5410       0.4950       0.3238       3.2170       2.1300
   2535.1738      23.5565       0.1585    -999.2500      41.9580    -999.2500    -999.2500       8.8240       5.5330       0.7172       0.3389       3.2346       2.1872
   2535.3264      23.5470       0.1650    -999.2500      41.9470    -999.2500    -999.2500       8.7920       5.5250       0.9390       0.3540       3.2520       2.2440
   2535.4788      23.5279       0.1720    -999.2500      41.7695    -999.2500    -999.2500       7.5859       4.7247       1.2022       0.3530       3.3143       2.2676
   2535.6311      23.5090       0.1790    -999.2500      41.5920    -999.2500    -999.2500       6.3820       3.9260       1.4650       0.3521       3.3760       2.2910
   2535.7834      23.5095       0.1855    -999.2500      40.9324    -999.2500    -999.2500       6.3935       3.9320       1.2979       0.3354       3.3745       2.2890
   2535.9360      23.5100       0.1920    -999.2500      40.2730    -999.2500    -999.2500       6.4050       3.9380       1.1310       0.3190       3.3730       2.2870
   2536.0884      23.5115       0.1995    -999.2500      39.2300    -999.2500    -999.2500       6.5336       4.0101       1.2161       0.3315       3.3489       2.2659
   2536.2407      23.5130       0.2070    -999.2500      38.1870    -999.2500    -999.2500       6.6620       4.0820       1.3010       0.3440       3.3250       2.2450
   2536.3931      23.5170       0.2130    -999.2500      38.4062    -999.2500    -999.2500       6.7461       4.2076       1.2805       0.3364       3.2542       2.2084
