#------------------------------------------------------------------------------
#
#   Created by  : [OpenWorks] Log Export Utility (LEXP)
#   Created on  : 2016-05-11 12:13:36
#   Project     : CANT971
#   User        : R5K
#   Interpreter : PEP
#
#------------------------------------------------------------------------------
~VERSION INFORMATION
VERS. 2.0 : CWLS Log ASCII Standard - version 2.0
WRAP.  NO : One line per depth step
~WELL INFORMATION
#MNEMONIC   .UNIT                                           VALUE :DESCRIPTION
#------------------------------------------------------------------------------
STRT        .M                                           688.6959 :START DEPTH
STOP        .M                                          2536.3936 :STOP DEPTH
STEP        .M                                             0.1524 :STEP
NULL        .                                           -999.2500 :NULL VALUE
COMP        .                                   PEMEX EXPL & PROD :COMPANY
WELL        .                                                1049 :WELL
FLD         .                                           CANTARELL :FIELD
LOC         .                                             UNKNOWN :LOCATION
CNTY        .                                      CD. DEL CARMEN :COUNTY
STAT        .                                            CAMPECHE :STATE
CTRY        .                                              MEXICO :COUNTRY
SRVC        .                                             UNKNOWN :SERVICE COMPANY
DATE        .                                             UNKNOWN :LOG DATE
UWI         .                                          3060000621 :UNIQUE WELL ID
XCOORD      .                                       601390.370000 :SURFACE X
YCOORD      .                                      2149879.190000 :SURFACE Y
LAT         .                                           19.441893 :LATITUDE
LON         .                                          -92.034142 :LONGITUDE
ELEV        .M                                            28.0000 :SURFACE ELEV
ELEV_TYPE   .                                                  KB :ELEV TYPE
~CURVE INFORMATION
#MNEMONIC.UNIT        API CODE       : CURVE DESCRIPTION
#------------------------------------------------------------------------------
DEPTH    .M                          : Measured Depth
CALI     .inches      UNKNOWN        : CALI:Import:rC:NONE:v0 (auto-composite)
DRHO     .g/cm3       UNKNOWN        : DRHO:Import:rC:NONE:v0 (auto-composite)
DT       .us/ft       UNKNOWN        : DT:Import:rC:NONE:v0 (auto-composite)
GR       .API         UNKNOWN        : GR:Import:rC:NONE:v0 (auto-composite)
ILD      .ohm.m       UNKNOWN        : ILD:Import:rC:NONE:v0 (auto-composite)
ILM      .ohm.m       UNKNOWN        : ILM:Import:rC:NONE:v0 (auto-composite)
LLD      .ohm.m       UNKNOWN        : LLD:Import:rC:NONE:v0 (auto-composite)
LLS      .ohm.m       UNKNOWN        : LLS:Import:rC:NONE:v0 (auto-composite)
MSFL     .ohm.m       UNKNOWN        : MSFL:Import:rC:NONE:v0 (auto-composite)
NPHI     .v/v_decimal UNKNOWN        : NPHI:Import:rC:NONE:v0 (auto-composite)
PEF      .b/elec      UNKNOWN        : PEF:Import:rC:NONE:v0 (auto-composite)
RHOB     .g/cm3       UNKNOWN        : RHOB:Import:rC:NONE:v0 (auto-composite)
~A     DEPTH         CALI         DRHO           DT           GR          ILD          ILM          LLD          LLS         MSFL         NPHI          PEF         RHOB
# ...
   2334.6160      10.2949       0.0075      59.8125      42.8319    -999.2500    -999.2500     201.6074      86.1679      31.9560       0.1176       2.8645       2.4490
   2334.7683      10.2460       0.0100      93.1250      42.5270    -999.2500    -999.2500     193.0190      80.9650      31.9410       0.1121       2.8880       2.4520
   2334.9207      10.2044       0.0306     111.1250      42.1306    -999.2500    -999.2500     188.6830      81.5807      31.8609       0.1008       3.0897       2.4956
   2335.0732      10.1630       0.0510      80.8750      41.7370    -999.2500    -999.2500     184.3920      82.1900      31.7810       0.0901       3.2910       2.5390
   2335.2256      10.1295       0.0500     105.3750      39.5510    -999.2500    -999.2500     180.7161      81.1210      32.4292       0.0902       3.2845       2.5310
   2335.3779      10.0960       0.0490      88.4375      37.3840    -999.2500    -999.2500     177.0780      80.0630      33.0760       0.0919       3.2780       2.5230
   2335.5303      10.0830       0.0440      91.3750      37.4478    -999.2500    -999.2500     158.9942      73.9641      37.1535       0.0996       3.2430       2.4704
   2335.6826      10.0700       0.0390     118.1250      37.5110    -999.2500    -999.2500     141.0940      67.9270      41.2220       0.1099       3.2080       2.4180
   2335.8352      10.0845       0.0425     120.1250      38.6453    -999.2500    -999.2500     127.2290      62.3621      85.3194       0.1418       3.1750       2.4275
   2335.9875      10.0990       0.0460     115.3125      39.7700    -999.2500    -999.2500     113.5030      56.8530     129.3260       0.1727       3.1420       2.4370
   2336.1399      10.2718       0.0440     110.0000      38.9667    -999.2500    -999.2500     113.6799      56.9942     101.1903       0.1743       3.1706       2.4871
   2336.2922      10.4440       0.0420     121.1250      38.1700    -999.2500    -999.2500     113.8550      57.1340      73.1540       0.1724       3.1990       2.5370
   2336.4448      10.4230       0.0234     126.9375      38.3568    -999.2500    -999.2500     116.0929      58.3680      74.3626       0.1640       3.1895       2.5736
   2336.5972      10.4020       0.0050      87.6250      38.5420    -999.2500    -999.2500     118.3090      59.5900      75.5670       0.1545       3.1800       2.6100
   2336.7495      10.2803       0.0070     117.3750      39.5877    -999.2500    -999.2500     126.0519      62.6035     125.5836       0.1395       3.1314       2.6090
   2336.9019      10.1590       0.0090     129.3750      40.6250    -999.2500    -999.2500     133.7200      65.5880     175.4360       0.1235       3.0830       2.6080
   2337.0544      10.1780       0.0231     110.5000      41.4754    -999.2500    -999.2500     137.9541      67.3569     174.5055       0.1028       3.0660       2.5970
   2337.2068      10.1970       0.0370     116.5000      42.3190    -999.2500    -999.2500     142.1480      69.1090     173.5780       0.0836       3.0490       2.5860
   2337.3591      10.3663       0.1203     129.2500      42.9264    -999.2500    -999.2500     139.3488      68.2279     160.9964       0.0824       3.0170       2.5494
   2337.5115      10.5350       0.2030     108.6875      43.5290    -999.2500    -999.2500     136.5760      67.3550     148.4530       0.0841       2.9850       2.5130
   2337.6638      10.5200       0.2030     115.7500      44.0666    -999.2500    -999.2500     137.0692      67.4802      90.6966       0.0939       2.8223       2.4744
   2337.8164      10.5050       0.2030      99.1875      44.6000    -999.2500    -999.2500     137.5570      67.6040      33.1080       0.1077       2.6600       2.4360
   2337.9688      10.4289       0.1945      90.1875      48.5534    -999.2500    -999.2500     142.4930      69.1231     121.5450       0.1496       2.6790       2.4485
   2338.1211      10.3530       0.1860      94.5000      52.4770    -999.2500    -999.2500     147.3760      70.6260     209.7360       0.1895       2.6980       2.4610
   2338.2734      10.3109       0.1097      97.8750      51.4156    -999.2500    -999.2500     161.2089      76.5891     165.4642       0.1861       2.7951       2.5266
   2338.4260      10.2690       0.0340     150.5000      50.3620    -999.2500    -999.2500     174.8950      82.4890     121.3100       0.1738       2.8920       2.5920
   2338.5784      10.2034       0.0420     132.7500      51.7676    -999.2500    -999.2500     177.7781      82.4754     121.3611       0.1253       2.8770       2.6536
   2338.7307      10.1380       0.0500     117.3750      53.1630    -999.2500    -999.2500     180.6310      82.4620     121.4120       0.0781       2.8620       2.7150
   2338.8831      10.1445       0.0390     104.0625      52.5287    -999.2500    -999.2500     180.3923      82.6691     112.6339       0.0761       2.7028       2.6940
   2339.0356      10.1510       0.0280     114.0000      51.8990    -999.2500    -999.2500     180.1560      82.8740     103.8770       0.0835       2.5440       2.6730
   2339.1880      10.1830       0.0280      61.6875      48.6926    -999.2500    -999.2500     178.7589      81.5135      67.4409       0.1258       2.5625       2.5649
   2339.3403      10.2150       0.0280      88.5625      45.5140    -999.2500    -999.2500     177.3760      80.1670      31.0880       0.1674       2.5810       2.4570
   2339.4927      10.2325       0.0310      66.7500      43.2373    -999.2500    -999.2500     173.3114      72.7977      34.7509       0.1695       2.6931       2.4705
   2339.6450      10.2500       0.0340      66.3750      40.9800    -999.2500    -999.2500     169.2880      65.5030      38.4060       0.1655       2.8050       2.4840
   2339.7976      10.2595       0.0506      51.8125      41.0859    -999.2500    -999.2500     150.0635      57.5458      69.0371       0.1504       2.7524       2.5761
   2339.9500      10.2690       0.0670      46.9375      41.1910    -999.2500    -999.2500     131.0310      49.6680      99.6060       0.1335       2.7000       2.6680
   2340.1023      10.2800       0.0655      49.8750      42.1540    -999.2500    -999.2500     131.0340      46.4320      71.4362       0.1122       2.7516       2.6675
   2340.2546      10.2910       0.0640      55.6875      43.1090    -999.2500    -999.2500     131.0370      43.2280      43.3650       0.0911       2.8030       2.6670
   2340.4072      10.4543       0.0299      44.5000      42.4523    -999.2500    -999.2500     131.1551      43.2169      51.5042       0.0752       2.7219       2.6199
   2340.5596      10.6170      -0.0040      63.5000      41.8010    -999.2500    -999.2500     131.2720      43.2060      59.6160       0.0625       2.6410       2.5730
   2340.7119      11.7734      -0.0030      91.6250      38.3251    -999.2500    -999.2500     127.8224      42.6187      52.8054       0.0698       1.9669       2.0637
   2340.8643      12.9260      -0.0020      24.0000      34.8770    -999.2500    -999.2500     124.4060      42.0370      46.0170       0.0971       1.2950       1.5560
   2341.0166      16.1060       0.0095      75.2500      31.3767    -999.2500    -999.2500     107.8233      37.1327      25.6807       0.2637       1.3145       1.5700
   2341.1692      19.2760       0.0210      86.2500      27.9040    -999.2500    -999.2500      91.3980      32.2750       5.4080       0.4285       1.3340       1.5840
   2341.3215      18.8789       0.0732      17.8125      28.3804    -999.2500    -999.2500      76.0872      32.3770       5.5707       0.4466       1.5073       1.6726
   2341.4739      18.4830       0.1250      32.5625      28.8530    -999.2500    -999.2500      60.9200      32.4780       5.7330       0.4444       1.6800       1.7610
   2341.6262      16.5322       0.1245      81.1875      31.3556    -999.2500    -999.2500      63.0274      33.6664       7.2597       0.4303       2.1006       1.9227
   2341.7788      14.5870       0.1240      92.2500      33.8390    -999.2500    -999.2500      65.1120      34.8420       8.7820       0.4093       2.5200       2.0840
