#------------------------------------------------------------------------------
#
#   Created by  : [OpenWorks] Log Export Utility (LEXP)
#   Created on  : 2016-05-11 12:13:36
#   Project     : CANT971
#   User        : R5K
#   Interpreter : PEP
#
#------------------------------------------------------------------------------
~VERSION INFORMATION
VERS. 2.0 : CWLS Log ASCII Standard - version 2.0
WRAP.  NO : One line per depth step
~WELL INFORMATION
#MNEMONIC   .UNIT                                           VALUE :DESCRIPTION
#------------------------------------------------------------------------------
STRT        .M                                           688.6959 :START DEPTH
STOP        .M                                          2536.3936 :STOP DEPTH
STEP        .M                                             0.1524 :STEP
NULL        .                                           -999.2500 :NULL VALUE
COMP        .                                   PEMEX EXPL & PROD :COMPANY
WELL        .                                                1049 :WELL
FLD         .                                           CANTARELL :FIELD
LOC         .                                             UNKNOWN :LOCATION
CNTY        .                                      CD. DEL CARMEN :COUNTY
STAT        .                                            CAMPECHE :STATE
CTRY        .                                              MEXICO :COUNTRY
SRVC        .                                             UNKNOWN :SERVICE COMPANY
DATE        .                                             UNKNOWN :LOG DATE
UWI         .                                          3060000621 :UNIQUE WELL ID
XCOORD      .                                       601390.370000 :SURFACE X
YCOORD      .                                      2149879.190000 :SURFACE Y
LAT         .                                           19.441893 :LATITUDE
LON         .                                          -92.034142 :LONGITUDE
ELEV        .M                                            28.0000 :SURFACE ELEV
ELEV_TYPE   .                                                  KB :ELEV TYPE
~CURVE INFORMATION
#MNEMONIC.UNIT        API CODE       : CURVE DESCRIPTION
#------------------------------------------------------------------------------
DEPTH    .M                          : Measured Depth
CALI     .inches      UNKNOWN        : CALI:Import:rC:NONE:v0 (auto-composite)
DRHO     .g/cm3       UNKNOWN        : DRHO:Import:rC:NONE:v0 (auto-composite)
DT       .us/ft       UNKNOWN        : DT:Import:rC:NONE:v0 (auto-composite)
GR       .API         UNKNOWN        : GR:Import:rC:NONE:v0 (auto-composite)
ILD      .ohm.m       UNKNOWN        : ILD:Import:rC:NONE:v0 (auto-composite)
ILM      .ohm.m       UNKNOWN        : ILM:Import:rC:NONE:v0 (auto-composite)
LLD      .ohm.m       UNKNOWN        : LLD:Import:rC:NONE:v0 (auto-composite)
LLS      .ohm.m       UNKNOWN        : LLS:Import:rC:NONE:v0 (auto-composite)
MSFL     .ohm.m       UNKNOWN        : MSFL:Import:rC:NONE:v0 (auto-composite)
NPHI     .v/v_decimal UNKNOWN        : NPHI:Import:rC:NONE:v0 (auto-composite)
PEF      .b/elec      UNKNOWN        : PEF:Import:rC:NONE:v0 (auto-composite)
RHOB     .g/cm3       UNKNOWN        : RHOB:Import:rC:NONE:v0 (auto-composite)
~A     DEPTH         CALI         DRHO           DT           GR          ILD          ILM          LLD          LLS         MSFL         NPHI          PEF         RHOB
# ...
   2378.5071       9.4514       0.0710      50.0000      56.2474    -999.2500    -999.2500     422.9685     165.9417     174.8397       0.0682       3.0359       2.6466
   2378.6594       9.6600       0.0660      41.6875      55.9900    -999.2500    -999.2500     418.7440     164.4090     252.5840       0.0613       2.9690       2.6740
   2378.8120       9.6550       0.0479      45.8750      54.8161    -999.2500    -999.2500     395.9267     156.9384     239.6770       0.0532       2.8633       2.6960
   2378.9644       9.6500       0.0300      57.9375      53.6520    -999.2500    -999.2500     373.3360     149.5420     226.8160       0.0468       2.7580       2.7180
   2379.1167       9.5774       0.0315      43.2500      54.3308    -999.2500    -999.2500     323.6306     132.2878     195.3478       0.0468       2.7891       2.7315
   2379.2690       9.5050       0.0330      45.3750      55.0040    -999.2500    -999.2500     274.4130     115.2030     163.9880       0.0499       2.8200       2.7450
   2379.4216       9.3903       0.0285      59.2500      54.7349    -999.2500    -999.2500     275.8454     118.0583     178.8907       0.0557       2.9953       2.7425
   2379.5740       9.2760       0.0240      55.3750      54.4680    -999.2500    -999.2500     277.2640     120.8860     193.7440       0.0639       3.1700       2.7400
   2379.7263       9.3301       0.0270      51.2500      52.6216    -999.2500    -999.2500     273.7834     120.4710     183.9879       0.0763       3.1329       2.7110
   2379.8787       9.3840       0.0300      43.4375      50.7900    -999.2500    -999.2500     270.3360     120.0600     174.2630       0.0962       3.0960       2.6820
   2380.0310       9.3825       0.0360      60.7500      47.2988    -999.2500    -999.2500     259.5521     118.1867     121.8362       0.1341       2.9456       2.5768
   2380.1836       9.3810       0.0420      49.4688      43.8350    -999.2500    -999.2500     248.8700     116.3310      69.6540       0.1682       2.7960       2.4720
   2380.3359       9.3539       0.0470      75.2500      43.8355    -999.2500    -999.2500     236.2733     113.2702      72.2243       0.1738       2.8301       2.4961
   2380.4883       9.3270       0.0520      57.4688      43.8360    -999.2500    -999.2500     223.7940     110.2380      74.7830       0.1672       2.8640       2.5200
   2380.6406       9.2609       0.0475      61.7813      43.7823    -999.2500    -999.2500     212.3108     106.4627      98.2203       0.1535       2.9362       2.6032
   2380.7932       9.1950       0.0430      58.7188      43.7290    -999.2500    -999.2500     200.9330     102.7220     121.5540       0.1358       3.0080       2.6860
   2380.9456       9.1950       0.0229      56.5625      43.3340    -999.2500    -999.2500     182.9836      97.4129     120.4582       0.1136       3.0356       2.6785
   2381.0979       9.1950       0.0030      57.5000      42.9420    -999.2500    -999.2500     165.1970      92.1520     119.3670       0.0964       3.0630       2.6710
   2381.2502       9.1965       0.0035      56.1875      41.8374    -999.2500    -999.2500     166.2480      87.4115     105.4946       0.0982       3.0845       2.6184
   2381.4028       9.1980       0.0040      53.3750      40.7410    -999.2500    -999.2500     167.2880      82.7210      91.6800       0.1047       3.1060       2.5660
   2381.5552       9.2015       0.0095      56.2500      39.3946    -999.2500    -999.2500     175.3816      84.1484      94.1976       0.1061       3.0820       2.5685
   2381.7075       9.2050       0.0150      60.1875      38.0600    -999.2500    -999.2500     183.3910      85.5610      96.7050       0.1047       3.0580       2.5710
   2381.8599       9.2105       0.0366      62.5625      38.8705    -999.2500    -999.2500     198.6736      88.8755     104.8074       0.1004       3.0785       2.6276
   2382.0122       9.2160       0.0580      64.4375      39.6740    -999.2500    -999.2500     213.7990      92.1560     112.8780       0.0967       3.0990       2.6840
   2382.1648       9.2260       0.0540      64.0625      42.0597    -999.2500    -999.2500     224.4179      93.6315     111.3787       0.0975       3.1446       2.6775
   2382.3171       9.2360       0.0500      42.2500      44.4250    -999.2500    -999.2500     234.9290      95.0920     109.8850       0.1011       3.1900       2.6710
   2382.4695       9.2560       0.0395      57.1875      46.8618    -999.2500    -999.2500     244.7754      95.3724     106.5379       0.1081       3.1559       2.6445
   2382.6218       9.2760       0.0290      56.4375      49.2780    -999.2500    -999.2500     254.5230      95.6500     103.2030       0.1165       3.1220       2.6180
   2382.7744       9.3682       0.0210      52.5000      47.9128    -999.2500    -999.2500     260.2875      96.1766     101.5576       0.1257       3.1220       2.5694
   2382.9268       9.4600       0.0130      60.0000      46.5590    -999.2500    -999.2500     265.9950      96.6980      99.9180       0.1330       3.1220       2.5210
   2383.0791       9.4490       0.0105      33.4375      42.2905    -999.2500    -999.2500     272.3958      98.1225      97.5535       0.1341       3.1310       2.5220
   2383.2314       9.4380       0.0080      46.1875      38.0570    -999.2500    -999.2500     278.7340      99.5330      95.1970       0.1325       3.1400       2.5230
   2383.3840       9.3959       0.0085      66.8125      38.5876    -999.2500    -999.2500     296.1114     103.4092      89.8076       0.1292       3.1615       2.5310
   2383.5364       9.3540       0.0090      69.8125      39.1140    -999.2500    -999.2500     313.3210     107.2480      84.4360       0.1252       3.1830       2.5390
   2383.6887       9.3109       0.0105      69.6250      41.2389    -999.2500    -999.2500     344.3505     114.0047      90.1190       0.1204       3.2105       2.5585
   2383.8411       9.2680       0.0120      68.3125      43.3470    -999.2500    -999.2500     375.0840     120.6970      95.7840       0.1149       3.2380       2.5780
   2383.9934       9.2795       0.0160      62.4375      46.1650    -999.2500    -999.2500     425.0550     129.3251     153.9970       0.1084       3.2320       2.6031
   2384.1460       9.2910       0.0200      63.3125      48.9610    -999.2500    -999.2500     474.5560     137.8720     211.9400       0.1032       3.2260       2.6280
   2384.2983       9.3110       0.0315      72.6875      50.4196    -999.2500    -999.2500     457.5058     132.9185     211.5090       0.1024       3.2110       2.6591
   2384.4507       9.3310       0.0430      66.8125      51.8670    -999.2500    -999.2500     440.6140     128.0110     211.0800       0.1034       3.1960       2.6900
   2384.6030       9.4027       0.0410      57.8750      49.7831    -999.2500    -999.2500     393.9790     115.6444     191.8503       0.1054       3.1534       2.6825
   2384.7556       9.4740       0.0390      58.0625      47.7150    -999.2500    -999.2500     347.7710     103.3910     172.7050       0.1078       3.1110       2.6750
   2384.9080       9.5792       0.0325      56.0625      42.6291    -999.2500    -999.2500     305.6055      93.0176     147.4056       0.1108       3.0208       2.6509
   2385.0603       9.6840       0.0260      46.7500      37.5810    -999.2500    -999.2500     263.8210      82.7380     122.2140       0.1144       2.9310       2.6270
   2385.2126       9.8178       0.0315      98.0000      33.8303    -999.2500    -999.2500     236.0814      75.8624     104.6837       0.1188       2.8473       2.5909
   2385.3652       9.9510       0.0370      66.0625      30.1070    -999.2500    -999.2500     208.6330      69.0590      87.2260       0.1253       2.7640       2.5550
   2385.5176      10.2751       0.0511      61.1250      30.1718    -999.2500    -999.2500     188.5806      64.4134      62.8502       0.1362       2.6848       2.5144
   2385.6699      10.5980       0.0650      65.7500      30.2360    -999.2500    -999.2500     168.7360      59.8160      38.5720       0.1524       2.6060       2.4740
