#------------------------------------------------------------------------------
#
#   Created by  : [OpenWorks] Log Export Utility (LEXP)
#   Created on  : 2016-05-11 12:13:36
#   Project     : CANT971
#   User        : R5K
#   Interpreter : PEP
#
#------------------------------------------------------------------------------
~VERSION INFORMATION
VERS. 2.0 : CWLS Log ASCII Standard - version 2.0
WRAP.  NO : One line per depth step
~WELL INFORMATION
#MNEMONIC   .UNIT                                           VALUE :DESCRIPTION
#------------------------------------------------------------------------------
STRT        .M                                           688.6959 :START DEPTH
STOP        .M                                          2536.3936 :STOP DEPTH
STEP        .M                                             0.1524 :STEP
NULL        .                                           -999.2500 :NULL VALUE
COMP        .                                   PEMEX EXPL & PROD :COMPANY
WELL        .                                                1049 :WELL
FLD         .                                           CANTARELL :FIELD
LOC         .                                             UNKNOWN :LOCATION
CNTY        .                                      CD. DEL CARMEN :COUNTY
STAT        .                                            CAMPECHE :STATE
CTRY        .                                              MEXICO :COUNTRY
SRVC        .                                             UNKNOWN :SERVICE COMPANY
DATE        .                                             UNKNOWN :LOG DATE
UWI         .                                          3060000621 :UNIQUE WELL ID
XCOORD      .                                       601390.370000 :SURFACE X
YCOORD      .                                      2149879.190000 :SURFACE Y
LAT         .                                           19.441893 :LATITUDE
LON         .                                          -92.034142 :LONGITUDE
ELEV        .M                                            28.0000 :SURFACE ELEV
ELEV_TYPE   .                                                  KB :ELEV TYPE
~CURVE INFORMATION
#MNEMONIC.UNIT        API CODE       : CURVE DESCRIPTION
#------------------------------------------------------------------------------
DEPTH    .M                          : Measured Depth
CALI     .inches      UNKNOWN        : CALI:Import:rC:NONE:v0 (auto-composite)
DRHO     .g/cm3       UNKNOWN        : DRHO:Import:rC:NONE:v0 (auto-composite)
DT       .us/ft       UNKNOWN        : DT:Import:rC:NONE:v0 (auto-composite)
GR       .API         UNKNOWN        : GR:Import:rC:NONE:v0 (auto-composite)
ILD      .ohm.m       UNKNOWN        : ILD:Import:rC:NONE:v0 (auto-composite)
ILM      .ohm.m       UNKNOWN        : ILM:Import:rC:NONE:v0 (auto-composite)
LLD      .ohm.m       UNKNOWN        : LLD:Import:rC:NONE:v0 (auto-composite)
LLS      .ohm.m       UNKNOWN        : LLS:Import:rC:NONE:v0 (auto-composite)
MSFL     .ohm.m       UNKNOWN        : MSFL:Import:rC:NONE:v0 (auto-composite)
NPHI     .v/v_decimal UNKNOWN        : NPHI:Import:rC:NONE:v0 (auto-composite)
PEF      .b/elec      UNKNOWN        : PEF:Import:rC:NONE:v0 (auto-composite)
RHOB     .g/cm3       UNKNOWN        : RHOB:Import:rC:NONE:v0 (auto-composite)
~A     DEPTH         CALI         DRHO           DT           GR          ILD          ILM          LLD          LLS         MSFL         NPHI          PEF         RHOB
# ...
   2356.5615       8.9870       0.0095      24.3750      46.8871    -999.2500    -999.2500     262.6702     155.2287     138.4202       0.0843       3.1390       2.6555
   2356.7139       8.9960       0.0110      47.4375      44.7720    -999.2500    -999.2500     278.8720     163.4060     148.0750       0.0861       3.1100       2.6560
   2356.8662       9.0140       0.0120      46.2500      44.9241    -999.2500    -999.2500     299.2916     171.8897     171.3945       0.0833       3.1130       2.6650
   2357.0188       9.0320       0.0130      47.4375      45.0750    -999.2500    -999.2500     319.5200     180.2940     194.6440       0.0801       3.1160       2.6740
   2357.1711       9.0535       0.0130      52.8125      47.7091    -999.2500    -999.2500     347.9299     188.8561     191.3963       0.0798       3.1480       2.6730
   2357.3235       9.0750       0.0130      60.2500      50.3230    -999.2500    -999.2500     376.0770     197.3390     188.1580       0.0801       3.1800       2.6720
   2357.4758       9.0935       0.0125      63.4375      50.2783    -999.2500    -999.2500     375.1857     194.6672     174.8267       0.0807       3.1745       2.6690
   2357.6284       9.1120       0.0120      40.1250      50.2340    -999.2500    -999.2500     374.3040     192.0240     161.5320       0.0814       3.1690       2.6660
   2357.7808       9.1521       0.0085      40.8125      48.9372    -999.2500    -999.2500     363.8190     180.5186     134.6767       0.0823       3.1014       2.6480
   2357.9331       9.1920       0.0050      40.0000      47.6500    -999.2500    -999.2500     353.4450     169.1350     107.8920       0.0845       3.0340       2.6300
   2358.0854       9.1835       0.0050      46.6250      48.5799    -999.2500    -999.2500     326.8750     155.0352     110.3631       0.0913       3.0365       2.6330
   2358.2380       9.1750       0.0050      55.2500      49.5030    -999.2500    -999.2500     300.5830     141.0830     112.8240       0.0978       3.0390       2.6360
   2358.3904       9.2076       0.0030      40.9375      52.2038    -999.2500    -999.2500     281.3522     133.4903      90.5753       0.0982       3.0731       2.6525
   2358.5427       9.2400       0.0010      52.6875      54.8810    -999.2500    -999.2500     262.3200     125.9760      68.4150       0.0968       3.1070       2.6690
   2358.6951       9.2155       0.0020      60.0000      54.1448    -999.2500    -999.2500     252.9718     124.6055      68.4746       0.0937       3.0995       2.6685
   2358.8474       9.1910       0.0030      65.0625      53.4150    -999.2500    -999.2500     243.7190     123.2490      68.5340       0.0903       3.0920       2.6680
   2359.0000       9.1945       0.0100      53.5625      50.0562    -999.2500    -999.2500     241.1365     122.7379      78.4905       0.0874       3.0549       2.6565
   2359.1523       9.1980       0.0170      60.0000      46.7260    -999.2500    -999.2500     238.5800     122.2320      88.4100       0.0846       3.0180       2.6450
   2359.3047       9.2326       0.0376      91.2500      47.7829    -999.2500    -999.2500     235.2238     120.9320     146.1625       0.0811       2.9659       2.6455
   2359.4570       9.2670       0.0580      86.9375      48.8310    -999.2500    -999.2500     231.9010     119.6450     203.7070       0.0781       2.9140       2.6460
   2359.6096       9.4047       0.0841      60.0000      48.6016    -999.2500    -999.2500     232.7095     118.9757     199.1746       0.0778       2.9846       2.6796
   2359.7620       9.5420       0.1100      63.1875      48.3740    -999.2500    -999.2500     233.5100     118.3130     194.6580       0.0784       3.0550       2.7130
   2359.9143       9.5300       0.1025      37.8125      48.4744    -999.2500    -999.2500     231.0536     113.4448     178.5175       0.0815       2.9263       2.6915
   2360.0667       9.5180       0.0950      39.6250      48.5740    -999.2500    -999.2500     228.6210     108.6240     162.4310       0.0867       2.7980       2.6700
   2360.2192       9.4559       0.0704      58.2500      51.7738    -999.2500    -999.2500     221.7018     108.7782     122.2823       0.0989       2.7995       2.5909
   2360.3716       9.3940       0.0460      60.4375      54.9480    -999.2500    -999.2500     214.8490     108.9310      82.2630       0.1099       2.8010       2.5120
   2360.5239       9.3034       0.0345      50.3750      54.4832    -999.2500    -999.2500     220.6218     111.7579      86.2972       0.1091       2.8666       2.5310
   2360.6763       9.2130       0.0230      65.1250      54.0220    -999.2500    -999.2500     226.3400     114.5580      90.3190       0.1045       2.9320       2.5500
   2360.8286       9.1404       0.0165      65.3125      52.3826    -999.2500    -999.2500     249.6036     123.4375     103.9888       0.0951       3.1714       2.6036
   2360.9812       9.0680       0.0100      47.8750      50.7560    -999.2500    -999.2500     272.6500     132.2340     117.6180       0.0854       3.4100       2.6570
   2361.1335       9.0705       0.0105      61.1875      49.1855    -999.2500    -999.2500     295.3456     139.0263     156.8013       0.0793       3.3995       2.6720
   2361.2859       9.0730       0.0110      62.5000      47.6270    -999.2500    -999.2500     317.8320     145.7560     195.8730       0.0740       3.3890       2.6870
   2361.4382       9.0810       0.0150      55.0000      47.6621    -999.2500    -999.2500     328.1159     149.0948     195.4189       0.0690       3.3600       2.6915
   2361.5908       9.0890       0.0190      45.6875      47.6970    -999.2500    -999.2500     338.2900     152.3980     194.9660       0.0649       3.3310       2.6960
   2361.7432       9.0720       0.0185      43.2500      48.2099    -999.2500    -999.2500     347.2302     155.2390     176.4344       0.0646       3.3215       2.7070
   2361.8955       9.0550       0.0180      36.6875      48.7190    -999.2500    -999.2500     356.0760     158.0500     157.9510       0.0655       3.3120       2.7180
   2362.0479       9.0610       0.0130      60.3750      52.0245    -999.2500    -999.2500     350.8558     156.1441     164.1386       0.0678       3.2318       2.7165
   2362.2004       9.0670       0.0080      57.6875      55.3060    -999.2500    -999.2500     345.6900     154.2580     170.3010       0.0698       3.1520       2.7150
   2362.3528       9.0555       0.0085      56.6250      55.2819    -999.2500    -999.2500     323.6826     147.0071     165.7445       0.0688       3.1555       2.7095
   2362.5051       9.0440       0.0090      47.1250      55.2580    -999.2500    -999.2500     301.9020     139.8310     161.2060       0.0675       3.1590       2.7040
   2362.6575       9.0475       0.0115      51.8125      53.2895    -999.2500    -999.2500     275.2443     129.6944     150.4099       0.0676       3.2422       2.6820
   2362.8098       9.0510       0.0140      42.1250      51.3380    -999.2500    -999.2500     248.8580     119.6610     139.6550       0.0683       3.3250       2.6600
   2362.9624       9.0605       0.0185      52.8750      51.4028    -999.2500    -999.2500     236.0677     120.3811     191.4431       0.0698       3.3085       2.6625
   2363.1147       9.0700       0.0230      57.8125      51.4670    -999.2500    -999.2500     223.4060     121.0940     243.0400       0.0718       3.2920       2.6650
   2363.2671       9.0740       0.0315      57.1875      52.1534    -999.2500    -999.2500     225.1125     123.0256     237.1059       0.0744       3.2299       2.6650
   2363.4194       9.0780       0.0400      53.6875      52.8340    -999.2500    -999.2500     226.8020     124.9380     231.1930       0.0789       3.1680       2.6650
   2363.5720       9.0910       0.0485      46.5625      55.1691    -999.2500    -999.2500     232.4361     126.3454     204.5416       0.0902       3.0613       2.6495
   2363.7244       9.1040       0.0570      36.9375      57.4850    -999.2500    -999.2500     238.0150     127.7390     177.9820       0.1009       2.9550       2.6340
