#------------------------------------------------------------------------------
#
#   Created by  : [OpenWorks] Log Export Utility (LEXP)
#   Created on  : 2016-05-11 12:13:36
#   Project     : CANT971
#   User        : R5K
#   Interpreter : PEP
#
#------------------------------------------------------------------------------
~VERSION INFORMATION
VERS. 2.0 : CWLS Log ASCII Standard - version 2.0
WRAP.  NO : One line per depth step
~WELL INFORMATION
#MNEMONIC   .UNIT                                           VALUE :DESCRIPTION
#------------------------------------------------------------------------------
STRT        .M                                           688.6959 :START DEPTH
STOP        .M                                          2536.3936 :STOP DEPTH
STEP        .M                                             0.1524 :STEP
NULL        .                                           -999.2500 :NULL VALUE
COMP        .                                   PEMEX EXPL & PROD :COMPANY
WELL        .                                                1049 :WELL
FLD         .                                           CANTARELL :FIELD
LOC         .                                             UNKNOWN :LOCATION
CNTY        .                                      CD. DEL CARMEN :COUNTY
STAT        .                                            CAMPECHE :STATE
CTRY        .                                              MEXICO :COUNTRY
SRVC        .                                             UNKNOWN :SERVICE COMPANY
DATE        .                                             UNKNOWN :LOG DATE
UWI         .                                          3060000621 :UNIQUE WELL ID
XCOORD      .                                       601390.370000 :SURFACE X
YCOORD      .                                      2149879.190000 :SURFACE Y
LAT         .                                           19.441893 :LATITUDE
LON         .                                          -92.034142 :LONGITUDE
ELEV        .M                                            28.0000 :SURFACE ELEV
ELEV_TYPE   .                                                  KB :ELEV TYPE
~CURVE INFORMATION
#MNEMONIC.UNIT        API CODE       : CURVE DESCRIPTION
#------------------------------------------------------------------------------
DEPTH    .M                          : Measured Depth
CALI     .inches      UNKNOWN        : CALI:Import:rC:NONE:v0 (auto-composite)
DRHO     .g/cm3       UNKNOWN        : DRHO:Import:rC:NONE:v0 (auto-composite)
DT       .us/ft       UNKNOWN        : DT:Import:rC:NONE:v0 (auto-composite)
GR       .API         UNKNOWN        : GR:Import:rC:NONE:v0 (auto-composite)
ILD      .ohm.m       UNKNOWN        : ILD:Import:rC:NONE:v0 (auto-composite)
ILM      .ohm.m       UNKNOWN        : ILM:Import:rC:NONE:v0 (auto-composite)
LLD      .ohm.m       UNKNOWN        : LLD:Import:rC:NONE:v0 (auto-composite)
LLS      .ohm.m       UNKNOWN        : LLS:Import:rC:NONE:v0 (auto-composite)
MSFL     .ohm.m       UNKNOWN        : MSFL:Import:rC:NONE:v0 (auto-composite)
NPHI     .v/v_decimal UNKNOWN        : NPHI:Import:rC:NONE:v0 (auto-composite)
PEF      .b/elec      UNKNOWN        : PEF:Import:rC:NONE:v0 (auto-composite)
RHOB     .g/cm3       UNKNOWN        : RHOB:Import:rC:NONE:v0 (auto-composite)
~A     DEPTH         CALI         DRHO           DT           GR          ILD          ILM          LLD          LLS         MSFL         NPHI          PEF         RHOB
# ...
   2239.5183       8.5470      -0.9715      51.5625      28.0700    -999.2500    -999.2500      31.6670       0.9436       0.1155       0.3804      26.3446       2.1215
   2239.6707       8.5470      -0.9810      45.5938      28.4350    -999.2500    -999.2500       1.5910       0.4400       0.0970       0.3739      27.6460       2.1440
   2239.8232       8.5500      -1.0081      29.1875      29.2894    -999.2500    -999.2500       0.9645       0.3470       0.1175       0.3775      33.3099       2.1285
   2239.9756       8.5530      -1.0350      41.5625      30.1370    -999.2500    -999.2500       0.3450       0.2550       0.1380       0.3844      38.9740       2.1130
   2240.1279       8.5600      -1.0350      36.8750      30.7554    -999.2500    -999.2500       0.3450       0.2550       0.1370       0.3901      44.8641       2.0860
   2240.2803       8.5670      -1.0350      38.0313      31.3690    -999.2500    -999.2500       0.3450       0.2550       0.1360       0.3913      50.7550       2.0590
   2240.4326       8.5725      -1.0310      45.7500      30.7029    -999.2500    -999.2500       0.3440       0.2550       0.1230       0.3818     100.2021       2.0480
   2240.5852       8.5780      -1.0270      49.3125      30.0420    -999.2500    -999.2500       0.3430       0.2550       0.1100       0.3728     149.6630       2.0370
   2240.7375       8.6105      -1.0225      42.1250      30.1850    -999.2500    -999.2500       0.3510       0.2545       0.1130       0.3761     104.4986       2.0340
   2240.8899       8.6430      -1.0180      47.9375      30.3270    -999.2500    -999.2500       0.3590       0.2540       0.1160       0.3815      59.3160       2.0310
   2241.0422       8.6535      -0.9989      40.8125      28.9960    -999.2500    -999.2500       0.3474       0.2535       0.1020       0.3803      42.3619       2.0380
   2241.1948       8.6640      -0.9800      52.8438      27.6750    -999.2500    -999.2500       0.3360       0.2530       0.0880       0.3751      25.4260       2.0450
   2241.3472       8.6640      -0.9439      26.8750      27.8361    -999.2500    -999.2500       0.3285       0.2525       0.0890       0.3660      31.7615       2.0795
   2241.4995       8.6640      -0.9080      37.3750      27.9960    -999.2500    -999.2500       0.3210       0.2520       0.0900       0.3581      38.0910       2.1140
   2241.6519       8.6655      -0.8809      45.8750      28.1802    -999.2500    -999.2500       0.3401       0.2535       0.0885       0.3574      44.4661       2.1105
   2241.8044       8.6670      -0.8540      43.6563      28.3630    -999.2500    -999.2500       0.3590       0.2550       0.0870       0.3544      50.8360       2.1070
   2241.9568       8.6740      -0.8349      45.8125      27.8392    -999.2500    -999.2500       0.3852       0.2535       0.0870       0.3383      48.2061       2.1135
   2242.1091       8.6810      -0.8160      38.3125      27.3200    -999.2500    -999.2500       0.4110       0.2520       0.0870       0.3226      45.5780       2.1200
   2242.2615       8.7135      -0.7764      52.1250      28.1204    -999.2500    -999.2500       0.4070       0.2495       0.0870       0.3207      35.7772       2.1470
   2242.4138       8.7460      -0.7370      34.6250      28.9140    -999.2500    -999.2500       0.4030       0.2470       0.0870       0.3260      25.9820       2.1740
   2242.5664       8.7680      -0.6647      62.9063      30.2275    -999.2500    -999.2500       0.3462       0.2415       0.0885       0.3366      22.1371       2.2065
   2242.7188       8.7900      -0.5930      56.0000      31.5300    -999.2500    -999.2500       0.2900       0.2360       0.0900       0.3476      18.2940       2.2390
   2242.8711       8.8335      -0.4700      46.4375      31.1072    -999.2500    -999.2500       0.3438       0.2290       0.0885       0.3546     504.3471       2.4180
   2243.0234       8.8770      -0.3480      55.4375      30.6880    -999.2500    -999.2500       0.3970       0.2220       0.0870       0.3563     990.2450       2.5970
   2243.1760       8.9020      -0.2391      54.3750      29.6588    -999.2500    -999.2500       0.5287       0.2733       0.0900       0.3481     753.1371       2.8430
   2243.3284       8.9270      -0.1310      46.9063      28.6380    -999.2500    -999.2500       0.6590       0.3240       0.0930       0.3349     516.0750       3.0890
   2243.4807       8.9465      -0.0607      41.6875      30.0145    -999.2500    -999.2500       0.5519       0.4115       0.0920       0.3182     258.3282       3.1600
   2243.6331       8.9660       0.0090      22.6250      31.3800    -999.2500    -999.2500       0.4460       0.4980       0.0910       0.3023       0.5990       3.2310
   2243.7856       9.1295       0.0667      57.9375      35.0149    -999.2500    -999.2500       0.3258       0.3547       0.2850       0.2925       1.0320       3.1370
   2243.9380       9.2930       0.1240      59.3125      38.6210    -999.2500    -999.2500       0.2070       0.2130       0.4790       0.2891       1.4650       3.0430
   2244.0903       9.8180       0.1616       1.4375      41.7843    -999.2500    -999.2500       0.4619       0.2220       1.5809       0.2969       2.1554       2.8700
   2244.2427      10.3430       0.1990       6.0625      44.9230    -999.2500    -999.2500       0.7140       0.2310       2.6830       0.3080       2.8460       2.6970
   2244.3950      10.9649       0.1905       6.7500      44.8296    -999.2500    -999.2500       2.4001       0.3280       2.6820       0.3170       3.1799       2.5745
   2244.5476      11.5870       0.1820      20.6250      44.7370    -999.2500    -999.2500       4.0680       0.4240       2.6810       0.3228       3.5140       2.4520
   2244.7000      11.9244       0.1599     -21.8750      46.5303    -999.2500    -999.2500       2.8832       0.7940       2.5695       0.3216       3.4860       2.4090
   2244.8523      12.2620       0.1380     103.3750      48.3100    -999.2500    -999.2500       1.7110       1.1600       2.4580       0.3175       3.4580       2.3660
   2245.0046      12.4701       0.1119     100.7500      49.2154    -999.2500    -999.2500       1.4803       1.5174       2.6141       0.3120       3.5025       2.3570
   2245.1572      12.6780       0.0860     109.3125      50.1140    -999.2500    -999.2500       1.2520       1.8710       2.7700       0.3035       3.5470       2.3480
   2245.3096      12.8271       0.0860      96.3125      47.2661    -999.2500    -999.2500       1.2641       1.9997       2.5579       0.2877       3.6025       2.3835
   2245.4619      12.9760       0.0860      98.6875      44.4390    -999.2500    -999.2500       1.2760       2.1270       2.3460       0.2745       3.6580       2.4190
   2245.6143      13.1591       0.0825      94.3750      46.3192    -999.2500    -999.2500       1.2896       2.2004       2.7697       0.2757       3.5620       2.3945
   2245.7666      13.3420       0.0790      95.8750      48.1860    -999.2500    -999.2500       1.3030       2.2730       3.1930       0.2844       3.4660       2.3700
   2245.9192      13.5161       0.0765      95.3125      50.6175    -999.2500    -999.2500       1.2919       2.2494       3.0720       0.2999       3.3190       2.3300
   2246.0715      13.6900       0.0740      88.1875      53.0280    -999.2500    -999.2500       1.2810       2.2260       2.9510       0.3159       3.1720       2.2900
   2246.2239      13.7820       0.0670      98.1250      52.4500    -999.2500    -999.2500       1.2574       2.1747       2.7274       0.3267       3.2120       2.2960
   2246.3762      13.8740       0.0600      89.2500      51.8770    -999.2500    -999.2500       1.2340       2.1240       2.5040       0.3335       3.2520       2.3020
   2246.5288      13.9635       0.0575      92.5000      49.5588    -999.2500    -999.2500       1.2038       2.1024       2.5155       0.3338       3.2925       2.3155
   2246.6812      14.0530       0.0550      93.9375      47.2600    -999.2500    -999.2500       1.1740       2.0810       2.5270       0.3319       3.3330       2.3290
