#------------------------------------------------------------------------------
#
#   Created by  : [OpenWorks] Log Export Utility (LEXP)
#   Created on  : 2016-05-11 12:13:36
#   Project     : CANT971
#   User        : R5K
#   Interpreter : PEP
#
#------------------------------------------------------------------------------
~VERSION INFORMATION
VERS. 2.0 : CWLS Log ASCII Standard - version 2.0
WRAP.  NO : One line per depth step
~WELL INFORMATION
#MNEMONIC   .UNIT                                           VALUE :DESCRIPTION
#------------------------------------------------------------------------------
STRT        .M                                           688.6959 :START DEPTH
STOP        .M                                          2536.3936 :STOP DEPTH
STEP        .M                                             0.1524 :STEP
NULL        .                                           -999.2500 :NULL VALUE
COMP        .                                   PEMEX EXPL & PROD :COMPANY
WELL        .                                                1049 :WELL
FLD         .                                           CANTARELL :FIELD
LOC         .                                             UNKNOWN :LOCATION
CNTY        .                                      CD. DEL CARMEN :COUNTY
STAT        .                                            CAMPECHE :STATE
CTRY        .                                              MEXICO :COUNTRY
SRVC        .                                             UNKNOWN :SERVICE COMPANY
DATE        .                                             UNKNOWN :LOG DATE
UWI         .                                          3060000621 :UNIQUE WELL ID
XCOORD      .                                       601390.370000 :SURFACE X
YCOORD      .                                      2149879.190000 :SURFACE Y
LAT         .                                           19.441893 :LATITUDE
LON         .                                          -92.034142 :LONGITUDE
ELEV        .M                                            28.0000 :SURFACE ELEV
ELEV_TYPE   .                                                  KB :ELEV TYPE
~CURVE INFORMATION
#MNEMONIC.UNIT        API CODE       : CURVE DESCRIPTION
#------------------------------------------------------------------------------
DEPTH    .M                          : Measured Depth
CALI     .inches      UNKNOWN        : CALI:Import:rC:NONE:v0 (auto-composite)
DRHO     .g/cm3       UNKNOWN        : DRHO:Import:rC:NONE:v0 (auto-composite)
DT       .us/ft       UNKNOWN        : DT:Import:rC:NONE:v0 (auto-composite)
GR       .API         UNKNOWN        : GR:Import:rC:NONE:v0 (auto-composite)
ILD      .ohm.m       UNKNOWN        : ILD:Import:rC:NONE:v0 (auto-composite)
ILM      .ohm.m       UNKNOWN        : ILM:Import:rC:NONE:v0 (auto-composite)
LLD      .ohm.m       UNKNOWN        : LLD:Import:rC:NONE:v0 (auto-composite)
LLS      .ohm.m       UNKNOWN        : LLS:Import:rC:NONE:v0 (auto-composite)
MSFL     .ohm.m       UNKNOWN        : MSFL:Import:rC:NONE:v0 (auto-composite)
NPHI     .v/v_decimal UNKNOWN        : NPHI:Import:rC:NONE:v0 (auto-composite)
PEF      .b/elec      UNKNOWN        : PEF:Import:rC:NONE:v0 (auto-composite)
RHOB     .g/cm3       UNKNOWN        : RHOB:Import:rC:NONE:v0 (auto-composite)
~A     DEPTH         CALI         DRHO           DT           GR          ILD          ILM          LLD          LLS         MSFL         NPHI          PEF         RHOB
# ...
   2437.0288       8.6850       0.0185      41.4688      50.2596    -999.2500    -999.2500     414.4174     192.3576     163.7225       0.1029       3.1834       2.6199
   2437.1812       8.6960       0.0240      42.4063      50.0560    -999.2500    -999.2500     352.3680     170.1680     137.3540       0.1143       3.1570       2.5760
   2437.3335       8.7371       0.0295      52.0625      48.4418    -999.2500    -999.2500     314.6376     153.1728     104.5998       0.1307       3.1364       2.5214
   2437.4858       8.7780       0.0350      66.5625      46.8410    -999.2500    -999.2500     277.2790     136.3450      72.0120       0.1431       3.1160       2.4670
   2437.6384       8.7229       0.0375      36.4375      43.1460    -999.2500    -999.2500     300.4958     144.8499      80.3818       0.1427       3.2423       2.5056
   2437.7908       8.6680       0.0400      31.6250      39.4810    -999.2500    -999.2500     323.4870     153.2720      88.7100       0.1337       3.3680       2.5440
   2437.9431       8.6825       0.0290      57.3125      34.2566    -999.2500    -999.2500     398.3039     175.4993     148.0247       0.1201       3.3099       2.5856
   2438.0955       8.6970       0.0180      57.6875      29.0740    -999.2500    -999.2500     472.4020     197.5130     207.0530       0.1057       3.2520       2.6270
   2438.2478       8.7286       0.0255      45.9688      22.9930    -999.2500    -999.2500     599.3066     227.8989     197.1722       0.0940       3.1252       2.6501
   2438.4004       8.7600       0.0330      36.5625      16.9600    -999.2500    -999.2500     725.0090     257.9970     187.3380       0.0866       2.9990       2.6730
   2438.5527       8.8031       0.0445      49.0625      16.9630    -999.2500    -999.2500     698.1674     244.4913     196.7802       0.0850       2.9112       2.6670
   2438.7051       8.8460       0.0560      55.4375      16.9660    -999.2500    -999.2500     671.5770     231.1120     206.1640       0.0880       2.8240       2.6610
   2438.8574       8.9373       0.0670      34.1875      17.7746    -999.2500    -999.2500     585.1931     200.1899     190.8316       0.0943       2.9424       2.6460
   2439.0100       9.0280       0.0780      40.2500      18.5770    -999.2500    -999.2500     499.6060     169.5530     175.5920       0.1043       3.0600       2.6310
   2439.1624       9.1027       0.0890      85.1250      18.2362    -999.2500    -999.2500     415.2639     141.3129     158.3870       0.1184       3.0384       2.5954
   2439.3147       9.1770       0.1000      53.8125      17.8980    -999.2500    -999.2500     331.6900     113.3300     141.2840       0.1364       3.0170       2.5600
   2439.4670       9.3089       0.0990      21.5000      17.2621    -999.2500    -999.2500     286.5886      97.7867     128.1103       0.1580       2.9117       2.4768
   2439.6196       9.4400       0.0980      20.0625      16.6310    -999.2500    -999.2500     241.8920      82.3830     115.0130       0.1855       2.8070       2.3940
   2439.7720      10.5557       0.0905      19.0000      16.8681    -999.2500    -999.2500     210.9324      72.9989      65.4448       0.2216       2.7308       2.2722
   2439.9243      11.6650       0.0830      24.0625      17.1030    -999.2500    -999.2500     180.2470      63.6980      16.1580       0.2611       2.6550       2.1510
   2440.0767      14.4422       0.0780      -2.1875      19.4733    -999.2500    -999.2500     160.3326      59.5102      22.1306       0.2989       2.6410       2.2583
   2440.2290      17.2040       0.0730       9.8750      21.8230    -999.2500    -999.2500     140.5920      55.3590      28.0700       0.3193       2.6270       2.3650
   2440.3816      16.2960       0.0394      58.9375      31.8180    -999.2500    -999.2500     133.3162      54.5063      40.3939       0.3061       2.6796       2.4578
   2440.5339      15.3930       0.0060      52.6875      41.7270    -999.2500    -999.2500     126.1030      53.6610      52.6510       0.2671       2.7320       2.5500
   2440.6863      12.2978       0.0115      89.9375      38.1945    -999.2500    -999.2500     136.2586      56.6361      52.5442       0.2091       2.8558       2.5360
   2440.8386       9.2190       0.0170      77.8125      34.6920    -999.2500    -999.2500     146.3280      59.5860      52.4380       0.1601       2.9790       2.5220
   2440.9912       9.5072       0.0431      82.0625      26.9070    -999.2500    -999.2500     160.0669      62.6669      52.0670       0.1478       2.8928       2.4804
   2441.1436       9.7940       0.0690      92.9375      19.1870    -999.2500    -999.2500     173.6910      65.7220      51.6980       0.1548       2.8070       2.4390
   2441.2959      10.4812       0.1097      64.0625      13.4645    -999.2500    -999.2500     182.0958      66.9214      40.8571       0.1643       2.7183       2.3879
   2441.4482      11.1650       0.1500      75.3750       7.7890    -999.2500    -999.2500     190.4180      68.1090      30.0710       0.1762       2.6300       2.3370
   2441.6008      11.5078       0.1776      48.1250       8.4356    -999.2500    -999.2500     197.7812      69.6349      31.0128       0.1907       2.5849       2.2939
   2441.7532      11.8490       0.2050      47.3750       9.0770    -999.2500    -999.2500     205.0730      71.1460      31.9500       0.2113       2.5400       2.2510
   2441.9055      11.0896       0.1899      37.7500      10.7025    -999.2500    -999.2500     220.8360      75.3742      35.6017       0.2416       2.5535       2.2264
   2442.0579      10.3350       0.1750      55.3750      12.3150    -999.2500    -999.2500     236.4480      79.5620      39.2300       0.2746       2.5670       2.2020
   2442.2102       9.7657       0.1358      54.6875      16.6676    -999.2500    -999.2500     279.2014      90.1088      55.1012       0.3035       2.6528       2.2517
   2442.3628       9.2000       0.0970      74.5000      20.9860    -999.2500    -999.2500     321.5510     100.5560      70.8730       0.3154       2.7380       2.3010
   2442.5151       9.0189       0.0568      65.7500      24.8334    -999.2500    -999.2500     372.2595     112.6765      92.8540       0.2969       2.7856       2.3371
   2442.6675       8.8390       0.0170      40.4375      28.6510    -999.2500    -999.2500     422.4950     124.6840     114.7000       0.2593       2.8330       2.3730
   2442.8198       8.8626       0.0045      27.1875      32.8510    -999.2500    -999.2500     418.6548     122.2513     111.8986       0.2126       2.8721       2.3911
   2442.9724       8.8860      -0.0080       8.1250      37.0190    -999.2500    -999.2500     414.8500     119.8410     109.1140       0.1682       2.9110       2.4090
   2443.1248       8.8755      -0.0040     -19.0625      49.8284    -999.2500    -999.2500     383.9407     111.7106     102.4233       0.1373       2.9526       2.4767
   2443.2771       8.8650       0.0000      73.8125      62.5420    -999.2500    -999.2500     353.3120     103.6540      95.7720       0.1203       2.9940       2.5440
   2443.4294       8.8580       0.0045      50.3750      59.8677    -999.2500    -999.2500     322.0703      96.4874      78.6316       0.1184       3.0206       2.5345
   2443.5820       8.8510       0.0090     101.4375      57.2130    -999.2500    -999.2500     291.1080      89.3850      61.5900       0.1220       3.0470       2.5250
   2443.7344       8.8665       0.0130     106.1250      53.0089    -999.2500    -999.2500     273.2451      84.6185      50.9690       0.1217       3.0425       2.4809
   2443.8867       8.8820       0.0170      56.6250      48.8420    -999.2500    -999.2500     255.5400      79.8940      40.4080       0.1181       3.0380       2.4370
   2444.0391       8.9056       0.0170      45.5000      45.6647    -999.2500    -999.2500     264.8284      83.0090      36.7128       0.1114       3.0901       2.4571
   2444.1914       8.9290       0.0170       6.6875      42.5150    -999.2500    -999.2500     274.0360      86.0970      33.0380       0.1038       3.1420       2.4770
