#------------------------------------------------------------------------------
#
#   Created by  : [OpenWorks] Log Export Utility (LEXP)
#   Created on  : 2016-05-11 12:13:36
#   Project     : CANT971
#   User        : R5K
#   Interpreter : PEP
#
#------------------------------------------------------------------------------
~VERSION INFORMATION
VERS. 2.0 : CWLS Log ASCII Standard - version 2.0
WRAP.  NO : One line per depth step
~WELL INFORMATION
#MNEMONIC   .UNIT                                           VALUE :DESCRIPTION
#------------------------------------------------------------------------------
STRT        .M                                           688.6959 :START DEPTH
STOP        .M                                          2536.3936 :STOP DEPTH
STEP        .M                                             0.1524 :STEP
NULL        .                                           -999.2500 :NULL VALUE
COMP        .                                   PEMEX EXPL & PROD :COMPANY
WELL        .                                                1049 :WELL
FLD         .                                           CANTARELL :FIELD
LOC         .                                             UNKNOWN :LOCATION
CNTY        .                                      CD. DEL CARMEN :COUNTY
STAT        .                                            CAMPECHE :STATE
CTRY        .                                              MEXICO :COUNTRY
SRVC        .                                             UNKNOWN :SERVICE COMPANY
DATE        .                                             UNKNOWN :LOG DATE
UWI         .                                          3060000621 :UNIQUE WELL ID
XCOORD      .                                       601390.370000 :SURFACE X
YCOORD      .                                      2149879.190000 :SURFACE Y
LAT         .                                           19.441893 :LATITUDE
LON         .                                          -92.034142 :LONGITUDE
ELEV        .M                                            28.0000 :SURFACE ELEV
ELEV_TYPE   .                                                  KB :ELEV TYPE
~CURVE INFORMATION
#MNEMONIC.UNIT        API CODE       : CURVE DESCRIPTION
#------------------------------------------------------------------------------
DEPTH    .M                          : Measured Depth
CALI     .inches      UNKNOWN        : CALI:Import:rC:NONE:v0 (auto-composite)
DRHO     .g/cm3       UNKNOWN        : DRHO:Import:rC:NONE:v0 (auto-composite)
DT       .us/ft       UNKNOWN        : DT:Import:rC:NONE:v0 (auto-composite)
GR       .API         UNKNOWN        : GR:Import:rC:NONE:v0 (auto-composite)
ILD      .ohm.m       UNKNOWN        : ILD:Import:rC:NONE:v0 (auto-composite)
ILM      .ohm.m       UNKNOWN        : ILM:Import:rC:NONE:v0 (auto-composite)
LLD      .ohm.m       UNKNOWN        : LLD:Import:rC:NONE:v0 (auto-composite)
LLS      .ohm.m       UNKNOWN        : LLS:Import:rC:NONE:v0 (auto-composite)
MSFL     .ohm.m       UNKNOWN        : MSFL:Import:rC:NONE:v0 (auto-composite)
NPHI     .v/v_decimal UNKNOWN        : NPHI:Import:rC:NONE:v0 (auto-composite)
PEF      .b/elec      UNKNOWN        : PEF:Import:rC:NONE:v0 (auto-composite)
RHOB     .g/cm3       UNKNOWN        : RHOB:Import:rC:NONE:v0 (auto-composite)
~A     DEPTH         CALI         DRHO           DT           GR          ILD          ILM          LLD          LLS         MSFL         NPHI          PEF         RHOB
# ...
   2298.0400       9.4610       0.0025      71.0625      52.7287    -999.2500    -999.2500      14.5029      14.7159      25.0433       0.2282       3.0950       2.4320
   2298.1924       9.4610       0.0050      70.7500      54.3800    -999.2500    -999.2500      14.8410      15.0580      25.3540       0.2258       3.0970       2.4350
   2298.3447       9.4655       0.0065      70.1250      55.4472    -999.2500    -999.2500      15.3493      15.6704      26.1416       0.2113       3.0960       2.4670
   2298.4971       9.4700       0.0080      69.3125      56.5060    -999.2500    -999.2500      15.8520      16.2760      26.9280       0.1969       3.0950       2.4990
   2298.6494       9.4665       0.0075      70.0000      55.4394    -999.2500    -999.2500      16.5739      17.0326      31.1094       0.1960       3.0970       2.4990
   2298.8020       9.4630       0.0070      68.6250      54.3810    -999.2500    -999.2500      17.2880      17.7810      35.2850       0.1965       3.0990       2.4990
   2298.9543       9.3955       0.0025      66.4375      54.6821    -999.2500    -999.2500      17.8842      18.4928      39.0573       0.2040       3.1760       2.4920
   2299.1067       9.3280      -0.0020      66.5000      54.9810    -999.2500    -999.2500      18.4740      19.1970      42.8250       0.2115       3.2530       2.4850
   2299.2590       9.3280      -0.0020      65.6250      55.7268    -999.2500    -999.2500      18.9691      19.7635      38.4931       0.2120       3.2250       2.4585
   2299.4116       9.3280      -0.0020      65.5625      56.4670    -999.2500    -999.2500      19.4590      20.3240      34.1660       0.2118       3.1970       2.4320
   2299.5640       9.3280      -0.0010      68.1250      59.2538    -999.2500    -999.2500      19.8541      20.7930      34.2076       0.2093       3.1975       2.4325
   2299.7163       9.3280       0.0000      69.4375      62.0200    -999.2500    -999.2500      20.2450      21.2570      34.2490       0.2054       3.1980       2.4330
   2299.8687       9.3395       0.0060      71.8750      63.2404    -999.2500    -999.2500      21.1482      22.1884      45.8322       0.1816       3.2190       2.4976
   2300.0212       9.3510       0.0120      72.2500      64.4520    -999.2500    -999.2500      22.0420      23.1100      57.3870       0.1580       3.2400       2.5620
   2300.1736       9.3510       0.0120      72.4375      64.4359    -999.2500    -999.2500      23.2487      24.2921      55.9754       0.1566       3.2841       2.5620
   2300.3259       9.3510       0.0120      71.8125      64.4200    -999.2500    -999.2500      24.4430      25.4620      54.5670       0.1567       3.3280       2.5620
   2300.4783       9.3420       0.0110      68.1875      62.7087    -999.2500    -999.2500      25.7004      26.8948      54.5875       0.1581       3.3275       2.5610
   2300.6306       9.3330       0.0100      66.1250      61.0120    -999.2500    -999.2500      26.9450      28.3130      54.6080       0.1597       3.3270       2.5600
   2300.7832       9.3260       0.0100      64.9375      57.2677    -999.2500    -999.2500      28.2219      29.5663      59.5231       0.1634       3.2549       2.5430
   2300.9355       9.3190       0.0100      65.9375      53.5550    -999.2500    -999.2500      29.4860      30.8070      64.4280       0.1672       3.1830       2.5260
   2301.0879       9.3190       0.0100      67.1250      51.4819    -999.2500    -999.2500      30.6272      31.7567      64.3119       0.1699       3.0699       2.5260
   2301.2402       9.3190       0.0100      65.8750      49.4260    -999.2500    -999.2500      31.7570      32.6970      64.1960       0.1721       2.9570       2.5260
   2301.3928       9.3220       0.0160      67.6250      49.4883    -999.2500    -999.2500      31.7419      32.6779      56.7877       0.1693       2.9585       2.5360
   2301.5452       9.3250       0.0220      70.1875      49.5500    -999.2500    -999.2500      31.7270      32.6590      49.3930       0.1663       2.9600       2.5460
   2301.6975       9.3265       0.0220      69.3125      56.6718    -999.2500    -999.2500      30.7679      31.4436      42.1813       0.1662       3.0486       2.5460
   2301.8499       9.3280       0.0220      70.0000      63.7360    -999.2500    -999.2500      29.8180      30.2400      34.9820       0.1663       3.1370       2.5460
   2302.0024       9.3510       0.0200      60.6250      63.6893    -999.2500    -999.2500      28.4901      29.0046      35.0415       0.1689       3.1785       2.5420
   2302.1548       9.3740       0.0180      66.1250      63.6430    -999.2500    -999.2500      27.1770      27.7830      35.1010       0.1717       3.2200       2.5380
   2302.3071       9.3510       0.0095      65.5000      61.1352    -999.2500    -999.2500      26.0694      26.6372      39.0859       0.1772       3.1655       2.5335
   2302.4595       9.3280       0.0010      65.4375      58.6470    -999.2500    -999.2500      24.9740      25.5040      43.0650       0.1826       3.1110       2.5290
   2302.6118       9.3280       0.0010      64.8750      56.6789    -999.2500    -999.2500      25.0745      25.5759      42.5477       0.1843       3.1305       2.5075
   2302.7644       9.3280       0.0010      64.3125      54.7260    -999.2500    -999.2500      25.1740      25.6470      42.0310       0.1862       3.1500       2.4860
   2302.9167       9.3280       0.0010      64.3750      54.7385    -999.2500    -999.2500      25.1730      25.6450      43.3498       0.1956       3.1485       2.4720
   2303.0691       9.3280       0.0010      65.5625      54.7510    -999.2500    -999.2500      25.1720      25.6430      44.6670       0.2050       3.1470       2.4580
   2303.2214       9.3280      -0.0020      67.1875      56.3053    -999.2500    -999.2500      25.0976      25.4676      42.3933       0.2055       3.0164       2.4580
   2303.3740       9.3280      -0.0050      69.1250      57.8480    -999.2500    -999.2500      25.0240      25.2940      40.1220       0.2055       2.8860       2.4580
   2303.5264       9.3280      -0.0050      68.0000      56.8217    -999.2500    -999.2500      25.0341      25.3005      40.1656       0.2045       2.8880       2.4595
   2303.6787       9.3280      -0.0050      67.6875      55.8030    -999.2500    -999.2500      25.0440      25.3070      40.2090       0.2033       2.8900       2.4610
   2303.8311       9.3280       0.0005      68.2500      55.8105    -999.2500    -999.2500      25.4702      25.5940      42.0137       0.1967       3.0467       2.4915
   2303.9836       9.3280       0.0060      68.6250      55.8180    -999.2500    -999.2500      25.8920      25.8780      43.8140       0.1901       3.2030       2.5220
   2304.1360       9.3275       0.0060      67.9375      57.8117    -999.2500    -999.2500      26.8796      26.6872      47.6990       0.1868       3.1114       2.5220
   2304.2883       9.3270       0.0060      66.6875      59.7880    -999.2500    -999.2500      27.8570      27.4880      51.5750       0.1838       3.0200       2.5220
   2304.4407       9.3020       0.0035      64.1875      59.7564    -999.2500    -999.2500      28.6159      28.0021      47.2683       0.1861       3.0200       2.5045
   2304.5930       9.2770       0.0010      62.7500      59.7250    -999.2500    -999.2500      29.3670      28.5110      42.9710       0.1886       3.0200       2.4870
   2304.7456       9.2780       0.0010      62.1875      57.8637    -999.2500    -999.2500      30.6690      29.6040      52.0628       0.1885       3.0315       2.5050
   2304.8979       9.2790       0.0010      63.3125      56.0180    -999.2500    -999.2500      31.9580      30.6860      61.1360       0.1879       3.0430       2.5230
   2305.0503       9.3035       0.0055      66.5625      56.6918    -999.2500    -999.2500      31.9495      30.6795      60.8928       0.1797       3.0925       2.5225
   2305.2026       9.3280       0.0100      59.6875      57.3600    -999.2500    -999.2500      31.9410      30.6730      60.6500       0.1715       3.1420       2.5220
