#------------------------------------------------------------------------------
#
#   Created by  : [OpenWorks] Log Export Utility (LEXP)
#   Created on  : 2016-05-11 12:13:36
#   Project     : CANT971
#   User        : R5K
#   Interpreter : PEP
#
#------------------------------------------------------------------------------
~VERSION INFORMATION
VERS. 2.0 : CWLS Log ASCII Standard - version 2.0
WRAP.  NO : One line per depth step
~WELL INFORMATION
#MNEMONIC   .UNIT                                           VALUE :DESCRIPTION
#------------------------------------------------------------------------------
STRT        .M                                           688.6959 :START DEPTH
STOP        .M                                          2536.3936 :STOP DEPTH
STEP        .M                                             0.1524 :STEP
NULL        .                                           -999.2500 :NULL VALUE
COMP        .                                   PEMEX EXPL & PROD :COMPANY
WELL        .                                                1049 :WELL
FLD         .                                           CANTARELL :FIELD
LOC         .                                             UNKNOWN :LOCATION
CNTY        .                                      CD. DEL CARMEN :COUNTY
STAT        .                                            CAMPECHE :STATE
CTRY        .                                              MEXICO :COUNTRY
SRVC        .                                             UNKNOWN :SERVICE COMPANY
DATE        .                                             UNKNOWN :LOG DATE
UWI         .                                          3060000621 :UNIQUE WELL ID
XCOORD      .                                       601390.370000 :SURFACE X
YCOORD      .                                      2149879.190000 :SURFACE Y
LAT         .                                           19.441893 :LATITUDE
LON         .                                          -92.034142 :LONGITUDE
ELEV        .M                                            28.0000 :SURFACE ELEV
ELEV_TYPE   .                                                  KB :ELEV TYPE
~CURVE INFORMATION
#MNEMONIC.UNIT        API CODE       : CURVE DESCRIPTION
#------------------------------------------------------------------------------
DEPTH    .M                          : Measured Depth
CALI     .inches      UNKNOWN        : CALI:Import:rC:NONE:v0 (auto-composite)
DRHO     .g/cm3       UNKNOWN        : DRHO:Import:rC:NONE:v0 (auto-composite)
DT       .us/ft       UNKNOWN        : DT:Import:rC:NONE:v0 (auto-composite)
GR       .API         UNKNOWN        : GR:Import:rC:NONE:v0 (auto-composite)
ILD      .ohm.m       UNKNOWN        : ILD:Import:rC:NONE:v0 (auto-composite)
ILM      .ohm.m       UNKNOWN        : ILM:Import:rC:NONE:v0 (auto-composite)
LLD      .ohm.m       UNKNOWN        : LLD:Import:rC:NONE:v0 (auto-composite)
LLS      .ohm.m       UNKNOWN        : LLS:Import:rC:NONE:v0 (auto-composite)
MSFL     .ohm.m       UNKNOWN        : MSFL:Import:rC:NONE:v0 (auto-composite)
NPHI     .v/v_decimal UNKNOWN        : NPHI:Import:rC:NONE:v0 (auto-composite)
PEF      .b/elec      UNKNOWN        : PEF:Import:rC:NONE:v0 (auto-composite)
RHOB     .g/cm3       UNKNOWN        : RHOB:Import:rC:NONE:v0 (auto-composite)
~A     DEPTH         CALI         DRHO           DT           GR          ILD          ILM          LLD          LLS         MSFL         NPHI          PEF         RHOB
# ...
   2495.5503       9.3462       0.0035      56.6250      40.5871    -999.2500    -999.2500     262.9573     132.5361      24.4692       0.1699       2.6844       2.5407
   2495.7026       8.8070      -0.0050      70.6250      38.2140    -999.2500    -999.2500     291.8180     142.3520      10.1820       0.1462       2.8130       2.6020
   2495.8552       8.6951      -0.0020      61.7500      38.2747    -999.2500    -999.2500     361.1155     163.1486      19.0352       0.1239       2.8356       2.6130
   2496.0076       8.5840       0.0010      41.3125      38.3350    -999.2500    -999.2500     429.8460     183.7750      27.8300       0.1045       2.8580       2.6240
   2496.1599       8.6091       0.0050      37.2500      39.7462    -999.2500    -999.2500     519.1475     209.9885      49.2407       0.0948       2.8846       2.6195
   2496.3123       8.6340       0.0090      55.9375      41.1460    -999.2500    -999.2500     607.7300     235.9910      70.5130       0.0880       2.9110       2.6150
   2496.4648       8.6480       0.0140      52.4375      42.7338    -999.2500    -999.2500     658.6946     255.7132      66.4682       0.0822       2.9486       2.6536
   2496.6172       8.6620       0.0190      35.1875      44.3090    -999.2500    -999.2500     709.2550     275.2790      62.4490       0.0763       2.9860       2.6920
   2496.7695       8.5963       0.0140      22.3125      43.7323    -999.2500    -999.2500     672.7064     274.9999      44.3021       0.0688       3.0728       2.6840
   2496.9219       8.5310       0.0090      53.6875      43.1600    -999.2500    -999.2500     636.4430     274.7230      26.2680       0.0643       3.1590       2.6760
   2497.0742       8.5310       0.0070      44.8750      45.1717    -999.2500    -999.2500     612.3856     272.7755      35.7263       0.0719       3.2102       2.6474
   2497.2268       8.5310       0.0050      53.9375      47.1680    -999.2500    -999.2500     588.5130     270.8430      45.1120       0.0812       3.2610       2.6190
   2497.3792       8.5310       0.0030      54.8125      46.0202    -999.2500    -999.2500     650.5804     288.7695      49.0082       0.0850       3.2369       2.6220
   2497.5315       8.5310       0.0010      45.8750      44.8810    -999.2500    -999.2500     712.0800     306.5320      52.8750       0.0860       3.2130       2.6250
   2497.6838       8.5315       0.0075      57.6250      46.0217    -999.2500    -999.2500     865.4174     345.4359      51.7383       0.0809       3.1809       2.6426
   2497.8364       8.5320       0.0140      57.3125      47.1540    -999.2500    -999.2500    1017.3720     383.9890      50.6100       0.0751       3.1490       2.6600
   2497.9888       8.5330       0.0381      57.4375      45.9356    -999.2500    -999.2500    1118.8059     409.9993      63.8122       0.0724       3.0687       2.6404
   2498.1411       8.5340       0.0620      55.3750      44.7280    -999.2500    -999.2500    1219.3370     435.7780      76.9180       0.0726       2.9890       2.6210
   2498.2935       8.5736       0.0620      43.0625      42.4771    -999.2500    -999.2500    1172.2305     433.5869      67.4736       0.0815       2.9795       2.5974
   2498.4458       8.6130       0.0620      46.0000      40.2460    -999.2500    -999.2500    1125.5370     431.4150      58.0970       0.0913       2.9700       2.5740
   2498.5984       8.5819       0.0494      45.4375      41.7877    -999.2500    -999.2500    1051.6514     417.2246      60.5000       0.0956       3.0413       2.6126
   2498.7507       8.5510       0.0370      55.6250      43.3160    -999.2500    -999.2500     978.4050     403.1570      62.8860       0.0958       3.1120       2.6510
   2498.9031       8.5294       0.0194      55.6875      45.6098    -999.2500    -999.2500     923.7416     394.6076      68.3876       0.0845       3.2806       2.6776
   2499.0554       8.5080       0.0020      54.9375      47.8840    -999.2500    -999.2500     869.5440     386.1310      73.8510       0.0725       3.4480       2.7040
   2499.2080       8.5185       0.0156      48.1563      49.7940    -999.2500    -999.2500     873.6824     381.9610      66.4518       0.0680       3.3326       2.7080
   2499.3604       8.5290       0.0290      51.1250      51.6880    -999.2500    -999.2500     877.7860     377.8260      59.1030       0.0665       3.2180       2.7120
   2499.5127       8.5491       0.0405      43.8750      52.0706    -999.2500    -999.2500     869.4034     354.7164      62.6378       0.0698       3.0851       2.6929
   2499.6650       8.5690       0.0520      43.2500      52.4500    -999.2500    -999.2500     861.0900     331.7980      66.1490       0.0728       2.9530       2.6740
   2499.8176       8.7205       0.0410      43.6250      50.3474    -999.2500    -999.2500     762.7476     298.2010      81.8500       0.0705       2.8150       2.4728
   2499.9700       8.8710       0.0300      54.0625      48.2620    -999.2500    -999.2500     665.2070     264.8780      97.4480       0.0685       2.6780       2.2730
   2500.1223       9.0260       0.0215      80.0625      44.1987    -999.2500    -999.2500     562.9473     229.1442      87.8657       0.0732       2.6625       2.1556
   2500.2747       9.1800       0.0130      53.1250      40.1680    -999.2500    -999.2500     461.5080     193.6970      78.3450       0.0845       2.6470       2.0390
   2500.4270       9.2387       0.0286      68.1250      36.9106    -999.2500    -999.2500     431.7885     181.1610      65.1765       0.1168       2.6209       2.0842
   2500.5796       9.2970       0.0440      64.7500      33.6790    -999.2500    -999.2500     402.3040     168.7240      52.1120       0.1526       2.5950       2.1290
   2500.7319       9.3623       0.0651      57.7188      33.8522    -999.2500    -999.2500     393.8617     165.9989      58.7593       0.1828       2.6864       2.2359
   2500.8843       9.4270       0.0860      67.8125      34.0240    -999.2500    -999.2500     385.4850     163.2950      65.3550       0.2045       2.7770       2.3420
   2501.0366       9.4139       0.1021      63.8125      36.6044    -999.2500    -999.2500     388.1713     162.7986      62.6532       0.1954       2.8156       2.3681
   2501.1892       9.4010       0.1180      57.5625      39.1650    -999.2500    -999.2500     390.8370     162.3060      59.9720       0.1801       2.8540       2.3940
   2501.3416       9.3624       0.1235      83.1875      38.8844    -999.2500    -999.2500     382.5974     159.0175      44.7031       0.1690       2.7888       2.4030
   2501.4939       9.3240       0.1290      64.5000      38.6060    -999.2500    -999.2500     374.4330     155.7590      29.5490       0.1595       2.7240       2.4120
   2501.6462       9.0841       0.1089      60.2500      39.7442    -999.2500    -999.2500     358.7500     146.7726      23.7656       0.1530       2.7837       2.4612
   2501.7988       8.8460       0.0890      94.1250      40.8740    -999.2500    -999.2500     343.2080     137.8670      18.0250       0.1459       2.8430       2.5100
   2501.9512       8.7627       0.0795      65.9375      41.6831    -999.2500    -999.2500     346.8657     139.0769      22.2845       0.1338       3.0031       2.5973
   2502.1035       8.6800       0.0700      62.0000      42.4850    -999.2500    -999.2500     350.4910     140.2760      26.5130       0.1215       3.1620       2.6840
   2502.2559       8.6599       0.0489      58.8125      38.8732    -999.2500    -999.2500     357.1436     145.6309      40.6365       0.1127       3.1284       2.6835
   2502.4082       8.6400       0.0280      56.0000      35.2930    -999.2500    -999.2500     363.7380     150.9390      54.6590       0.1054       3.0950       2.6830
   2502.5608       8.7373       0.0215      68.2500      34.3986    -999.2500    -999.2500     349.4123     147.5208      57.0047       0.1011       3.0237       2.6679
   2502.7131       8.8340       0.0150      50.5000      33.5120    -999.2500    -999.2500     335.2100     144.1320      59.3340       0.0985       2.9530       2.6530
