#------------------------------------------------------------------------------
#
#   Created by  : [OpenWorks] Log Export Utility (LEXP)
#   Created on  : 2016-05-11 12:13:36
#   Project     : CANT971
#   User        : R5K
#   Interpreter : PEP
#
#------------------------------------------------------------------------------
~VERSION INFORMATION
VERS. 2.0 : CWLS Log ASCII Standard - version 2.0
WRAP.  NO : One line per depth step
~WELL INFORMATION
#MNEMONIC   .UNIT                                           VALUE :DESCRIPTION
#------------------------------------------------------------------------------
STRT        .M                                           688.6959 :START DEPTH
STOP        .M                                          2536.3936 :STOP DEPTH
STEP        .M                                             0.1524 :STEP
NULL        .                                           -999.2500 :NULL VALUE
COMP        .                                   PEMEX EXPL & PROD :COMPANY
WELL        .                                                1049 :WELL
FLD         .                                           CANTARELL :FIELD
LOC         .                                             UNKNOWN :LOCATION
CNTY        .                                      CD. DEL CARMEN :COUNTY
STAT        .                                            CAMPECHE :STATE
CTRY        .                                              MEXICO :COUNTRY
SRVC        .                                             UNKNOWN :SERVICE COMPANY
DATE        .                                             UNKNOWN :LOG DATE
UWI         .                                          3060000621 :UNIQUE WELL ID
XCOORD      .                                       601390.370000 :SURFACE X
YCOORD      .                                      2149879.190000 :SURFACE Y
LAT         .                                           19.441893 :LATITUDE
LON         .                                          -92.034142 :LONGITUDE
ELEV        .M                                            28.0000 :SURFACE ELEV
ELEV_TYPE   .                                                  KB :ELEV TYPE
~CURVE INFORMATION
#MNEMONIC.UNIT        API CODE       : CURVE DESCRIPTION
#------------------------------------------------------------------------------
DEPTH    .M                          : Measured Depth
CALI     .inches      UNKNOWN        : CALI:Import:rC:NONE:v0 (auto-composite)
DRHO     .g/cm3       UNKNOWN        : DRHO:Import:rC:NONE:v0 (auto-composite)
DT       .us/ft       UNKNOWN        : DT:Import:rC:NONE:v0 (auto-composite)
GR       .API         UNKNOWN        : GR:Import:rC:NONE:v0 (auto-composite)
ILD      .ohm.m       UNKNOWN        : ILD:Import:rC:NONE:v0 (auto-composite)
ILM      .ohm.m       UNKNOWN        : ILM:Import:rC:NONE:v0 (auto-composite)
LLD      .ohm.m       UNKNOWN        : LLD:Import:rC:NONE:v0 (auto-composite)
LLS      .ohm.m       UNKNOWN        : LLS:Import:rC:NONE:v0 (auto-composite)
MSFL     .ohm.m       UNKNOWN        : MSFL:Import:rC:NONE:v0 (auto-composite)
NPHI     .v/v_decimal UNKNOWN        : NPHI:Import:rC:NONE:v0 (auto-composite)
PEF      .b/elec      UNKNOWN        : PEF:Import:rC:NONE:v0 (auto-composite)
RHOB     .g/cm3       UNKNOWN        : RHOB:Import:rC:NONE:v0 (auto-composite)
~A     DEPTH         CALI         DRHO           DT           GR          ILD          ILM          LLD          LLS         MSFL         NPHI          PEF         RHOB
# ...
   2473.6047       9.2978       0.1220      38.0938      38.3600    -999.2500    -999.2500     403.1083     174.7477      25.3714       0.1614       2.6014       2.0528
   2473.7571       9.4100       0.1130      44.5313      35.9250    -999.2500    -999.2500     345.3150     160.1280       9.6630       0.2111       2.5540       1.9820
   2473.9094       9.3267       0.1090      44.6563      34.8650    -999.2500    -999.2500     361.0434     170.2199      14.0577       0.2551       2.6016       2.0833
   2474.0620       9.2440       0.1050      40.8750      33.8130    -999.2500    -999.2500     376.6270     180.2190      18.4260       0.2748       2.6490       2.1840
   2474.2144       9.0915       0.1085      62.4375      33.1299    -999.2500    -999.2500     469.7308     208.1594      86.8389       0.2365       2.7658       2.3319
   2474.3667       8.9400       0.1120      55.6250      32.4520    -999.2500    -999.2500     561.9890     235.8460     154.8480       0.1820       2.8820       2.4790
   2474.5190       8.8197       0.0884      58.1875      30.9736    -999.2500    -999.2500     726.2964     274.7853     142.0957       0.1427       2.7952       2.5201
   2474.6716       8.7000       0.0650      61.0625      29.5060    -999.2500    -999.2500     889.1330     313.3760     129.4170       0.1145       2.7090       2.5610
   2474.8240       8.7090       0.0439      35.9375      31.2989    -999.2500    -999.2500    1117.6885     356.8073     115.8331       0.1010       2.8344       2.5976
   2474.9763       8.7180       0.0230      54.9375      33.0760    -999.2500    -999.2500    1344.2250     399.8550     102.3260       0.0931       2.9590       2.6340
   2475.1287       8.6869       0.0165      35.7500      36.1504    -999.2500    -999.2500    1273.6523     367.3154     176.4027       0.0863       2.9329       2.6641
   2475.2810       8.6560       0.0100      52.9375      39.1980    -999.2500    -999.2500    1203.6940     335.0590     249.9520       0.0840       2.9070       2.6940
   2475.4336       8.7037       0.0155      63.3125      40.5197    -999.2500    -999.2500     830.0823     244.0047     231.4172       0.0925       2.7349       2.6127
   2475.5859       8.7510       0.0210      67.1875      41.8300    -999.2500    -999.2500     459.6780     153.7320     213.0120       0.1108       2.5640       2.5320
   2475.7383       8.9783       0.0255      54.1875      45.5834    -999.2500    -999.2500     278.5133     108.9668     126.6995       0.1445       2.3974       2.2746
   2475.8906       9.2040       0.0300      49.2500      49.3050    -999.2500    -999.2500      98.8800      64.5800      40.9800       0.1897       2.2320       2.0190
   2476.0432       9.3816       0.0501      51.3750      53.9599    -999.2500    -999.2500      81.8681      57.9413      25.2254       0.2504       2.2671       2.0225
   2476.1956       9.5580       0.0700      38.3125      58.5760    -999.2500    -999.2500      64.9980      51.3580       9.5770       0.3150       2.3020       2.0260
   2476.3479       9.3478       0.0635      51.7500      59.5545    -999.2500    -999.2500      66.5112      52.8366       8.3213       0.3748       2.4329       2.1213
   2476.5002       9.1390       0.0570      49.3750      60.5250    -999.2500    -999.2500      68.0120      54.3030       7.0740       0.4059       2.5630       2.2160
   2476.6528       8.9258       0.0510      27.8125      58.6765    -999.2500    -999.2500     106.1050      73.6798      32.1890       0.3636       2.7120       2.3534
   2476.8052       8.7140       0.0450      56.1875      56.8430    -999.2500    -999.2500     143.8900      92.9000      57.1410       0.2919       2.8600       2.4900
   2476.9575       8.6242       0.0330      68.1250      51.1212    -999.2500    -999.2500     174.3293     104.5160      84.2318       0.2120       2.9588       2.5497
   2477.1099       8.5350       0.0210      52.3750      45.4450    -999.2500    -999.2500     204.4780     116.0210     111.1500       0.1418       3.0570       2.6090
   2477.2622       8.5651       0.0135      66.4375      42.3870    -999.2500    -999.2500     266.6538     140.6168     149.4029       0.1057       3.2050       2.6361
   2477.4148       8.5950       0.0060      50.0625      39.3530    -999.2500    -999.2500     328.2440     164.9810     187.4170       0.0857       3.3520       2.6630
   2477.5671       8.6040       0.0025      49.8438      41.4737    -999.2500    -999.2500     451.6238     215.7963     199.3109       0.0764       3.2888       2.6695
   2477.7195       8.6130      -0.0010      30.6875      43.5780    -999.2500    -999.2500     573.8560     266.1390     211.1320       0.0721       3.2260       2.6760
   2477.8718       8.5774       0.0000      39.5000      45.0350    -999.2500    -999.2500     526.7154     249.2862     182.1311       0.0714       3.0856       2.6685
   2478.0244       8.5420       0.0010      24.5625      46.4810    -999.2500    -999.2500     480.0070     232.5880     153.3040       0.0719       2.9460       2.6610
   2478.1768       8.5601       0.0035      36.5000      46.7289    -999.2500    -999.2500     480.4349     233.0722     142.7260       0.0721       2.9605       2.6620
   2478.3291       8.5780       0.0060      49.2500      46.9750    -999.2500    -999.2500     480.8590     233.5520     132.2100       0.0719       2.9750       2.6630
   2478.4814       8.6026       0.0115      49.5625      47.3574    -999.2500    -999.2500     484.1848     236.6353     140.1697       0.0709       3.1737       2.6720
   2478.6340       8.6270       0.0170      47.8750      47.7370    -999.2500    -999.2500     487.4810     239.6910     148.0710       0.0691       3.3710       2.6810
   2478.7864       8.5833       0.0301      50.1563      49.3250    -999.2500    -999.2500     553.6869     265.4162     135.3336       0.0661       3.2942       2.6951
   2478.9387       8.5400       0.0430      44.0313      50.8990    -999.2500    -999.2500     619.3100     290.9150     122.6880       0.0630       3.2180       2.7090
   2479.0911       8.5686       0.0505      43.8438      50.8438    -999.2500    -999.2500     677.3260     309.7120     145.7056       0.0607       3.2496       2.7281
   2479.2434       8.5970       0.0580      48.5313      50.7890    -999.2500    -999.2500     734.8390     328.3460     168.5600       0.0604       3.2810       2.7470
   2479.3960       8.6276       0.0414      48.1875      50.1322    -999.2500    -999.2500     726.6912     323.4224     161.2947       0.0648       3.2303       2.7018
   2479.5483       8.6580       0.0250      47.2188      49.4810    -999.2500    -999.2500     718.6130     318.5410     154.0800       0.0712       3.1800       2.6570
   2479.7007       8.6043       0.0114      49.6563      48.6615    -999.2500    -999.2500     680.9825     300.0667     144.2574       0.0788       3.1188       2.6219
   2479.8530       8.5510      -0.0020      49.2813      47.8490    -999.2500    -999.2500     643.6690     281.7480     134.5020       0.0855       3.0580       2.5870
   2480.0056       8.5771       0.0005      51.5313      48.0599    -999.2500    -999.2500     635.4790     277.7318     138.6304       0.0891       3.0354       2.6026
   2480.1580       8.6030       0.0030      51.7188      48.2690    -999.2500    -999.2500     627.3570     273.7490     142.7310       0.0905       3.0130       2.6180
   2480.3103       8.6938       0.0040      50.8750      49.2013    -999.2500    -999.2500     624.4531     279.5713     139.1738       0.0886       2.9864       2.6265
   2480.4626       8.7840       0.0050      53.9375      50.1260    -999.2500    -999.2500     621.5730     285.3460     135.6400       0.0840       2.9600       2.6350
   2480.6152       8.7659       0.0075      53.2500      51.6511    -999.2500    -999.2500     600.3209     288.4535     149.7506       0.0744       2.9791       2.6546
   2480.7676       8.7480       0.0100      51.6875      53.1640    -999.2500    -999.2500     579.2400     291.5360     163.7700       0.0658       2.9980       2.6740
