#------------------------------------------------------------------------------
#
#   Created by  : [OpenWorks] Log Export Utility (LEXP)
#   Created on  : 2016-05-11 12:13:36
#   Project     : CANT971
#   User        : R5K
#   Interpreter : PEP
#
#------------------------------------------------------------------------------
~VERSION INFORMATION
VERS. 2.0 : CWLS Log ASCII Standard - version 2.0
WRAP.  NO : One line per depth step
~WELL INFORMATION
#MNEMONIC   .UNIT                                           VALUE :DESCRIPTION
#------------------------------------------------------------------------------
STRT        .M                                           688.6959 :START DEPTH
STOP        .M                                          2536.3936 :STOP DEPTH
STEP        .M                                             0.1524 :STEP
NULL        .                                           -999.2500 :NULL VALUE
COMP        .                                   PEMEX EXPL & PROD :COMPANY
WELL        .                                                1049 :WELL
FLD         .                                           CANTARELL :FIELD
LOC         .                                             UNKNOWN :LOCATION
CNTY        .                                      CD. DEL CARMEN :COUNTY
STAT        .                                            CAMPECHE :STATE
CTRY        .                                              MEXICO :COUNTRY
SRVC        .                                             UNKNOWN :SERVICE COMPANY
DATE        .                                             UNKNOWN :LOG DATE
UWI         .                                          3060000621 :UNIQUE WELL ID
XCOORD      .                                       601390.370000 :SURFACE X
YCOORD      .                                      2149879.190000 :SURFACE Y
LAT         .                                           19.441893 :LATITUDE
LON         .                                          -92.034142 :LONGITUDE
ELEV        .M                                            28.0000 :SURFACE ELEV
ELEV_TYPE   .                                                  KB :ELEV TYPE
~CURVE INFORMATION
#MNEMONIC.UNIT        API CODE       : CURVE DESCRIPTION
#------------------------------------------------------------------------------
DEPTH    .M                          : Measured Depth
CALI     .inches      UNKNOWN        : CALI:Import:rC:NONE:v0 (auto-composite)
DRHO     .g/cm3       UNKNOWN        : DRHO:Import:rC:NONE:v0 (auto-composite)
DT       .us/ft       UNKNOWN        : DT:Import:rC:NONE:v0 (auto-composite)
GR       .API         UNKNOWN        : GR:Import:rC:NONE:v0 (auto-composite)
ILD      .ohm.m       UNKNOWN        : ILD:Import:rC:NONE:v0 (auto-composite)
ILM      .ohm.m       UNKNOWN        : ILM:Import:rC:NONE:v0 (auto-composite)
LLD      .ohm.m       UNKNOWN        : LLD:Import:rC:NONE:v0 (auto-composite)
LLS      .ohm.m       UNKNOWN        : LLS:Import:rC:NONE:v0 (auto-composite)
MSFL     .ohm.m       UNKNOWN        : MSFL:Import:rC:NONE:v0 (auto-composite)
NPHI     .v/v_decimal UNKNOWN        : NPHI:Import:rC:NONE:v0 (auto-composite)
PEF      .b/elec      UNKNOWN        : PEF:Import:rC:NONE:v0 (auto-composite)
RHOB     .g/cm3       UNKNOWN        : RHOB:Import:rC:NONE:v0 (auto-composite)
~A     DEPTH         CALI         DRHO           DT           GR          ILD          ILM          LLD          LLS         MSFL         NPHI          PEF         RHOB
# ...
   2261.4639      13.5285       0.1235      86.1250      44.6636    -999.2500    -999.2500       3.9666       3.1421       6.6411       0.1685       4.3000       2.5505
   2261.6162      13.4870       0.1270      84.8750      42.4360    -999.2500    -999.2500       4.0760       3.2540       7.0500       0.1583       4.4360       2.5790
   2261.7688      13.4690       0.1325      85.4375      44.6956    -999.2500    -999.2500       4.0086       3.1881       6.4778       0.1491       4.3580       2.5980
   2261.9211      13.4510       0.1380      83.6875      46.9360    -999.2500    -999.2500       3.9420       3.1230       5.9060       0.1448       4.2800       2.6170
   2262.0735      13.3900       0.1440      84.0625      52.9683    -999.2500    -999.2500       3.6835       2.9339       5.3549       0.1579       4.2180       2.5970
   2262.2258      13.3290       0.1500      83.1250      58.9500    -999.2500    -999.2500       3.4280       2.7470       4.8040       0.1749       4.1560       2.5770
   2262.3784      13.3755       0.1395      82.3750      58.7206    -999.2500    -999.2500       3.2324       2.5805       4.6645       0.1895       4.1850       2.5510
   2262.5308      13.4220       0.1290      85.0000      58.4930    -999.2500    -999.2500       3.0390       2.4160       4.5250       0.2022       4.2140       2.5250
   2262.6831      13.4690       0.1355      86.8125      58.0427    -999.2500    -999.2500       2.9329       2.3657       4.0820       0.2109       4.1070       2.5135
   2262.8354      13.5160       0.1420      87.3750      57.5960    -999.2500    -999.2500       2.8280       2.3160       3.6390       0.2169       4.0000       2.5020
   2262.9880      13.5976       0.1350      88.9375      58.9047    -999.2500    -999.2500       2.8999       2.4332       3.7916       0.2171       3.9219       2.4920
   2263.1404      13.6790       0.1280      89.0625      60.2030    -999.2500    -999.2500       2.9710       2.5490       3.9440       0.2141       3.8440       2.4820
   2263.2927      13.6220       0.1175      90.3750      58.9340    -999.2500    -999.2500       3.0525       2.6953       4.2357       0.2048       3.9316       2.4985
   2263.4451      13.5650       0.1070      90.3750      57.6750    -999.2500    -999.2500       3.1330       2.8400       4.5270       0.1935       4.0190       2.5150
   2263.5974      13.4049       0.0945      93.0625      55.7309    -999.2500    -999.2500       3.1642       2.8873       5.0664       0.1811       4.1161       2.5310
   2263.7500      13.2450       0.0820      92.0625      53.8020    -999.2500    -999.2500       3.1950       2.9340       5.6050       0.1715       4.2130       2.5470
   2263.9023      13.1965       0.0830      87.4375      52.8358    -999.2500    -999.2500       3.2277       2.9601       5.4639       0.1738       4.2540       2.5580
   2264.0547      13.1480       0.0840      85.3750      51.8770    -999.2500    -999.2500       3.2600       2.9860       5.3230       0.1779       4.2950       2.5690
   2264.2070      13.0820       0.0965      82.7500      50.6554    -999.2500    -999.2500       3.5591       3.1343       5.2174       0.1769       4.1464       2.5760
   2264.3596      13.0160       0.1090      82.4375      49.4430    -999.2500    -999.2500       3.8550       3.2810       5.1120       0.1721       3.9980       2.5830
   2264.5120      12.9290       0.1035      84.5000      48.9984    -999.2500    -999.2500       4.0274       3.4057       6.4632       0.1571       4.0315       2.5955
   2264.6643      12.8420       0.0980      82.8750      48.5570    -999.2500    -999.2500       4.1980       3.5290       7.8130       0.1407       4.0650       2.6080
   2264.8167      12.7660       0.0774      83.3125      46.9602    -999.2500    -999.2500       4.5363       3.8743       7.3633       0.1296       4.1135       2.6020
   2264.9692      12.6900       0.0570      79.5000      45.3750    -999.2500    -999.2500       4.8710       4.2160       6.9140       0.1199       4.1620       2.5960
   2265.1216      12.6615       0.0394      78.0000      41.8188    -999.2500    -999.2500       5.7536       5.2136       8.9213       0.1104       4.3121       2.5925
   2265.2739      12.6330       0.0220      76.1875      38.2880    -999.2500    -999.2500       6.6270       6.2010      10.9270       0.1013       4.4620       2.5890
   2265.4263      12.6160       0.0220      76.1875      38.9313    -999.2500    -999.2500       6.9577       6.6820      12.4045       0.0937       4.4940       2.5940
   2265.5786      12.5990       0.0220      76.0625      39.5700    -999.2500    -999.2500       7.2850       7.1580      13.8810       0.0880       4.5260       2.5990
   2265.7312      12.5815       0.0235      74.3125      38.0596    -999.2500    -999.2500       7.3197       7.2842      13.2053       0.0885       4.4465       2.5985
   2265.8835      12.5640       0.0250      73.1875      36.5620    -999.2500    -999.2500       7.3540       7.4090      12.5300       0.0902       4.3670       2.5980
   2266.0359      12.5615       0.0230      71.6250      36.8176    -999.2500    -999.2500       7.1720       7.2264      13.6337       0.0902       4.3820       2.6010
   2266.1882      12.5590       0.0210      73.0625      37.0710    -999.2500    -999.2500       6.9920       7.0460      14.7370       0.0915       4.3970       2.6040
   2266.3408      12.5500       0.0200      73.1875      38.4000    -999.2500    -999.2500       6.7144       6.7734      12.4792       0.0999       4.2040       2.6000
   2266.4932      12.5410       0.0190      71.5000      39.7180    -999.2500    -999.2500       6.4400       6.5040      10.2220       0.1103       4.0110       2.5960
   2266.6455      12.5735       0.0185      71.4375      37.3168    -999.2500    -999.2500       6.0805       6.1827       8.9429       0.1222       3.8485       2.5935
   2266.7979      12.6060       0.0180      71.8750      34.9350    -999.2500    -999.2500       5.7250       5.8650       7.6640       0.1335       3.6860       2.5910
   2266.9504      12.5725       0.0160      73.3125      35.2086    -999.2500    -999.2500       5.6456       5.8730       8.4486       0.1408       3.5964       2.5785
   2267.1028      12.5390       0.0140      75.1875      35.4800    -999.2500    -999.2500       5.5670       5.8810       9.2320       0.1421       3.5070       2.5660
   2267.2551      12.5645       0.0130      76.6250      39.2669    -999.2500    -999.2500       5.9597       5.9001      33.4700       0.1225       3.6521       2.5705
   2267.4075      12.5900       0.0120      76.5000      43.0240    -999.2500    -999.2500       6.3480       5.9190      57.6720       0.0987       3.7970       2.5750
   2267.5598      12.5950       0.0135      75.9375      50.9306    -999.2500    -999.2500       5.6130       5.0131      37.0685       0.0783       3.9011       2.5940
   2267.7124      12.6000       0.0150      73.6250      58.7760    -999.2500    -999.2500       4.8860       4.1170      16.4930       0.0649       4.0050       2.6130
   2267.8647      12.5820       0.0180      69.1250      62.6261    -999.2500    -999.2500       4.5748       3.8521      10.4748       0.0773       3.8144       2.6005
   2268.0171      12.5640       0.0210      65.1250      66.4470    -999.2500    -999.2500       4.2670       3.5900       4.4640       0.0964       3.6240       2.5880
   2268.1694      12.6390       0.0225      65.7500      68.7225    -999.2500    -999.2500       3.9604       3.3804       4.5806       0.1173       3.6970       2.5695
   2268.3220      12.7140       0.0240      67.6250      70.9810    -999.2500    -999.2500       3.6570       3.1730       4.6970       0.1338       3.7700       2.5510
   2268.4744      12.7925       0.0250      72.5000      73.9650    -999.2500    -999.2500       3.6605       3.0860       5.8966       0.1294       4.0156       2.5425
   2268.6267      12.8710       0.0260      77.2500      76.9270    -999.2500    -999.2500       3.6640       3.0000       7.0950       0.1233       4.2610       2.5340
