#------------------------------------------------------------------------------
#
#   Created by  : [OpenWorks] Log Export Utility (LEXP)
#   Created on  : 2016-05-11 12:13:36
#   Project     : CANT971
#   User        : R5K
#   Interpreter : PEP
#
#------------------------------------------------------------------------------
~VERSION INFORMATION
VERS. 2.0 : CWLS Log ASCII Standard - version 2.0
WRAP.  NO : One line per depth step
~WELL INFORMATION
#MNEMONIC   .UNIT                                           VALUE :DESCRIPTION
#------------------------------------------------------------------------------
STRT        .M                                           688.6959 :START DEPTH
STOP        .M                                          2536.3936 :STOP DEPTH
STEP        .M                                             0.1524 :STEP
NULL        .                                           -999.2500 :NULL VALUE
COMP        .                                   PEMEX EXPL & PROD :COMPANY
WELL        .                                                1049 :WELL
FLD         .                                           CANTARELL :FIELD
LOC         .                                             UNKNOWN :LOCATION
CNTY        .                                      CD. DEL CARMEN :COUNTY
STAT        .                                            CAMPECHE :STATE
CTRY        .                                              MEXICO :COUNTRY
SRVC        .                                             UNKNOWN :SERVICE COMPANY
DATE        .                                             UNKNOWN :LOG DATE
UWI         .                                          3060000621 :UNIQUE WELL ID
XCOORD      .                                       601390.370000 :SURFACE X
YCOORD      .                                      2149879.190000 :SURFACE Y
LAT         .                                           19.441893 :LATITUDE
LON         .                                          -92.034142 :LONGITUDE
ELEV        .M                                            28.0000 :SURFACE ELEV
ELEV_TYPE   .                                                  KB :ELEV TYPE
~CURVE INFORMATION
#MNEMONIC.UNIT        API CODE       : CURVE DESCRIPTION
#------------------------------------------------------------------------------
DEPTH    .M                          : Measured Depth
CALI     .inches      UNKNOWN        : CALI:Import:rC:NONE:v0 (auto-composite)
DRHO     .g/cm3       UNKNOWN        : DRHO:Import:rC:NONE:v0 (auto-composite)
DT       .us/ft       UNKNOWN        : DT:Import:rC:NONE:v0 (auto-composite)
GR       .API         UNKNOWN        : GR:Import:rC:NONE:v0 (auto-composite)
ILD      .ohm.m       UNKNOWN        : ILD:Import:rC:NONE:v0 (auto-composite)
ILM      .ohm.m       UNKNOWN        : ILM:Import:rC:NONE:v0 (auto-composite)
LLD      .ohm.m       UNKNOWN        : LLD:Import:rC:NONE:v0 (auto-composite)
LLS      .ohm.m       UNKNOWN        : LLS:Import:rC:NONE:v0 (auto-composite)
MSFL     .ohm.m       UNKNOWN        : MSFL:Import:rC:NONE:v0 (auto-composite)
NPHI     .v/v_decimal UNKNOWN        : NPHI:Import:rC:NONE:v0 (auto-composite)
PEF      .b/elec      UNKNOWN        : PEF:Import:rC:NONE:v0 (auto-composite)
RHOB     .g/cm3       UNKNOWN        : RHOB:Import:rC:NONE:v0 (auto-composite)
~A     DEPTH         CALI         DRHO           DT           GR          ILD          ILM          LLD          LLS         MSFL         NPHI          PEF         RHOB
# ...
   2319.9856      10.1865       0.0275      66.3750      41.7706    -999.2500    -999.2500     130.6241      63.6167      62.4921       0.1843       3.0626       2.4865
   2320.1379      10.1690       0.0270      63.1250      41.7860    -999.2500    -999.2500     130.6340      63.6510      63.0570       0.2009       3.1290       2.4530
   2320.2903      10.1745       0.0245      64.3125      41.1006    -999.2500    -999.2500     130.8486      64.0932      74.7320       0.2007       3.1140       2.4545
   2320.4426      10.1800       0.0220      32.7500      40.4210    -999.2500    -999.2500     131.0610      64.5310      86.3830       0.1999       3.0990       2.4560
   2320.5952      10.2866       0.0094      57.4375      40.5199    -999.2500    -999.2500     132.4489      65.8274      85.4216       0.1933       3.1085       2.4680
   2320.7476      10.3930      -0.0030      63.0000      40.6180    -999.2500    -999.2500     133.8230      67.1110      84.4620       0.1864       3.1180       2.4800
   2320.8999      10.3775      -0.0025      62.9375      42.9134    -999.2500    -999.2500     137.9416      69.0294      76.2801       0.1737       3.0564       2.4810
   2321.0522      10.3620      -0.0020      64.8750      45.1900    -999.2500    -999.2500     142.0200      70.9290      68.1130       0.1612       2.9950       2.4820
   2321.2048      10.1849       0.0050      62.8125      44.0233    -999.2500    -999.2500     155.4397      75.2292      68.3417       0.1650       2.9990       2.4890
   2321.3572      10.0080       0.0120      46.6875      42.8660    -999.2500    -999.2500     168.7300      79.4880      68.5700       0.1690       3.0030       2.4960
   2321.5095      10.0421       0.0205      38.8750      43.4729    -999.2500    -999.2500     189.9556      86.5089      80.7552       0.1689       3.1007       2.4855
   2321.6619      10.0760       0.0290      62.6875      44.0750    -999.2500    -999.2500     210.9790      93.4630      92.9020       0.1687       3.1980       2.4750
   2321.8142      10.0645       0.0305      63.8125      43.9957    -999.2500    -999.2500     210.8604      93.4605      91.5209       0.1672       3.1900       2.4755
   2321.9668      10.0530       0.0320      64.4375      43.9170    -999.2500    -999.2500     210.7430      93.4580      90.1440       0.1657       3.1820       2.4760
   2322.1191      10.0550       0.0385      52.6875      43.0015    -999.2500    -999.2500     209.5571      93.3821      79.9347       0.1624       3.1930       2.4915
   2322.2715      10.0570       0.0450      63.7500      42.0930    -999.2500    -999.2500     208.3840      93.3070      69.7550       0.1590       3.2040       2.5070
   2322.4238      10.1877       0.0515      63.6875      43.3121    -999.2500    -999.2500     204.8299      92.3122      66.3818       0.1500       3.2005       2.5060
   2322.5764      10.3180       0.0580      59.1875      44.5220    -999.2500    -999.2500     201.3140      91.3280      63.0180       0.1412       3.1970       2.5050
   2322.7288      10.2945       0.0726      54.5000      44.4337    -999.2500    -999.2500     185.6012      86.4768      51.4221       0.1424       3.1610       2.4529
   2322.8811      10.2710       0.0870      58.2500      44.3460    -999.2500    -999.2500     170.0550      81.6770      39.8570       0.1453       3.1250       2.4010
   2323.0334      10.3020       0.1021      61.5000      43.4833    -999.2500    -999.2500     154.4140      76.8497      32.2894       0.1801       3.0329       2.4025
   2323.1860      10.3330       0.1170      63.5625      42.6270    -999.2500    -999.2500     138.9370      72.0730      24.7410       0.2147       2.9410       2.4040
   2323.3384      10.3280       0.1140      68.4375      41.0639    -999.2500    -999.2500     139.0827      72.1378      25.7978       0.2149       2.9455       2.4230
   2323.4907      10.3230       0.1110      69.0625      39.5120    -999.2500    -999.2500     139.2270      72.2020      26.8520       0.2136       2.9500       2.4420
   2323.6431      10.2795       0.0879      66.8125      39.5501    -999.2500    -999.2500     141.7866      73.3660      45.4256       0.2034       3.0686       2.5226
   2323.7954      10.2360       0.0650      64.6875      39.5880    -999.2500    -999.2500     144.3200      74.5180      63.9570       0.1925       3.1870       2.6030
   2323.9480      10.2005       0.0409      47.5625      40.0118    -999.2500    -999.2500     156.6172      80.1650      63.4419       0.1717       3.1465       2.6010
   2324.1003      10.1650       0.0170      65.0000      40.4320    -999.2500    -999.2500     168.7900      85.7550      62.9280       0.1513       3.1060       2.5990
   2324.2527      10.1290       0.0165      46.6875      41.5070    -999.2500    -999.2500     171.7613      87.1409      64.1638       0.1513       3.1120       2.5695
   2324.4050      10.0930       0.0160      61.5000      42.5730    -999.2500    -999.2500     174.7030      88.5130      65.3970       0.1520       3.1180       2.5400
   2324.5576      10.0394       0.0150      57.6875      43.2960    -999.2500    -999.2500     175.0080      88.7346      76.4760       0.1515       3.1716       2.5410
   2324.7100       9.9860       0.0140      58.5625      44.0130    -999.2500    -999.2500     175.3100      88.9540      87.5340       0.1509       3.2250       2.5420
   2324.8623       9.9800       0.0130      60.3125      43.8368    -999.2500    -999.2500     177.7217      90.1086      89.2886       0.1471       3.3801       2.5485
   2325.0146       9.9740       0.0120      60.5000      43.6620    -999.2500    -999.2500     180.1100      91.2520      91.0400       0.1432       3.5350       2.5550
   2325.1672       9.9600       0.0070      60.6875      41.8171    -999.2500    -999.2500     189.1143      94.4971      96.0266       0.1398       3.5295       2.5620
   2325.3196       9.9460       0.0020      60.3125      39.9870    -999.2500    -999.2500     198.0320      97.7110     101.0050       0.1365       3.5240       2.5690
   2325.4719       9.8994      -0.0030      41.6250      40.2209    -999.2500    -999.2500     210.5876     101.4352     105.8996       0.1335       3.4679       2.5665
   2325.6243       9.8530      -0.0080      47.0625      40.4530    -999.2500    -999.2500     223.0240     105.1240     110.7790       0.1306       3.4120       2.5640
   2325.7766       9.8555      -0.0075      54.2500      44.3281    -999.2500    -999.2500     250.9384     111.4471     128.3398       0.1297       3.2643       2.5650
   2325.9292       9.8580      -0.0070      58.8125      48.1730    -999.2500    -999.2500     278.5470     117.7010     145.8480       0.1281       3.1170       2.5660
   2326.0815       9.8580       0.0010      57.0000      48.1474    -999.2500    -999.2500     278.1634     117.0163     123.5675       0.1114       3.1210       2.6046
   2326.2339       9.8580       0.0090      44.1250      48.1220    -999.2500    -999.2500     277.7840     116.3390     101.3510       0.0948       3.1250       2.6430
   2326.3862       9.8069       0.0075      74.3750      47.5508    -999.2500    -999.2500     273.4799     111.3126     104.7572       0.0948       3.0143       2.6395
   2326.5388       9.7560       0.0060      59.0000      46.9840    -999.2500    -999.2500     269.2220     106.3400     108.1540       0.0960       2.9040       2.6360
   2326.6912       9.7650       0.0065      55.8750      43.4846    -999.2500    -999.2500     255.7643     102.4168     138.7441       0.1059       2.9150       2.6120
   2326.8435       9.7740       0.0070      55.5000      40.0110    -999.2500    -999.2500     242.4490      98.5350     169.2540       0.1156       2.9260       2.5880
   2326.9958       9.8501       0.0195      61.0000      40.0632    -999.2500    -999.2500     225.5587      93.3474     164.4280       0.1159       3.0066       2.5830
   2327.1484       9.9260       0.0320      49.5625      40.1150    -999.2500    -999.2500     208.8450      88.2140     159.6140       0.1158       3.0870       2.5780
