#------------------------------------------------------------------------------
#
#   Created by  : [OpenWorks] Log Export Utility (LEXP)
#   Created on  : 2016-05-11 12:13:36
#   Project     : CANT971
#   User        : R5K
#   Interpreter : PEP
#
#------------------------------------------------------------------------------
~VERSION INFORMATION
VERS. 2.0 : CWLS Log ASCII Standard - version 2.0
WRAP.  NO : One line per depth step
~WELL INFORMATION
#MNEMONIC   .UNIT                                           VALUE :DESCRIPTION
#------------------------------------------------------------------------------
STRT        .M                                           688.6959 :START DEPTH
STOP        .M                                          2536.3936 :STOP DEPTH
STEP        .M                                             0.1524 :STEP
NULL        .                                           -999.2500 :NULL VALUE
COMP        .                                   PEMEX EXPL & PROD :COMPANY
WELL        .                                                1049 :WELL
FLD         .                                           CANTARELL :FIELD
LOC         .                                             UNKNOWN :LOCATION
CNTY        .                                      CD. DEL CARMEN :COUNTY
STAT        .                                            CAMPECHE :STATE
CTRY        .                                              MEXICO :COUNTRY
SRVC        .                                             UNKNOWN :SERVICE COMPANY
DATE        .                                             UNKNOWN :LOG DATE
UWI         .                                          3060000621 :UNIQUE WELL ID
XCOORD      .                                       601390.370000 :SURFACE X
YCOORD      .                                      2149879.190000 :SURFACE Y
LAT         .                                           19.441893 :LATITUDE
LON         .                                          -92.034142 :LONGITUDE
ELEV        .M                                            28.0000 :SURFACE ELEV
ELEV_TYPE   .                                                  KB :ELEV TYPE
~CURVE INFORMATION
#MNEMONIC.UNIT        API CODE       : CURVE DESCRIPTION
#------------------------------------------------------------------------------
DEPTH    .M                          : Measured Depth
CALI     .inches      UNKNOWN        : CALI:Import:rC:NONE:v0 (auto-composite)
DRHO     .g/cm3       UNKNOWN        : DRHO:Import:rC:NONE:v0 (auto-composite)
DT       .us/ft       UNKNOWN        : DT:Import:rC:NONE:v0 (auto-composite)
GR       .API         UNKNOWN        : GR:Import:rC:NONE:v0 (auto-composite)
ILD      .ohm.m       UNKNOWN        : ILD:Import:rC:NONE:v0 (auto-composite)
ILM      .ohm.m       UNKNOWN        : ILM:Import:rC:NONE:v0 (auto-composite)
LLD      .ohm.m       UNKNOWN        : LLD:Import:rC:NONE:v0 (auto-composite)
LLS      .ohm.m       UNKNOWN        : LLS:Import:rC:NONE:v0 (auto-composite)
MSFL     .ohm.m       UNKNOWN        : MSFL:Import:rC:NONE:v0 (auto-composite)
NPHI     .v/v_decimal UNKNOWN        : NPHI:Import:rC:NONE:v0 (auto-composite)
PEF      .b/elec      UNKNOWN        : PEF:Import:rC:NONE:v0 (auto-composite)
RHOB     .g/cm3       UNKNOWN        : RHOB:Import:rC:NONE:v0 (auto-composite)
~A     DEPTH         CALI         DRHO           DT           GR          ILD          ILM          LLD          LLS         MSFL         NPHI          PEF         RHOB
# ...
   2510.1807       8.6545       0.0100      47.1250      35.2747    -999.2500    -999.2500     947.9943     390.3445      42.6111       0.0854       3.1103       2.6559
   2510.3330       8.5240       0.0100      44.2188      34.7380    -999.2500    -999.2500     903.5080     376.9900      40.8290       0.0906       3.1940       2.6370
   2510.4856       8.5511       0.0105      52.4375      35.2658    -999.2500    -999.2500     835.3116     350.5328      41.2444       0.0904       3.1724       2.6340
   2510.6379       8.5780       0.0110      53.0000      35.7890    -999.2500    -999.2500     767.6990     324.3020      41.6570       0.0889       3.1510       2.6310
   2510.7903       8.6718       0.0416      54.2500      34.0035    -999.2500    -999.2500     701.6627     302.2501      43.6910       0.0859       3.0592       2.6195
   2510.9426       8.7650       0.0720      53.9688      32.2330    -999.2500    -999.2500     636.1830     280.3840      45.7110       0.0839       2.9680       2.6080
   2511.0952       8.8167       0.1056      54.5625      27.6977    -999.2500    -999.2500     578.0776     256.8261      47.9907       0.0891       3.0051       2.5945
   2511.2476       8.8680       0.1390      55.5000      23.2000    -999.2500    -999.2500     520.4550     233.4640      50.2550       0.0954       3.0420       2.5810
   2511.3999       8.9789       0.1365      45.1875      20.7786    -999.2500    -999.2500     425.9581     196.2403      41.2759       0.1019       3.1484       2.6267
   2511.5522       9.0890       0.1340      44.5000      18.3770    -999.2500    -999.2500     332.2340     159.3210      32.3560       0.1081       3.2540       2.6720
   2511.7048       9.2948       0.0808      43.5000      20.5623    -999.2500    -999.2500     277.1681     136.1064      19.4199       0.1123       3.0908       2.5686
   2511.8572       9.4990       0.0280      55.1250      22.7300    -999.2500    -999.2500     222.5460     113.0790       6.5880       0.1197       2.9290       2.4660
   2512.0095       9.5617       0.0310      41.0625      22.6918    -999.2500    -999.2500     210.3968     107.0762       6.8706       0.1481       2.7237       2.4615
   2512.1619       9.6240       0.0340      36.9375      22.6540    -999.2500    -999.2500     198.3440     101.1210       7.1510       0.1768       2.5200       2.4570
   2512.3142       9.3394       0.0415      94.8750      24.5554    -999.2500    -999.2500     216.5315     106.6009      11.5502       0.1867       2.6555       2.5162
   2512.4668       9.0570       0.0490     125.4375      26.4420    -999.2500    -999.2500     234.5770     112.0380      15.9150       0.1909       2.7900       2.5750
   2512.6191       9.2151       0.0470     112.0625      27.0815    -999.2500    -999.2500     281.0495     126.0448      18.8568       0.1801       2.8417       2.5825
   2512.7715       9.3720       0.0450      88.1875      27.7160    -999.2500    -999.2500     327.1650     139.9440      21.7760       0.1658       2.8930       2.5900
   2512.9238       9.5687       0.0360      81.3750      28.8839    -999.2500    -999.2500     350.5986     143.8729      35.7278       0.1454       2.9231       2.5790
   2513.0764       9.7640       0.0270      73.1875      30.0430    -999.2500    -999.2500     373.8550     147.7720      49.5740       0.1261       2.9530       2.5680
   2513.2288       9.3956       0.0250      70.3750      31.0568    -999.2500    -999.2500     390.2591     153.4587      61.5370       0.1186       2.9254       2.5805
   2513.3811       9.0300       0.0230      51.5625      32.0630    -999.2500    -999.2500     406.5150     159.0940      73.4110       0.1134       2.8980       2.5930
   2513.5334       8.9171       0.0215      50.6250      33.9544    -999.2500    -999.2500     432.0004     166.7033      68.7555       0.1110       2.9286       2.6166
   2513.6860       8.8050       0.0200      56.8750      35.8320    -999.2500    -999.2500     457.2590     174.2450      64.1340       0.1082       2.9590       2.6400
   2513.8384       8.8015       0.0155      51.4375      38.2777    -999.2500    -999.2500     444.7913     164.3712      70.0006       0.0998       3.0107       2.6616
   2513.9907       8.7980       0.0110      53.5000      40.7020    -999.2500    -999.2500     432.4330     154.5840      75.8250       0.0919       3.0620       2.6830
   2514.1431       8.7182       0.0115      46.5625      38.5994    -999.2500    -999.2500     430.8662     148.2155      72.9654       0.0932       2.9110       2.6669
   2514.2954       8.6390       0.0120      54.6875      36.5150    -999.2500    -999.2500     429.3130     141.9020      70.1260       0.0961       2.7610       2.6510
   2514.4480       8.7158       0.0095      51.1250      31.0904    -999.2500    -999.2500     484.9221     148.8135      82.9665       0.0994       2.7750       2.6043
   2514.6003       8.7920       0.0070      41.0625      25.7120    -999.2500    -999.2500     540.0570     155.6660      95.7180       0.1019       2.7890       2.5580
   2514.7527       8.7855       0.0150      53.5625      21.8558    -999.2500    -999.2500     620.8517     178.0595      69.2403       0.0979       2.8984       2.5776
   2514.9050       8.7790       0.0230      50.3750      18.0320    -999.2500    -999.2500     700.9680     200.2650      42.9430       0.0940       3.0070       2.5970
   2515.0576       8.7976       0.0250      57.6875      19.2395    -999.2500    -999.2500     725.2465     213.3321      35.3707       0.0960       2.9714       2.5799
   2515.2100       8.8160       0.0270      63.3750      20.4370    -999.2500    -999.2500     749.3240     226.2910      27.8610       0.1004       2.9360       2.5630
   2515.3623       8.7357       0.0240      58.8750      22.1721    -999.2500    -999.2500     755.7266     224.0855      31.4431       0.1142       2.8537       2.5289
   2515.5146       8.6560       0.0210      68.3125      23.8930    -999.2500    -999.2500     762.0770     221.8980      34.9960       0.1279       2.7720       2.4950
   2515.6672       8.5857       0.0295      63.5000      25.2961    -999.2500    -999.2500     797.4867     228.8785      43.6382       0.1314       2.8453       2.5442
   2515.8196       8.5160       0.0380      64.7500      26.6880    -999.2500    -999.2500     832.6120     235.8030      52.2110       0.1312       2.9180       2.5930
   2515.9719       8.5165       0.0350      66.8125      25.5806    -999.2500    -999.2500     851.7852     240.1000      67.2228       0.1165       3.0134       2.6382
   2516.1243       8.5170       0.0320      72.3125      24.4820    -999.2500    -999.2500     870.8070     244.3630      82.1160       0.1014       3.1080       2.6830
   2516.2766       8.5446       0.0290      60.4375      23.9991    -999.2500    -999.2500     788.2513     228.9656      75.8923       0.0973       3.1502       2.6664
   2516.4292       8.5720       0.0260      61.7500      23.5200    -999.2500    -999.2500     706.3380     213.6880      69.7170       0.0953       3.1920       2.6500
   2516.5815       8.5529       0.0280      75.3125      23.3940    -999.2500    -999.2500     688.3000     209.5080      54.6042       0.0964       3.1413       2.6405
   2516.7339       8.5340       0.0300      85.8125      23.2690    -999.2500    -999.2500     670.4000     205.3600      39.6070       0.0983       3.0910       2.6310
   2516.8862       8.5681       0.0526      77.6250      23.2841    -999.2500    -999.2500     693.3474     206.4692      39.7254       0.1025       3.0519       2.6205
   2517.0388       8.6020       0.0750      58.9375      23.2990    -999.2500    -999.2500     716.1220     207.5700      39.8430       0.1077       3.0130       2.6100
   2517.1912       8.7731       0.0690      59.8750      22.8338    -999.2500    -999.2500     692.6524     199.6534      45.2415       0.1181       2.9919       2.5904
   2517.3435       8.9430       0.0630      96.1250      22.3720    -999.2500    -999.2500     669.3940     191.8080      50.6000       0.1285       2.9710       2.5710
