#------------------------------------------------------------------------------
#
#   Created by  : [OpenWorks] Log Export Utility (LEXP)
#   Created on  : 2016-05-11 12:13:36
#   Project     : CANT971
#   User        : R5K
#   Interpreter : PEP
#
#------------------------------------------------------------------------------
~VERSION INFORMATION
VERS. 2.0 : CWLS Log ASCII Standard - version 2.0
WRAP.  NO : One line per depth step
~WELL INFORMATION
#MNEMONIC   .UNIT                                           VALUE :DESCRIPTION
#------------------------------------------------------------------------------
STRT        .M                                           688.6959 :START DEPTH
STOP        .M                                          2536.3936 :STOP DEPTH
STEP        .M                                             0.1524 :STEP
NULL        .                                           -999.2500 :NULL VALUE
COMP        .                                   PEMEX EXPL & PROD :COMPANY
WELL        .                                                1049 :WELL
FLD         .                                           CANTARELL :FIELD
LOC         .                                             UNKNOWN :LOCATION
CNTY        .                                      CD. DEL CARMEN :COUNTY
STAT        .                                            CAMPECHE :STATE
CTRY        .                                              MEXICO :COUNTRY
SRVC        .                                             UNKNOWN :SERVICE COMPANY
DATE        .                                             UNKNOWN :LOG DATE
UWI         .                                          3060000621 :UNIQUE WELL ID
XCOORD      .                                       601390.370000 :SURFACE X
YCOORD      .                                      2149879.190000 :SURFACE Y
LAT         .                                           19.441893 :LATITUDE
LON         .                                          -92.034142 :LONGITUDE
ELEV        .M                                            28.0000 :SURFACE ELEV
ELEV_TYPE   .                                                  KB :ELEV TYPE
~CURVE INFORMATION
#MNEMONIC.UNIT        API CODE       : CURVE DESCRIPTION
#------------------------------------------------------------------------------
DEPTH    .M                          : Measured Depth
CALI     .inches      UNKNOWN        : CALI:Import:rC:NONE:v0 (auto-composite)
DRHO     .g/cm3       UNKNOWN        : DRHO:Import:rC:NONE:v0 (auto-composite)
DT       .us/ft       UNKNOWN        : DT:Import:rC:NONE:v0 (auto-composite)
GR       .API         UNKNOWN        : GR:Import:rC:NONE:v0 (auto-composite)
ILD      .ohm.m       UNKNOWN        : ILD:Import:rC:NONE:v0 (auto-composite)
ILM      .ohm.m       UNKNOWN        : ILM:Import:rC:NONE:v0 (auto-composite)
LLD      .ohm.m       UNKNOWN        : LLD:Import:rC:NONE:v0 (auto-composite)
LLS      .ohm.m       UNKNOWN        : LLS:Import:rC:NONE:v0 (auto-composite)
MSFL     .ohm.m       UNKNOWN        : MSFL:Import:rC:NONE:v0 (auto-composite)
NPHI     .v/v_decimal UNKNOWN        : NPHI:Import:rC:NONE:v0 (auto-composite)
PEF      .b/elec      UNKNOWN        : PEF:Import:rC:NONE:v0 (auto-composite)
RHOB     .g/cm3       UNKNOWN        : RHOB:Import:rC:NONE:v0 (auto-composite)
~A     DEPTH         CALI         DRHO           DT           GR          ILD          ILM          LLD          LLS         MSFL         NPHI          PEF         RHOB
# ...
   2276.0942      12.1860       0.0565      77.4375      66.6782    -999.2500    -999.2500       4.9132       3.4993       9.8560       0.1655       3.8959       2.4825
   2276.2468      12.1470       0.0670      77.1875      70.8700    -999.2500    -999.2500       4.4760       3.1800       8.9050       0.1612       3.7260       2.4800
   2276.3992      12.2185       0.0881      74.6875      74.8535    -999.2500    -999.2500       3.8919       2.7492       6.7495       0.1736       3.5839       2.4290
   2276.5515      12.2900       0.1090      74.5625      78.8080    -999.2500    -999.2500       3.3140       2.3230       4.5960       0.1914       3.4420       2.3780
   2276.7039      12.3810       0.1220      73.5625      80.6797    -999.2500    -999.2500       2.8179       1.9792       3.8022       0.2211       3.4130       2.3590
   2276.8562      12.4720       0.1350      80.1250      82.5380    -999.2500    -999.2500       2.3270       1.6390       3.0090       0.2522       3.3840       2.3400
   2277.0088      12.5020       0.1079      84.0625      80.5489    -999.2500    -999.2500       2.1838       1.5370       2.6889       0.2783       3.3040       2.2980
   2277.1611      12.5320       0.0810      84.8125      78.5770    -999.2500    -999.2500       2.0420       1.4360       2.3690       0.3037       3.2240       2.2560
   2277.3135      12.1329       0.0549      86.3750      76.0528    -999.2500    -999.2500       1.8847       1.3219       2.0414       0.3307       3.2425       2.2190
   2277.4658      11.7340       0.0290      88.3750      73.5500    -999.2500    -999.2500       1.7290       1.2090       1.7140       0.3552       3.2610       2.1820
   2277.6184      11.2870       0.0235      96.3750      72.5488    -999.2500    -999.2500       1.6510       1.1597       1.7816       0.3652       3.3326       2.1940
   2277.7708      10.8410       0.0180     104.5000      71.5560    -999.2500    -999.2500       1.5740       1.1110       1.8490       0.3715       3.4040       2.2060
   2277.9231      10.8815       0.0180     108.8750      70.9806    -999.2500    -999.2500       1.5639       1.1065       1.7634       0.3718       3.3384       2.2090
   2278.0754      10.9220       0.0180     112.5625      70.4100    -999.2500    -999.2500       1.5540       1.1020       1.6780       0.3707       3.2730       2.2120
   2278.2280      10.9390       0.0230     110.6250      72.4614    -999.2500    -999.2500       1.5897       1.1256       1.8607       0.3688       3.3260       2.2160
   2278.3804      10.9560       0.0280     104.8750      74.4960    -999.2500    -999.2500       1.6250       1.1490       2.0430       0.3659       3.3790       2.2200
   2278.5327      11.0671       0.0431     103.3125      76.5758    -999.2500    -999.2500       1.7316       1.2259       2.0100       0.3584       3.4491       2.2490
   2278.6851      11.1780       0.0580     105.5000      78.6390    -999.2500    -999.2500       1.8370       1.3020       1.9770       0.3487       3.5190       2.2780
   2278.8374      11.4282       0.0751     106.6250      76.9890    -999.2500    -999.2500       2.0386       1.4372       2.3958       0.3307       3.4519       2.3180
   2278.9900      11.6780       0.0920     100.1250      75.3520    -999.2500    -999.2500       2.2380       1.5710       2.8140       0.3123       3.3850       2.3580
   2279.1423      11.7981       0.0915      96.5625      75.4012    -999.2500    -999.2500       2.6005       1.8148       3.2773       0.2985       3.5061       2.4035
   2279.2947      11.9180       0.0910      92.1875      75.4500    -999.2500    -999.2500       2.9590       2.0560       3.7400       0.2831       3.6270       2.4490
   2279.4470      11.8965       0.0759      87.3750      76.1487    -999.2500    -999.2500       3.2853       2.3119       5.3265       0.2530       3.7806       2.4945
   2279.5996      11.8750       0.0610      81.9375      76.8420    -999.2500    -999.2500       3.6080       2.5650       6.9110       0.2219       3.9340       2.5400
   2279.7520      11.8500       0.0439      78.6875      75.5993    -999.2500    -999.2500       3.7839       2.7309       6.7614       0.2002       3.9565       2.5255
   2279.9043      11.8250       0.0270      76.8125      74.3660    -999.2500    -999.2500       3.9580       2.8950       6.6120       0.1827       3.9790       2.5110
   2280.0566      11.7860       0.0205      72.8750      71.5927    -999.2500    -999.2500       4.2531       3.1619       7.0262       0.1810       4.0600       2.5120
   2280.2092      11.7470       0.0140      75.6875      68.8400    -999.2500    -999.2500       4.5450       3.4260       7.4400       0.1803       4.1410       2.5130
   2280.3616      11.7435       0.0120      75.0625      64.5820    -999.2500    -999.2500       4.7491       3.6024       8.5485       0.1692       4.2986       2.5295
   2280.5139      11.7400       0.0100      75.1250      60.3550    -999.2500    -999.2500       4.9510       3.7770       9.6560       0.1556       4.4560       2.5460
   2280.6663      11.6840       0.0140      75.4375      59.7092    -999.2500    -999.2500       4.8610       3.7232      14.6794       0.1367       4.3029       2.5555
   2280.8186      11.6280       0.0180      74.8750      59.0680    -999.2500    -999.2500       4.7720       3.6700      19.6990       0.1200       4.1500       2.5650
   2280.9712      11.7360       0.0346      71.6250      62.0192    -999.2500    -999.2500       4.3634       3.3921      14.0017       0.1212       3.9604       2.5300
   2281.1235      11.8440       0.0510      68.8750      64.9450    -999.2500    -999.2500       3.9590       3.1170       8.3080       0.1303       3.7710       2.4950
   2281.2759      11.9885       0.0721      68.3750      66.8566    -999.2500    -999.2500       3.6143       2.8868       6.3950       0.1691       3.6870       2.4790
   2281.4282      12.1330       0.0930      70.1250      68.7520    -999.2500    -999.2500       3.2730       2.6590       4.4830       0.2098       3.6030       2.4630
   2281.5808      12.4228       0.1015      73.5000      67.9045    -999.2500    -999.2500       3.1966       2.6781       4.3779       0.2327       3.6606       2.4805
   2281.7332      12.7120       0.1100      79.3125      67.0640    -999.2500    -999.2500       3.1210       2.6970       4.2730       0.2491       3.7180       2.4980
   2281.8855      12.5408       0.1095      82.3750      65.4514    -999.2500    -999.2500       3.1125       2.7639       4.7309       0.2432       3.6830       2.5015
   2282.0378      12.3700       0.1090      83.7500      63.8520    -999.2500    -999.2500       3.1040       2.8300       5.1880       0.2347       3.6480       2.5050
   2282.1904      12.0377       0.1065      83.0000      64.2672    -999.2500    -999.2500       3.0628       2.8496       5.2741       0.2328       3.6555       2.5030
   2282.3428      11.7060       0.1040      81.7500      64.6790    -999.2500    -999.2500       3.0220       2.8690       5.3600       0.2331       3.6630       2.5010
   2282.4951      11.6600       0.0874      79.6250      65.9576    -999.2500    -999.2500       3.0456       2.9193       5.1008       0.2419       3.6320       2.5000
   2282.6475      11.6140       0.0710      79.1875      67.2260    -999.2500    -999.2500       3.0690       2.9690       4.8420       0.2502       3.6010       2.4990
   2282.7998      11.5500       0.0504      79.1250      68.8805    -999.2500    -999.2500       3.2656       3.1505       5.2028       0.2476       3.6210       2.4980
   2282.9524      11.4860       0.0300      78.9375      70.5220    -999.2500    -999.2500       3.4600       3.3300       5.5630       0.2430       3.6410       2.4970
   2283.1047      11.4275       0.0185      79.7500      66.8809    -999.2500    -999.2500       3.8215       3.6784       6.1189       0.2367       3.7105       2.4935
   2283.2571      11.3690       0.0070      80.3125      63.2680    -999.2500    -999.2500       4.1790       4.0230       6.6740       0.2307       3.7800       2.4900
