#------------------------------------------------------------------------------
#
#   Created by  : [OpenWorks] Log Export Utility (LEXP)
#   Created on  : 2016-05-11 12:13:36
#   Project     : CANT971
#   User        : R5K
#   Interpreter : PEP
#
#------------------------------------------------------------------------------
~VERSION INFORMATION
VERS. 2.0 : CWLS Log ASCII Standard - version 2.0
WRAP.  NO : One line per depth step
~WELL INFORMATION
#MNEMONIC   .UNIT                                           VALUE :DESCRIPTION
#------------------------------------------------------------------------------
STRT        .M                                           688.6959 :START DEPTH
STOP        .M                                          2536.3936 :STOP DEPTH
STEP        .M                                             0.1524 :STEP
NULL        .                                           -999.2500 :NULL VALUE
COMP        .                                   PEMEX EXPL & PROD :COMPANY
WELL        .                                                1049 :WELL
FLD         .                                           CANTARELL :FIELD
LOC         .                                             UNKNOWN :LOCATION
CNTY        .                                      CD. DEL CARMEN :COUNTY
STAT        .                                            CAMPECHE :STATE
CTRY        .                                              MEXICO :COUNTRY
SRVC        .                                             UNKNOWN :SERVICE COMPANY
DATE        .                                             UNKNOWN :LOG DATE
UWI         .                                          3060000621 :UNIQUE WELL ID
XCOORD      .                                       601390.370000 :SURFACE X
YCOORD      .                                      2149879.190000 :SURFACE Y
LAT         .                                           19.441893 :LATITUDE
LON         .                                          -92.034142 :LONGITUDE
ELEV        .M                                            28.0000 :SURFACE ELEV
ELEV_TYPE   .                                                  KB :ELEV TYPE
~CURVE INFORMATION
#MNEMONIC.UNIT        API CODE       : CURVE DESCRIPTION
#------------------------------------------------------------------------------
DEPTH    .M                          : Measured Depth
CALI     .inches      UNKNOWN        : CALI:Import:rC:NONE:v0 (auto-composite)
DRHO     .g/cm3       UNKNOWN        : DRHO:Import:rC:NONE:v0 (auto-composite)
DT       .us/ft       UNKNOWN        : DT:Import:rC:NONE:v0 (auto-composite)
GR       .API         UNKNOWN        : GR:Import:rC:NONE:v0 (auto-composite)
ILD      .ohm.m       UNKNOWN        : ILD:Import:rC:NONE:v0 (auto-composite)
ILM      .ohm.m       UNKNOWN        : ILM:Import:rC:NONE:v0 (auto-composite)
LLD      .ohm.m       UNKNOWN        : LLD:Import:rC:NONE:v0 (auto-composite)
LLS      .ohm.m       UNKNOWN        : LLS:Import:rC:NONE:v0 (auto-composite)
MSFL     .ohm.m       UNKNOWN        : MSFL:Import:rC:NONE:v0 (auto-composite)
NPHI     .v/v_decimal UNKNOWN        : NPHI:Import:rC:NONE:v0 (auto-composite)
PEF      .b/elec      UNKNOWN        : PEF:Import:rC:NONE:v0 (auto-composite)
RHOB     .g/cm3       UNKNOWN        : RHOB:Import:rC:NONE:v0 (auto-composite)
~A     DEPTH         CALI         DRHO           DT           GR          ILD          ILM          LLD          LLS         MSFL         NPHI          PEF         RHOB
# ...
   2393.1375       9.3906       0.0661      57.6875      38.2147    -999.2500    -999.2500     266.0632      98.2789     116.5860       0.1035       3.0358       2.6055
   2393.2900       9.4470       0.0850      54.7500      36.2190    -999.2500    -999.2500     282.3550     104.4260     131.7510       0.0994       2.9570       2.5850
   2393.4424       9.5136       0.0800      41.7500      37.6161    -999.2500    -999.2500     268.9410     100.5807     152.2464       0.0887       2.7771       2.4993
   2393.5947       9.5800       0.0750      59.0625      39.0010    -999.2500    -999.2500     255.6440      96.7690     172.6610       0.0816       2.5980       2.4140
   2393.7471       9.6777       0.0429      56.6250      42.2881    -999.2500    -999.2500     197.5259      77.7029     128.8031       0.0895       2.3881       2.1014
   2393.8994       9.7750       0.0110      35.6250      45.5470    -999.2500    -999.2500     140.0000      58.8310      85.1130       0.1108       2.1790       1.7900
   2394.0520       9.7444       0.0120      31.2500      47.7845    -999.2500    -999.2500     140.5608      59.4144      45.8700       0.1494       2.2321       1.8376
   2394.2043       9.7140       0.0130      20.6250      50.0030    -999.2500    -999.2500     141.1160      59.9920       6.7720       0.1813       2.2850       1.8850
   2394.3567       9.6238       0.0190      50.1875      48.9933    -999.2500    -999.2500     153.2212      64.8557      14.3105       0.1794       2.4493       2.0578
   2394.5090       9.5340       0.0250      63.1875      47.9920    -999.2500    -999.2500     165.2060      69.6710      21.8220       0.1611       2.6130       2.2300
   2394.6616       9.4337       0.0220      66.5625      45.8909    -999.2500    -999.2500     186.2386      77.8833     105.1948       0.1362       2.8070       2.4531
   2394.8140       9.3340       0.0190      52.5625      43.8070    -999.2500    -999.2500     207.0650      86.0150     188.1470       0.1158       3.0000       2.6750
   2394.9663       9.3621       0.0125      60.3125      42.5840    -999.2500    -999.2500     201.1172      84.0404     179.6591       0.1127       2.9383       2.6509
   2395.1187       9.3900       0.0060      52.1250      41.3710    -999.2500    -999.2500     195.2270      82.0850     171.2130       0.1152       2.8770       2.6270
   2395.2712       9.4496       0.0105      62.0000      41.8539    -999.2500    -999.2500     185.2709      78.4356     146.4151       0.1142       2.7061       2.5593
   2395.4236       9.5090       0.0150      59.8125      42.3330    -999.2500    -999.2500     175.4100      74.8210     121.7360       0.1129       2.5360       2.4920
   2395.5759       9.5471       0.0275      28.4375      42.2120    -999.2500    -999.2500     170.4451      72.7919      96.7933       0.1140       2.5676       2.4128
   2395.7283       9.5850       0.0400      51.4375      42.0920    -999.2500    -999.2500     165.5270      70.7820      71.9670       0.1185       2.5990       2.3340
   2395.8806       9.6020       0.0601      67.5000      41.4801    -999.2500    -999.2500     161.3023      69.5322      51.7711       0.1291       2.6992       2.3586
   2396.0332       9.6190       0.0800      69.8125      40.8730    -999.2500    -999.2500     157.1170      68.2940      31.6670       0.1449       2.7990       2.3830
   2396.1855       9.6090       0.0725      71.8750      41.5536    -999.2500    -999.2500     152.7549      68.7652      36.1379       0.1672       2.9183       2.4286
   2396.3379       9.5990       0.0650      70.3750      42.2290    -999.2500    -999.2500     148.4330      69.2320      40.5890       0.1857       3.0370       2.4740
   2396.4902       9.5464       0.0429      97.9375      43.6779    -999.2500    -999.2500     145.3018      68.6037      57.7007       0.1891       3.0205       2.5041
   2396.6428       9.4940       0.0210      93.6250      45.1160    -999.2500    -999.2500     142.1990      67.9810      74.7390       0.1839       3.0040       2.5340
   2396.7952       9.4249       0.0210      65.0625      46.3044    -999.2500    -999.2500     137.0108      65.7500      72.8511       0.1731       2.9133       2.5631
   2396.9475       9.3560       0.0210      55.7500      47.4840    -999.2500    -999.2500     131.8690      63.5390      70.9710       0.1640       2.8230       2.5920
   2397.0999       9.3780       0.0200      93.1250      48.6969    -999.2500    -999.2500     125.4984      61.5427      62.5024       0.1640       2.8641       2.5910
   2397.2524       9.4000       0.0190      72.8125      49.9010    -999.2500    -999.2500     119.1840      59.5640      54.0680       0.1666       2.9050       2.5900
   2397.4048       9.3524       0.0155      73.4375      48.9589    -999.2500    -999.2500     124.5549      61.6722      60.2376       0.1661       3.0137       2.5860
   2397.5571       9.3050       0.0120      92.5625      48.0250    -999.2500    -999.2500     129.8790      63.7620      66.3830       0.1632       3.1220       2.5820
   2397.7095       9.2158       0.0075     128.0000      46.5688    -999.2500    -999.2500     142.6539      68.9378      59.5090       0.1583       3.2277       2.5655
   2397.8618       9.1270       0.0030      76.0000      45.1250    -999.2500    -999.2500     155.2990      74.0610      52.6610       0.1524       3.3330       2.5490
   2398.0144       9.1546      -0.0010      76.1250      46.6675    -999.2500    -999.2500     168.0057      79.8465      52.8881       0.1461       3.3230       2.5209
   2398.1667       9.1820      -0.0050      72.3125      48.1970    -999.2500    -999.2500     180.5850      85.5740      53.1140       0.1402       3.3130       2.4930
   2398.3191       9.1619      -0.0040      76.6250      47.8762    -999.2500    -999.2500     199.0711      94.2917      67.9812       0.1353       3.2714       2.5120
   2398.4714       9.1420      -0.0030      68.8125      47.5580    -999.2500    -999.2500     217.3740     102.9230      82.7720       0.1310       3.2300       2.5310
   2398.6240       9.0869      -0.0010      48.0000      46.0573    -999.2500    -999.2500     259.0347     121.8430     121.9372       0.1267       3.1704       2.5636
   2398.7764       9.0320       0.0010      38.9375      44.5690    -999.2500    -999.2500     300.2880     140.5780     160.9060       0.1219       3.1110       2.5960
   2398.9287       9.0736       0.0045      69.6875      46.3662    -999.2500    -999.2500     295.5375     138.5201     157.1884       0.1155       3.0674       2.6166
   2399.0811       9.1150       0.0080      77.7500      48.1490    -999.2500    -999.2500     290.8330     136.4820     153.4890       0.1081       3.0240       2.6370
   2399.2336       9.1100       0.0135      38.1250      51.0586    -999.2500    -999.2500     280.0647     132.9964     155.4722       0.1001       3.0701       2.6565
   2399.3860       9.1050       0.0190      51.6250      53.9450    -999.2500    -999.2500     269.3990     129.5440     157.4460       0.0929       3.1160       2.6760
   2399.5383       9.0895       0.0185      58.3125      53.4104    -999.2500    -999.2500     261.4747     127.5762     144.9946       0.0883       3.0859       2.6595
   2399.6907       9.0740       0.0180      39.0625      52.8800    -999.2500    -999.2500     253.6250     125.6270     132.6010       0.0864       3.0560       2.6430
   2399.8430       9.0870       0.0185      29.6875      54.1770    -999.2500    -999.2500     244.4238     122.6642     104.4495       0.0884       2.9793       2.6114
   2399.9956       9.1000       0.0190      57.0000      55.4640    -999.2500    -999.2500     235.3080     119.7290      76.4250       0.0922       2.9030       2.5800
   2400.1479       9.1822       0.0210      51.1250      55.2622    -999.2500    -999.2500     220.7925     115.7030      84.3033       0.0964       2.9296       2.5900
   2400.3003       9.2640       0.0230      55.1250      55.0620    -999.2500    -999.2500     206.4100     111.7140      92.1470       0.0981       2.9560       2.6000
