#------------------------------------------------------------------------------
#
#   Created by  : [OpenWorks] Log Export Utility (LEXP)
#   Created on  : 2016-05-11 12:13:36
#   Project     : CANT971
#   User        : R5K
#   Interpreter : PEP
#
#------------------------------------------------------------------------------
~VERSION INFORMATION
VERS. 2.0 : CWLS Log ASCII Standard - version 2.0
WRAP.  NO : One line per depth step
~WELL INFORMATION
#MNEMONIC   .UNIT                                           VALUE :DESCRIPTION
#------------------------------------------------------------------------------
STRT        .M                                           688.6959 :START DEPTH
STOP        .M                                          2536.3936 :STOP DEPTH
STEP        .M                                             0.1524 :STEP
NULL        .                                           -999.2500 :NULL VALUE
COMP        .                                   PEMEX EXPL & PROD :COMPANY
WELL        .                                                1049 :WELL
FLD         .                                           CANTARELL :FIELD
LOC         .                                             UNKNOWN :LOCATION
CNTY        .                                      CD. DEL CARMEN :COUNTY
STAT        .                                            CAMPECHE :STATE
CTRY        .                                              MEXICO :COUNTRY
SRVC        .                                             UNKNOWN :SERVICE COMPANY
DATE        .                                             UNKNOWN :LOG DATE
UWI         .                                          3060000621 :UNIQUE WELL ID
XCOORD      .                                       601390.370000 :SURFACE X
YCOORD      .                                      2149879.190000 :SURFACE Y
LAT         .                                           19.441893 :LATITUDE
LON         .                                          -92.034142 :LONGITUDE
ELEV        .M                                            28.0000 :SURFACE ELEV
ELEV_TYPE   .                                                  KB :ELEV TYPE
~CURVE INFORMATION
#MNEMONIC.UNIT        API CODE       : CURVE DESCRIPTION
#------------------------------------------------------------------------------
DEPTH    .M                          : Measured Depth
CALI     .inches      UNKNOWN        : CALI:Import:rC:NONE:v0 (auto-composite)
DRHO     .g/cm3       UNKNOWN        : DRHO:Import:rC:NONE:v0 (auto-composite)
DT       .us/ft       UNKNOWN        : DT:Import:rC:NONE:v0 (auto-composite)
GR       .API         UNKNOWN        : GR:Import:rC:NONE:v0 (auto-composite)
ILD      .ohm.m       UNKNOWN        : ILD:Import:rC:NONE:v0 (auto-composite)
ILM      .ohm.m       UNKNOWN        : ILM:Import:rC:NONE:v0 (auto-composite)
LLD      .ohm.m       UNKNOWN        : LLD:Import:rC:NONE:v0 (auto-composite)
LLS      .ohm.m       UNKNOWN        : LLS:Import:rC:NONE:v0 (auto-composite)
MSFL     .ohm.m       UNKNOWN        : MSFL:Import:rC:NONE:v0 (auto-composite)
NPHI     .v/v_decimal UNKNOWN        : NPHI:Import:rC:NONE:v0 (auto-composite)
PEF      .b/elec      UNKNOWN        : PEF:Import:rC:NONE:v0 (auto-composite)
RHOB     .g/cm3       UNKNOWN        : RHOB:Import:rC:NONE:v0 (auto-composite)
~A     DEPTH         CALI         DRHO           DT           GR          ILD          ILM          LLD          LLS         MSFL         NPHI          PEF         RHOB
# ...
   2415.0830       9.5736       0.0150      64.6250      66.8885    -999.2500    -999.2500      56.8276      28.2888      18.6692       0.1831       3.0264       2.5569
   2415.2356       9.6040       0.0190      30.0000      65.8660    -999.2500    -999.2500      57.2630      28.3480      20.6880       0.1781       3.0010       2.5260
   2415.3879       9.6025       0.0346      35.1250      62.3163    -999.2500    -999.2500      61.3168      29.4531      34.4095       0.1645       2.9293       2.4313
   2415.5403       9.6010       0.0500      38.8750      58.7940    -999.2500    -999.2500      65.3330      30.5480      48.0690       0.1544       2.8580       2.3370
   2415.6926       9.6391       0.0761      35.2500      52.0419    -999.2500    -999.2500      75.2585      33.7914      42.5534       0.1597       2.8089       2.2238
   2415.8452       9.6770       0.1020      54.1250      45.3410    -999.2500    -999.2500      85.0930      37.0050      37.0620       0.1744       2.7600       2.1110
   2415.9976       9.9721       0.1211      96.2500      45.6045    -999.2500    -999.2500      97.5920      42.7419      42.6930       0.1930       2.7730       2.1832
   2416.1499      10.2660       0.1400     104.6250      45.8660    -999.2500    -999.2500     109.9780      48.4270      48.3000       0.2021       2.7860       2.2550
   2416.3022      10.7741       0.1355      94.0000      45.4655    -999.2500    -999.2500     105.6005      47.0639      62.5204       0.1879       2.8025       2.4098
   2416.4548      11.2800       0.1310      95.6250      45.0680    -999.2500    -999.2500     101.2620      45.7130      76.6820       0.1727       2.8190       2.5640
   2416.6072      10.9416       0.1159      55.8750      43.9591    -999.2500    -999.2500     104.9206      47.1533      92.5786       0.1785       2.8481       2.5585
   2416.7595      10.6050       0.1010      52.6250      42.8600    -999.2500    -999.2500     108.5470      48.5810     108.3860       0.1888       2.8770       2.5530
   2416.9119      10.1392       0.0794      69.2500      44.1471    -999.2500    -999.2500     125.9705      55.1404     145.3017       0.1875       2.9592       2.5640
   2417.0642       9.6760       0.0580      56.6250      45.4230    -999.2500    -999.2500     143.2430      61.6430     182.0150       0.1780       3.0410       2.5750
   2417.2168       9.5055       0.0379      49.6250      47.8830    -999.2500    -999.2500     171.1894      72.4080     180.6233       0.1629       3.1247       2.5920
   2417.3691       9.3360       0.0180      53.2500      50.3220    -999.2500    -999.2500     198.8970      83.0810     179.2390       0.1460       3.2080       2.6090
   2417.5215       9.2653       0.0105      38.6875      51.4959    -999.2500    -999.2500     217.6503      92.0594     166.3718       0.1306       3.2626       2.6190
   2417.6738       9.1950       0.0030      48.6250      52.6600    -999.2500    -999.2500     236.2160     100.9480     153.5720       0.1168       3.3170       2.6290
   2417.8264       9.1950       0.0040      37.8750      52.4150    -999.2500    -999.2500     234.7613     100.2576     153.8497       0.1052       3.4513       2.6335
   2417.9788       9.1950       0.0050      35.8750      52.1720    -999.2500    -999.2500     233.3210      99.5740     154.1260       0.0949       3.5850       2.6380
   2418.1311       9.1990       0.0085      38.5313      51.0881    -999.2500    -999.2500     228.6658      97.6049     164.2948       0.0855       3.5644       2.6435
   2418.2834       9.2030       0.0120      34.5000      50.0130    -999.2500    -999.2500     224.0560      95.6550     174.4130       0.0776       3.5440       2.6490
   2418.4360       9.4095       0.0215      42.1250      51.1184    -999.2500    -999.2500     206.5708      90.3947     164.5726       0.0720       3.4578       2.6575
   2418.5884       9.6150       0.0310      61.4375      52.2150    -999.2500    -999.2500     189.2540      85.1850     154.7800       0.0678       3.3720       2.6660
   2418.7407      10.4490       0.0621      43.5000      52.1467    -999.2500    -999.2500     167.4704      78.7363     172.7931       0.0643       3.2512       2.6710
   2418.8931      11.2790       0.0930      63.1875      52.0790    -999.2500    -999.2500     145.8940      72.3490     190.7210       0.0655       3.1310       2.6760
   2419.0454      11.0399       0.1442      36.5313      51.4179    -999.2500    -999.2500     129.8754      67.4802     182.2219       0.0755       3.0383       2.6600
   2419.1980      10.8020       0.1950      38.5000      50.7620    -999.2500    -999.2500     114.0070      62.6570     173.7620       0.0930       2.9460       2.6440
   2419.3503      10.3816       0.1845      39.6250      49.9388    -999.2500    -999.2500     105.4062      59.8560     144.6928       0.1168       2.8824       2.6059
   2419.5027       9.9630       0.1740      56.8125      49.1220    -999.2500    -999.2500      96.8850      57.0810     115.7540       0.1417       2.8190       2.5680
   2419.6550      10.0457       0.1399      34.1250      48.3611    -999.2500    -999.2500      92.8581      55.0467      84.3320       0.1626       2.8375       2.5134
   2419.8076      10.1280       0.1060      18.5625      47.6060    -999.2500    -999.2500      88.8680      53.0310      53.0470       0.1803       2.8560       2.4590
   2419.9600      10.0894       0.0563      26.5625      46.4899    -999.2500    -999.2500      86.2497      49.8517      39.8144       0.1954       2.8836       2.3873
   2420.1123      10.0510       0.0070      25.6875      45.3820    -999.2500    -999.2500      83.6550      46.7010      26.6590       0.2138       2.9110       2.3160
   2420.2646       9.9206       0.0105      62.3750      46.4770    -999.2500    -999.2500      87.9943      48.0907      22.7950       0.2412       2.8558       2.2508
   2420.4172       9.7910       0.0140      78.9375      47.5640    -999.2500    -999.2500      92.2950      49.4680      18.9530       0.2616       2.8010       2.1860
   2420.5696       9.6075       0.0286     141.8750      50.2814    -999.2500    -999.2500     104.9660      54.0676      25.3007       0.2586       2.8682       2.2612
   2420.7219       9.4250       0.0430     134.2500      52.9750    -999.2500    -999.2500     117.5260      58.6270      31.6130       0.2387       2.9350       2.3360
   2420.8743       9.2475       0.0340     144.5000      55.0690    -999.2500    -999.2500     129.8522      63.5337      94.1901       0.2081       3.0293       2.4889
   2421.0266       9.0710       0.0250     167.2500      57.1450    -999.2500    -999.2500     142.0720      68.3980     156.4260       0.1763       3.1230       2.6410
   2421.1792       9.0865       0.0170     155.3750      55.3423    -999.2500    -999.2500     152.0716      71.0874     146.6815       0.1527       3.1751       2.6385
   2421.3315       9.1020       0.0090      83.8125      53.5550    -999.2500    -999.2500     161.9860      73.7540     136.9890       0.1398       3.2270       2.6360
   2421.4839       9.0729       0.0075      53.4375      50.9792    -999.2500    -999.2500     178.3692      77.5545     112.8166       0.1401       3.1944       2.6134
   2421.6362       9.0440       0.0060      26.1250      48.4250    -999.2500    -999.2500     194.5890      81.3170      88.7700       0.1441       3.1620       2.5910
   2421.7888       8.9483       0.0035      62.3750      47.3912    -999.2500    -999.2500     210.1441      85.8192      93.0218       0.1423       3.0888       2.5990
   2421.9412       8.8530       0.0010      61.3750      46.3660    -999.2500    -999.2500     225.5460      90.2770      97.2520       0.1363       3.0160       2.6070
   2422.0935       8.8620       0.0020      23.2500      47.4338    -999.2500    -999.2500     234.3327      93.3600     112.4536       0.1278       2.9453       2.6255
   2422.2458       8.8710       0.0030      34.8125      48.4930    -999.2500    -999.2500     243.0340      96.4130     127.5800       0.1189       2.8750       2.6440
