#------------------------------------------------------------------------------
#
#   Created by  : [OpenWorks] Log Export Utility (LEXP)
#   Created on  : 2016-05-11 12:13:36
#   Project     : CANT971
#   User        : R5K
#   Interpreter : PEP
#
#------------------------------------------------------------------------------
~VERSION INFORMATION
VERS. 2.0 : CWLS Log ASCII Standard - version 2.0
WRAP.  NO : One line per depth step
~WELL INFORMATION
#MNEMONIC   .UNIT                                           VALUE :DESCRIPTION
#------------------------------------------------------------------------------
STRT        .M                                           688.6959 :START DEPTH
STOP        .M                                          2536.3936 :STOP DEPTH
STEP        .M                                             0.1524 :STEP
NULL        .                                           -999.2500 :NULL VALUE
COMP        .                                   PEMEX EXPL & PROD :COMPANY
WELL        .                                                1049 :WELL
FLD         .                                           CANTARELL :FIELD
LOC         .                                             UNKNOWN :LOCATION
CNTY        .                                      CD. DEL CARMEN :COUNTY
STAT        .                                            CAMPECHE :STATE
CTRY        .                                              MEXICO :COUNTRY
SRVC        .                                             UNKNOWN :SERVICE COMPANY
DATE        .                                             UNKNOWN :LOG DATE
UWI         .                                          3060000621 :UNIQUE WELL ID
XCOORD      .                                       601390.370000 :SURFACE X
YCOORD      .                                      2149879.190000 :SURFACE Y
LAT         .                                           19.441893 :LATITUDE
LON         .                                          -92.034142 :LONGITUDE
ELEV        .M                                            28.0000 :SURFACE ELEV
ELEV_TYPE   .                                                  KB :ELEV TYPE
~CURVE INFORMATION
#MNEMONIC.UNIT        API CODE       : CURVE DESCRIPTION
#------------------------------------------------------------------------------
DEPTH    .M                          : Measured Depth
CALI     .inches      UNKNOWN        : CALI:Import:rC:NONE:v0 (auto-composite)
DRHO     .g/cm3       UNKNOWN        : DRHO:Import:rC:NONE:v0 (auto-composite)
DT       .us/ft       UNKNOWN        : DT:Import:rC:NONE:v0 (auto-composite)
GR       .API         UNKNOWN        : GR:Import:rC:NONE:v0 (auto-composite)
ILD      .ohm.m       UNKNOWN        : ILD:Import:rC:NONE:v0 (auto-composite)
ILM      .ohm.m       UNKNOWN        : ILM:Import:rC:NONE:v0 (auto-composite)
LLD      .ohm.m       UNKNOWN        : LLD:Import:rC:NONE:v0 (auto-composite)
LLS      .ohm.m       UNKNOWN        : LLS:Import:rC:NONE:v0 (auto-composite)
MSFL     .ohm.m       UNKNOWN        : MSFL:Import:rC:NONE:v0 (auto-composite)
NPHI     .v/v_decimal UNKNOWN        : NPHI:Import:rC:NONE:v0 (auto-composite)
PEF      .b/elec      UNKNOWN        : PEF:Import:rC:NONE:v0 (auto-composite)
RHOB     .g/cm3       UNKNOWN        : RHOB:Import:rC:NONE:v0 (auto-composite)
~A     DEPTH         CALI         DRHO           DT           GR          ILD          ILM          LLD          LLS         MSFL         NPHI          PEF         RHOB
# ...
   2451.6592      16.6231       0.0000     144.2500      23.6298    -999.2500    -999.2500     128.8084      52.4904       8.1275       0.4828       1.7710       1.4678
   2451.8115      14.8760       0.0010     112.0000      25.6170    -999.2500    -999.2500     131.5010      54.8310       9.5410       0.4994       2.1150       1.5780
   2451.9639      13.1503       0.0276     124.7500      24.0563    -999.2500    -999.2500     139.6728      57.2675      16.8825       0.4608       2.5326       1.8878
   2452.1162      11.4340       0.0540     -37.1875      22.5090    -999.2500    -999.2500     147.7740      59.6830      24.1840       0.3803       2.9480       2.1960
   2452.2688      10.6018       0.0776     -41.7500      23.2738    -999.2500    -999.2500     162.5841      63.1940      47.2375       0.2658       2.8187       2.3339
   2452.4211       9.7740       0.1010      33.3125      24.0320    -999.2500    -999.2500     177.2680      66.6750      70.1680       0.1676       2.6900       2.4710
   2452.5735      11.0037       0.1075     -23.1250      27.5628    -999.2500    -999.2500     186.7990      70.9409      55.7515       0.1378       2.7010       2.5001
   2452.7258      12.2270       0.1140      12.0625      31.0640    -999.2500    -999.2500     196.2500      75.1710      41.4100       0.1423       2.7120       2.5290
   2452.8784      11.6109       0.1025      10.3125      40.4388    -999.2500    -999.2500     221.6254      86.9316      50.2364       0.1522       2.8198       2.5676
   2453.0308      10.9980       0.0910       0.8750      49.7360    -999.2500    -999.2500     246.7910      98.5950      59.0180       0.1581       2.9270       2.6060
   2453.1831      10.1251       0.0704       4.8750      49.3022    -999.2500    -999.2500     297.4068     118.2622      79.9421       0.1505       3.0283       2.6231
   2453.3354       9.2580       0.0500      28.3750      48.8720    -999.2500    -999.2500     347.5300     137.7380     100.7290       0.1351       3.1290       2.6400
   2453.4880       8.9706       0.0364      12.8750      45.0537    -999.2500    -999.2500     419.9557     165.6922     109.8393       0.1160       3.0879       2.6540
   2453.6404       8.6850       0.0230      18.8750      41.2660    -999.2500    -999.2500     491.6860     193.3780     118.8910       0.0972       3.0470       2.6680
   2453.7927       8.7086       0.0130      46.4375      37.2366    -999.2500    -999.2500     577.1131     228.9376     141.0955       0.0821       2.9993       2.6780
   2453.9451       8.7320       0.0030      37.8750      33.2390    -999.2500    -999.2500     661.7300     264.1600     163.1600       0.0703       2.9520       2.6880
   2454.0974       8.7496       0.0035      21.6875      31.5685    -999.2500    -999.2500     771.8112     310.4816     212.6929       0.0619       2.9324       2.7061
   2454.2500       8.7670       0.0040      44.4375      29.9110    -999.2500    -999.2500     880.8630     356.3700     261.9200       0.0557       2.9130       2.7240
   2454.4023       8.6652       0.0065      36.5000      31.9849    -999.2500    -999.2500     996.2960     413.2050     254.0076       0.0508       2.8970       2.7526
   2454.5547       8.5640       0.0090      51.1250      34.0430    -999.2500    -999.2500    1110.6630     469.5150     246.1430       0.0485       2.8810       2.7810
   2454.7070       8.6046       0.0090      49.8125      36.1961    -999.2500    -999.2500    1071.1918     464.1300     224.4382       0.0505       3.0615       2.7614
   2454.8596       8.6450       0.0090      49.2500      38.3330    -999.2500    -999.2500    1032.0800     458.7940     202.8620       0.0550       3.2410       2.7420
   2455.0120       8.6440       0.0100      45.8125      40.7263    -999.2500    -999.2500     893.9619     425.8977     189.2079       0.0604       3.1171       2.7250
   2455.1643       8.6430       0.0110      51.1250      43.1020    -999.2500    -999.2500     757.0850     393.2970     175.6330       0.0668       2.9940       2.7080
   2455.3167       8.5989       0.0120      44.5625      48.0309    -999.2500    -999.2500     665.5256     369.4569     154.9398       0.0747       3.0326       2.6980
   2455.4692       8.5550       0.0130      51.1250      52.9240    -999.2500    -999.2500     574.7770     345.8280     134.3640       0.0808       3.0710       2.6880
   2455.6216       8.5881       0.0130      32.9375      52.3003    -999.2500    -999.2500     584.4171     358.5255     151.4901       0.0818       3.1482       2.6845
   2455.7739       8.6210       0.0130      25.1875      51.6820    -999.2500    -999.2500     593.9730     371.1120     168.5210       0.0795       3.2250       2.6810
   2455.9263       8.6195       0.0200      36.7500      50.9810    -999.2500    -999.2500     588.6481     378.6765     164.5487       0.0749       3.1663       2.6700
   2456.0786       8.6180       0.0270      28.5625      50.2860    -999.2500    -999.2500     583.3690     386.1760     160.5980       0.0697       3.1080       2.6590
   2456.2312       8.6005       0.0471      42.1875      51.4565    -999.2500    -999.2500     549.7132     364.9780     137.8492       0.0658       3.0032       2.6490
   2456.3835       8.5830       0.0670      39.5625      52.6170    -999.2500    -999.2500     516.3430     343.9600     115.2210       0.0649       2.8990       2.6390
   2456.5359       8.6422       0.0775      43.0625      54.5928    -999.2500    -999.2500     462.3439     303.7550      82.9643       0.0691       2.9211       2.6360
   2456.6882       8.7010       0.0880      57.8750      56.5520    -999.2500    -999.2500     408.7960     263.8860      50.9260       0.0790       2.9430       2.6330
   2456.8408       8.6854       0.0694      39.3750      57.2544    -999.2500    -999.2500     420.0679     268.7304      71.9142       0.0962       3.0092       2.6360
   2456.9932       8.6700       0.0510      44.1250      57.9510    -999.2500    -999.2500     431.2470     273.5350      92.7630       0.1107       3.0750       2.6390
   2457.1455       8.6098       0.0224      35.0000      59.2548    -999.2500    -999.2500     523.4659     294.2324     123.4722       0.1120       3.1051       2.6300
   2457.2979       8.5500      -0.0060      58.6875      60.5480    -999.2500    -999.2500     614.7900     314.7290     153.9810       0.1058       3.1350       2.6210
   2457.4504       8.5726      -0.0025      50.1875      59.9752    -999.2500    -999.2500     603.2191     303.5053     171.6911       0.0960       3.1440       2.6406
   2457.6028       8.5950       0.0010      61.9063      59.4070    -999.2500    -999.2500     591.7590     292.3890     189.2880       0.0878       3.1530       2.6600
   2457.7551       8.6221       0.0055      64.0000      59.4351    -999.2500    -999.2500     490.7018     262.4626     165.5525       0.0864       3.1299       2.6705
   2457.9075       8.6490       0.0100      63.1250      59.4630    -999.2500    -999.2500     390.6000     232.8190     141.9660       0.0894       3.1070       2.6810
   2458.0598       8.6590       0.0155      62.0000      57.9788    -999.2500    -999.2500     331.2825     218.8273     120.7874       0.0956       3.0453       2.6599
   2458.2124       8.6690       0.0210      49.0000      56.5060    -999.2500    -999.2500     272.5180     204.9660      99.7390       0.1032       2.9840       2.6390
   2458.3647       8.7066       0.0330      17.7500      51.9763    -999.2500    -999.2500     276.5249     205.8506      91.5473       0.1111       2.8797       2.6089
   2458.5171       8.7440       0.0450      36.2500      47.4810    -999.2500    -999.2500     280.4950     206.7270      83.4050       0.1166       2.7760       2.5790
   2458.6694       8.8092       0.0530      61.8750      42.5194    -999.2500    -999.2500     303.5225     214.6384      72.9010       0.1162       2.7800       2.5900
   2458.8220       8.8740       0.0610      44.6250      37.5950    -999.2500    -999.2500     326.3410     222.4780      62.4590       0.1119       2.7840       2.6010
