#------------------------------------------------------------------------------
#
#   Created by  : [OpenWorks] Log Export Utility (LEXP)
#   Created on  : 2016-05-11 12:13:36
#   Project     : CANT971
#   User        : R5K
#   Interpreter : PEP
#
#------------------------------------------------------------------------------
~VERSION INFORMATION
VERS. 2.0 : CWLS Log ASCII Standard - version 2.0
WRAP.  NO : One line per depth step
~WELL INFORMATION
#MNEMONIC   .UNIT                                           VALUE :DESCRIPTION
#------------------------------------------------------------------------------
STRT        .M                                           688.6959 :START DEPTH
STOP        .M                                          2536.3936 :STOP DEPTH
STEP        .M                                             0.1524 :STEP
NULL        .                                           -999.2500 :NULL VALUE
COMP        .                                   PEMEX EXPL & PROD :COMPANY
WELL        .                                                1049 :WELL
FLD         .                                           CANTARELL :FIELD
LOC         .                                             UNKNOWN :LOCATION
CNTY        .                                      CD. DEL CARMEN :COUNTY
STAT        .                                            CAMPECHE :STATE
CTRY        .                                              MEXICO :COUNTRY
SRVC        .                                             UNKNOWN :SERVICE COMPANY
DATE        .                                             UNKNOWN :LOG DATE
UWI         .                                          3060000621 :UNIQUE WELL ID
XCOORD      .                                       601390.370000 :SURFACE X
YCOORD      .                                      2149879.190000 :SURFACE Y
LAT         .                                           19.441893 :LATITUDE
LON         .                                          -92.034142 :LONGITUDE
ELEV        .M                                            28.0000 :SURFACE ELEV
ELEV_TYPE   .                                                  KB :ELEV TYPE
~CURVE INFORMATION
#MNEMONIC.UNIT        API CODE       : CURVE DESCRIPTION
#------------------------------------------------------------------------------
DEPTH    .M                          : Measured Depth
CALI     .inches      UNKNOWN        : CALI:Import:rC:NONE:v0 (auto-composite)
DRHO     .g/cm3       UNKNOWN        : DRHO:Import:rC:NONE:v0 (auto-composite)
DT       .us/ft       UNKNOWN        : DT:Import:rC:NONE:v0 (auto-composite)
GR       .API         UNKNOWN        : GR:Import:rC:NONE:v0 (auto-composite)
ILD      .ohm.m       UNKNOWN        : ILD:Import:rC:NONE:v0 (auto-composite)
ILM      .ohm.m       UNKNOWN        : ILM:Import:rC:NONE:v0 (auto-composite)
LLD      .ohm.m       UNKNOWN        : LLD:Import:rC:NONE:v0 (auto-composite)
LLS      .ohm.m       UNKNOWN        : LLS:Import:rC:NONE:v0 (auto-composite)
MSFL     .ohm.m       UNKNOWN        : MSFL:Import:rC:NONE:v0 (auto-composite)
NPHI     .v/v_decimal UNKNOWN        : NPHI:Import:rC:NONE:v0 (auto-composite)
PEF      .b/elec      UNKNOWN        : PEF:Import:rC:NONE:v0 (auto-composite)
RHOB     .g/cm3       UNKNOWN        : RHOB:Import:rC:NONE:v0 (auto-composite)
~A     DEPTH         CALI         DRHO           DT           GR          ILD          ILM          LLD          LLS         MSFL         NPHI          PEF         RHOB
# ...
   2532.1262       7.3320       0.0995    -999.2500    -999.2500    -999.2500    -999.2500    1578.1073     421.6044      79.9380       0.0810       3.7450       2.3850
   2532.2788       7.3320       0.0950    -999.2500    -999.2500    -999.2500    -999.2500    1577.4160     421.5850      79.9380       0.0810       3.7430       2.3750
   2532.4312       7.3325       0.0950    -999.2500    -999.2500    -999.2500    -999.2500    1573.4244     420.8317      79.9019       0.0810       3.6747       2.3755
   2532.5835       7.3330       0.0950    -999.2500    -999.2500    -999.2500    -999.2500    1569.4630     420.0840      79.8660       0.0810       3.6070       2.3760
   2532.7358       7.3330       0.1015    -999.2500    -999.2500    -999.2500    -999.2500    1573.5898     420.0850      79.2231       0.0809       3.6110       2.3870
   2532.8884       7.3330       0.1080    -999.2500    -999.2500    -999.2500    -999.2500    1577.6860     420.0860      78.5850       0.0809       3.6150       2.3980
   2533.0408       7.3325       0.1080    -999.2500    -999.2500    -999.2500    -999.2500    1573.8279     420.2171      78.1660       0.0810       3.6928       2.3980
   2533.1931       7.3320       0.1080    -999.2500    -999.2500    -999.2500    -999.2500    1570.0040     420.3470      77.7500       0.0810       3.7700       2.3980
   2533.3455       7.3320       0.1055    -999.2500    -999.2500    -999.2500    -999.2500    1574.6680     419.8995      77.7500       0.0810       3.7655       2.3935
   2533.4978       7.3320       0.1030    -999.2500    -999.2500    -999.2500    -999.2500    1579.2910     419.4560      77.7500       0.0810       3.7610       2.3890
   2533.6504       7.3320       0.0950    -999.2500    -999.2500    -999.2500    -999.2500    1575.8070     419.5815      77.7500       0.0810       3.6897       2.3825
   2533.8027       7.3320       0.0870    -999.2500    -999.2500    -999.2500    -999.2500    1572.3530     419.7060      77.7500       0.0810       3.6190       2.3760
   2533.9551       7.3320       0.0870    -999.2500    -999.2500    -999.2500    -999.2500    1575.4215     419.6899      77.7500       0.0810       3.5085       2.3760
   2534.1074       7.3320       0.0870    -999.2500    -999.2500    -999.2500    -999.2500    1578.4640     419.6740      77.7500       0.0810       3.3990       2.3760
   2534.2600       7.3320       0.0880    -999.2500    -999.2500    -999.2500    -999.2500    1575.8777     419.3773      77.7500       0.0810       3.4025       2.3785
   2534.4124       7.3320       0.0890    -999.2500    -999.2500    -999.2500    -999.2500    1573.3130     419.0830      77.7500       0.0810       3.4060       2.3810
   2534.5647       7.3320       0.0920    -999.2500    -999.2500    -999.2500    -999.2500    1573.3351     419.6970      77.7500       0.0810       3.4622       2.3875
   2534.7170       7.3320       0.0950    -999.2500    -999.2500    -999.2500    -999.2500    1573.3571     420.3060      77.7500       0.0810       3.5180       2.3940
   2534.8696       7.3320       0.1000    -999.2500    -999.2500    -999.2500    -999.2500    1573.7482     420.2036      77.7500       0.0810       3.5225       2.3940
   2535.0220       7.3320       0.1050    -999.2500    -999.2500    -999.2500    -999.2500    1574.1360     420.1020      77.7500       0.0810       3.5270       2.3940
   2535.1743       7.3320       0.1050    -999.2500    -999.2500    -999.2500    -999.2500    1575.1345     420.8415      77.7500       0.0810       3.5546       2.3905
   2535.3267       7.3320       0.1050    -999.2500    -999.2500    -999.2500    -999.2500    1576.1250     421.5750      77.7500       0.0810       3.5820       2.3870
   2535.4790       7.3320       0.1045    -999.2500    -999.2500    -999.2500    -999.2500    1576.8303     420.4220      77.7500       0.0810       3.6191       2.3875
   2535.6316       7.3320       0.1040    -999.2500    -999.2500    -999.2500    -999.2500    1577.5300     419.2780      77.7500       0.0810       3.6560       2.3880
   2535.7839       7.3320       0.0990    -999.2500    -999.2500    -999.2500    -999.2500    1577.4694     419.3538      77.7500       0.0810       3.7218       2.3835
   2535.9363       7.3320       0.0940    -999.2500    -999.2500    -999.2500    -999.2500    1577.4091     419.4290      77.7500       0.0810       3.7870       2.3790
   2536.0886       7.3320       0.0990    -999.2500    -999.2500    -999.2500    -999.2500    1573.6121     420.5151      77.7500       0.0810       3.7845       2.3810
   2536.2412       7.3320       0.1040    -999.2500    -999.2500    -999.2500    -999.2500    1569.8440     421.5930      77.7500       0.0806       3.7820       2.3830
   2536.3936       7.0745       0.0915    -999.2500    -924.3510    -999.2500    -926.3150    1569.9951     421.5840      77.7500       0.0728       1.9607       2.3679
