#------------------------------------------------------------------------------
#
#   Created by  : [OpenWorks] Log Export Utility (LEXP)
#   Created on  : 2016-05-23 17:52:10
#   Project     : CANT971
#   User        : R5K
#   Interpreter : PEP
#
#------------------------------------------------------------------------------
~VERSION INFORMATION
VERS. 2.0 : CWLS Log ASCII Standard - version 2.0
WRAP.  NO : One line per depth step
~WELL INFORMATION
#MNEMONIC   .UNIT                                           VALUE :DESCRIPTION
#------------------------------------------------------------------------------
STRT        .M                                           540.0000 :START DEPTH
STOP        .M                                          2444.3904 :STOP DEPTH
STEP        .M                                             0.1524 :STEP
NULL        .                                           -999.2500 :NULL VALUE
COMP        .                                   PEMEX EXPL & PROD :COMPANY
WELL        .                                                1063 :WELL
FLD         .                                           CANTARELL :FIELD
LOC         .                                             UNKNOWN :LOCATION
CNTY        .                                      CD. DEL CARMEN :COUNTY
STAT        .                                            CAMPECHE :STATE
CTRY        .                                              MEXICO :COUNTRY
SRVC        .                                             UNKNOWN :SERVICE COMPANY
DATE        .                                             UNKNOWN :LOG DATE
UWI         .                                          3060000211 :UNIQUE WELL ID
XCOORD      .                                       598505.130000 :SURFACE X
YCOORD      .                                      2149276.180000 :SURFACE Y
LAT         .                                           19.436588 :LATITUDE
LON         .                                          -92.061656 :LONGITUDE
ELEV        .M                                            27.6000 :SURFACE ELEV
ELEV_TYPE   .                                                  KB :ELEV TYPE
~CURVE INFORMATION
#MNEMONIC.UNIT        API CODE       : CURVE DESCRIPTION
#------------------------------------------------------------------------------
DEPTH    .M                          : Measured Depth
CALI     .inches      UNKNOWN        : CALI:litodensidad:rC:NONE:v0 (auto-composite)
DRHO     .g/cm3       UNKNOWN        : DRHO:litodensidad:rC:NONE:v0 (auto-composite)
DT       .us/ft       UNKNOWN        : DT:DT:rC:NONE:v0 (auto-composite)
LLD      .UNKNOWN     UNKNOWN        : LLD:UNKNOWN:rC:NONE:v0 (auto-composite)
MSFL     .UNKNOWN     UNKNOWN        : MSFL:UNKNOWN:rC:NONE:v0 (auto-composite)
NPHI     .v/v_decimal UNKNOWN        : NPHI:NPHI:rC:NONE:v0 (auto-composite)
RHOB     .g/cm3       UNKNOWN        : RHOB:litodensidad:rC:NONE:v0 (auto-composite)
SIGM     .UNKNOWN     UNKNOWN        : SIGM:UNKNOWN:rC:NONE:v0 (auto-composite)
SP       .UNKNOWN     UNKNOWN        : SP:UNKNOWN:rC:NONE:v0 (auto-composite)
TAU      .UNKNOWN     UNKNOWN        : TAU:UNKNOWN:rC:NONE:v0 (auto-composite)
~A     DEPTH         CALI         DRHO           DT          LLD         MSFL         NPHI         RHOB         SIGM           SP          TAU
# ...
   1709.2128       8.9043      -0.2507    -999.2500     734.6525    -999.2500       9.4338    -999.2500      -6.8459       0.0000       0.0000
   1709.3652       8.9040      -0.2510    -999.2500     765.0984    -999.2500      10.1147    -999.2500      -5.6721       0.0000       0.0000
   1709.5176       8.9040      -0.2510    -999.2500     796.5260    -999.2500      10.0412    -999.2500      -4.5497       0.0000       0.0000
   1709.6700       8.9038      -0.2510    -999.2500     832.0117    -999.2500       9.8813    -999.2500      -3.6396       0.0000       0.0000
   1709.8224       8.9033      -0.2510    -999.2500     848.3295    -999.2500       9.5228    -999.2500      -2.8265       0.0000       0.0000
   1709.9749       8.9030      -0.2510    -999.2500     787.7486    -999.2500       9.1087    -999.2500      -2.4028       0.0000       0.0000
   1710.1272       8.9030      -0.2510    -999.2500     718.6538    -999.2500       8.5667    -999.2500      -2.0070       0.0000       0.0000
   1710.2795       8.9028      -0.2510    -999.2500     616.5563    -999.2500       7.8269    -999.2500      -1.7192       0.0000       0.0000
   1710.4320       8.9023      -0.2510    -999.2500     541.2593    -999.2500       6.6324    -999.2500      -1.4459       0.0000       0.0000
   1710.5844       8.9020      -0.2510    -999.2500     566.4109    -999.2500       5.8271    -999.2500      -1.2269       0.0000       0.0000
   1710.7368       8.9020      -0.2510    -999.2500     580.5535    -999.2500       5.9166    -999.2500      -1.0644       0.0000       0.0000
   1710.8892       8.9018      -0.2510    -999.2500     554.5850    -999.2500       6.4002    -999.2500      -1.1080       0.0000       0.0000
   1711.0416       8.9013      -0.2510    -999.2500     511.5605    -999.2500       7.7902    -999.2500      -1.2089       0.0000       0.0000
   1711.1940       8.9010      -0.2510    -999.2500     408.3813    -999.2500       8.7448    -999.2500      -1.5116       0.0000       0.0000
   1711.3464       8.9010      -0.2510    -999.2500     310.7944    -999.2500       8.7013    -999.2500      -1.8391       0.0000       0.0000
   1711.4988       8.9008      -0.2510    -999.2500     232.3986    -999.2500       8.6200    -999.2500      -2.2518       0.0000       0.0000
   1711.6512       8.9003      -0.2510    -999.2500     167.8648    -999.2500       8.4520    -999.2500      -2.6382       0.0000       0.0000
   1711.8036       8.9000      -0.2510    -999.2500     149.4287    -999.2500       8.2712    -999.2500      -2.9375       0.0000       0.0000
   1711.9561       8.9000      -0.2510    -999.2500     149.2452    -999.2500       8.0612    -999.2500      -3.1622       0.0000       0.0000
   1712.1084       8.9000      -0.2510    -999.2500     207.9113    -999.2500       7.5994    -999.2500      -3.1462       0.0000       0.0000
   1712.2607       8.9000      -0.2510    -999.2500     284.6460    -999.2500       6.5600    -999.2500      -3.1639       0.0000       0.0000
   1712.4132       8.8998      -0.2510    -999.2500     418.1376    -999.2500       5.8404    -999.2500      -3.2877       0.0000       0.0000
   1712.5656       8.8993      -0.2510    -999.2500     566.0090    -999.2500       5.8549    -999.2500      -3.4427       0.0000       0.0000
   1712.7180       8.8990      -0.2510    -999.2500     757.7139    -999.2500       6.1040    -999.2500      -3.6924       0.0000       0.0000
   1712.8704       8.8990      -0.2510    -999.2500     875.0148    -999.2500       6.8914    -999.2500      -3.8401       0.0000       0.0000
   1713.0228       8.8988      -0.2510    -999.2500     772.1252    -999.2500       9.2374    -999.2500      -3.6863       0.0000       0.0000
   1713.1752       8.8983      -0.2510    -999.2500     719.3382    -999.2500      15.1617    -999.2500      -3.5306       0.0000       0.0000
   1713.3276       8.8980      -0.2510    -999.2500     811.1667    -999.2500      19.2327    -999.2500      -3.3696       0.0000       0.0000
   1713.4800       8.8980      -0.2510    -999.2500     876.9775    -999.2500      19.0472    -999.2500      -3.3175       0.0000       0.0000
   1713.6324       8.8978      -0.2510    -999.2500     869.8236    -999.2500      18.5209    -999.2500      -3.5706       0.0000       0.0000
   1713.7848       8.8973      -0.2510    -999.2500     859.1524    -999.2500      17.2114    -999.2500      -3.8935       0.0000       0.0000
   1713.9373       8.8968      -0.2510    -999.2500     838.8547    -999.2500      15.3935    -999.2500      -4.4074       0.0000       0.0000
   1714.0896       8.8963      -0.2510    -999.2500     819.2059    -999.2500      12.4071    -999.2500      -4.9308       0.0000       0.0000
   1714.2419       8.8960      -0.2510    -999.2500     801.2842    -999.2500      10.3771    -999.2500      -5.4793       0.0000       0.0000
   1714.3944       8.8960      -0.2510    -999.2500     776.9805    -999.2500      10.5456    -999.2500      -5.9953       0.0000       0.0000
   1714.5468       8.8960      -0.2510    -999.2500     736.1582    -999.2500      10.2626    -999.2500      -6.4268       0.0000       0.0000
   1714.6992       8.8960      -0.2510    -999.2500     685.9175    -999.2500       8.9416    -999.2500      -6.8207       0.0000       0.0000
   1714.8516       8.8958      -0.2510    -999.2500     611.8647    -999.2500       8.0276    -999.2500      -7.1195       0.0000       0.0000
   1715.0040       8.8953      -0.2510    -999.2500     561.2985    -999.2500       8.0461    -999.2500      -7.4215       0.0000       0.0000
   1715.1564       8.8950      -0.2510    -999.2500     568.5226    -999.2500       8.2470    -999.2500      -7.7314       0.0000       0.0000
   1715.3088       8.8950      -0.2510    -999.2500     585.0812    -999.2500       8.8660    -999.2500      -8.0383       0.0000       0.0000
   1715.4612       8.8948      -0.2510    -999.2500     623.9999    -999.2500       9.2625    -999.2500      -8.3380       0.0000       0.0000
   1715.6136       8.8943      -0.2510    -999.2500     668.2733    -999.2500       9.1490    -999.2500      -8.6365       0.0000       0.0000
   1715.7660       8.8940      -0.2510    -999.2500     725.0847    -999.2500       8.9452    -999.2500      -8.9323       0.0000       0.0000
   1715.9185       8.8940      -0.2510    -999.2500     756.9327    -999.2500       8.5342    -999.2500      -9.2954       0.0000       0.0000
   1716.0708       8.8938      -0.2510    -999.2500     731.8431    -999.2500       8.6317    -999.2500      -9.8118       0.0000       0.0000
   1716.2231       8.8933      -0.2510    -999.2500     678.5150    -999.2500       9.8957    -999.2500     -10.2366       0.0000       0.0000
   1716.3756       8.8930      -0.2510    -999.2500     562.4347    -999.2500      10.5951    -999.2500     -10.4576       0.0000       0.0000
   1716.5280       8.8930      -0.2510    -999.2500     498.1110    -999.2500       9.9991    -999.2500     -10.6019       0.0000       0.0000
   1716.6804       8.8928      -0.2510    -999.2500     546.2911    -999.2500       9.6363    -999.2500     -10.5793       0.0000       0.0000
   1716.8328       8.8923      -0.2510    -999.2500     564.5665    -999.2500       9.8088    -999.2500     -10.5253       0.0000       0.0000
   1716.9852       8.8920      -0.2510    -999.2500     519.4791    -999.2500       9.9264    -999.2500     -10.4045       0.0000       0.0000
   1717.1376       8.8920      -0.2510    -999.2500     451.1954    -999.2500       9.9179    -999.2500     -10.4259       0.0000       0.0000
   1717.2900       8.8918      -0.2510    -999.2500     334.8173    -999.2500       9.8415    -999.2500     -10.7423       0.0000       0.0000
   1717.4424       8.8913      -0.2510    -999.2500     250.7937    -999.2500       9.6090    -999.2500     -11.1403       0.0000       0.0000
   1717.5948       8.8910      -0.2510    -999.2500     232.1871    -999.2500       9.2552    -999.2500     -11.7034       0.0000       0.0000
