#------------------------------------------------------------------------------
#
#   Created by  : [OpenWorks] Log Export Utility (LEXP)
#   Created on  : 2016-05-23 17:52:10
#   Project     : CANT971
#   User        : R5K
#   Interpreter : PEP
#
#------------------------------------------------------------------------------
~VERSION INFORMATION
VERS. 2.0 : CWLS Log ASCII Standard - version 2.0
WRAP.  NO : One line per depth step
~WELL INFORMATION
#MNEMONIC   .UNIT                                           VALUE :DESCRIPTION
#------------------------------------------------------------------------------
STRT        .M                                           540.0000 :START DEPTH
STOP        .M                                          2444.3904 :STOP DEPTH
STEP        .M                                             0.1524 :STEP
NULL        .                                           -999.2500 :NULL VALUE
COMP        .                                   PEMEX EXPL & PROD :COMPANY
WELL        .                                                1063 :WELL
FLD         .                                           CANTARELL :FIELD
LOC         .                                             UNKNOWN :LOCATION
CNTY        .                                      CD. DEL CARMEN :COUNTY
STAT        .                                            CAMPECHE :STATE
CTRY        .                                              MEXICO :COUNTRY
SRVC        .                                             UNKNOWN :SERVICE COMPANY
DATE        .                                             UNKNOWN :LOG DATE
UWI         .                                          3060000211 :UNIQUE WELL ID
XCOORD      .                                       598505.130000 :SURFACE X
YCOORD      .                                      2149276.180000 :SURFACE Y
LAT         .                                           19.436588 :LATITUDE
LON         .                                          -92.061656 :LONGITUDE
ELEV        .M                                            27.6000 :SURFACE ELEV
ELEV_TYPE   .                                                  KB :ELEV TYPE
~CURVE INFORMATION
#MNEMONIC.UNIT        API CODE       : CURVE DESCRIPTION
#------------------------------------------------------------------------------
DEPTH    .M                          : Measured Depth
CALI     .inches      UNKNOWN        : CALI:litodensidad:rC:NONE:v0 (auto-composite)
DRHO     .g/cm3       UNKNOWN        : DRHO:litodensidad:rC:NONE:v0 (auto-composite)
DT       .us/ft       UNKNOWN        : DT:DT:rC:NONE:v0 (auto-composite)
LLD      .UNKNOWN     UNKNOWN        : LLD:UNKNOWN:rC:NONE:v0 (auto-composite)
MSFL     .UNKNOWN     UNKNOWN        : MSFL:UNKNOWN:rC:NONE:v0 (auto-composite)
NPHI     .v/v_decimal UNKNOWN        : NPHI:NPHI:rC:NONE:v0 (auto-composite)
RHOB     .g/cm3       UNKNOWN        : RHOB:litodensidad:rC:NONE:v0 (auto-composite)
SIGM     .UNKNOWN     UNKNOWN        : SIGM:UNKNOWN:rC:NONE:v0 (auto-composite)
SP       .UNKNOWN     UNKNOWN        : SP:UNKNOWN:rC:NONE:v0 (auto-composite)
TAU      .UNKNOWN     UNKNOWN        : TAU:UNKNOWN:rC:NONE:v0 (auto-composite)
~A     DEPTH         CALI         DRHO           DT          LLD         MSFL         NPHI         RHOB         SIGM           SP          TAU
# ...
   1350.7679      12.3483      -0.2510    -999.2500    -999.2500    -999.2500      57.4109    -999.2500    -999.2500       0.0000       0.0000
   1350.9204      12.3480      -0.2510    -999.2500    -999.2500    -999.2500      58.9493    -999.2500    -999.2500       0.0000       0.0000
   1351.0728      12.3480      -0.2510    -999.2500    -999.2500    -999.2500      58.5163    -999.2500    -999.2500       0.0000       0.0000
   1351.2252      12.3478      -0.2510    -999.2500    -999.2500    -999.2500      57.6404    -999.2500    -999.2500       0.0000       0.0000
   1351.3776      12.3473      -0.2510    -999.2500    -999.2500    -999.2500      55.7399    -999.2500    -999.2500       0.0000       0.0000
   1351.5300      12.3470      -0.2510    -999.2500    -999.2500    -999.2500      54.0193    -999.2500    -999.2500       0.0000       0.0000
   1351.6824      12.3470      -0.2510    -999.2500    -999.2500    -999.2500      52.7149    -999.2500    -999.2500       0.0000       0.0000
   1351.8348      12.3468      -0.2510    -999.2500    -999.2500    -999.2500      51.3934    -999.2500    -999.2500       0.0000       0.0000
   1351.9872      12.3463      -0.2510    -999.2500    -999.2500    -999.2500      50.0324    -999.2500    -999.2500       0.0000       0.0000
   1352.1396      12.3460      -0.2510    -999.2500    -999.2500    -999.2500      49.1775    -999.2500    -999.2500       0.0000       0.0000
   1352.2920      12.3460      -0.2510    -999.2500    -999.2500    -999.2500      49.4940    -999.2500    -999.2500       0.0000       0.0000
   1352.4445      12.3460      -0.2510    -999.2500    -999.2500    -999.2500      50.2914    -999.2500    -999.2500       0.0000       0.0000
   1352.5968      12.3460      -0.2510    -999.2500    -999.2500    -999.2500      52.2026    -999.2500    -999.2500       0.0000       0.0000
   1352.7491      12.3458      -0.2510    -999.2500    -999.2500    -999.2500      54.0368    -999.2500    -999.2500       0.0000       0.0000
   1352.9016      12.3453      -0.2510    -999.2500    -999.2500    -999.2500      55.6932    -999.2500    -999.2500       0.0000       0.0000
   1353.0540      12.3450      -0.2510    -999.2500    -999.2500    -999.2500      56.6206    -999.2500    -999.2500       0.0000       0.0000
   1353.2064      12.3450      -0.2510    -999.2500    -999.2500    -999.2500      55.8652    -999.2500    -999.2500       0.0000       0.0000
   1353.3588      12.3448      -0.2510    -999.2500    -999.2500    -999.2500      54.1338    -999.2500    -999.2500       0.0000       0.0000
   1353.5112      12.3443      -0.2510    -999.2500    -999.2500    -999.2500      50.1489    -999.2500    -999.2500       0.0000       0.0000
   1353.6636      12.3440      -0.2510    -999.2500    -999.2500    -999.2500      48.1525    -999.2500    -999.2500       0.0000       0.0000
   1353.8160      12.3440      -0.2510    -999.2500    -999.2500    -999.2500      50.7489    -999.2500    -999.2500       0.0000       0.0000
   1353.9684      12.3438      -0.2512    -999.2500    -999.2500    -999.2500      52.5287    -999.2500    -999.2500       0.0000       0.0000
   1354.1208      12.3433      -0.2517    -999.2500    -999.2500    -999.2500      52.4217    -999.2500    -999.2500       0.0000       0.0000
   1354.2732      12.3430      -0.2520    -999.2500    -999.2500    -999.2500      52.1489    -999.2500    -999.2500       0.0000       0.0000
   1354.4257      12.3430      -0.2520    -999.2500    -999.2500    -999.2500      51.4929    -999.2500    -999.2500       0.0000       0.0000
   1354.5780      12.3430      -0.2520    -999.2500    -999.2500    -999.2500      51.2082    -999.2500    -999.2500       0.0000       0.0000
   1354.7303      12.3430      -0.2520    -999.2500    -999.2500    -999.2500      51.7816    -999.2500    -999.2500       0.0000       0.0000
   1354.8828      12.3428      -0.2520    -999.2500    -999.2500    -999.2500      52.1639    -999.2500    -999.2500       0.0000       0.0000
   1355.0352      12.3423      -0.2520    -999.2500    -999.2500    -999.2500      52.1039    -999.2500    -999.2500       0.0000       0.0000
   1355.1876      12.3420      -0.2520    -999.2500    -999.2500    -999.2500      51.8786    -999.2500    -999.2500       0.0000       0.0000
   1355.3400      12.3420      -0.2520    -999.2500    -999.2500    -999.2500      51.2712    -999.2500    -999.2500       0.0000       0.0000
   1355.4924      12.3418      -0.2520    -999.2500    -999.2500    -999.2500      50.0372    -999.2500    -999.2500       0.0000       0.0000
   1355.6448      12.3413      -0.2520    -999.2500    -999.2500    -999.2500      47.3538    -999.2500    -999.2500       0.0000       0.0000
   1355.7972      12.3412      -0.2520    -999.2500    -999.2500    -999.2500      45.5230    -999.2500    -999.2500       0.0000       0.0000
   1355.9496      12.3417      -0.2520    -999.2500    -999.2500    -999.2500      45.6655    -999.2500    -999.2500       0.0000       0.0000
   1356.1021      12.3437      -0.2520    -999.2500    -999.2500    -999.2500      45.9927    -999.2500    -999.2500       0.0000       0.0000
   1356.2544      12.3492      -0.2520    -999.2500    -999.2500    -999.2500      46.7477    -999.2500    -999.2500       0.0000       0.0000
   1356.4069      12.3530      -0.2520    -999.2500    -999.2500    -999.2500      46.7419    -999.2500    -999.2500       0.0000       0.0000
   1356.5592      12.3530      -0.2520    -999.2500    -999.2500    -999.2500      44.9743    -999.2500    -999.2500       0.0000       0.0000
   1356.7115      12.4011      -0.2024    -999.2500    -999.2500    -999.2500      44.4770    -999.2500    -999.2500       0.0000       0.0000
   1356.8640      12.5601      -0.0384    -999.2500    -999.2500    -999.2500      46.9114    -999.2500    -999.2500       0.0000       0.0000
   1357.0164      12.8029       0.0752    -999.2500    -999.2500    -999.2500      47.5265    -999.2500    -999.2500       0.0000       0.0000
   1357.1688      13.2394       0.0727    -999.2500    -999.2500    -999.2500      43.9416    -999.2500    -999.2500       0.0000       0.0000
   1357.3212      13.6162       0.0684    -999.2500    -999.2500    -999.2500      41.4983    -999.2500    -999.2500       0.0000       0.0000
   1357.4736      13.8552       0.0599    -999.2500    -999.2500    -999.2500      41.6913    -999.2500    -999.2500       0.0000       0.0000
   1357.6260      14.0851       0.0508    -999.2500    -999.2500    -999.2500      42.5855    -999.2500    -999.2500       0.0000       0.0000
   1357.7784      14.2941       0.0403    -999.2500    -999.2500    -999.2500      45.0994    -999.2500    -999.2500       0.0000       0.0000
   1357.9308      14.5157       0.0286    -999.2500    -999.2500    -999.2500      46.8277    -999.2500    -999.2500       0.0000       0.0000
   1358.0833      14.7662       0.0141    -999.2500    -999.2500    -999.2500      46.7407    -999.2500    -999.2500       0.0000       0.0000
   1358.2356      15.0032       0.0042    -999.2500    -999.2500    -999.2500      46.5707    -999.2500    -999.2500       0.0000       0.0000
   1358.3879      15.2092       0.0047    -999.2500    -999.2500    -999.2500      46.2087    -999.2500    -999.2500       0.0000       0.0000
   1358.5404      15.5807       0.0076    -999.2500    -999.2500    -999.2500      45.0200    -999.2500    -999.2500       0.0000       0.0000
   1358.6927      16.3346       0.0161    -999.2500    -999.2500    -999.2500      41.9201    -999.2500    -999.2500       0.0000       0.0000
   1358.8452      17.3143       0.0215    -999.2500    -999.2500    -999.2500      40.1347    -999.2500    -999.2500       0.0000       0.0000
   1358.9976      18.8157       0.0200    -999.2500    -999.2500    -999.2500      41.3891    -999.2500    -999.2500       0.0000       0.0000
   1359.1500      20.2719       0.0179    -999.2500    -999.2500    -999.2500      41.8226    -999.2500    -999.2500       0.0000       0.0000
