#------------------------------------------------------------------------------
#
#   Created by  : [OpenWorks] Log Export Utility (LEXP)
#   Created on  : 2016-05-11 12:25:19
#   Project     : CANT971
#   User        : R5K
#   Interpreter : PEP
#
#------------------------------------------------------------------------------
~VERSION INFORMATION
VERS. 2.0 : CWLS Log ASCII Standard - version 2.0
WRAP.  NO : One line per depth step
~WELL INFORMATION
#MNEMONIC   .UNIT                                           VALUE :DESCRIPTION
#------------------------------------------------------------------------------
STRT        .M                                          1784.4515 :START DEPTH
STOP        .M                                          2909.3159 :STOP DEPTH
STEP        .M                                             0.1524 :STEP
NULL        .                                           -999.2500 :NULL VALUE
COMP        .                                   PEMEX EXPL & PROD :COMPANY
WELL        .                                               1063D :WELL
FLD         .                                           CANTARELL :FIELD
LOC         .                                             UNKNOWN :LOCATION
CNTY        .                                      CD. DEL CARMEN :COUNTY
STAT        .                                            CAMPECHE :STATE
CTRY        .                                              MEXICO :COUNTRY
SRVC        .                                             UNKNOWN :SERVICE COMPANY
DATE        .                                             UNKNOWN :LOG DATE
UWI         .                                                1000 :UNIQUE WELL ID
XCOORD      .                                       599718.040000 :SURFACE X
YCOORD      .                                      2149967.520000 :SURFACE Y
LAT         .                                           19.442775 :LATITUDE
LON         .                                          -92.050067 :LONGITUDE
ELEV        .M                                            30.0000 :SURFACE ELEV
ELEV_TYPE   .                                                  KB :ELEV TYPE
~CURVE INFORMATION
#MNEMONIC.UNIT        API CODE       : CURVE DESCRIPTION
#------------------------------------------------------------------------------
DEPTH    .M                          : Measured Depth
CALI     .inches      UNKNOWN        : CALI:CALI:rC:NONE:v0 (auto-composite)
DRHO     .g/cm3       UNKNOWN        : DRHO:DRHO:rC:NONE:v0 (auto-composite)
DT       .us/ft       UNKNOWN        : DT:DT:rC:NONE:v0 (auto-composite)
GR       .API         UNKNOWN        : GR:GR:rC:NONE:v0 (auto-composite)
GR-LWD   .UNKNOWN     UNKNOWN        : GR-LWD:registros:rC:NONE:v0 (auto-composite)
LLD      .ohm.m       UNKNOWN        : LLD:LLD:rC:NONE:v0 (auto-composite)
LLD-LWD  .UNKNOWN     UNKNOWN        : LLD-LWD:registros:rC:NONE:v0 (auto-composite)
LLS      .ohm.m       UNKNOWN        : LLS:LLS:rC:NONE:v0 (auto-composite)
LLS-LWD  .UNKNOWN     UNKNOWN        : LLS-LWD:registros:rC:NONE:v0 (auto-composite)
MSFL     .ohm.m       UNKNOWN        : MSFL:MSFL:rC:NONE:v0 (auto-composite)
MSFL-LWD .UNKNOWN     UNKNOWN        : MSFL-LWD:registros:rC:NONE:v0 (auto-composite)
NPHI     .v/v_decimal UNKNOWN        : NPHI:NPHI:rC:NONE:v0 (auto-composite)
PEF      .b/elec      UNKNOWN        : PEF:PEF:rC:NONE:v0 (auto-composite)
RHOB     .g/cm3       UNKNOWN        : RHOB:RHOB:rC:NONE:v0 (auto-composite)
SP       .mV          UNKNOWN        : SP:SP:rC:NONE:v0 (auto-composite)
~A     DEPTH         CALI         DRHO           DT           GR       GR-LWD          LLD      LLD-LWD          LLS      LLS-LWD         MSFL     MSFL-LWD         NPHI          PEF         RHOB           SP
# ...
   2319.3755      12.7890      -0.0130      76.7000      46.8770    -999.2500       6.6650    -999.2500       6.6900    -999.2500      15.7380    -999.2500       0.2220       3.4320       2.4340     -73.8750
   2319.5278      12.7300      -0.0150      80.4000      46.4700    -999.2500       7.4510    -999.2500       7.3990    -999.2500      16.4920    -999.2500       0.2100       3.3680       2.4320     -74.1880
   2319.6804      12.6880      -0.0230      80.6000      43.3000    -999.2500       7.7160    -999.2500       7.7870    -999.2500      16.6780    -999.2500       0.2140       3.4240       2.4280     -74.6880
   2319.8328      12.7540      -0.0250      80.0000      43.9790    -999.2500       7.9030    -999.2500       8.0420    -999.2500      17.9560    -999.2500       0.2170       3.6770       2.4190     -75.0630
   2319.9851      12.7760      -0.0240      83.2000      43.4430    -999.2500       8.1230    -999.2500       8.2270    -999.2500      17.7780    -999.2500       0.2160       3.6630       2.4110     -75.3130
   2320.1375      12.7990      -0.0200      80.2000      46.0080    -999.2500       8.1360    -999.2500       8.3550    -999.2500      16.4600    -999.2500       0.2010       3.5640       2.4130     -75.4380
   2320.2900      12.7450      -0.0150      79.3000      44.9580    -999.2500       8.1750    -999.2500       8.3750    -999.2500      17.8610    -999.2500       0.2060       3.5310       2.4210     -75.7500
   2320.4424      12.6580      -0.0060      79.2000      42.1240    -999.2500       8.0840    -999.2500       8.3490    -999.2500      16.9430    -999.2500       0.2020       3.6480       2.4440     -75.8130
   2320.5947      12.6650      -0.0010      78.7000      40.3450    -999.2500       8.2070    -999.2500       8.4890    -999.2500      18.4590    -999.2500       0.2040       3.6570       2.4730     -76.3130
   2320.7471      12.5900      -0.0000      76.8000      40.3320    -999.2500       8.3330    -999.2500       8.6270    -999.2500      18.7470    -999.2500       0.2010       3.7220       2.4820     -76.6880
   2320.8997      12.5900      -0.0050      76.9000      44.6770    -999.2500       8.3960    -999.2500       8.7220    -999.2500      18.6550    -999.2500       0.2020       3.5030       2.4850     -77.0630
   2321.0520      12.6240      -0.0070      76.6000      45.8770    -999.2500       8.5390    -999.2500       8.9300    -999.2500      18.7610    -999.2500       0.2010       3.5410       2.4760     -77.4380
   2321.2043      12.6260      -0.0070      77.3000      43.6290    -999.2500       8.6890    -999.2500       9.1400    -999.2500      19.1230    -999.2500       0.1980       3.5060       2.4810     -78.0000
   2321.3567      12.5860      -0.0080      77.3000      41.1810    -999.2500       8.7300    -999.2500       9.2370    -999.2500      20.8380    -999.2500       0.2030       3.6210       2.4770     -78.5000
   2321.5090      12.5690      -0.0070      75.5000      43.1780    -999.2500       8.6860    -999.2500       9.2870    -999.2500      19.5970    -999.2500       0.2050       3.5710       2.4730     -78.5000
   2321.6616      12.5540      -0.0050      75.8000      45.6420    -999.2500       8.7520    -999.2500       9.3890    -999.2500      19.5390    -999.2500       0.2030       3.5200       2.4710     -78.2500
   2321.8140      12.5180      -0.0050      74.7000      48.2480    -999.2500       8.8120    -999.2500       9.4670    -999.2500      18.4290    -999.2500       0.2030       3.4050       2.4760     -78.6250
   2321.9663      12.4340      -0.0060      76.1000      48.3280    -999.2500       8.6540    -999.2500       9.4070    -999.2500      19.0460    -999.2500       0.1960       3.4020       2.4830     -79.0630
   2322.1187      12.4820      -0.0080      75.2000      48.6670    -999.2500       8.6760    -999.2500       9.4080    -999.2500      18.0070    -999.2500       0.2030       3.4990       2.4900     -79.4380
   2322.2712      12.4230      -0.0070      73.9000      45.0580    -999.2500       8.7900    -999.2500       9.5300    -999.2500      19.1900    -999.2500       0.2050       3.6180       2.4970     -79.6880
   2322.4236      12.3770      -0.0090      72.8000      45.8970    -999.2500       8.7950    -999.2500       9.5750    -999.2500      18.9780    -999.2500       0.2040       3.6840       2.5010     -79.9380
   2322.5759      12.3130      -0.0120      72.4000      47.4450    -999.2500       8.8710    -999.2500       9.6770    -999.2500      21.4840    -999.2500       0.1930       3.6740       2.5120     -80.2500
   2322.7283      12.2930      -0.0110      71.2000      49.8700    -999.2500       9.0220    -999.2500       9.9860    -999.2500      19.9780    -999.2500       0.1910       3.6480       2.5250     -80.3750
   2322.8809      12.3000      -0.0110      70.7000      52.8040    -999.2500       9.2790    -999.2500      10.1730    -999.2500      20.2330    -999.2500       0.1870       3.6070       2.5280     -80.5000
   2323.0332      12.2550      -0.0110      71.7000      51.4860    -999.2500       9.3980    -999.2500      10.4920    -999.2500      23.1730    -999.2500       0.1820       3.5750       2.5280     -80.6250
   2323.1855      12.2310      -0.0100      71.5000      50.7840    -999.2500       9.7590    -999.2500      10.8230    -999.2500      23.9170    -999.2500       0.1690       3.4580       2.5220     -80.7500
   2323.3379      12.1860      -0.0100      72.6000      45.1020    -999.2500       9.8340    -999.2500      10.9490    -999.2500      24.4470    -999.2500       0.1680       3.4150       2.5110     -80.6250
   2323.4902      12.1430      -0.0090      74.4000      44.7790    -999.2500       9.7570    -999.2500      10.9160    -999.2500      20.7340    -999.2500       0.1770       3.4520       2.4960     -80.5000
   2323.6428      12.0710      -0.0070      74.7000      45.6570    -999.2500       9.5850    -999.2500      10.7940    -999.2500      20.1130    -999.2500       0.1840       3.4490       2.4760     -80.4380
   2323.7952      12.0430      -0.0050      75.0000      47.6030    -999.2500       9.3170    -999.2500      10.5800    -999.2500      18.7570    -999.2500       0.1850       3.4990       2.4660     -80.3130
   2323.9475      12.0650      -0.0060      75.4000      47.8180    -999.2500       9.2300    -999.2500      10.4890    -999.2500      19.4440    -999.2500       0.1840       3.3310       2.4570     -79.9380
   2324.0999      12.0080       0.0000      74.7000      50.9300    -999.2500       9.1390    -999.2500      10.4450    -999.2500      19.7450    -999.2500       0.1860       3.2970       2.4640     -79.6880
   2324.2524      11.9830      -0.0030      75.9000      48.8540    -999.2500       9.2310    -999.2500      10.4470    -999.2500      20.8160    -999.2500       0.1910       3.3090       2.4650     -79.5630
   2324.4048      11.9670      -0.0060      76.9000      49.3090    -999.2500       9.1420    -999.2500      10.4400    -999.2500      20.1140    -999.2500       0.1890       3.3940       2.4630     -79.1880
   2324.5571      11.9370      -0.0110      76.6000      48.4540    -999.2500       9.1450    -999.2500      10.4210    -999.2500      19.1900    -999.2500       0.1940       3.5370       2.4490     -78.3130
   2324.7095      11.8680      -0.0140      76.7000      49.2980    -999.2500       9.0310    -999.2500      10.3310    -999.2500      18.7990    -999.2500       0.1930       3.6430       2.4300     -78.0000
   2324.8618      11.8490      -0.0180      77.2000      48.0520    -999.2500       8.9130    -999.2500      10.1860    -999.2500      17.9900    -999.2500       0.1880       3.7300       2.4210     -78.1880
   2325.0144      11.8790      -0.0120      77.3000      43.0220    -999.2500       8.6140    -999.2500       9.9370    -999.2500      17.5420    -999.2500       0.1850       3.7000       2.4180     -78.1250
   2325.1667      11.8710      -0.0100      77.5000      45.8140    -999.2500       8.4000    -999.2500       9.6410    -999.2500      15.8170    -999.2500       0.1900       3.5790       2.4280     -77.6250
