#------------------------------------------------------------------------------
#
#   Created by  : [OpenWorks] Log Export Utility (LEXP)
#   Created on  : 2016-05-23 17:52:10
#   Project     : CANT971
#   User        : R5K
#   Interpreter : PEP
#
#------------------------------------------------------------------------------
~VERSION INFORMATION
VERS. 2.0 : CWLS Log ASCII Standard - version 2.0
WRAP.  NO : One line per depth step
~WELL INFORMATION
#MNEMONIC   .UNIT                                           VALUE :DESCRIPTION
#------------------------------------------------------------------------------
STRT        .M                                           540.0000 :START DEPTH
STOP        .M                                          2444.3904 :STOP DEPTH
STEP        .M                                             0.1524 :STEP
NULL        .                                           -999.2500 :NULL VALUE
COMP        .                                   PEMEX EXPL & PROD :COMPANY
WELL        .                                                1063 :WELL
FLD         .                                           CANTARELL :FIELD
LOC         .                                             UNKNOWN :LOCATION
CNTY        .                                      CD. DEL CARMEN :COUNTY
STAT        .                                            CAMPECHE :STATE
CTRY        .                                              MEXICO :COUNTRY
SRVC        .                                             UNKNOWN :SERVICE COMPANY
DATE        .                                             UNKNOWN :LOG DATE
UWI         .                                          3060000211 :UNIQUE WELL ID
XCOORD      .                                       598505.130000 :SURFACE X
YCOORD      .                                      2149276.180000 :SURFACE Y
LAT         .                                           19.436588 :LATITUDE
LON         .                                          -92.061656 :LONGITUDE
ELEV        .M                                            27.6000 :SURFACE ELEV
ELEV_TYPE   .                                                  KB :ELEV TYPE
~CURVE INFORMATION
#MNEMONIC.UNIT        API CODE       : CURVE DESCRIPTION
#------------------------------------------------------------------------------
DEPTH    .M                          : Measured Depth
CALI     .inches      UNKNOWN        : CALI:litodensidad:rC:NONE:v0 (auto-composite)
DRHO     .g/cm3       UNKNOWN        : DRHO:litodensidad:rC:NONE:v0 (auto-composite)
DT       .us/ft       UNKNOWN        : DT:DT:rC:NONE:v0 (auto-composite)
LLD      .UNKNOWN     UNKNOWN        : LLD:UNKNOWN:rC:NONE:v0 (auto-composite)
MSFL     .UNKNOWN     UNKNOWN        : MSFL:UNKNOWN:rC:NONE:v0 (auto-composite)
NPHI     .v/v_decimal UNKNOWN        : NPHI:NPHI:rC:NONE:v0 (auto-composite)
RHOB     .g/cm3       UNKNOWN        : RHOB:litodensidad:rC:NONE:v0 (auto-composite)
SIGM     .UNKNOWN     UNKNOWN        : SIGM:UNKNOWN:rC:NONE:v0 (auto-composite)
SP       .UNKNOWN     UNKNOWN        : SP:UNKNOWN:rC:NONE:v0 (auto-composite)
TAU      .UNKNOWN     UNKNOWN        : TAU:UNKNOWN:rC:NONE:v0 (auto-composite)
~A     DEPTH         CALI         DRHO           DT          LLD         MSFL         NPHI         RHOB         SIGM           SP          TAU
# ...
   2434.6367      11.7915      -0.1348      79.2045      52.5367       2.3603      17.0582       2.4868    -999.2500       0.0000       0.0000
   2434.7893      11.9641      -0.1379      79.4925      52.4511       1.8698      16.9888       2.4612    -999.2500       0.0000       0.0000
   2434.9417      11.9221      -0.1344      79.1746      51.7443       4.7110      16.7829       2.4162    -999.2500       0.0000       0.0000
   2435.0940      11.8702      -0.1329      77.4076      50.7946       8.8545      16.8471       2.4028    -999.2500       0.0000       0.0000
   2435.2463      11.7957      -0.1359      72.3542      49.0120      12.8483      17.5238       2.4608    -999.2500       0.0000       0.0000
   2435.3987      11.8622      -0.1217      65.8400      46.9127      16.7852      17.9876       2.5007    -999.2500       0.0000       0.0000
   2435.5513      12.2475      -0.0688      56.0242      47.6264      14.5965      17.9701       2.4997    -999.2500       0.0000       0.0000
   2435.7036      12.5083      -0.0325      47.7081      49.3803      10.1427      17.9072       2.4952    -999.2500       0.0000       0.0000
   2435.8560      12.4863      -0.0340      42.7948      53.4208       6.9406      17.7411       2.4827    -999.2500       0.0000       0.0000
   2436.0083      12.4181      -0.0391      39.3439      58.2833       4.1884      17.5147       2.4671    -999.2500       0.0000       0.0000
   2436.1609      12.2457      -0.0526      39.1999      57.4226       9.0068      17.1519       2.4446    -999.2500       0.0000       0.0000
   2436.3132      12.0156      -0.0718      39.0894      54.5630      16.4696      14.3403       2.4238    -999.2500       0.0000       0.0000
   2436.4656      11.6544      -0.1038      39.0549      49.3993      13.6459       5.9687       2.4068    -999.2500       0.0000       0.0000
   2436.6179      11.4535      -0.1343      39.0312      43.4473       7.3029       0.1632       2.3766    -999.2500       0.0000       0.0000
   2436.7705      11.6151      -0.1613      39.0317      38.9431       4.3319       0.1637       2.3166    -999.2500       0.0000       0.0000
   2436.9229      11.7250      -0.1829      39.0323      34.9200       2.4813       0.1640       2.2755    -999.2500       0.0000       0.0000
   2437.0752      11.7185      -0.1924      39.0333    -357.7759       1.6478       0.1640       2.2770    -999.2500       0.0000       0.0000
   2437.2275      11.6806      -0.2018      39.0342    -875.8064       1.1424       0.1642       2.2808    -999.2500       0.0000       0.0000
   2437.3799      11.5716      -0.2108      39.0347    -999.2500    -380.9935       0.1647       2.2898    -999.2500       0.0000       0.0000
   2437.5325      11.4018      -0.2195      39.0352    -999.2500    -882.5198       0.1652       2.3026    -999.2500       0.0000       0.0000
   2437.6848      11.0949      -0.2275      39.0357    -999.2500    -999.2500       0.1657       2.3241    -999.2500       0.0000       0.0000
   2437.8372      10.8962      -0.2365      39.0363    -999.2500    -999.2500       0.1662       2.3067    -999.2500       0.0000       0.0000
   2437.9895      10.9428      -0.2480      39.0373    -612.3802    -999.2500       0.1667       2.2011    -612.3802       0.0000       0.0000
   2438.1421      11.0440      -0.2509      39.0382    -111.7684    -999.2500       0.1673       2.1865    -111.7684       0.0000       0.0000
   2438.2944      11.2689      -0.2344      39.0387       0.0000    -999.2500       0.1683       2.3769       0.0000       0.0000       0.0000
   2438.4468      11.4229      -0.2233      39.0392       0.0000    -999.2500       0.1692       2.4949       0.0000       0.0000       0.0000
   2438.5991      11.4159      -0.2243      39.0397       0.0000    -999.2500       0.1697       2.4489       0.0000       0.0000       0.0000
   2438.7517      11.4000      -0.2267      39.0402       0.0000    -999.2500       0.1702       2.3745       0.0000       0.0000       0.0000
   2438.9041      11.3640      -0.2322      39.0407       0.0000    -999.2500       0.1707       2.2361       0.0000       0.0000       0.0000
   2439.0564      11.3173      -0.2384      39.0412       0.0000    -999.2500       0.1713       2.0997       0.0000       0.0000       0.0000
   2439.2087      11.2462      -0.2465      39.0417       0.0000    -999.2500       0.1723       1.9682       0.0000       0.0000       0.0000
   2439.3611      11.1763      -0.2520      39.0423       0.0000    -999.2500       0.1730       1.8785       0.0000       0.0000       0.0000
   2439.5137      11.1088    -999.2500      39.0433       0.0000    -999.2500    -999.2500       1.8835       0.0000       0.0000       0.0000
   2439.6660      11.0620    -999.2500      39.0443       0.0000    -999.2500    -999.2500       1.8973       0.0000       0.0000       0.0000
   2439.8184    -999.2500    -999.2500      39.0453       0.0000    -999.2500    -999.2500       1.9308       0.0000       0.0000       0.0000
   2439.9707    -999.2500    -999.2500      39.0462       0.0000    -999.2500    -999.2500       2.0078       0.0000       0.0000       0.0000
   2440.1233    -999.2500    -999.2500      39.0467    -999.2500    -999.2500    -999.2500       2.1832    -999.2500    -999.2500    -999.2500
   2440.2756    -999.2500    -999.2500      39.0472    -999.2500    -999.2500    -999.2500       2.3857    -999.2500    -999.2500    -999.2500
   2440.4280    -999.2500    -999.2500      39.0477    -999.2500    -999.2500    -999.2500       2.6498    -999.2500    -999.2500    -999.2500
   2440.5803    -999.2500    -999.2500      39.0482    -999.2500    -999.2500    -999.2500       2.8739    -999.2500    -999.2500    -999.2500
   2440.7329    -999.2500    -999.2500      39.0487    -999.2500    -999.2500    -999.2500       3.0075    -999.2500    -999.2500    -999.2500
   2440.8853    -999.2500    -999.2500      39.0493    -999.2500    -999.2500    -999.2500       3.0982    -999.2500    -999.2500    -999.2500
   2441.0376    -999.2500    -999.2500      39.0503    -999.2500    -999.2500    -999.2500       3.0922    -999.2500    -999.2500    -999.2500
   2441.1899    -999.2500    -999.2500      39.0512    -999.2500    -999.2500    -999.2500       3.0834    -999.2500    -999.2500    -999.2500
   2441.3423    -999.2500    -999.2500      39.0517    -999.2500    -999.2500    -999.2500       3.0684    -999.2500    -999.2500    -999.2500
   2441.4949    -999.2500    -999.2500      39.0522    -999.2500    -999.2500    -999.2500       3.0456    -999.2500    -999.2500    -999.2500
   2441.6472    -999.2500    -999.2500      39.0527    -999.2500    -999.2500    -999.2500       3.0051    -999.2500    -999.2500    -999.2500
   2441.7996    -999.2500    -999.2500      39.0532    -999.2500    -999.2500    -999.2500       2.9788    -999.2500    -999.2500    -999.2500
   2441.9519    -999.2500    -999.2500      39.0537    -999.2500    -999.2500    -999.2500       2.9848    -999.2500    -999.2500    -999.2500
   2442.1045    -999.2500    -999.2500      39.0543    -999.2500    -999.2500    -999.2500       2.5304    -999.2500    -999.2500    -999.2500
   2442.2568    -548.1050    -548.1050      39.0553    -999.2500    -999.2500    -548.1050       1.0366    -999.2500    -999.2500    -999.2500
   2442.4092    -464.1838    -464.1838      39.0562    -999.2500    -999.2500    -464.1838       0.0000    -999.2500    -999.2500    -999.2500
   2442.5615    -190.0301    -190.0301      39.0567    -999.2500    -999.2500    -190.0301       0.0000    -999.2500    -999.2500    -999.2500
   2442.7141       0.0000       0.0000      39.0572    -999.2500    -999.2500       0.0000       0.0000    -999.2500    -999.2500    -999.2500
   2442.8665       0.0000       0.0000      39.0577    -999.2500    -999.2500       0.0000       0.0000    -999.2500    -999.2500    -999.2500
   2443.0188       0.0000       0.0000      39.0582    -999.2500    -999.2500       0.0000       0.0000    -999.2500    -999.2500    -999.2500
