#------------------------------------------------------------------------------
#
#   Created by  : [OpenWorks] Log Export Utility (LEXP)
#   Created on  : 2016-05-23 17:52:10
#   Project     : CANT971
#   User        : R5K
#   Interpreter : PEP
#
#------------------------------------------------------------------------------
~VERSION INFORMATION
VERS. 2.0 : CWLS Log ASCII Standard - version 2.0
WRAP.  NO : One line per depth step
~WELL INFORMATION
#MNEMONIC   .UNIT                                           VALUE :DESCRIPTION
#------------------------------------------------------------------------------
STRT        .M                                           540.0000 :START DEPTH
STOP        .M                                          2444.3904 :STOP DEPTH
STEP        .M                                             0.1524 :STEP
NULL        .                                           -999.2500 :NULL VALUE
COMP        .                                   PEMEX EXPL & PROD :COMPANY
WELL        .                                                1063 :WELL
FLD         .                                           CANTARELL :FIELD
LOC         .                                             UNKNOWN :LOCATION
CNTY        .                                      CD. DEL CARMEN :COUNTY
STAT        .                                            CAMPECHE :STATE
CTRY        .                                              MEXICO :COUNTRY
SRVC        .                                             UNKNOWN :SERVICE COMPANY
DATE        .                                             UNKNOWN :LOG DATE
UWI         .                                          3060000211 :UNIQUE WELL ID
XCOORD      .                                       598505.130000 :SURFACE X
YCOORD      .                                      2149276.180000 :SURFACE Y
LAT         .                                           19.436588 :LATITUDE
LON         .                                          -92.061656 :LONGITUDE
ELEV        .M                                            27.6000 :SURFACE ELEV
ELEV_TYPE   .                                                  KB :ELEV TYPE
~CURVE INFORMATION
#MNEMONIC.UNIT        API CODE       : CURVE DESCRIPTION
#------------------------------------------------------------------------------
DEPTH    .M                          : Measured Depth
CALI     .inches      UNKNOWN        : CALI:litodensidad:rC:NONE:v0 (auto-composite)
DRHO     .g/cm3       UNKNOWN        : DRHO:litodensidad:rC:NONE:v0 (auto-composite)
DT       .us/ft       UNKNOWN        : DT:DT:rC:NONE:v0 (auto-composite)
LLD      .UNKNOWN     UNKNOWN        : LLD:UNKNOWN:rC:NONE:v0 (auto-composite)
MSFL     .UNKNOWN     UNKNOWN        : MSFL:UNKNOWN:rC:NONE:v0 (auto-composite)
NPHI     .v/v_decimal UNKNOWN        : NPHI:NPHI:rC:NONE:v0 (auto-composite)
RHOB     .g/cm3       UNKNOWN        : RHOB:litodensidad:rC:NONE:v0 (auto-composite)
SIGM     .UNKNOWN     UNKNOWN        : SIGM:UNKNOWN:rC:NONE:v0 (auto-composite)
SP       .UNKNOWN     UNKNOWN        : SP:UNKNOWN:rC:NONE:v0 (auto-composite)
TAU      .UNKNOWN     UNKNOWN        : TAU:UNKNOWN:rC:NONE:v0 (auto-composite)
~A     DEPTH         CALI         DRHO           DT          LLD         MSFL         NPHI         RHOB         SIGM           SP          TAU
# ...
   1786.0225       8.9533      -0.2550    -999.2500     252.3382    -999.2500      24.1264    -999.2500     -25.5063       0.0000       0.0000
   1786.1748       8.9530      -0.2550    -999.2500     268.5905    -999.2500      23.8602    -999.2500     -25.9945       0.0000       0.0000
   1786.3271       8.9530      -0.2550    -999.2500     283.0616    -999.2500      24.0947    -999.2500     -26.5541       0.0000       0.0000
   1786.4796       8.9530      -0.2550    -999.2500     297.1250    -999.2500      24.3603    -999.2500     -27.1402       0.0000       0.0000
   1786.6320       8.9530      -0.2550    -999.2500     310.8164    -999.2500      24.6973    -999.2500     -27.7507       0.0000       0.0000
   1786.7844       8.9528      -0.2550    -999.2500     314.8166    -999.2500      25.0244    -999.2500     -28.3083       0.0000       0.0000
   1786.9368       8.9523      -0.2550    -999.2500     310.1426    -999.2500      25.3289    -999.2500     -28.8188       0.0000       0.0000
   1787.0892       8.9520      -0.2550    -999.2500     293.4187    -999.2500      25.2920    -999.2500     -29.3793       0.0000       0.0000
   1787.2416       8.9520      -0.2550    -999.2500     266.1470    -999.2500      24.4712    -999.2500     -29.9837       0.0000       0.0000
   1787.3940       8.9518      -0.2550    -999.2500     233.7339    -999.2500      22.8088    -999.2500     -30.6803       0.0000       0.0000
   1787.5464       8.9513      -0.2550    -999.2500     196.9053    -999.2500      19.2204    -999.2500     -31.4559       0.0000       0.0000
   1787.6989       8.9510      -0.2550    -999.2500     175.9915    -999.2500      16.7969    -999.2500     -32.1057       0.0000       0.0000
   1787.8512       8.9510      -0.2550    -999.2500     168.4436    -999.2500      17.0399    -999.2500     -32.6497       0.0000       0.0000
   1788.0035       8.9510      -0.2550    -999.2500     162.0438    -999.2500      17.2019    -999.2500     -33.0967       0.0000       0.0000
   1788.1560       8.9510      -0.2550    -999.2500     156.5868    -999.2500      17.1784    -999.2500     -33.4641       0.0000       0.0000
   1788.3083       8.9508      -0.2552    -999.2500     146.2988    -999.2500      17.0882    -999.2500     -33.6058       0.0000       0.0000
   1788.4608       8.9503      -0.2557    -999.2500     132.1185    -999.2500      16.8452    -999.2500     -33.5657       0.0000       0.0000
   1788.6132       8.9500      -0.2560    -999.2500     119.8708    -999.2500      16.5811    -999.2500     -33.4162       0.0000       0.0000
   1788.7656       8.9500      -0.2560    -999.2500     109.1455    -999.2500      16.2686    -999.2500     -33.1805       0.0000       0.0000
   1788.9180       8.9498      -0.2560    -999.2500     106.4498    -999.2500      16.4848    -999.2500     -32.8158       0.0000       0.0000
   1789.0704       8.9493      -0.2560    -999.2500     109.9386    -999.2500      17.9127    -999.2500     -32.3517       0.0000       0.0000
   1789.2228       8.9490      -0.2560    -999.2500     119.2016    -999.2500      18.8778    -999.2500     -31.7710       0.0000       0.0000
   1789.3752       8.9490      -0.2560    -999.2500     132.8268    -999.2500      18.7818    -999.2500     -31.1021       0.0000       0.0000
   1789.5276       8.9490      -0.2560    -999.2500     138.3999    -999.2500      18.5876    -999.2500     -30.1316       0.0000       0.0000
   1789.6801       8.9490      -0.2560    -999.2500     138.0261    -999.2500      18.1681    -999.2500     -28.9383       0.0000       0.0000
   1789.8324       8.9488      -0.2560    -999.2500     133.9901    -999.2500      17.7295    -999.2500     -27.6452       0.0000       0.0000
   1789.9847       8.9483      -0.2560    -999.2500     127.3016    -999.2500      17.2470    -999.2500     -26.2799       0.0000       0.0000
   1790.1372       8.9480      -0.2560    -999.2500     125.3184    -999.2500      17.0981    -999.2500     -25.2279       0.0000       0.0000
   1790.2896       8.9480      -0.2560    -999.2500     126.6666    -999.2500      17.7146    -999.2500     -24.3976       0.0000       0.0000
   1790.4420       8.9478      -0.2560    -999.2500     126.0317    -999.2500      18.0876    -999.2500     -23.5059       0.0000       0.0000
   1790.5944       8.9473      -0.2560    -999.2500     124.0244    -999.2500      17.9016    -999.2500     -22.5716       0.0000       0.0000
   1790.7468       8.9470      -0.2560    -999.2500     118.6855    -999.2500      17.5536    -999.2500     -22.1946       0.0000       0.0000
   1790.8992       8.9470      -0.2560    -999.2500     111.0859    -999.2500      16.8339    -999.2500     -22.1956       0.0000       0.0000
   1791.0516       8.9470      -0.2558    -999.2500     111.9039    -999.2500      16.4069    -999.2500     -22.2337       0.0000       0.0000
   1791.2040       8.9470      -0.2553    -999.2500     118.3031    -999.2500      16.6499    -999.2500     -22.2964       0.0000       0.0000
   1791.3564       8.9468      -0.2548    -999.2500     139.2308    -999.2500      17.0092    -999.2500     -22.4630       0.0000       0.0000
   1791.5088       8.9463      -0.2543    -999.2500     169.5708    -999.2500      17.6347    -999.2500     -22.6971       0.0000       0.0000
   1791.6613       8.9460      -0.2538    -999.2500     196.1391    -999.2500      17.7218    -999.2500     -22.9640       0.0000       0.0000
   1791.8136       8.9460      -0.2533    -999.2500     220.3121    -999.2500      16.5763    -999.2500     -23.2518       0.0000       0.0000
   1791.9659       8.9460      -0.2528    -999.2500     207.5829    -999.2500      15.8667    -999.2500     -23.6015       0.0000       0.0000
   1792.1184       8.9460      -0.2523    -999.2500     171.9601    -999.2500      16.1552    -999.2500     -23.9896       0.0000       0.0000
   1792.2708       8.9458      -0.2520    -999.2500     159.4886    -999.2500      16.5903    -999.2500     -24.4253       0.0000       0.0000
   1792.4232       8.9453      -0.2520    -999.2500     161.0458    -999.2500      17.3613    -999.2500     -24.8899       0.0000       0.0000
   1792.5756       8.9450      -0.2520    -999.2500     166.3866    -999.2500      18.0464    -999.2500     -25.3166       0.0000       0.0000
   1792.7280       8.9450      -0.2520    -999.2500     173.9741    -999.2500      18.5349    -999.2500     -25.7207       0.0000       0.0000
   1792.8804       8.9448      -0.2522    -999.2500     202.5865    -999.2500      19.2472    -999.2500     -26.2557       0.0000       0.0000
   1793.0328       8.9443      -0.2527    -999.2500     243.3903    -999.2500      20.4727    -999.2500     -26.8667       0.0000       0.0000
   1793.1852       8.9440      -0.2530    -999.2500     293.0725    -999.2500      21.1851    -999.2500     -27.4998       0.0000       0.0000
   1793.3376       8.9440      -0.2530    -999.2500     347.7988    -999.2500      20.7211    -999.2500     -28.1456       0.0000       0.0000
   1793.4900       8.9440      -0.2530    -999.2500     362.8206    -999.2500      20.0561    -999.2500     -28.4170       0.0000       0.0000
   1793.6425       8.9440      -0.2530    -999.2500     355.8227    -999.2500      18.9301    -999.2500     -28.4806       0.0000       0.0000
   1793.7948       8.9438      -0.2530    -999.2500     368.6562    -999.2500      17.8787    -999.2500     -28.5726       0.0000       0.0000
   1793.9471       8.9433      -0.2530    -999.2500     392.2246    -999.2500      16.9982    -999.2500     -28.6798       0.0000       0.0000
   1794.0996       8.9430      -0.2530    -999.2500     452.1929    -999.2500      16.2956    -999.2500     -29.0371       0.0000       0.0000
   1794.2520       8.9430      -0.2530    -999.2500     531.4576    -999.2500      16.0011    -999.2500     -29.5270       0.0000       0.0000
   1794.4044       8.9428      -0.2530    -999.2500     661.5831    -999.2500      15.3754    -999.2500     -29.8691       0.0000       0.0000
