#------------------------------------------------------------------------------
#
#   Created by  : [OpenWorks] Log Export Utility (LEXP)
#   Created on  : 2016-05-23 17:52:10
#   Project     : CANT971
#   User        : R5K
#   Interpreter : PEP
#
#------------------------------------------------------------------------------
~VERSION INFORMATION
VERS. 2.0 : CWLS Log ASCII Standard - version 2.0
WRAP.  NO : One line per depth step
~WELL INFORMATION
#MNEMONIC   .UNIT                                           VALUE :DESCRIPTION
#------------------------------------------------------------------------------
STRT        .M                                           540.0000 :START DEPTH
STOP        .M                                          2444.3904 :STOP DEPTH
STEP        .M                                             0.1524 :STEP
NULL        .                                           -999.2500 :NULL VALUE
COMP        .                                   PEMEX EXPL & PROD :COMPANY
WELL        .                                                1063 :WELL
FLD         .                                           CANTARELL :FIELD
LOC         .                                             UNKNOWN :LOCATION
CNTY        .                                      CD. DEL CARMEN :COUNTY
STAT        .                                            CAMPECHE :STATE
CTRY        .                                              MEXICO :COUNTRY
SRVC        .                                             UNKNOWN :SERVICE COMPANY
DATE        .                                             UNKNOWN :LOG DATE
UWI         .                                          3060000211 :UNIQUE WELL ID
XCOORD      .                                       598505.130000 :SURFACE X
YCOORD      .                                      2149276.180000 :SURFACE Y
LAT         .                                           19.436588 :LATITUDE
LON         .                                          -92.061656 :LONGITUDE
ELEV        .M                                            27.6000 :SURFACE ELEV
ELEV_TYPE   .                                                  KB :ELEV TYPE
~CURVE INFORMATION
#MNEMONIC.UNIT        API CODE       : CURVE DESCRIPTION
#------------------------------------------------------------------------------
DEPTH    .M                          : Measured Depth
CALI     .inches      UNKNOWN        : CALI:litodensidad:rC:NONE:v0 (auto-composite)
DRHO     .g/cm3       UNKNOWN        : DRHO:litodensidad:rC:NONE:v0 (auto-composite)
DT       .us/ft       UNKNOWN        : DT:DT:rC:NONE:v0 (auto-composite)
LLD      .UNKNOWN     UNKNOWN        : LLD:UNKNOWN:rC:NONE:v0 (auto-composite)
MSFL     .UNKNOWN     UNKNOWN        : MSFL:UNKNOWN:rC:NONE:v0 (auto-composite)
NPHI     .v/v_decimal UNKNOWN        : NPHI:NPHI:rC:NONE:v0 (auto-composite)
RHOB     .g/cm3       UNKNOWN        : RHOB:litodensidad:rC:NONE:v0 (auto-composite)
SIGM     .UNKNOWN     UNKNOWN        : SIGM:UNKNOWN:rC:NONE:v0 (auto-composite)
SP       .UNKNOWN     UNKNOWN        : SP:UNKNOWN:rC:NONE:v0 (auto-composite)
TAU      .UNKNOWN     UNKNOWN        : TAU:UNKNOWN:rC:NONE:v0 (auto-composite)
~A     DEPTH         CALI         DRHO           DT          LLD         MSFL         NPHI         RHOB         SIGM           SP          TAU
# ...
   1931.1072       8.8823      -0.2520    -999.2500     199.1177    -999.2500       7.2628    -999.2500     -63.8753       0.0000       0.0000
   1931.2596       8.8820      -0.2520    -999.2500     207.3530    -999.2500       5.2019    -999.2500     -62.9843       0.0000       0.0000
   1931.4120       8.8820      -0.2520    -999.2500     215.8559    -999.2500       5.2214    -999.2500     -62.0939       0.0000       0.0000
   1931.5645       8.8818      -0.2520    -999.2500     234.1828    -999.2500       5.7795    -999.2500     -61.2240       0.0000       0.0000
   1931.7168       8.8813      -0.2520    -999.2500     251.5254    -999.2500       7.5704    -999.2500     -60.3017       0.0000       0.0000
   1931.8691       8.8810      -0.2520    -999.2500     239.1561    -999.2500       8.8070    -999.2500     -57.7962       0.0000       0.0000
   1932.0216       8.8810      -0.2520    -999.2500     226.3740    -999.2500       8.7740    -999.2500     -55.2811       0.0000       0.0000
   1932.1740       8.8808      -0.2520    -999.2500     202.7881    -999.2500       8.5086    -999.2500     -52.5119       0.0000       0.0000
   1932.3264       8.8803      -0.2520    -999.2500     180.6301    -999.2500       7.7131    -999.2500     -49.7703       0.0000       0.0000
   1932.4788       8.8800      -0.2520    -999.2500     190.7632    -999.2500       7.1806    -999.2500     -47.6530       0.0000       0.0000
   1932.6312       8.8800      -0.2520    -999.2500     200.6755    -999.2500       7.2481    -999.2500     -45.5630       0.0000       0.0000
   1932.7836       8.8798      -0.2520    -999.2500     206.1976    -999.2500       7.7940    -999.2500     -44.0178       0.0000       0.0000
   1932.9360       8.8793      -0.2520    -999.2500     209.9362    -999.2500       9.4325    -999.2500     -42.4969       0.0000       0.0000
   1933.0884       8.8790      -0.2520    -999.2500     181.5741    -999.2500      10.4115    -999.2500     -41.4124       0.0000       0.0000
   1933.2408       8.8790      -0.2520    -999.2500     152.6963    -999.2500       9.8845    -999.2500     -40.3430       0.0000       0.0000
   1933.3932       8.8790      -0.2520    -999.2500     115.4705    -999.2500       9.5288    -999.2500     -39.5180       0.0000       0.0000
   1933.5457       8.8790      -0.2520    -999.2500      79.7239    -999.2500       9.5643    -999.2500     -38.7626       0.0000       0.0000
   1933.6980       8.8788      -0.2520    -999.2500      66.0069    -999.2500       9.7386    -999.2500     -39.0429       0.0000       0.0000
   1933.8503       8.8783      -0.2520    -999.2500      53.0048    -999.2500      10.2301    -999.2500     -39.3030       0.0000       0.0000
   1934.0028       8.8780      -0.2520    -999.2500      49.7297    -999.2500      10.5362    -999.2500     -39.2879       0.0000       0.0000
   1934.1552       8.8780      -0.2520    -999.2500      46.3298    -999.2500      10.4187    -999.2500     -39.1984       0.0000       0.0000
   1934.3076       8.8778      -0.2520    -999.2500      41.3680    -999.2500      10.0180    -999.2500     -38.1775       0.0000       0.0000
   1934.4600       8.8773      -0.2520    -999.2500      36.8403    -999.2500       8.9695    -999.2500     -37.2232       0.0000       0.0000
   1934.6124       8.8770      -0.2520    -999.2500      37.3903    -999.2500       8.2630    -999.2500     -37.0477       0.0000       0.0000
   1934.7648       8.8770      -0.2520    -999.2500      38.0842    -999.2500       8.3385    -999.2500     -36.8416       0.0000       0.0000
   1934.9172       8.8768      -0.2520    -999.2500      40.3405    -999.2500       8.6071    -999.2500     -36.3037       0.0000       0.0000
   1935.0696       8.8763      -0.2520    -999.2500      42.7224    -999.2500       9.3176    -999.2500     -35.7264       0.0000       0.0000
   1935.2220       8.8760      -0.2520    -999.2500      46.3776    -999.2500       9.7959    -999.2500     -34.7516       0.0000       0.0000
   1935.3744       8.8760      -0.2520    -999.2500      49.9188    -999.2500       9.7429    -999.2500     -33.7663       0.0000       0.0000
   1935.5269       8.8758      -0.2522    -999.2500      52.3696    -999.2500      10.1187    -999.2500     -32.6803       0.0000       0.0000
   1935.6792       8.8753      -0.2527    -999.2500      54.2419    -999.2500      11.4762    -999.2500     -31.6234       0.0000       0.0000
   1935.8315       8.8750      -0.2530    -999.2500      50.9146    -999.2500      12.4145    -999.2500     -30.8282       0.0000       0.0000
   1935.9840       8.8750      -0.2530    -999.2500      46.9585    -999.2500      12.3965    -999.2500     -30.0552       0.0000       0.0000
   1936.1364       8.8750      -0.2530    -999.2500      37.6800    -999.2500      12.3348    -999.2500     -29.4703       0.0000       0.0000
   1936.2888       8.8750      -0.2530    -999.2500      28.7551    -999.2500      12.1733    -999.2500     -28.8975       0.0000       0.0000
   1936.4412       8.8748      -0.2530    -999.2500      22.6793    -999.2500      11.9340    -999.2500     -28.4216       0.0000       0.0000
   1936.5936       8.8743      -0.2530    -999.2500      17.1522    -999.2500      11.5170    -999.2500     -27.9406       0.0000       0.0000
   1936.7460       8.8740      -0.2530    -999.2500      15.8091    -999.2500      11.0810    -999.2500     -27.4199       0.0000       0.0000
   1936.8984       8.8740      -0.2530    -999.2500      14.5720    -999.2500      10.6015    -999.2500     -26.8657       0.0000       0.0000
   1937.0508       8.8738      -0.2530    -999.2500      14.1077    -999.2500       9.8895    -999.2500     -26.0680       0.0000       0.0000
   1937.2032       8.8733      -0.2530    -999.2500      13.7404    -999.2500       8.6466    -999.2500     -25.2905       0.0000       0.0000
   1937.3556       8.8730      -0.2530    -999.2500      14.0442    -999.2500       8.4761    -999.2500     -24.6533       0.0000       0.0000
   1937.5081       8.8730      -0.2530    -999.2500      14.6044    -999.2500      10.7560    -999.2500     -24.0063       0.0000       0.0000
   1937.6604       8.8728      -0.2530    -999.2500      16.8532    -999.2500      12.3233    -999.2500     -23.2951       0.0000       0.0000
   1937.8127       8.8723      -0.2530    -999.2500      19.4125    -999.2500      12.2618    -999.2500     -22.7097       0.0000       0.0000
   1937.9652       8.8720      -0.2530    -999.2500      23.9350    -999.2500      12.0685    -999.2500     -22.9198       0.0000       0.0000
   1938.1176       8.8720      -0.2530    -999.2500      28.1781    -999.2500      11.5740    -999.2500     -23.1467       0.0000       0.0000
   1938.2700       8.8720      -0.2530    -999.2500      30.7337    -999.2500      10.7676    -999.2500     -23.4751       0.0000       0.0000
   1938.4224       8.8720      -0.2530    -999.2500      32.4188    -999.2500       9.2476    -999.2500     -23.7406       0.0000       0.0000
   1938.5748       8.8718      -0.2530    -999.2500      29.0779    -999.2500       9.8943    -999.2500     -23.6428       0.0000       0.0000
   1938.7272       8.8713      -0.2530    -999.2500      25.8830    -999.2500      15.4971    -999.2500     -23.4760       0.0000       0.0000
   1938.8796       8.8710      -0.2530    -999.2500      23.5004    -999.2500      19.3946    -999.2500     -22.9244       0.0000       0.0000
   1939.0320       8.8710      -0.2530    -999.2500      21.6073    -999.2500      19.3901    -999.2500     -22.4061       0.0000       0.0000
   1939.1844       8.8708      -0.2530    -999.2500      22.3250    -999.2500      19.2797    -999.2500     -22.0648       0.0000       0.0000
   1939.3368       8.8703      -0.2530    -999.2500      23.0503    -999.2500      18.9267    -999.2500     -21.8048       0.0000       0.0000
   1939.4893       8.8700      -0.2530    -999.2500      23.8144    -999.2500      18.2212    -999.2500     -21.9632       0.0000       0.0000
