#------------------------------------------------------------------------------
#
#   Created by  : [OpenWorks] Log Export Utility (LEXP)
#   Created on  : 2016-05-11 12:25:19
#   Project     : CANT971
#   User        : R5K
#   Interpreter : PEP
#
#------------------------------------------------------------------------------
~VERSION INFORMATION
VERS. 2.0 : CWLS Log ASCII Standard - version 2.0
WRAP.  NO : One line per depth step
~WELL INFORMATION
#MNEMONIC   .UNIT                                           VALUE :DESCRIPTION
#------------------------------------------------------------------------------
STRT        .M                                          1784.4515 :START DEPTH
STOP        .M                                          2909.3159 :STOP DEPTH
STEP        .M                                             0.1524 :STEP
NULL        .                                           -999.2500 :NULL VALUE
COMP        .                                   PEMEX EXPL & PROD :COMPANY
WELL        .                                               1063D :WELL
FLD         .                                           CANTARELL :FIELD
LOC         .                                             UNKNOWN :LOCATION
CNTY        .                                      CD. DEL CARMEN :COUNTY
STAT        .                                            CAMPECHE :STATE
CTRY        .                                              MEXICO :COUNTRY
SRVC        .                                             UNKNOWN :SERVICE COMPANY
DATE        .                                             UNKNOWN :LOG DATE
UWI         .                                                1000 :UNIQUE WELL ID
XCOORD      .                                       599718.040000 :SURFACE X
YCOORD      .                                      2149967.520000 :SURFACE Y
LAT         .                                           19.442775 :LATITUDE
LON         .                                          -92.050067 :LONGITUDE
ELEV        .M                                            30.0000 :SURFACE ELEV
ELEV_TYPE   .                                                  KB :ELEV TYPE
~CURVE INFORMATION
#MNEMONIC.UNIT        API CODE       : CURVE DESCRIPTION
#------------------------------------------------------------------------------
DEPTH    .M                          : Measured Depth
CALI     .inches      UNKNOWN        : CALI:CALI:rC:NONE:v0 (auto-composite)
DRHO     .g/cm3       UNKNOWN        : DRHO:DRHO:rC:NONE:v0 (auto-composite)
DT       .us/ft       UNKNOWN        : DT:DT:rC:NONE:v0 (auto-composite)
GR       .API         UNKNOWN        : GR:GR:rC:NONE:v0 (auto-composite)
GR-LWD   .UNKNOWN     UNKNOWN        : GR-LWD:registros:rC:NONE:v0 (auto-composite)
LLD      .ohm.m       UNKNOWN        : LLD:LLD:rC:NONE:v0 (auto-composite)
LLD-LWD  .UNKNOWN     UNKNOWN        : LLD-LWD:registros:rC:NONE:v0 (auto-composite)
LLS      .ohm.m       UNKNOWN        : LLS:LLS:rC:NONE:v0 (auto-composite)
LLS-LWD  .UNKNOWN     UNKNOWN        : LLS-LWD:registros:rC:NONE:v0 (auto-composite)
MSFL     .ohm.m       UNKNOWN        : MSFL:MSFL:rC:NONE:v0 (auto-composite)
MSFL-LWD .UNKNOWN     UNKNOWN        : MSFL-LWD:registros:rC:NONE:v0 (auto-composite)
NPHI     .v/v_decimal UNKNOWN        : NPHI:NPHI:rC:NONE:v0 (auto-composite)
PEF      .b/elec      UNKNOWN        : PEF:PEF:rC:NONE:v0 (auto-composite)
RHOB     .g/cm3       UNKNOWN        : RHOB:RHOB:rC:NONE:v0 (auto-composite)
SP       .mV          UNKNOWN        : SP:SP:rC:NONE:v0 (auto-composite)
~A     DEPTH         CALI         DRHO           DT           GR       GR-LWD          LLD      LLD-LWD          LLS      LLS-LWD         MSFL     MSFL-LWD         NPHI          PEF         RHOB           SP
# ...
   2610.6118      11.1550      -0.0030      51.7000      11.4780    -999.2500     238.9630    -999.2500     224.9990    -999.2500     347.6230    -999.2500       0.0640       3.5410       2.6800    -154.1250
   2610.7644      11.3020      -0.0060      47.7000      10.8520    -999.2500     244.2920    -999.2500     228.7950    -999.2500     473.8120    -999.2500       0.0670       3.6260       2.6520    -154.5000
   2610.9167      11.3370      -0.0100      51.2000      10.3160    -999.2500     250.3210    -999.2500     229.3660    -999.2500     526.8830    -999.2500       0.0720       3.7580       2.6390    -154.6880
   2611.0691      11.2370      -0.0070      53.7000      10.0300    -999.2500     314.5330    -999.2500     280.3430    -999.2500     653.4760    -999.2500       0.0660       3.4970       2.6720    -154.8750
   2611.2214      11.2110      -0.0050      48.7000       9.1000    -999.2500     371.5640    -999.2500     324.7690    -999.2500     886.7190    -999.2500       0.0670       3.4620       2.6980    -154.9380
   2611.3740      11.1640      -0.0050      52.2000      11.1220    -999.2500     468.5390    -999.2500     400.2750    -999.2500     599.5420    -999.2500       0.0660       3.3140       2.6900    -155.1880
   2611.5264      11.1620      -0.0080      50.5000      12.3910    -999.2500     625.1050    -999.2500     535.9410    -999.2500    1018.9730    -999.2500       0.0720       3.2780       2.6710    -155.4380
   2611.6787      11.1500      -0.0100      52.0000      13.7860    -999.2500     639.2950    -999.2500     548.7210    -999.2500    1101.0870    -999.2500       0.0660       3.2840       2.6650    -155.5630
   2611.8311      11.2320      -0.0070      53.2000      12.5600    -999.2500     570.8780    -999.2500     498.9730    -999.2500    1558.6379    -999.2500       0.0620       3.2980       2.6890    -155.3750
   2611.9836      11.2870      -0.0110      54.5000      12.7970    -999.2500     509.2820    -999.2500     452.3230    -999.2500    1131.4800    -999.2500       0.0600       3.5870       2.6950    -154.8130
   2612.1360      11.2920      -0.0080      54.1000      11.7660    -999.2500     507.0160    -999.2500     450.8820    -999.2500    1021.9980    -999.2500       0.0630       3.6840       2.7010    -154.5000
   2612.2883      11.2690      -0.0100      56.1000      11.3560    -999.2500     575.9670    -999.2500     516.9140    -999.2500     487.4960    -999.2500       0.0620       3.6980       2.7000    -153.3750
   2612.4407      11.2070       0.0010      53.9000      10.2240    -999.2500     647.4660    -999.2500     587.7240    -999.2500     474.5950    -999.2500       0.0640       3.5420       2.7140    -153.0630
   2612.5930      11.1860       0.0020      53.0000      10.7230    -999.2500     709.5950    -999.2500     656.7340    -999.2500    1608.5050    -999.2500       0.0630       3.2640       2.7330    -153.0630
   2612.7456      11.1930       0.0010      49.1000      13.5280    -999.2500     590.9240    -999.2500     582.3970    -999.2500    1459.5370    -999.2500       0.0650       3.1810       2.7520    -153.0000
   2612.8979      11.2460       0.0040      50.7000      14.7180    -999.2500     355.0390    -999.2500     374.1020    -999.2500     857.5680    -999.2500       0.0660       3.3360       2.7730    -152.6250
   2613.0503      11.2460       0.0060      53.0000      17.8840    -999.2500     206.3270    -999.2500     224.0020    -999.2500     635.8570    -999.2500       0.0720       3.4650       2.7570    -151.3130
   2613.2026      11.2300      -0.0070      55.7000      20.8090    -999.2500     137.2720    -999.2500     151.3420    -999.2500    1212.7800    -999.2500       0.0850       3.5400       2.6720    -150.9380
   2613.3552      11.2150      -0.0080      61.4000      24.5890    -999.2500     108.5930    -999.2500     119.7640    -999.2500     337.7350    -999.2500       0.0890       3.5310       2.6270    -151.0000
   2613.5076      11.1150      -0.0090      60.5000      28.1660    -999.2500      94.0920    -999.2500     104.2740    -999.2500     109.7800    -999.2500       0.0850       3.4220       2.6200    -150.7500
   2613.6599      11.0470      -0.0100      65.1000      26.7260    -999.2500      86.1560    -999.2500      95.5310    -999.2500      87.2790    -999.2500       0.0730       3.5320       2.6600    -151.0630
   2613.8123      11.0980      -0.0060      64.0000      27.7820    -999.2500      84.8820    -999.2500      94.2170    -999.2500     127.6930    -999.2500       0.0690       3.3620       2.7020    -151.3130
   2613.9648      11.1460      -0.0080      65.3000      27.2070    -999.2500      87.2380    -999.2500      97.8100    -999.2500      65.6210    -999.2500       0.0750       3.5020       2.7000    -150.9380
   2614.1172      11.1740      -0.0130      64.7000      28.5250    -999.2500      90.2700    -999.2500     101.6730    -999.2500      79.5810    -999.2500       0.0870       3.5390       2.6720    -150.7500
   2614.2695      11.2460      -0.0120      67.5000      28.7800    -999.2500      94.5480    -999.2500     106.0530    -999.2500      79.2520    -999.2500       0.0870       3.5940       2.6460    -150.5000
   2614.4219      11.2470      -0.0070      66.0170      31.4520    -999.2500      89.3490    -999.2500      99.9170    -999.2500     104.0850    -999.2500       0.0770       3.4820       2.6370    -149.9380
   2614.5742      11.2170      -0.0070      62.7170      36.9170    -999.2500      76.1700    -999.2500      85.5900    -999.2500      90.7860    -999.2500       0.0690       3.3870       2.6470    -149.6250
   2614.7268      11.2320      -0.0030      61.3330      41.7100    -999.2500      66.7110    -999.2500      75.1540    -999.2500      91.1800    -999.2500       0.0630       3.4500       2.6740    -149.5630
   2614.8792      11.3280      -0.0010      61.1330      47.0920    -999.2500      60.3980    -999.2500      68.2480    -999.2500     129.1590    -999.2500       0.0570       3.4380       2.7070    -149.0000
   2615.0315      11.3130      -0.0030      58.2330      46.7640    -999.2500      58.3040    -999.2500      65.7270    -999.2500     130.3910    -999.2500       0.0440       3.5390       2.7340    -148.6250
   2615.1838      11.2080      -0.0050      60.2000      52.4100    -999.2500      54.9990    -999.2500      62.4600    -999.2500     277.0090    -999.2500       0.0420       3.6080       2.7420    -147.7500
   2615.3364      11.2490      -0.0060      62.4000      52.0820    -999.2500      49.4520    -999.2500      56.7340    -999.2500     313.0480    -999.2500       0.0490       3.7280       2.7110    -146.9380
   2615.4888      11.1530      -0.0090      63.5000      54.8500    -999.2500      43.8180    -999.2500      50.5860    -999.2500     117.5390    -999.2500       0.0620       3.6180       2.6660    -146.0630
   2615.6411      11.1140      -0.0070      68.7000      54.2190    -999.2500      36.5670    -999.2500      42.6560    -999.2500      40.3320    -999.2500       0.0730       3.5860       2.6280    -145.3130
   2615.7935      11.1060       0.0010      67.7410      60.1940    -999.2500      28.9720    -999.2500      34.4030    -999.2500      41.9560    -999.2500       0.0960       3.3690       2.6280    -144.3750
   2615.9460      11.0960       0.0050      66.3250      60.8850    -999.2500      26.0180    -999.2500      31.2600    -999.2500      37.2470    -999.2500       0.1080       3.3970       2.6190    -143.8130
   2616.0984      11.1460       0.0030      64.6670      55.9530    -999.2500      29.8320    -999.2500      35.9240    -999.2500      10.5170    -999.2500       0.1270       3.3600       2.6370    -143.6250
   2616.2507      11.1550       0.0020      62.7670      40.8470    -999.2500      35.2020    -999.2500      41.7940    -999.2500      12.7960    -999.2500       0.1290       3.7790       2.6460    -143.0630
   2616.4031      11.1530       0.0040      60.8670      31.7960    -999.2500      47.3580    -999.2500      55.5240    -999.2500      99.5030    -999.2500       0.1220       3.7670       2.6720    -142.5000
