#------------------------------------------------------------------------------
#
#   Created by  : [OpenWorks] Log Export Utility (LEXP)
#   Created on  : 2016-05-11 12:25:19
#   Project     : CANT971
#   User        : R5K
#   Interpreter : PEP
#
#------------------------------------------------------------------------------
~VERSION INFORMATION
VERS. 2.0 : CWLS Log ASCII Standard - version 2.0
WRAP.  NO : One line per depth step
~WELL INFORMATION
#MNEMONIC   .UNIT                                           VALUE :DESCRIPTION
#------------------------------------------------------------------------------
STRT        .M                                          1784.4515 :START DEPTH
STOP        .M                                          2909.3159 :STOP DEPTH
STEP        .M                                             0.1524 :STEP
NULL        .                                           -999.2500 :NULL VALUE
COMP        .                                   PEMEX EXPL & PROD :COMPANY
WELL        .                                               1063D :WELL
FLD         .                                           CANTARELL :FIELD
LOC         .                                             UNKNOWN :LOCATION
CNTY        .                                      CD. DEL CARMEN :COUNTY
STAT        .                                            CAMPECHE :STATE
CTRY        .                                              MEXICO :COUNTRY
SRVC        .                                             UNKNOWN :SERVICE COMPANY
DATE        .                                             UNKNOWN :LOG DATE
UWI         .                                                1000 :UNIQUE WELL ID
XCOORD      .                                       599718.040000 :SURFACE X
YCOORD      .                                      2149967.520000 :SURFACE Y
LAT         .                                           19.442775 :LATITUDE
LON         .                                          -92.050067 :LONGITUDE
ELEV        .M                                            30.0000 :SURFACE ELEV
ELEV_TYPE   .                                                  KB :ELEV TYPE
~CURVE INFORMATION
#MNEMONIC.UNIT        API CODE       : CURVE DESCRIPTION
#------------------------------------------------------------------------------
DEPTH    .M                          : Measured Depth
CALI     .inches      UNKNOWN        : CALI:CALI:rC:NONE:v0 (auto-composite)
DRHO     .g/cm3       UNKNOWN        : DRHO:DRHO:rC:NONE:v0 (auto-composite)
DT       .us/ft       UNKNOWN        : DT:DT:rC:NONE:v0 (auto-composite)
GR       .API         UNKNOWN        : GR:GR:rC:NONE:v0 (auto-composite)
GR-LWD   .UNKNOWN     UNKNOWN        : GR-LWD:registros:rC:NONE:v0 (auto-composite)
LLD      .ohm.m       UNKNOWN        : LLD:LLD:rC:NONE:v0 (auto-composite)
LLD-LWD  .UNKNOWN     UNKNOWN        : LLD-LWD:registros:rC:NONE:v0 (auto-composite)
LLS      .ohm.m       UNKNOWN        : LLS:LLS:rC:NONE:v0 (auto-composite)
LLS-LWD  .UNKNOWN     UNKNOWN        : LLS-LWD:registros:rC:NONE:v0 (auto-composite)
MSFL     .ohm.m       UNKNOWN        : MSFL:MSFL:rC:NONE:v0 (auto-composite)
MSFL-LWD .UNKNOWN     UNKNOWN        : MSFL-LWD:registros:rC:NONE:v0 (auto-composite)
NPHI     .v/v_decimal UNKNOWN        : NPHI:NPHI:rC:NONE:v0 (auto-composite)
PEF      .b/elec      UNKNOWN        : PEF:PEF:rC:NONE:v0 (auto-composite)
RHOB     .g/cm3       UNKNOWN        : RHOB:RHOB:rC:NONE:v0 (auto-composite)
SP       .mV          UNKNOWN        : SP:SP:rC:NONE:v0 (auto-composite)
~A     DEPTH         CALI         DRHO           DT           GR       GR-LWD          LLD      LLD-LWD          LLS      LLS-LWD         MSFL     MSFL-LWD         NPHI          PEF         RHOB           SP
# ...
   2563.0632      11.3330      -0.0070      66.8000      28.3420    -999.2500    2279.2900    -999.2500    1114.5530    -999.2500     235.4680    -999.2500       0.0670       3.4410       2.7360    -115.0000
   2563.2156      11.2460      -0.0130      71.4000      24.5220    -999.2500    2058.8601    -999.2500    1048.8610    -999.2500     130.3230    -999.2500       0.0680       3.5440       2.7000    -114.9380
   2563.3679      11.4480      -0.0100      73.7000      21.8880    -999.2500    1686.8270    -999.2500     865.3350    -999.2500     131.5880    -999.2500       0.0670       3.4320       2.6750    -115.1250
   2563.5203      11.3870      -0.0120      75.6000      21.5370    -999.2500    1724.6820    -999.2500     865.7600    -999.2500      92.4540    -999.2500       0.0650       3.6930       2.6490    -115.3130
   2563.6729      11.2860      -0.0090      75.5000      22.9020    -999.2500    1795.6610    -999.2500     862.8050    -999.2500      72.1540    -999.2500       0.0660       3.5320       2.6660    -115.7500
   2563.8252      11.2530       0.0000      68.4000      29.2100    -999.2500    1820.9919    -999.2500     827.4590    -999.2500      79.8630    -999.2500       0.0600       3.6510       2.6810    -115.8130
   2563.9775      11.2480       0.0060      64.7000      29.2950    -999.2500    1947.1510    -999.2500     885.1900    -999.2500     224.4190    -999.2500       0.0530       3.4950       2.6730    -115.5630
   2564.1299      11.2550      -0.0020      67.6000      27.2760    -999.2500    1746.6820    -999.2500     815.2890    -999.2500     247.3070    -999.2500       0.0520       3.3080       2.6150    -115.6250
   2564.2822      11.2750      -0.0030      67.1000      22.9200    -999.2500    1581.5730    -999.2500     757.2290    -999.2500      90.6140    -999.2500       0.0640       3.2240       2.5930    -115.3750
   2564.4348      11.3150      -0.0050      69.4000      23.5830    -999.2500    1507.2280    -999.2500     742.5550    -999.2500      51.7080    -999.2500       0.0790       3.1420       2.5960    -114.8130
   2564.5872      11.3290      -0.0070      68.8000      22.7770    -999.2500    1532.9120    -999.2500     763.0270    -999.2500      38.8720    -999.2500       0.0850       3.3030       2.6220    -114.3130
   2564.7395      11.3020      -0.0110      71.4000      24.0580    -999.2500    1408.6210    -999.2500     731.3160    -999.2500     116.1420    -999.2500       0.0750       3.5710       2.6560    -114.6880
   2564.8918      11.3460      -0.0100      67.7000      24.9860    -999.2500    1630.3361    -999.2500     840.7630    -999.2500     342.0340    -999.2500       0.0640       3.4770       2.7020    -115.1250
   2565.0444      11.2700      -0.0060      69.0000      26.2860    -999.2500    1701.9230    -999.2500     860.6890    -999.2500     103.1560    -999.2500       0.0540       3.5760       2.7450    -115.6880
   2565.1968      11.2620      -0.0010      67.5000      28.6320    -999.2500    1543.6060    -999.2500     762.0190    -999.2500     165.3270    -999.2500       0.0460       3.3030       2.7720    -116.2500
   2565.3491      11.2160      -0.0070      64.0000      28.2200    -999.2500    1660.8669    -999.2500     772.5920    -999.2500     250.0370    -999.2500       0.0420       3.5460       2.7530    -116.8750
   2565.5015      11.2270      -0.0030      61.6000      25.5680    -999.2500    1740.7510    -999.2500     781.4100    -999.2500     379.0880    -999.2500       0.0420       3.3770       2.7250    -117.3130
   2565.6541      11.2270      -0.0030      64.5000      20.9640    -999.2500    1836.2190    -999.2500     772.5340    -999.2500     196.1860    -999.2500       0.0470       3.4650       2.6800    -117.6880
   2565.8064      11.2620      -0.0020      66.1000      15.5800    -999.2500    2347.4570    -999.2500     922.2230    -999.2500     112.4110    -999.2500       0.0570       3.3280       2.6530    -117.5630
   2565.9587      11.2530       0.0020      64.1000      14.2320    -999.2500    3074.6990    -999.2500    1149.2130    -999.2500     212.1410    -999.2500       0.0600       3.3980       2.6710    -117.1250
   2566.1111      11.2640       0.0070      65.6000      13.6580    -999.2500    3738.5701    -999.2500    1335.1591    -999.2500     103.6010    -999.2500       0.0630       3.3560       2.6870    -116.5000
   2566.2634      11.2620       0.0030      69.4000      14.1240    -999.2500    3653.6201    -999.2500    1351.1440    -999.2500     338.3370    -999.2500       0.0620       3.5180       2.7040    -116.0000
   2566.4160      11.2460      -0.0020      80.2000      11.7010    -999.2500    1905.0750    -999.2500     805.3610    -999.2500     915.0270    -999.2500       0.0610       3.5040       2.6810    -116.0000
   2566.5684      11.2620      -0.0080      77.9000      10.6410    -999.2500    1444.3970    -999.2500     658.4510    -999.2500     533.7550    -999.2500       0.0710       3.6850       2.6640    -115.8130
   2566.7207      11.3810      -0.0170      74.2000       9.5190    -999.2500    1321.7310    -999.2500     616.4890    -999.2500     137.3960    -999.2500       0.0790       3.4990       2.6230    -115.6880
   2566.8730      11.1770      -0.0160      76.0000      11.8820    -999.2500    1197.7090    -999.2500     562.2970    -999.2500     177.4970    -999.2500       0.0910       3.3930       2.6020    -115.6250
   2567.0256      11.1760      -0.0120      93.7000      11.7690    -999.2500    1268.2760    -999.2500     580.4470    -999.2500     158.3470    -999.2500       0.0900       3.1490       2.5900    -116.0000
   2567.1780      11.1930      -0.0120     101.5000      11.7040    -999.2500    1333.4060    -999.2500     614.0220    -999.2500     223.1970    -999.2500       0.0870       3.5150       2.5890    -116.0000
   2567.3303      11.0920      -0.0050      94.1000      12.2440    -999.2500    1420.7880    -999.2500     656.2820    -999.2500      96.0480    -999.2500       0.0880       3.8960       2.5980    -115.6250
   2567.4827      11.1120       0.0010      94.3000      11.8840    -999.2500    1432.6390    -999.2500     655.4590    -999.2500     106.4930    -999.2500       0.0870       3.9530       2.6100    -115.3130
   2567.6353      11.1350       0.0040     101.7000      12.2360    -999.2500    1569.4680    -999.2500     696.1600    -999.2500     414.9000    -999.2500       0.0850       3.5130       2.6210    -115.1880
   2567.7876      11.2060       0.0000      91.8000      12.2250    -999.2500    1908.5450    -999.2500     789.7410    -999.2500     374.3070    -999.2500       0.0760       3.3480       2.6540    -114.8750
   2567.9399      11.2550       0.0040      91.8000      15.7560    -999.2500    2053.9199    -999.2500     827.0260    -999.2500     180.7390    -999.2500       0.0660       3.3060       2.7010    -114.4380
   2568.0923      11.2780       0.0070      90.4000      18.2010    -999.2500    1954.2980    -999.2500     752.1900    -999.2500     508.6040    -999.2500       0.0550       3.2880       2.7160    -113.8130
   2568.2446      11.2540      -0.0050      95.0000      18.6470    -999.2500    1675.9960    -999.2500     622.4830    -999.2500     325.1110    -999.2500       0.0470       3.1730       2.6940    -113.3130
   2568.3972      11.2990      -0.0120      99.4000      16.6100    -999.2500    1410.5780    -999.2500     499.9290    -999.2500      53.3850    -999.2500       0.0470       3.1840       2.6570    -112.5000
   2568.5496      11.3070      -0.0080      76.4000      16.2590    -999.2500    1337.5950    -999.2500     461.0100    -999.2500      24.3940    -999.2500       0.0590       3.1940       2.6450    -111.8130
   2568.7019      11.2460      -0.0050      75.1000      15.7550    -999.2500    1527.2150    -999.2500     508.0820    -999.2500     226.3660    -999.2500       0.0690       3.2520       2.6590    -110.7500
   2568.8542      11.1890      -0.0110      74.6000      15.7130    -999.2500    1669.2080    -999.2500     534.4060    -999.2500     191.4730    -999.2500       0.0660       3.5500       2.6720    -109.6880
