#------------------------------------------------------------------------------
#
#   Created by  : [OpenWorks] Log Export Utility (LEXP)
#   Created on  : 2016-05-11 12:25:19
#   Project     : CANT971
#   User        : R5K
#   Interpreter : PEP
#
#------------------------------------------------------------------------------
~VERSION INFORMATION
VERS. 2.0 : CWLS Log ASCII Standard - version 2.0
WRAP.  NO : One line per depth step
~WELL INFORMATION
#MNEMONIC   .UNIT                                           VALUE :DESCRIPTION
#------------------------------------------------------------------------------
STRT        .M                                          1784.4515 :START DEPTH
STOP        .M                                          2909.3159 :STOP DEPTH
STEP        .M                                             0.1524 :STEP
NULL        .                                           -999.2500 :NULL VALUE
COMP        .                                   PEMEX EXPL & PROD :COMPANY
WELL        .                                               1063D :WELL
FLD         .                                           CANTARELL :FIELD
LOC         .                                             UNKNOWN :LOCATION
CNTY        .                                      CD. DEL CARMEN :COUNTY
STAT        .                                            CAMPECHE :STATE
CTRY        .                                              MEXICO :COUNTRY
SRVC        .                                             UNKNOWN :SERVICE COMPANY
DATE        .                                             UNKNOWN :LOG DATE
UWI         .                                                1000 :UNIQUE WELL ID
XCOORD      .                                       599718.040000 :SURFACE X
YCOORD      .                                      2149967.520000 :SURFACE Y
LAT         .                                           19.442775 :LATITUDE
LON         .                                          -92.050067 :LONGITUDE
ELEV        .M                                            30.0000 :SURFACE ELEV
ELEV_TYPE   .                                                  KB :ELEV TYPE
~CURVE INFORMATION
#MNEMONIC.UNIT        API CODE       : CURVE DESCRIPTION
#------------------------------------------------------------------------------
DEPTH    .M                          : Measured Depth
CALI     .inches      UNKNOWN        : CALI:CALI:rC:NONE:v0 (auto-composite)
DRHO     .g/cm3       UNKNOWN        : DRHO:DRHO:rC:NONE:v0 (auto-composite)
DT       .us/ft       UNKNOWN        : DT:DT:rC:NONE:v0 (auto-composite)
GR       .API         UNKNOWN        : GR:GR:rC:NONE:v0 (auto-composite)
GR-LWD   .UNKNOWN     UNKNOWN        : GR-LWD:registros:rC:NONE:v0 (auto-composite)
LLD      .ohm.m       UNKNOWN        : LLD:LLD:rC:NONE:v0 (auto-composite)
LLD-LWD  .UNKNOWN     UNKNOWN        : LLD-LWD:registros:rC:NONE:v0 (auto-composite)
LLS      .ohm.m       UNKNOWN        : LLS:LLS:rC:NONE:v0 (auto-composite)
LLS-LWD  .UNKNOWN     UNKNOWN        : LLS-LWD:registros:rC:NONE:v0 (auto-composite)
MSFL     .ohm.m       UNKNOWN        : MSFL:MSFL:rC:NONE:v0 (auto-composite)
MSFL-LWD .UNKNOWN     UNKNOWN        : MSFL-LWD:registros:rC:NONE:v0 (auto-composite)
NPHI     .v/v_decimal UNKNOWN        : NPHI:NPHI:rC:NONE:v0 (auto-composite)
PEF      .b/elec      UNKNOWN        : PEF:PEF:rC:NONE:v0 (auto-composite)
RHOB     .g/cm3       UNKNOWN        : RHOB:RHOB:rC:NONE:v0 (auto-composite)
SP       .mV          UNKNOWN        : SP:SP:rC:NONE:v0 (auto-composite)
~A     DEPTH         CALI         DRHO           DT           GR       GR-LWD          LLD      LLD-LWD          LLS      LLS-LWD         MSFL     MSFL-LWD         NPHI          PEF         RHOB           SP
# ...
   2515.5144      11.2130      -0.0110      55.5000      26.2350    -999.2500    2426.4541    -999.2500     983.0960    -999.2500     516.4640    -999.2500       0.0360       3.3890       2.6990     -61.7500
   2515.6667      11.2460      -0.0120      54.3000      25.8870    -999.2500    2116.8269    -999.2500     892.8740    -999.2500     348.4030    -999.2500       0.0500       3.3810       2.6710     -61.3750
   2515.8191      11.2400      -0.0140      58.1000      27.0700    -999.2500    1996.3621    -999.2500     879.5240    -999.2500     327.3370    -999.2500       0.0480       3.1710       2.6990     -60.5000
   2515.9714      11.2030      -0.0090      58.7000      24.0860    -999.2500    1594.8420    -999.2500     787.6300    -999.2500    1045.0000    -999.2500       0.0410       3.2330       2.7480     -59.6880
   2516.1240      11.1810      -0.0010      61.4000      25.7980    -999.2500    1012.9420    -999.2500     564.8140    -999.2500    1330.9919    -999.2500       0.0370       3.3770       2.7890     -59.5630
   2516.2764      11.1340      -0.0080      61.7000      29.6600    -999.2500     650.9000    -999.2500     390.1240    -999.2500     311.0160    -999.2500       0.0480       3.5480       2.7370     -59.6250
   2516.4287      11.1340      -0.0270      61.7000      37.3410    -999.2500     492.1810    -999.2500     303.1650    -999.2500     116.7240    -999.2500       0.0620       3.5900       2.6540     -59.5630
   2516.5811      11.1860      -0.0290      62.7000      40.4510    -999.2500     403.7110    -999.2500     258.9000    -999.2500      72.2990    -999.2500       0.0700       3.4810       2.6320     -60.0630
   2516.7336      11.3380      -0.0340      59.0000      45.1130    -999.2500     341.0500    -999.2500     229.1230    -999.2500     217.2820    -999.2500       0.0710       3.6140       2.6160     -60.8750
   2516.8860      11.1860      -0.0410      57.8000      41.5470    -999.2500     323.1840    -999.2500     226.8790    -999.2500     346.7190    -999.2500       0.0790       3.3450       2.5830     -61.9380
   2517.0383      11.1470      -0.0400      63.6000      43.0190    -999.2500     337.3510    -999.2500     246.6150    -999.2500     216.9530    -999.2500       0.0790       3.3030       2.5460     -63.0000
   2517.1907      11.1170      -0.0380      62.9000      38.5930    -999.2500     367.0610    -999.2500     272.9030    -999.2500      59.1140    -999.2500       0.0910       3.2300       2.5300     -63.6880
   2517.3430      11.1200      -0.0310      59.1000      40.4700    -999.2500     409.4580    -999.2500     296.4400    -999.2500     178.9360    -999.2500       0.1000       3.2950       2.5420     -64.5000
   2517.4956      11.1140      -0.0240      55.8000      41.8450    -999.2500     441.4270    -999.2500     315.3350    -999.2500     220.2840    -999.2500       0.1000       3.3070       2.5560     -65.5000
   2517.6479      11.1860      -0.0200      45.3000      45.8390    -999.2500     393.3280    -999.2500     280.6730    -999.2500     295.6350    -999.2500       0.0790       3.1990       2.6010     -66.5630
   2517.8003      11.2430      -0.0180      54.8000      52.0480    -999.2500     333.9770    -999.2500     236.3260    -999.2500     438.3530    -999.2500       0.0500       3.5310       2.6530     -67.6880
   2517.9526      11.2560      -0.0080      52.3000      51.7310    -999.2500     320.4680    -999.2500     220.7990    -999.2500     257.4400    -999.2500       0.0330       3.5880       2.7390     -68.8750
   2518.1052      11.2480      -0.0070      52.1000      50.1630    -999.2500     351.3740    -999.2500     233.4640    -999.2500     455.0370    -999.2500       0.0340       3.4010       2.7600     -70.2500
   2518.2576      11.2050      -0.0120      48.6000      44.1130    -999.2500     456.1070    -999.2500     286.0740    -999.2500     402.6740    -999.2500       0.0500       3.1590       2.7390     -71.2500
   2518.4099      11.1910      -0.0150      51.9000      39.2980    -999.2500     704.6510    -999.2500     418.3290    -999.2500     683.8670    -999.2500       0.0730       3.2010       2.7150     -72.5630
   2518.5623      11.1940      -0.0130      54.3000      34.4540    -999.2500    1059.1390    -999.2500     605.6080    -999.2500     997.7610    -999.2500       0.0770       3.2860       2.7270     -73.6880
   2518.7148      11.2410      -0.0070      51.8000      31.7550    -999.2500     916.5940    -999.2500     576.1730    -999.2500     608.4590    -999.2500       0.0730       3.4410       2.7340     -74.4380
   2518.8672      11.2710      -0.0020      52.2000      31.9280    -999.2500     408.9690    -999.2500     297.7880    -999.2500     618.7360    -999.2500       0.0830       3.5240       2.7200     -75.1880
   2519.0195      11.2640      -0.0000      45.6000      32.7380    -999.2500     355.2660    -999.2500     254.9460    -999.2500     258.6000    -999.2500       0.0930       3.6360       2.6830     -75.8750
   2519.1719      11.2760       0.0070      53.4000      33.7260    -999.2500     353.1180    -999.2500     247.1780    -999.2500      51.7350    -999.2500       0.1090       3.4850       2.6610     -76.0000
   2519.3242      11.2650      -0.0010      55.9000      32.9820    -999.2500     377.6170    -999.2500     248.6910    -999.2500     154.5520    -999.2500       0.0970       3.4610       2.6370     -76.0000
   2519.4768      11.2750      -0.0050      40.0000      34.4520    -999.2500     659.8070    -999.2500     407.5820    -999.2500      90.1150    -999.2500       0.0930       3.5760       2.6320     -75.9380
   2519.6292      11.2970      -0.0010      51.7000      37.1570    -999.2500    1052.8270    -999.2500     633.9890    -999.2500     385.2820    -999.2500       0.0720       3.7690       2.6820     -75.8750
   2519.7815      11.2950       0.0060      50.6000      38.4120    -999.2500    1188.1090    -999.2500     701.6990    -999.2500     541.9060    -999.2500       0.0510       3.7100       2.7460     -75.0630
   2519.9338      11.2720       0.0050      48.3000      32.6340    -999.2500    1443.3740    -999.2500     847.5700    -999.2500     493.1630    -999.2500       0.0290       3.6980       2.8100     -74.1880
   2520.0864      11.2400       0.0130      47.1000      25.3220    -999.2500    1764.5680    -999.2500    1016.6310    -999.2500     716.3030    -999.2500       0.0200       3.7740       2.8530     -73.4380
   2520.2388      11.2290       0.0100      48.9000      21.1610    -999.2500    2236.4570    -999.2500    1252.0420    -999.2500    1320.2760    -999.2500       0.0170       3.7050       2.8460     -72.9380
   2520.3911      11.2050       0.0010      49.8000      22.1080    -999.2500    2568.8491    -999.2500    1407.3420    -999.2500    1329.4520    -999.2500       0.0160       3.6510       2.8290     -72.8130
   2520.5435      11.1680      -0.0050      50.7000      24.5330    -999.2500    2065.7271    -999.2500    1162.3600    -999.2500    1645.4250    -999.2500       0.0170       3.4450       2.8100     -72.9380
   2520.6960      11.1870      -0.0050      53.5000      26.7030    -999.2500    1285.2030    -999.2500     783.5910    -999.2500     693.7880    -999.2500       0.0230       3.3780       2.7750     -73.4380
   2520.8484      11.2260      -0.0110      45.0000      29.7880    -999.2500     850.0190    -999.2500     550.0420    -999.2500     380.7660    -999.2500       0.0410       3.3010       2.7160     -73.9380
   2521.0007      11.2140      -0.0140      56.9000      29.8030    -999.2500     637.6150    -999.2500     430.3920    -999.2500     201.7020    -999.2500       0.0520       3.3300       2.6770     -74.8750
   2521.1531      11.1110      -0.0120      59.4000      29.9100    -999.2500     551.8840    -999.2500     381.3690    -999.2500     183.0450    -999.2500       0.0620       3.4450       2.6920     -75.8750
   2521.3054      11.1270      -0.0060      62.5000      29.9930    -999.2500     498.1650    -999.2500     352.1970    -999.2500     157.7810    -999.2500       0.0550       3.4980       2.7110     -77.1250
