#------------------------------------------------------------------------------
#
#   Created by  : [OpenWorks] Log Export Utility (LEXP)
#   Created on  : 2016-05-11 12:25:19
#   Project     : CANT971
#   User        : R5K
#   Interpreter : PEP
#
#------------------------------------------------------------------------------
~VERSION INFORMATION
VERS. 2.0 : CWLS Log ASCII Standard - version 2.0
WRAP.  NO : One line per depth step
~WELL INFORMATION
#MNEMONIC   .UNIT                                           VALUE :DESCRIPTION
#------------------------------------------------------------------------------
STRT        .M                                          1784.4515 :START DEPTH
STOP        .M                                          2909.3159 :STOP DEPTH
STEP        .M                                             0.1524 :STEP
NULL        .                                           -999.2500 :NULL VALUE
COMP        .                                   PEMEX EXPL & PROD :COMPANY
WELL        .                                               1063D :WELL
FLD         .                                           CANTARELL :FIELD
LOC         .                                             UNKNOWN :LOCATION
CNTY        .                                      CD. DEL CARMEN :COUNTY
STAT        .                                            CAMPECHE :STATE
CTRY        .                                              MEXICO :COUNTRY
SRVC        .                                             UNKNOWN :SERVICE COMPANY
DATE        .                                             UNKNOWN :LOG DATE
UWI         .                                                1000 :UNIQUE WELL ID
XCOORD      .                                       599718.040000 :SURFACE X
YCOORD      .                                      2149967.520000 :SURFACE Y
LAT         .                                           19.442775 :LATITUDE
LON         .                                          -92.050067 :LONGITUDE
ELEV        .M                                            30.0000 :SURFACE ELEV
ELEV_TYPE   .                                                  KB :ELEV TYPE
~CURVE INFORMATION
#MNEMONIC.UNIT        API CODE       : CURVE DESCRIPTION
#------------------------------------------------------------------------------
DEPTH    .M                          : Measured Depth
CALI     .inches      UNKNOWN        : CALI:CALI:rC:NONE:v0 (auto-composite)
DRHO     .g/cm3       UNKNOWN        : DRHO:DRHO:rC:NONE:v0 (auto-composite)
DT       .us/ft       UNKNOWN        : DT:DT:rC:NONE:v0 (auto-composite)
GR       .API         UNKNOWN        : GR:GR:rC:NONE:v0 (auto-composite)
GR-LWD   .UNKNOWN     UNKNOWN        : GR-LWD:registros:rC:NONE:v0 (auto-composite)
LLD      .ohm.m       UNKNOWN        : LLD:LLD:rC:NONE:v0 (auto-composite)
LLD-LWD  .UNKNOWN     UNKNOWN        : LLD-LWD:registros:rC:NONE:v0 (auto-composite)
LLS      .ohm.m       UNKNOWN        : LLS:LLS:rC:NONE:v0 (auto-composite)
LLS-LWD  .UNKNOWN     UNKNOWN        : LLS-LWD:registros:rC:NONE:v0 (auto-composite)
MSFL     .ohm.m       UNKNOWN        : MSFL:MSFL:rC:NONE:v0 (auto-composite)
MSFL-LWD .UNKNOWN     UNKNOWN        : MSFL-LWD:registros:rC:NONE:v0 (auto-composite)
NPHI     .v/v_decimal UNKNOWN        : NPHI:NPHI:rC:NONE:v0 (auto-composite)
PEF      .b/elec      UNKNOWN        : PEF:PEF:rC:NONE:v0 (auto-composite)
RHOB     .g/cm3       UNKNOWN        : RHOB:RHOB:rC:NONE:v0 (auto-composite)
SP       .mV          UNKNOWN        : SP:SP:rC:NONE:v0 (auto-composite)
~A     DEPTH         CALI         DRHO           DT           GR       GR-LWD          LLD      LLD-LWD          LLS      LLS-LWD         MSFL     MSFL-LWD         NPHI          PEF         RHOB           SP
# ...
   2224.2778      11.6140       0.0020      62.3000      37.6780    -999.2500       9.5510    -999.2500      11.2210    -999.2500       5.0300    -999.2500       0.1240       4.0260       2.6320     -95.1250
   2224.4304      11.5370       0.0050      66.2000      29.4420    -999.2500      15.1680    -999.2500      17.3870    -999.2500     218.9950    -999.2500       0.0820       4.2610       2.6820     -94.8130
   2224.5828      11.6290       0.0100      62.1000      27.7120    -999.2500      29.4210    -999.2500      33.3630    -999.2500     158.5440    -999.2500       0.0620       4.3260       2.6980     -94.8130
   2224.7351      11.6930       0.0100      60.1000      25.3830    -999.2500      52.6630    -999.2500      61.2770    -999.2500      87.8850    -999.2500       0.0490       4.6230       2.6700     -94.5630
   2224.8875      11.6710       0.0090      62.3000      25.1040    -999.2500      58.7330    -999.2500      69.5060    -999.2500      76.2610    -999.2500       0.0400       4.8030       2.6450     -94.1880
   2225.0400      11.5230       0.0080      62.7000      23.5650    -999.2500      55.3120    -999.2500      64.9080    -999.2500      99.4290    -999.2500       0.0450       4.6940       2.6280     -94.1250
   2225.1924      11.5280       0.0000      66.7000      22.9000    -999.2500      52.6800    -999.2500      61.3040    -999.2500      77.9640    -999.2500       0.0560       4.3470       2.6100     -94.3130
   2225.3447      11.5310      -0.0070      65.6000      21.4900    -999.2500      49.8920    -999.2500      57.8840    -999.2500     276.5440    -999.2500       0.0650       4.3190       2.6160     -94.6250
   2225.4971      11.5450      -0.0140      66.9000      20.2400    -999.2500      48.3520    -999.2500      55.6520    -999.2500      97.4960    -999.2500       0.0730       4.5680       2.5550     -94.3750
   2225.6497      11.7080      -0.0200      70.8000      18.5850    -999.2500      45.6750    -999.2500      52.0790    -999.2500     115.4760    -999.2500       0.0830       4.8170       2.4600     -94.2500
   2225.8020      11.7240      -0.0200      71.3000      18.0780    -999.2500      42.6060    -999.2500      47.9210    -999.2500      93.7220    -999.2500       0.1070       5.0570       2.3780     -94.1250
   2225.9543      11.7840      -0.0200      68.6000      20.7900    -999.2500      42.7320    -999.2500      48.0010    -999.2500      60.9140    -999.2500       0.1220       4.9770       2.3630     -94.0630
   2226.1067      11.7810      -0.0100      69.4000      20.6600    -999.2500      42.1540    -999.2500      47.3690    -999.2500      73.0740    -999.2500       0.1150       5.1490       2.3960     -93.8130
   2226.2590      11.7300      -0.0130      67.3000      21.3590    -999.2500      42.1940    -999.2500      47.5750    -999.2500      81.8280    -999.2500       0.1010       4.9520       2.4300     -93.8130
   2226.4116      11.6810      -0.0140      65.4000      19.8400    -999.2500      46.8470    -999.2500      53.0520    -999.2500      78.8600    -999.2500       0.0820       5.4070       2.4740     -93.5000
   2226.5640      11.7640      -0.0120      64.3000      21.6800    -999.2500      49.6100    -999.2500      56.2590    -999.2500      96.2050    -999.2500       0.0700       5.0310       2.5480     -93.9380
   2226.7163      11.8410      -0.0010      65.1000      21.2830    -999.2500      51.0600    -999.2500      58.1090    -999.2500     135.9310    -999.2500       0.0570       5.2550       2.6070     -94.8750
   2226.8687      11.8400      -0.0050      63.8000      21.1510    -999.2500      54.2860    -999.2500      62.1590    -999.2500     118.9010    -999.2500       0.0550       4.8340       2.6350     -95.6880
   2227.0212      11.7430      -0.0050      62.5000      17.8900    -999.2500      47.6050    -999.2500      54.9260    -999.2500     153.7240    -999.2500       0.0550       5.2290       2.6320     -96.8130
   2227.1736      11.7180      -0.0060      61.9000      17.6550    -999.2500      44.8160    -999.2500      51.7780    -999.2500     107.5240    -999.2500       0.0510       4.7480       2.6510     -98.0000
   2227.3259      11.7020      -0.0120      59.0000      19.3750    -999.2500      44.2350    -999.2500      50.9950    -999.2500      55.9850    -999.2500       0.0480       4.9380       2.6480     -99.3750
   2227.4783      11.6870      -0.0190      59.5000      24.7100    -999.2500      44.1260    -999.2500      50.5520    -999.2500     112.4550    -999.2500       0.0450       4.6340       2.6540    -100.7500
   2227.6309      11.6860      -0.0170      56.8000      25.3950    -999.2500      44.5460    -999.2500      50.8300    -999.2500     319.3220    -999.2500       0.0440       4.6970       2.6470    -101.6880
   2227.7832      11.7310      -0.0190      59.0000      24.7960    -999.2500      42.5000    -999.2500      48.6120    -999.2500     225.8320    -999.2500       0.0470       4.5570       2.6450    -102.4380
   2227.9355      11.7160      -0.0200      55.9000      25.6470    -999.2500      43.4370    -999.2500      49.5200    -999.2500      65.4160    -999.2500       0.0420       4.4530       2.6440    -102.9380
   2228.0879      11.7120      -0.0110      56.2000      25.2930    -999.2500      44.2840    -999.2500      50.4170    -999.2500     124.4270    -999.2500       0.0400       4.3940       2.6710    -103.5000
   2228.2402      11.6640      -0.0070      58.6000      26.7500    -999.2500      45.0490    -999.2500      51.1050    -999.2500     128.3500    -999.2500       0.0330       4.3880       2.6690    -104.5000
   2228.3928      11.5610      -0.0110      57.1000      22.6680    -999.2500      51.8620    -999.2500      58.6400    -999.2500      88.7920    -999.2500       0.0340       4.5080       2.6400    -105.0630
   2228.5452      11.5550      -0.0060      58.2000      26.9080    -999.2500      57.9750    -999.2500      65.8490    -999.2500     123.1710    -999.2500       0.0380       4.8170       2.6290    -105.3130
   2228.6975      11.5350      -0.0030      58.5000      26.7180    -999.2500      58.1290    -999.2500      66.3340    -999.2500     130.1450    -999.2500       0.0430       5.2130       2.6420    -104.8750
   2228.8499      11.5390      -0.0050      58.1000      27.5760    -999.2500      53.6160    -999.2500      61.9500    -999.2500     136.9900    -999.2500       0.0460       5.4440       2.6500    -105.1880
   2229.0024      11.6680      -0.0090      58.2000      22.7010    -999.2500      46.9390    -999.2500      54.4160    -999.2500     148.5510    -999.2500       0.0490       4.7720       2.6360    -105.8750
   2229.1548      11.6950      -0.0120      57.5000      18.3810    -999.2500      38.1960    -999.2500      44.0230    -999.2500     368.6170    -999.2500       0.0490       4.6120       2.6260    -106.5630
   2229.3071      11.6610      -0.0190      56.2000      16.5930    -999.2500      37.6450    -999.2500      43.0950    -999.2500      84.8420    -999.2500       0.0540       4.4320       2.6470    -106.9380
   2229.4595      11.5950      -0.0180      56.3000      16.1280    -999.2500      41.3490    -999.2500      46.6100    -999.2500     114.0640    -999.2500       0.0540       4.7720       2.6780    -107.0000
   2229.6118      11.5390      -0.0140      57.3000      21.8480    -999.2500      45.3040    -999.2500      50.8520    -999.2500     136.0810    -999.2500       0.0510       4.7500       2.7020    -107.5000
   2229.7644      11.5060      -0.0180      59.0000      26.3560    -999.2500      36.0370    -999.2500      40.8600    -999.2500     142.4300    -999.2500       0.0460       4.7010       2.6670    -107.5630
   2229.9167      11.5060      -0.0280      60.0000      30.7120    -999.2500      33.8940    -999.2500      37.8940    -999.2500      28.4940    -999.2500       0.0560       4.8340       2.6240    -107.8130
   2230.0691      11.5300      -0.0290      61.5000      29.0240    -999.2500      34.1460    -999.2500      38.0390    -999.2500      51.6650    -999.2500       0.0670       4.5970       2.5920    -108.1250
