#------------------------------------------------------------------------------
#
#   Created by  : [OpenWorks] Log Export Utility (LEXP)
#   Created on  : 2016-05-11 12:25:19
#   Project     : CANT971
#   User        : R5K
#   Interpreter : PEP
#
#------------------------------------------------------------------------------
~VERSION INFORMATION
VERS. 2.0 : CWLS Log ASCII Standard - version 2.0
WRAP.  NO : One line per depth step
~WELL INFORMATION
#MNEMONIC   .UNIT                                           VALUE :DESCRIPTION
#------------------------------------------------------------------------------
STRT        .M                                          1784.4515 :START DEPTH
STOP        .M                                          2909.3159 :STOP DEPTH
STEP        .M                                             0.1524 :STEP
NULL        .                                           -999.2500 :NULL VALUE
COMP        .                                   PEMEX EXPL & PROD :COMPANY
WELL        .                                               1063D :WELL
FLD         .                                           CANTARELL :FIELD
LOC         .                                             UNKNOWN :LOCATION
CNTY        .                                      CD. DEL CARMEN :COUNTY
STAT        .                                            CAMPECHE :STATE
CTRY        .                                              MEXICO :COUNTRY
SRVC        .                                             UNKNOWN :SERVICE COMPANY
DATE        .                                             UNKNOWN :LOG DATE
UWI         .                                                1000 :UNIQUE WELL ID
XCOORD      .                                       599718.040000 :SURFACE X
YCOORD      .                                      2149967.520000 :SURFACE Y
LAT         .                                           19.442775 :LATITUDE
LON         .                                          -92.050067 :LONGITUDE
ELEV        .M                                            30.0000 :SURFACE ELEV
ELEV_TYPE   .                                                  KB :ELEV TYPE
~CURVE INFORMATION
#MNEMONIC.UNIT        API CODE       : CURVE DESCRIPTION
#------------------------------------------------------------------------------
DEPTH    .M                          : Measured Depth
CALI     .inches      UNKNOWN        : CALI:CALI:rC:NONE:v0 (auto-composite)
DRHO     .g/cm3       UNKNOWN        : DRHO:DRHO:rC:NONE:v0 (auto-composite)
DT       .us/ft       UNKNOWN        : DT:DT:rC:NONE:v0 (auto-composite)
GR       .API         UNKNOWN        : GR:GR:rC:NONE:v0 (auto-composite)
GR-LWD   .UNKNOWN     UNKNOWN        : GR-LWD:registros:rC:NONE:v0 (auto-composite)
LLD      .ohm.m       UNKNOWN        : LLD:LLD:rC:NONE:v0 (auto-composite)
LLD-LWD  .UNKNOWN     UNKNOWN        : LLD-LWD:registros:rC:NONE:v0 (auto-composite)
LLS      .ohm.m       UNKNOWN        : LLS:LLS:rC:NONE:v0 (auto-composite)
LLS-LWD  .UNKNOWN     UNKNOWN        : LLS-LWD:registros:rC:NONE:v0 (auto-composite)
MSFL     .ohm.m       UNKNOWN        : MSFL:MSFL:rC:NONE:v0 (auto-composite)
MSFL-LWD .UNKNOWN     UNKNOWN        : MSFL-LWD:registros:rC:NONE:v0 (auto-composite)
NPHI     .v/v_decimal UNKNOWN        : NPHI:NPHI:rC:NONE:v0 (auto-composite)
PEF      .b/elec      UNKNOWN        : PEF:PEF:rC:NONE:v0 (auto-composite)
RHOB     .g/cm3       UNKNOWN        : RHOB:RHOB:rC:NONE:v0 (auto-composite)
SP       .mV          UNKNOWN        : SP:SP:rC:NONE:v0 (auto-composite)
~A     DEPTH         CALI         DRHO           DT           GR       GR-LWD          LLD      LLD-LWD          LLS      LLS-LWD         MSFL     MSFL-LWD         NPHI          PEF         RHOB           SP
# ...
   2658.1606      11.3900      -0.0110      62.0000      50.7080    -999.2500      23.8280    -999.2500      22.8660    -999.2500      23.9260    -999.2500       0.0440       4.8740       2.6350    -105.5630
   2658.3132      11.3660      -0.0140      63.4000      53.0050    -999.2500      23.2790    -999.2500      22.2030    -999.2500      54.4100    -999.2500       0.0500       4.7680       2.6200    -106.6880
   2658.4656      11.3390      -0.0120      64.2000      56.8120    -999.2500      24.5620    -999.2500      23.2110    -999.2500      41.9820    -999.2500       0.0590       4.3160       2.6080    -107.3750
   2658.6179      11.3440      -0.0110      64.5000      56.0940    -999.2500      27.1430    -999.2500      25.0650    -999.2500      27.6200    -999.2500       0.0570       4.5350       2.6010    -108.2500
   2658.7703      11.3720      -0.0070      61.3000      49.9360    -999.2500      31.4540    -999.2500      28.2690    -999.2500      27.9960    -999.2500       0.0450       4.6680       2.6160    -109.7500
   2658.9229      11.4320      -0.0020      59.5000      39.7460    -999.2500      27.0170    -999.2500      24.6820    -999.2500      39.7010    -999.2500       0.0320       5.3250       2.6380    -111.5630
   2659.0752      11.4710      -0.0020      60.1000      40.2610    -999.2500      24.0980    -999.2500      22.0870    -999.2500      34.8370    -999.2500       0.0260       5.0300       2.6600    -112.5000
   2659.2275      11.4820      -0.0070      61.0000      44.6040    -999.2500      21.6420    -999.2500      19.9410    -999.2500      66.3190    -999.2500       0.0310       4.9990       2.6580    -113.5000
   2659.3799      11.4280      -0.0090      60.7000      53.9670    -999.2500      11.3410    -999.2500      11.0550    -999.2500      54.1840    -999.2500       0.0440       4.8200       2.6590    -114.0630
   2659.5322      11.3880      -0.0130      67.5000      58.3180    -999.2500       8.7450    -999.2500       8.7150    -999.2500      24.6780    -999.2500       0.0670       4.8580       2.6450    -114.5000
   2659.6848      11.3820      -0.0110      65.1000      63.7510    -999.2500       8.9710    -999.2500       8.9350    -999.2500       8.8670    -999.2500       0.0770       4.7480       2.6320    -115.0000
   2659.8372      11.3940      -0.0140      67.5000      64.6790    -999.2500       9.8850    -999.2500       9.7380    -999.2500      13.1740    -999.2500       0.0640       4.6360       2.6140    -115.1250
   2659.9895      11.4170      -0.0130      63.3000      64.1100    -999.2500      17.6470    -999.2500      16.6540    -999.2500      34.7410    -999.2500       0.0460       4.9350       2.6200    -114.9380
   2660.1418      11.4260      -0.0080      58.0000      59.0390    -999.2500      23.7290    -999.2500      23.0990    -999.2500      31.2620    -999.2500       0.0330       5.0570       2.6530    -114.3750
   2660.2944      11.4710      -0.0040      55.3000      52.3810    -999.2500      24.5530    -999.2500      24.1020    -999.2500      32.3590    -999.2500       0.0230       5.0520       2.6860    -113.9380
   2660.4468      11.4750      -0.0030      56.1000      46.2400    -999.2500      24.7770    -999.2500      24.3940    -999.2500      21.5580    -999.2500       0.0170       5.1590       2.7190    -114.1880
   2660.5991      11.4170       0.0020      56.1000      44.8320    -999.2500      26.2350    -999.2500      25.8300    -999.2500      40.5620    -999.2500       0.0160       5.1390       2.7240    -114.3130
   2660.7515      11.3740       0.0050      56.2000      45.4610    -999.2500      27.6890    -999.2500      26.9590    -999.2500      35.8530    -999.2500       0.0170       5.1320       2.7210    -114.5000
   2660.9041      11.3750      -0.0010      58.1000      44.8720    -999.2500      31.7700    -999.2500      30.2830    -999.2500      50.2060    -999.2500       0.0180       5.1450       2.6890    -115.3130
   2661.0564      11.3800      -0.0050      56.7000      40.2480    -999.2500      34.3260    -999.2500      32.5540    -999.2500      58.5520    -999.2500       0.0170       5.0480       2.6830    -116.3130
   2661.2087      11.3190      -0.0050      57.5000      34.8830    -999.2500      37.4440    -999.2500      34.9690    -999.2500      36.9140    -999.2500       0.0150       4.8070       2.6800    -116.3750
   2661.3611      11.3240      -0.0050      56.8000      34.2020    -999.2500      42.7520    -999.2500      38.9390    -999.2500      54.5940    -999.2500       0.0130       4.5520       2.6980    -116.1250
   2661.5134      11.3250      -0.0070      58.7000      40.5520    -999.2500      44.8950    -999.2500      40.3480    -999.2500      36.4040    -999.2500       0.0150       4.5140       2.7110    -115.7500
   2661.6660      11.3260      -0.0040      58.7000      49.9820    -999.2500      37.2560    -999.2500      33.9550    -999.2500      39.3520    -999.2500       0.0180       5.2960       2.7250    -114.9380
   2661.8184      11.3190       0.0020      60.7000      52.6500    -999.2500      31.0780    -999.2500      28.9750    -999.2500      26.8460    -999.2500       0.0210       5.5890       2.7260    -112.7500
   2661.9707      11.3580      -0.0040      59.1000      51.2720    -999.2500      28.9100    -999.2500      27.1200    -999.2500      17.9000    -999.2500       0.0210       5.5820       2.6910    -111.5630
   2662.1230      11.3660      -0.0020      56.8000      45.9480    -999.2500      29.1110    -999.2500      27.0830    -999.2500      28.9240    -999.2500       0.0220       4.9090       2.6840    -111.2500
   2662.2756      11.3920      -0.0010      57.2000      48.0520    -999.2500      31.9420    -999.2500      28.9920    -999.2500      85.8680    -999.2500       0.0210       4.8810       2.6780    -110.8750
   2662.4280      11.3050       0.0030      57.8000      45.0610    -999.2500      35.8060    -999.2500      32.3730    -999.2500     136.3270    -999.2500       0.0210       5.1300       2.6850    -109.8130
   2662.5803      11.2890      -0.0080      61.8000      45.7720    -999.2500      20.4240    -999.2500      19.4050    -999.2500      68.7220    -999.2500       0.0300       5.0860       2.6360    -108.8130
   2662.7327      11.2640      -0.0100      59.4000      43.5250    -999.2500      17.4670    -999.2500      16.7530    -999.2500      39.0680    -999.2500       0.0340       4.9630       2.6130    -108.6250
   2662.8853      11.2630      -0.0100      61.1000      41.0300    -999.2500      17.7700    -999.2500      16.8210    -999.2500       9.9800    -999.2500       0.0310       4.6620       2.6110    -108.6250
   2663.0376      11.2830      -0.0060      57.3000      33.5850    -999.2500      23.5530    -999.2500      21.2560    -999.2500      11.6540    -999.2500       0.0190       4.8220       2.6270    -108.4380
   2663.1899      11.3210      -0.0050      55.7000      22.7730    -999.2500      46.3210    -999.2500      41.3160    -999.2500      68.6200    -999.2500       0.0170       4.7980       2.6300    -107.6880
   2663.3423      11.3200      -0.0060      54.9000      16.4890    -999.2500      74.9570    -999.2500      68.5120    -999.2500      41.3440    -999.2500       0.0210       5.1180       2.6220    -107.6880
   2663.4946      11.3370      -0.0050      57.5000      13.5400    -999.2500      86.0170    -999.2500      79.2720    -999.2500      40.7820    -999.2500       0.0230       5.0370       2.6340    -107.8130
   2663.6472      11.3170      -0.0060      58.5000      10.8650    -999.2500      81.5480    -999.2500      76.4640    -999.2500      34.9480    -999.2500       0.0230       5.1910       2.6250    -107.8130
   2663.7996      11.3150      -0.0090      58.5000      12.2840    -999.2500      78.7340    -999.2500      74.5700    -999.2500      85.8360    -999.2500       0.0220       4.7460       2.6080    -107.5630
   2663.9519      11.3140      -0.0150      52.7000      11.9050    -999.2500      84.2630    -999.2500      78.8590    -999.2500      47.6340    -999.2500       0.0250       4.6640       2.5900    -107.2500
