#------------------------------------------------------------------------------
#
#   Created by  : [OpenWorks] Log Export Utility (LEXP)
#   Created on  : 2016-05-11 12:25:19
#   Project     : CANT971
#   User        : R5K
#   Interpreter : PEP
#
#------------------------------------------------------------------------------
~VERSION INFORMATION
VERS. 2.0 : CWLS Log ASCII Standard - version 2.0
WRAP.  NO : One line per depth step
~WELL INFORMATION
#MNEMONIC   .UNIT                                           VALUE :DESCRIPTION
#------------------------------------------------------------------------------
STRT        .M                                          1784.4515 :START DEPTH
STOP        .M                                          2909.3159 :STOP DEPTH
STEP        .M                                             0.1524 :STEP
NULL        .                                           -999.2500 :NULL VALUE
COMP        .                                   PEMEX EXPL & PROD :COMPANY
WELL        .                                               1063D :WELL
FLD         .                                           CANTARELL :FIELD
LOC         .                                             UNKNOWN :LOCATION
CNTY        .                                      CD. DEL CARMEN :COUNTY
STAT        .                                            CAMPECHE :STATE
CTRY        .                                              MEXICO :COUNTRY
SRVC        .                                             UNKNOWN :SERVICE COMPANY
DATE        .                                             UNKNOWN :LOG DATE
UWI         .                                                1000 :UNIQUE WELL ID
XCOORD      .                                       599718.040000 :SURFACE X
YCOORD      .                                      2149967.520000 :SURFACE Y
LAT         .                                           19.442775 :LATITUDE
LON         .                                          -92.050067 :LONGITUDE
ELEV        .M                                            30.0000 :SURFACE ELEV
ELEV_TYPE   .                                                  KB :ELEV TYPE
~CURVE INFORMATION
#MNEMONIC.UNIT        API CODE       : CURVE DESCRIPTION
#------------------------------------------------------------------------------
DEPTH    .M                          : Measured Depth
CALI     .inches      UNKNOWN        : CALI:CALI:rC:NONE:v0 (auto-composite)
DRHO     .g/cm3       UNKNOWN        : DRHO:DRHO:rC:NONE:v0 (auto-composite)
DT       .us/ft       UNKNOWN        : DT:DT:rC:NONE:v0 (auto-composite)
GR       .API         UNKNOWN        : GR:GR:rC:NONE:v0 (auto-composite)
GR-LWD   .UNKNOWN     UNKNOWN        : GR-LWD:registros:rC:NONE:v0 (auto-composite)
LLD      .ohm.m       UNKNOWN        : LLD:LLD:rC:NONE:v0 (auto-composite)
LLD-LWD  .UNKNOWN     UNKNOWN        : LLD-LWD:registros:rC:NONE:v0 (auto-composite)
LLS      .ohm.m       UNKNOWN        : LLS:LLS:rC:NONE:v0 (auto-composite)
LLS-LWD  .UNKNOWN     UNKNOWN        : LLS-LWD:registros:rC:NONE:v0 (auto-composite)
MSFL     .ohm.m       UNKNOWN        : MSFL:MSFL:rC:NONE:v0 (auto-composite)
MSFL-LWD .UNKNOWN     UNKNOWN        : MSFL-LWD:registros:rC:NONE:v0 (auto-composite)
NPHI     .v/v_decimal UNKNOWN        : NPHI:NPHI:rC:NONE:v0 (auto-composite)
PEF      .b/elec      UNKNOWN        : PEF:PEF:rC:NONE:v0 (auto-composite)
RHOB     .g/cm3       UNKNOWN        : RHOB:RHOB:rC:NONE:v0 (auto-composite)
SP       .mV          UNKNOWN        : SP:SP:rC:NONE:v0 (auto-composite)
~A     DEPTH         CALI         DRHO           DT           GR       GR-LWD          LLD      LLD-LWD          LLS      LLS-LWD         MSFL     MSFL-LWD         NPHI          PEF         RHOB           SP
# ...
   2271.8267      11.5140      -0.0100      56.4000      29.9780    -999.2500      21.8180    -999.2500      21.7480    -999.2500      22.2470    -999.2500       0.0220       4.9410       2.6970     -83.7500
   2271.9792      11.5220      -0.0100      56.3000      29.8840    -999.2500      27.9050    -999.2500      27.7840    -999.2500      41.6810    -999.2500       0.0210       4.9060       2.7010     -83.8130
   2272.1316      11.5630      -0.0090      52.2000      27.7640    -999.2500      30.8290    -999.2500      31.2770    -999.2500     158.7850    -999.2500       0.0180       5.0250       2.7060     -83.8130
   2272.2839      11.5530      -0.0100      59.5000      26.4060    -999.2500      35.6420    -999.2500      35.7980    -999.2500      85.3970    -999.2500       0.0140       4.6950       2.7080     -83.5630
   2272.4363      11.4970      -0.0110      50.0000      24.4820    -999.2500      41.7970    -999.2500      41.9600    -999.2500      46.5580    -999.2500       0.0120       5.0990       2.7000     -83.5630
   2272.5886      11.4940      -0.0070      56.5000      23.9010    -999.2500      46.3320    -999.2500      46.3010    -999.2500      65.7720    -999.2500       0.0110       4.8540       2.7280     -83.6880
   2272.7412      11.4460      -0.0040      52.9000      24.1530    -999.2500      52.2830    -999.2500      50.8740    -999.2500     302.1720    -999.2500       0.0100       5.1590       2.7340     -83.5000
   2272.8936      11.3880      -0.0050      53.7000      24.8800    -999.2500      62.4350    -999.2500      59.6780    -999.2500     145.7830    -999.2500       0.0100       5.0220       2.7520     -83.7500
   2273.0459      11.4150      -0.0050      54.3000      24.9340    -999.2500      55.7580    -999.2500      52.4180    -999.2500     215.1230    -999.2500       0.0120       5.2420       2.7340     -83.7500
   2273.1982      11.4620      -0.0050      57.1000      24.0760    -999.2500      49.6950    -999.2500      46.4530    -999.2500      61.9190    -999.2500       0.0170       5.1830       2.7260     -83.7500
   2273.3508      11.4800      -0.0090      68.6000      23.6050    -999.2500      41.8060    -999.2500      39.8420    -999.2500      47.8970    -999.2500       0.0220       4.8120       2.6930     -84.0000
   2273.5032      11.4680       0.0050      66.7000      26.1590    -999.2500      26.3280    -999.2500      25.3690    -999.2500      85.7280    -999.2500       0.0350       4.6140       2.6710     -84.5000
   2273.6555      11.3920       0.0100      64.5000      30.5090    -999.2500      15.8960    -999.2500      16.0040    -999.2500      20.7090    -999.2500       0.0740       4.2110       2.6360     -84.6250
   2273.8079      11.4320       0.0120      62.5000      34.2450    -999.2500      11.6850    -999.2500      11.7560    -999.2500       5.7960    -999.2500       0.0990       4.5420       2.6150     -84.7500
   2273.9604      11.4910       0.0590      62.5000      34.6430    -999.2500       9.1800    -999.2500       9.3950    -999.2500       7.5110    -999.2500       0.0990       4.5020       2.6620     -84.6880
   2274.1128      11.5180       0.1070      62.7000      33.9710    -999.2500       7.7280    -999.2500       7.7270    -999.2500      92.6890    -999.2500       0.0710       4.8450       2.6870     -84.8130
   2274.2651      11.6380       0.0960      70.9000      33.8240    -999.2500       7.9470    -999.2500       7.8170    -999.2500      17.2020    -999.2500       0.0550       4.1920       2.6260     -84.8750
   2274.4175      11.9200       0.1050      72.2000      37.3000    -999.2500       8.0010    -999.2500       7.8160    -999.2500      10.4570    -999.2500       0.0680       3.8310       2.5400     -84.8130
   2274.5698      11.7280       0.1000      77.1000      41.8510    -999.2500       6.9940    -999.2500       6.7010    -999.2500       5.8840    -999.2500       0.1170       3.4990       2.5080     -85.2500
   2274.7224      11.6910       0.0670      73.9000      43.0160    -999.2500       6.1770    -999.2500       6.1470    -999.2500       3.0100    -999.2500       0.1790       4.0110       2.4950     -85.2500
   2274.8748      11.7070       0.0380      69.4000      39.5520    -999.2500       6.1290    -999.2500       5.9950    -999.2500       4.2510    -999.2500       0.1840       4.8780       2.5670     -85.3130
   2275.0271      11.8040       0.0290      70.7000      36.1960    -999.2500       5.7650    -999.2500       5.6410    -999.2500      35.0340    -999.2500       0.1360       5.3010       2.6250     -85.3130
   2275.1794      12.4570       0.0010      67.1000      32.4440    -999.2500       5.9950    -999.2500       5.7590    -999.2500     101.4600    -999.2500       0.0910       4.6590       2.6080     -85.3750
   2275.3320      12.5900      -0.0100      68.0000      31.8350    -999.2500       6.1780    -999.2500       6.1400    -999.2500       5.7840    -999.2500       0.0970       4.5730       2.5650     -85.1880
   2275.4844      11.8430      -0.0080      63.6000      31.1840    -999.2500       6.7980    -999.2500       6.4230    -999.2500       5.1990    -999.2500       0.1120       4.4530       2.5860     -84.4380
   2275.6367      11.7340      -0.0020      68.3000      33.0630    -999.2500       6.8920    -999.2500       6.8410    -999.2500      10.0330    -999.2500       0.0990       4.8910       2.6320     -84.3750
   2275.7891      11.6980      -0.0040      64.5000      29.1920    -999.2500       8.2340    -999.2500       7.5290    -999.2500      20.2710    -999.2500       0.0780       4.8400       2.6970     -84.3130
   2275.9417      11.6630      -0.0060      63.4000      26.5920    -999.2500       8.6480    -999.2500       7.9190    -999.2500      23.0610    -999.2500       0.0730       4.7230       2.7000     -84.1880
   2276.0940      11.7220      -0.0090      62.6000      24.5210    -999.2500       9.4580    -999.2500       8.6000    -999.2500      32.4270    -999.2500       0.0750       4.4420       2.7040     -83.5630
   2276.2463      11.8180      -0.0130      60.8500      23.9160    -999.2500       9.4160    -999.2500       8.8650    -999.2500      15.8390    -999.2500       0.0760       4.5920       2.6890     -83.0630
   2276.3987      11.7860      -0.0120      64.7500      21.7210    -999.2500      10.3620    -999.2500       9.6820    -999.2500      25.1230    -999.2500       0.0710       4.9850       2.6880     -83.3130
   2276.5510      11.6650      -0.0090      60.3000      21.5750    -999.2500      11.0910    -999.2500      10.5310    -999.2500      26.6100    -999.2500       0.0610       5.3580       2.6660     -83.3750
   2276.7036      11.6080      -0.0070      60.8000      25.2900    -999.2500      11.0350    -999.2500      10.2730    -999.2500      22.3990    -999.2500       0.0620       5.4770       2.6430     -83.0630
   2276.8560      11.5220      -0.0050      57.9000      26.4310    -999.2500      11.3550    -999.2500      10.5550    -999.2500      20.3320    -999.2500       0.0570       5.7310       2.6380     -83.2500
   2277.0083      11.5600      -0.0010      57.8000      25.6970    -999.2500      13.4070    -999.2500      12.4700    -999.2500      11.2700    -999.2500       0.0420       6.0520       2.6700     -83.3750
   2277.1606      11.5680       0.0040      61.1000      25.2800    -999.2500      17.5020    -999.2500      15.5180    -999.2500      88.0660    -999.2500       0.0230       5.7170       2.6960     -83.8130
   2277.3132      11.5990      -0.0010      60.4000      24.9500    -999.2500      23.1250    -999.2500      20.0010    -999.2500     110.3850    -999.2500       0.0190       5.2370       2.6990     -84.3750
   2277.4656      11.6210      -0.0070      58.9000      25.0220    -999.2500      21.1520    -999.2500      18.8110    -999.2500      27.7170    -999.2500       0.0370       5.1020       2.6820     -84.5630
   2277.6179      11.6760      -0.0080      57.4500      25.5350    -999.2500      15.0410    -999.2500      13.4360    -999.2500      51.8020    -999.2500       0.0520       5.2400       2.6980     -84.6880
