#------------------------------------------------------------------------------
#
#   Created by  : [OpenWorks] Log Export Utility (LEXP)
#   Created on  : 2016-05-23 17:52:10
#   Project     : CANT971
#   User        : R5K
#   Interpreter : PEP
#
#------------------------------------------------------------------------------
~VERSION INFORMATION
VERS. 2.0 : CWLS Log ASCII Standard - version 2.0
WRAP.  NO : One line per depth step
~WELL INFORMATION
#MNEMONIC   .UNIT                                           VALUE :DESCRIPTION
#------------------------------------------------------------------------------
STRT        .M                                           540.0000 :START DEPTH
STOP        .M                                          2444.3904 :STOP DEPTH
STEP        .M                                             0.1524 :STEP
NULL        .                                           -999.2500 :NULL VALUE
COMP        .                                   PEMEX EXPL & PROD :COMPANY
WELL        .                                                1063 :WELL
FLD         .                                           CANTARELL :FIELD
LOC         .                                             UNKNOWN :LOCATION
CNTY        .                                      CD. DEL CARMEN :COUNTY
STAT        .                                            CAMPECHE :STATE
CTRY        .                                              MEXICO :COUNTRY
SRVC        .                                             UNKNOWN :SERVICE COMPANY
DATE        .                                             UNKNOWN :LOG DATE
UWI         .                                          3060000211 :UNIQUE WELL ID
XCOORD      .                                       598505.130000 :SURFACE X
YCOORD      .                                      2149276.180000 :SURFACE Y
LAT         .                                           19.436588 :LATITUDE
LON         .                                          -92.061656 :LONGITUDE
ELEV        .M                                            27.6000 :SURFACE ELEV
ELEV_TYPE   .                                                  KB :ELEV TYPE
~CURVE INFORMATION
#MNEMONIC.UNIT        API CODE       : CURVE DESCRIPTION
#------------------------------------------------------------------------------
DEPTH    .M                          : Measured Depth
CALI     .inches      UNKNOWN        : CALI:litodensidad:rC:NONE:v0 (auto-composite)
DRHO     .g/cm3       UNKNOWN        : DRHO:litodensidad:rC:NONE:v0 (auto-composite)
DT       .us/ft       UNKNOWN        : DT:DT:rC:NONE:v0 (auto-composite)
LLD      .UNKNOWN     UNKNOWN        : LLD:UNKNOWN:rC:NONE:v0 (auto-composite)
MSFL     .UNKNOWN     UNKNOWN        : MSFL:UNKNOWN:rC:NONE:v0 (auto-composite)
NPHI     .v/v_decimal UNKNOWN        : NPHI:NPHI:rC:NONE:v0 (auto-composite)
RHOB     .g/cm3       UNKNOWN        : RHOB:litodensidad:rC:NONE:v0 (auto-composite)
SIGM     .UNKNOWN     UNKNOWN        : SIGM:UNKNOWN:rC:NONE:v0 (auto-composite)
SP       .UNKNOWN     UNKNOWN        : SP:UNKNOWN:rC:NONE:v0 (auto-composite)
TAU      .UNKNOWN     UNKNOWN        : TAU:UNKNOWN:rC:NONE:v0 (auto-composite)
~A     DEPTH         CALI         DRHO           DT          LLD         MSFL         NPHI         RHOB         SIGM           SP          TAU
# ...
   2076.1919      13.8128      -0.2540      83.3399     146.5020     483.4631      22.7948    -999.2500    -999.2500       0.0000       0.0000
   2076.3445      14.0376      -0.2540      81.3465     169.7625     240.3135      26.5410    -999.2500    -999.2500       0.0000       0.0000
   2076.4968      14.0296      -0.2540      75.4123     195.2361     496.0167      26.4820    -999.2500    -999.2500       0.0000       0.0000
   2076.6492      13.9608      -0.2540      68.2294     222.6716    1193.9543      25.9928    -999.2500    -999.2500       0.0000       0.0000
   2076.8015      13.7532      -0.2540      58.2167     220.8849    1164.5389      24.5213    -999.2500    -999.2500       0.0000       0.0000
   2076.9541      13.3931      -0.2540      52.5789     193.7633     504.5254      22.0258    -999.2500    -999.2500       0.0000       0.0000
   2077.1064      12.6859      -0.2540      56.8955     183.6077     389.2985      17.2003    -999.2500    -999.2500       0.0000       0.0000
   2077.2588      12.1363      -0.2540      59.8841     187.8369     735.9689      13.4155    -999.2500    -999.2500       0.0000       0.0000
   2077.4111      11.9467      -0.2540      59.8616     197.9602     876.2379      12.0080    -999.2500    -999.2500       0.0000       0.0000
   2077.5637      11.8171      -0.2540      59.6988     212.9703     845.3768      10.8877    -999.2500    -999.2500       0.0000       0.0000
   2077.7161      11.8241      -0.2540      59.2167     216.8631     927.3276      10.4214    -999.2500    -999.2500       0.0000       0.0000
   2077.8684      11.8766      -0.2540      58.5994     211.7425    1100.7404       9.9585    -999.2500    -999.2500       0.0000       0.0000
   2078.0208      12.0332      -0.2540      57.6755     195.8736    1115.6973       9.5033    -999.2500    -999.2500       0.0000       0.0000
   2078.1731      12.2443      -0.2540      56.6934     171.4283    1004.2197       8.9511    -999.2500    -999.2500       0.0000       0.0000
   2078.3257      12.5797      -0.2540      55.5794     144.8095     688.1235       8.1780    -999.2500    -999.2500       0.0000       0.0000
   2078.4780      12.8472      -0.2540      54.8507     116.4950     212.3897       7.7041    -999.2500    -999.2500       0.0000       0.0000
   2078.6304      12.9598      -0.2540      54.9967      96.9126      19.6870       7.9146    -999.2500    -999.2500       0.0000       0.0000
   2078.7827      13.1004      -0.2540      55.8973      83.9908      42.8728       9.8567    -999.2500    -999.2500       0.0000       0.0000
   2078.9353      13.3050      -0.2540      58.5046      76.0736      41.7403      15.7453    -999.2500    -999.2500       0.0000       0.0000
   2079.0876      13.4462      -0.2540      60.2852      71.8885      22.4734      19.8308    -999.2500    -999.2500       0.0000       0.0000
   2079.2400      13.4437      -0.2540      60.1876      68.6578     198.5007      19.8203    -999.2500    -999.2500       0.0000       0.0000
   2079.3923      13.4147      -0.2532      59.4640      66.1228     516.8932      19.7266    -999.2500    -999.2500       0.0000       0.0000
   2079.5449      13.3252      -0.2507      57.3229      64.5382     505.1717      19.4430    -999.2500    -999.2500       0.0000       0.0000
   2079.6973      13.2648      -0.2354      55.8857      63.6352     256.6678      18.3004    -999.2500    -999.2500       0.0000       0.0000
   2079.8496      13.2708      -0.1909      56.0482      73.3852     182.4515      15.2058    -999.2500    -999.2500       0.0000       0.0000
   2080.0020      13.3050      -0.1573      57.0115      90.6040     230.4245      13.0572    -999.2500    -999.2500       0.0000       0.0000
   2080.1543      13.4036      -0.1483      59.7883     115.0994     783.7078      13.0677    -999.2500    -999.2500       0.0000       0.0000
   2080.3069      13.4822      -0.1234      62.5151     144.5806    1683.2223      13.1341    -999.2500    -999.2500       0.0000       0.0000
   2080.4592      13.5157      -0.0624      65.1280     156.3070    1709.6135      13.3275    -999.2500    -999.2500       0.0000       0.0000
   2080.6116      13.5678      -0.0200      67.0734     156.1451    1151.3730      13.6236    -999.2500    -999.2500       0.0000       0.0000
   2080.7639      13.6623      -0.0200      67.5057     131.3624     649.1571      14.1543    -999.2500    -999.2500       0.0000       0.0000
   2080.9165      13.7204      -0.0212      73.3611      90.4710     183.5965      14.9223    -999.2500    -999.2500       0.0000       0.0000
   2081.0688      13.6954      -0.0252      91.5568      74.9342       2.2715      16.2302    -999.2500    -999.2500       0.0000       0.0000
   2081.2212      13.6888      -0.0452     103.9890      75.6050       2.6413      17.1277    -999.2500    -999.2500       0.0000       0.0000
   2081.3735      13.7243      -0.1017     103.3518      85.7458       9.0265      17.0872    -999.2500    -999.2500       0.0000       0.0000
   2081.5259      13.7488      -0.1408     100.0149     101.8404      19.1936      16.8612    -999.2500    -999.2500       0.0000       0.0000
   2081.6785      13.7483      -0.1403      90.5314     129.3088      18.7154      16.2130    -999.2500    -999.2500       0.0000       0.0000
   2081.8308      13.7448      -0.1348      82.5770     163.7623      11.6995      15.4757    -999.2500    -999.2500       0.0000       0.0000
   2081.9832      13.7343      -0.1178      78.0918     186.4337     100.5652      14.5348    -999.2500    -999.2500       0.0000       0.0000
   2082.1355      13.6819      -0.1062      75.1780     202.0380     246.9430      13.5287    -999.2500    -999.2500       0.0000       0.0000
   2082.2881      13.5339      -0.1067      75.8172     204.7856     871.4946      12.3737    -999.2500    -999.2500       0.0000       0.0000
   2082.4404      13.4404      -0.1116      80.0983     200.0023    1776.1404      11.5838    -999.2500    -999.2500       0.0000       0.0000
   2082.5928      13.4714      -0.1266      92.6474     204.4863    2105.2280      11.6294    -999.2500    -999.2500       0.0000       0.0000
   2082.7451      13.4919      -0.1367     101.0148     214.2706    2105.1323      12.0588    -999.2500    -999.2500       0.0000       0.0000
   2082.8977      13.4884      -0.1357      99.9213     211.8598    2104.7947      13.3632    -999.2500    -999.2500       0.0000       0.0000
   2083.0500      13.4602      -0.1315      94.7212     202.5921    2104.3210      14.2637    -999.2500    -999.2500       0.0000       0.0000
   2083.2024      13.3757      -0.1200      80.1923     190.3439    1599.8474      14.2462    -999.2500    -999.2500       0.0000       0.0000
   2083.3547      13.1569      -0.1106      69.6483     176.4599     818.7577      14.0770    -999.2500    -999.2500       0.0000       0.0000
   2083.5071      12.6317      -0.1061      68.1249     165.6022     695.3541      13.5618    -999.2500    -999.2500       0.0000       0.0000
   2083.6597      12.0970      -0.1035      66.7536     156.3656     924.2435      13.2124    -999.2500    -999.2500       0.0000       0.0000
   2083.8120      11.5408      -0.1050      65.7277     158.7447     714.1775      13.2399    -999.2500    -999.2500       0.0000       0.0000
   2083.9644      11.1314      -0.1139      63.9505     167.1951     274.6732      13.2326    -999.2500    -999.2500       0.0000       0.0000
   2084.1167      11.0574      -0.1399      60.4715     168.6721     127.2195      13.1461    -999.2500    -999.2500       0.0000       0.0000
   2084.2693      10.9942      -0.1580      58.0666     166.5930     128.6954      12.7430    -999.2500    -999.2500       0.0000       0.0000
   2084.4216      10.9558      -0.1580      58.1046     157.9764     132.0918      11.6200    -999.2500    -999.2500       0.0000       0.0000
   2084.5740      10.9292      -0.1575      58.4249     146.0844     136.4503      10.5814    -999.2500    -999.2500       0.0000       0.0000
