#------------------------------------------------------------------------------
#
#   Created by  : [OpenWorks] Log Export Utility (LEXP)
#   Created on  : 2016-05-11 12:25:19
#   Project     : CANT971
#   User        : R5K
#   Interpreter : PEP
#
#------------------------------------------------------------------------------
~VERSION INFORMATION
VERS. 2.0 : CWLS Log ASCII Standard - version 2.0
WRAP.  NO : One line per depth step
~WELL INFORMATION
#MNEMONIC   .UNIT                                           VALUE :DESCRIPTION
#------------------------------------------------------------------------------
STRT        .M                                          1784.4515 :START DEPTH
STOP        .M                                          2909.3159 :STOP DEPTH
STEP        .M                                             0.1524 :STEP
NULL        .                                           -999.2500 :NULL VALUE
COMP        .                                   PEMEX EXPL & PROD :COMPANY
WELL        .                                               1063D :WELL
FLD         .                                           CANTARELL :FIELD
LOC         .                                             UNKNOWN :LOCATION
CNTY        .                                      CD. DEL CARMEN :COUNTY
STAT        .                                            CAMPECHE :STATE
CTRY        .                                              MEXICO :COUNTRY
SRVC        .                                             UNKNOWN :SERVICE COMPANY
DATE        .                                             UNKNOWN :LOG DATE
UWI         .                                                1000 :UNIQUE WELL ID
XCOORD      .                                       599718.040000 :SURFACE X
YCOORD      .                                      2149967.520000 :SURFACE Y
LAT         .                                           19.442775 :LATITUDE
LON         .                                          -92.050067 :LONGITUDE
ELEV        .M                                            30.0000 :SURFACE ELEV
ELEV_TYPE   .                                                  KB :ELEV TYPE
~CURVE INFORMATION
#MNEMONIC.UNIT        API CODE       : CURVE DESCRIPTION
#------------------------------------------------------------------------------
DEPTH    .M                          : Measured Depth
CALI     .inches      UNKNOWN        : CALI:CALI:rC:NONE:v0 (auto-composite)
DRHO     .g/cm3       UNKNOWN        : DRHO:DRHO:rC:NONE:v0 (auto-composite)
DT       .us/ft       UNKNOWN        : DT:DT:rC:NONE:v0 (auto-composite)
GR       .API         UNKNOWN        : GR:GR:rC:NONE:v0 (auto-composite)
GR-LWD   .UNKNOWN     UNKNOWN        : GR-LWD:registros:rC:NONE:v0 (auto-composite)
LLD      .ohm.m       UNKNOWN        : LLD:LLD:rC:NONE:v0 (auto-composite)
LLD-LWD  .UNKNOWN     UNKNOWN        : LLD-LWD:registros:rC:NONE:v0 (auto-composite)
LLS      .ohm.m       UNKNOWN        : LLS:LLS:rC:NONE:v0 (auto-composite)
LLS-LWD  .UNKNOWN     UNKNOWN        : LLS-LWD:registros:rC:NONE:v0 (auto-composite)
MSFL     .ohm.m       UNKNOWN        : MSFL:MSFL:rC:NONE:v0 (auto-composite)
MSFL-LWD .UNKNOWN     UNKNOWN        : MSFL-LWD:registros:rC:NONE:v0 (auto-composite)
NPHI     .v/v_decimal UNKNOWN        : NPHI:NPHI:rC:NONE:v0 (auto-composite)
PEF      .b/elec      UNKNOWN        : PEF:PEF:rC:NONE:v0 (auto-composite)
RHOB     .g/cm3       UNKNOWN        : RHOB:RHOB:rC:NONE:v0 (auto-composite)
SP       .mV          UNKNOWN        : SP:SP:rC:NONE:v0 (auto-composite)
~A     DEPTH         CALI         DRHO           DT           GR       GR-LWD          LLD      LLD-LWD          LLS      LLS-LWD         MSFL     MSFL-LWD         NPHI          PEF         RHOB           SP
# ...
   2806.7507      10.7000      -0.0190      79.5000      99.5200    -999.2500     439.5130    -999.2500     485.6520    -999.2500     734.2010    -999.2500       0.1670       4.4710       2.5160     -43.2500
   2806.9031      10.7500      -0.0060      82.7000      91.6530    -999.2500     343.0490    -999.2500     386.6970    -999.2500     535.6820    -999.2500       0.1700       4.2770       2.5190     -42.7500
   2807.0554      10.7440      -0.0030      79.7000      79.7250    -999.2500     285.6520    -999.2500     321.5850    -999.2500     218.4280    -999.2500       0.1640       4.0170       2.5450     -40.8750
   2807.2080      10.7790      -0.0030      79.4000      72.4720    -999.2500     266.7050    -999.2500     301.2560    -999.2500     371.5290    -999.2500       0.1710       3.9620       2.5700     -40.4380
   2807.3604      10.7900      -0.0060      76.1000      63.0410    -999.2500     236.7980    -999.2500     266.3360    -999.2500     128.3470    -999.2500       0.1650       4.1700       2.6060     -40.5000
   2807.5127      10.8110      -0.0060      74.7000      70.1810    -999.2500     232.6130    -999.2500     257.3180    -999.2500     199.1730    -999.2500       0.1810       4.2740       2.6050     -40.7500
   2807.6650      10.8140      -0.0150      76.3000      69.1800    -999.2500     283.0270    -999.2500     303.2590    -999.2500     188.0970    -999.2500       0.1980       4.1080       2.5700     -40.8750
   2807.8176      10.7180      -0.0160      79.6000      75.1140    -999.2500     393.5710    -999.2500     412.5770    -999.2500     179.6940    -999.2500       0.1860       4.2330       2.5610     -40.6880
   2807.9700      10.7260      -0.0140      77.0000      69.2130    -999.2500     565.5540    -999.2500     572.3600    -999.2500     308.5960    -999.2500       0.1800       4.5710       2.5530     -40.3130
   2808.1223      10.7490      -0.0060      73.6000      76.7210    -999.2500     913.4850    -999.2500     874.1290    -999.2500     911.4440    -999.2500       0.1450       5.1390       2.5730     -39.8130
   2808.2747      10.7420      -0.0080      73.5000      84.5210    -999.2500    1565.9420    -999.2500    1395.0110    -999.2500    1148.5930    -999.2500       0.1400       5.3330       2.5880     -40.1880
   2808.4272      10.7650      -0.0070      68.1000     100.3110    -999.2500    2317.6980    -999.2500    1926.7100    -999.2500     478.7750    -999.2500       0.1090       5.4200       2.6100     -40.1880
   2808.5796      10.7650      -0.0020      67.7000     102.6050    -999.2500    2245.1960    -999.2500    1878.0570    -999.2500     754.4710    -999.2500       0.0840       5.4150       2.6460     -39.9380
   2808.7319      10.7580      -0.0050      67.0000     104.2790    -999.2500    1887.6790    -999.2500    1630.5200    -999.2500    1548.3640    -999.2500       0.0660       5.2720       2.6350     -39.3130
   2808.8843      10.7170      -0.0060      70.5000     103.1280    -999.2500    1112.7061    -999.2500    1046.1580    -999.2500     709.6860    -999.2500       0.0620       5.0680       2.6120     -38.7500
   2809.0366      10.7160      -0.0080      72.3000     103.4120    -999.2500     888.1420    -999.2500     848.8930    -999.2500     534.8500    -999.2500       0.0700       4.8930       2.5740     -38.6880
   2809.1892      10.7190      -0.0060      69.9000     101.0410    -999.2500     801.5960    -999.2500     785.9810    -999.2500     994.0680    -999.2500       0.1020       4.9550       2.5790     -38.3130
   2809.3416      10.7470      -0.0030      69.7000      97.1780    -999.2500     463.0080    -999.2500     480.8940    -999.2500     331.0890    -999.2500       0.1180       4.6640       2.6180     -37.8130
   2809.4939      10.7480       0.0020      67.8000      95.6070    -999.2500     381.6020    -999.2500     403.5610    -999.2500    1006.2700    -999.2500       0.1070       4.6110       2.6580     -37.0000
   2809.6462      10.7600      -0.0000      70.7000      93.4900    -999.2500     308.3070    -999.2500     326.9130    -999.2500      96.2450    -999.2500       0.0790       4.6840       2.6490     -36.7500
   2809.7988      10.7860      -0.0050      78.1000      94.0670    -999.2500     272.4330    -999.2500     290.0720    -999.2500     146.3730    -999.2500       0.0640       4.7410       2.5830     -36.2500
   2809.9512      10.7120      -0.0120      86.4000      96.7530    -999.2500     333.8050    -999.2500     349.2340    -999.2500     578.5230    -999.2500       0.0910       4.4480       2.5100     -36.0000
   2810.1035      10.6850      -0.0160      83.8000      98.1470    -999.2500     443.3100    -999.2500     456.0060    -999.2500      95.4880    -999.2500       0.1720       4.1520       2.4790     -36.3130
   2810.2559      10.7030      -0.0130      85.7000      90.3160    -999.2500     781.0000    -999.2500     768.2700    -999.2500     338.5100    -999.2500       0.2170       4.2830       2.5140     -36.2500
   2810.4084      10.7210      -0.0060      76.2000      80.5820    -999.2500    1569.9510    -999.2500    1441.6880    -999.2500     791.2250    -999.2500       0.2090       4.8640       2.5870     -36.1250
   2810.5608      10.7490      -0.0050      70.3000      71.1810    -999.2500    1737.7850    -999.2500    1588.1840    -999.2500     495.1620    -999.2500       0.1390       5.1850       2.6190     -36.0630
   2810.7131      10.7520      -0.0120      70.7000      63.5240    -999.2500     678.2540    -999.2500     677.6970    -999.2500    1605.4060    -999.2500       0.1080       4.9720       2.5970     -36.5630
   2810.8655      10.7510      -0.0170      72.1000      56.9180    -999.2500     435.3970    -999.2500     445.6090    -999.2500    1733.7740    -999.2500       0.0840       4.4110       2.5860     -37.0000
   2811.0178      10.7470      -0.0160      68.5500      55.3570    -999.2500     342.3240    -999.2500     348.5310    -999.2500    1748.9210    -999.2500       0.0820       4.1870       2.5840     -37.5000
   2811.1704      10.7600      -0.0160      72.2500      60.1460    -999.2500     319.4990    -999.2500     324.3630    -999.2500     335.0190    -999.2500       0.0890       4.4760       2.5870     -38.1880
   2811.3228      10.7510      -0.0110      75.2000      66.5630    -999.2500     367.3840    -999.2500     366.1440    -999.2500     119.4420    -999.2500       0.1230       4.4960       2.5920     -38.9380
   2811.4751      10.7460      -0.0030      78.7000      69.1470    -999.2500     322.2480    -999.2500     330.7500    -999.2500     262.5670    -999.2500       0.1220       4.5660       2.5820     -39.3130
   2811.6274      10.7370       0.0060      88.1000      64.4770    -999.2500     146.2820    -999.2500     155.8270    -999.2500     448.0020    -999.2500       0.1120       4.0610       2.5750     -39.6880
   2811.7800      10.7450      -0.0010      94.3000      64.0900    -999.2500      85.1590    -999.2500      91.8570    -999.2500     148.9180    -999.2500       0.1170       3.7850       2.5010     -40.4380
   2811.9324      10.7450      -0.0000      96.0000      67.5830    -999.2500      39.8500    -999.2500      42.9150    -999.2500      97.5760    -999.2500       0.1890       3.6790       2.4720     -41.3750
   2812.0847      10.7460      -0.0040      84.2000      83.6460    -999.2500      37.3810    -999.2500      39.9500    -999.2500     143.9380    -999.2500       0.2800       4.0250       2.4860     -41.4380
   2812.2371      10.7520      -0.0070      71.9000      98.2110    -999.2500      46.8350    -999.2500      49.5260    -999.2500      34.4540    -999.2500       0.3170       4.5790       2.5420     -41.3130
   2812.3896      10.7810      -0.0040      67.4000     108.0570    -999.2500      60.5700    -999.2500      63.3040    -999.2500      10.0150    -999.2500       0.2780       4.7330       2.6080     -42.1880
   2812.5420      10.7710      -0.0110      64.2000      97.8300    -999.2500     151.8890    -999.2500     151.4110    -999.2500     312.6880    -999.2500       0.1890       4.8860       2.6110     -43.1880
