#------------------------------------------------------------------------------
#
#   Created by  : [OpenWorks] Log Export Utility (LEXP)
#   Created on  : 2016-05-23 17:52:10
#   Project     : CANT971
#   User        : R5K
#   Interpreter : PEP
#
#------------------------------------------------------------------------------
~VERSION INFORMATION
VERS. 2.0 : CWLS Log ASCII Standard - version 2.0
WRAP.  NO : One line per depth step
~WELL INFORMATION
#MNEMONIC   .UNIT                                           VALUE :DESCRIPTION
#------------------------------------------------------------------------------
STRT        .M                                           540.0000 :START DEPTH
STOP        .M                                          2444.3904 :STOP DEPTH
STEP        .M                                             0.1524 :STEP
NULL        .                                           -999.2500 :NULL VALUE
COMP        .                                   PEMEX EXPL & PROD :COMPANY
WELL        .                                                1063 :WELL
FLD         .                                           CANTARELL :FIELD
LOC         .                                             UNKNOWN :LOCATION
CNTY        .                                      CD. DEL CARMEN :COUNTY
STAT        .                                            CAMPECHE :STATE
CTRY        .                                              MEXICO :COUNTRY
SRVC        .                                             UNKNOWN :SERVICE COMPANY
DATE        .                                             UNKNOWN :LOG DATE
UWI         .                                          3060000211 :UNIQUE WELL ID
XCOORD      .                                       598505.130000 :SURFACE X
YCOORD      .                                      2149276.180000 :SURFACE Y
LAT         .                                           19.436588 :LATITUDE
LON         .                                          -92.061656 :LONGITUDE
ELEV        .M                                            27.6000 :SURFACE ELEV
ELEV_TYPE   .                                                  KB :ELEV TYPE
~CURVE INFORMATION
#MNEMONIC.UNIT        API CODE       : CURVE DESCRIPTION
#------------------------------------------------------------------------------
DEPTH    .M                          : Measured Depth
CALI     .inches      UNKNOWN        : CALI:litodensidad:rC:NONE:v0 (auto-composite)
DRHO     .g/cm3       UNKNOWN        : DRHO:litodensidad:rC:NONE:v0 (auto-composite)
DT       .us/ft       UNKNOWN        : DT:DT:rC:NONE:v0 (auto-composite)
LLD      .UNKNOWN     UNKNOWN        : LLD:UNKNOWN:rC:NONE:v0 (auto-composite)
MSFL     .UNKNOWN     UNKNOWN        : MSFL:UNKNOWN:rC:NONE:v0 (auto-composite)
NPHI     .v/v_decimal UNKNOWN        : NPHI:NPHI:rC:NONE:v0 (auto-composite)
RHOB     .g/cm3       UNKNOWN        : RHOB:litodensidad:rC:NONE:v0 (auto-composite)
SIGM     .UNKNOWN     UNKNOWN        : SIGM:UNKNOWN:rC:NONE:v0 (auto-composite)
SP       .UNKNOWN     UNKNOWN        : SP:UNKNOWN:rC:NONE:v0 (auto-composite)
TAU      .UNKNOWN     UNKNOWN        : TAU:UNKNOWN:rC:NONE:v0 (auto-composite)
~A     DEPTH         CALI         DRHO           DT          LLD         MSFL         NPHI         RHOB         SIGM           SP          TAU
# ...
   1854.2976       8.9933      -0.2550    -999.2500     112.0032    -999.2500       4.7008    -999.2500     -17.2024       0.0000       0.0000
   1854.4500       8.9930      -0.2550    -999.2500     180.3070    -999.2500       4.7259    -999.2500     -16.6098       0.0000       0.0000
   1854.6024       8.9930      -0.2550    -999.2500     268.4319    -999.2500       4.8999    -999.2500     -16.0546       0.0000       0.0000
   1854.7548       8.9930      -0.2550    -999.2500     365.1184    -999.2500       4.9086    -999.2500     -15.5156       0.0000       0.0000
   1854.9072       8.9930      -0.2550    -999.2500     367.1704    -999.2500       4.5386    -999.2500     -15.3719       0.0000       0.0000
   1855.0596       8.9928      -0.2550    -999.2500     329.4124    -999.2500       4.6059    -999.2500     -15.3944       0.0000       0.0000
   1855.2120       8.9923      -0.2550    -999.2500     258.8441    -999.2500       5.6753    -999.2500     -15.5193       0.0000       0.0000
   1855.3644       8.9920      -0.2550    -999.2500     174.7856    -999.2500       7.5311    -999.2500     -15.6863       0.0000       0.0000
   1855.5168       8.9920      -0.2550    -999.2500     155.8509    -999.2500      11.1895    -999.2500     -15.9320       0.0000       0.0000
   1855.6692       8.9918      -0.2550    -999.2500     162.9791    -999.2500      14.6773    -999.2500     -16.2093       0.0000       0.0000
   1855.8217       8.9913      -0.2550    -999.2500     178.7236    -999.2500      17.7739    -999.2500     -16.3476       0.0000       0.0000
   1855.9740       8.9910      -0.2550    -999.2500     197.8234    -999.2500      19.3288    -999.2500     -16.4318       0.0000       0.0000
   1856.1263       8.9910      -0.2550    -999.2500     208.1151    -999.2500      17.3604    -999.2500     -16.3453       0.0000       0.0000
   1856.2788       8.9908      -0.2550    -999.2500     215.0568    -999.2500      15.6401    -999.2500     -16.1939       0.0000       0.0000
   1856.4312       8.9903      -0.2550    -999.2500     194.0097    -999.2500      14.4872    -999.2500     -16.1929       0.0000       0.0000
   1856.5836       8.9900      -0.2550    -999.2500     162.6112    -999.2500      13.2629    -999.2500     -16.2475       0.0000       0.0000
   1856.7360       8.9900      -0.2550    -999.2500     146.6942    -999.2500      11.8754    -999.2500     -16.4972       0.0000       0.0000
   1856.8884       8.9898      -0.2550    -999.2500     136.3432    -999.2500      10.9489    -999.2500     -16.8170       0.0000       0.0000
   1857.0408       8.9893      -0.2550    -999.2500     130.2710    -999.2500      11.0769    -999.2500     -17.4620       0.0000       0.0000
   1857.1932       8.9890      -0.2550    -999.2500     125.6998    -999.2500      11.2609    -999.2500     -18.2211       0.0000       0.0000
   1857.3456       8.9890      -0.2550    -999.2500     122.5434    -999.2500      11.5729    -999.2500     -19.3377       0.0000       0.0000
   1857.4980       8.9890      -0.2550    -999.2500     119.8690    -999.2500      11.9784    -999.2500     -20.5761       0.0000       0.0000
   1857.6504       8.9890      -0.2550    -999.2500     120.4846    -999.2500      12.5978    -999.2500     -21.7935       0.0000       0.0000
   1857.8029       8.9888      -0.2550    -999.2500     122.1933    -999.2500      12.4984    -999.2500     -23.0038       0.0000       0.0000
   1857.9552       8.9883      -0.2550    -999.2500     129.7662    -999.2500      10.7529    -999.2500     -23.7873       0.0000       0.0000
   1858.1075       8.9880      -0.2550    -999.2500     139.2304    -999.2500       9.0900    -999.2500     -24.4331       0.0000       0.0000
   1858.2600       8.9880      -0.2550    -999.2500     162.5677    -999.2500       7.6161    -999.2500     -24.9775       0.0000       0.0000
   1858.4124       8.9878      -0.2550    -999.2500     190.2458    -999.2500       6.6327    -999.2500     -25.4902       0.0000       0.0000
   1858.5648       8.9873      -0.2550    -999.2500     232.8266    -999.2500       6.7732    -999.2500     -25.5700       0.0000       0.0000
   1858.7172       8.9870      -0.2550    -999.2500     279.9492    -999.2500       7.2365    -999.2500     -25.5179       0.0000       0.0000
   1858.8696       8.9870      -0.2550    -999.2500     302.7142    -999.2500       8.4394    -999.2500     -25.6984       0.0000       0.0000
   1859.0220       8.9868      -0.2550    -999.2500     318.2838    -999.2500      10.1831    -999.2500     -25.9476       0.0000       0.0000
   1859.1744       8.9863      -0.2550    -999.2500     411.5268    -999.2500      13.1660    -999.2500     -26.7703       0.0000       0.0000
   1859.3268       8.9860      -0.2550    -999.2500     526.9971    -999.2500      15.6674    -999.2500     -27.7571       0.0000       0.0000
   1859.4792       8.9860      -0.2550    -999.2500     608.6461    -999.2500      17.0649    -999.2500     -27.7833       0.0000       0.0000
   1859.6316       8.9860      -0.2550    -999.2500     680.8803    -999.2500      17.7711    -999.2500     -27.5422       0.0000       0.0000
   1859.7841       8.9860      -0.2550    -999.2500     724.2125    -999.2500      16.8976    -999.2500     -26.9860       0.0000       0.0000
   1859.9364       8.9858      -0.2550    -999.2500     759.7593    -999.2500      15.7866    -999.2500     -26.3450       0.0000       0.0000
   1860.0887       8.9853      -0.2550    -999.2500     742.9350    -999.2500      14.1326    -999.2500     -25.6112       0.0000       0.0000
   1860.2412       8.9850      -0.2550    -999.2500     712.4014    -999.2500      12.4393    -999.2500     -24.8531       0.0000       0.0000
   1860.3936       8.9850      -0.2550    -999.2500     581.8837    -999.2500      10.6558    -999.2500     -24.3059       0.0000       0.0000
   1860.5460       8.9848      -0.2550    -999.2500     426.0692    -999.2500       9.4599    -999.2500     -23.8120       0.0000       0.0000
   1860.6984       8.9843      -0.2550    -999.2500     347.6907    -999.2500       9.6074    -999.2500     -23.3372       0.0000       0.0000
   1860.8508       8.9840      -0.2550    -999.2500     288.2347    -999.2500       9.6695    -999.2500     -22.8671       0.0000       0.0000
   1861.0032       8.9840      -0.2550    -999.2500     280.1398    -999.2500       9.5365    -999.2500     -22.3405       0.0000       0.0000
   1861.1556       8.9838      -0.2550    -999.2500     284.2206    -999.2500       9.2878    -999.2500     -21.8005       0.0000       0.0000
   1861.3080       8.9833      -0.2550    -999.2500     312.8695    -999.2500       8.7744    -999.2500     -21.0662       0.0000       0.0000
   1861.4604       8.9830      -0.2550    -999.2500     347.1354    -999.2500       8.3176    -999.2500     -20.2876       0.0000       0.0000
   1861.6128       8.9830      -0.2550    -999.2500     372.3018    -999.2500       7.9906    -999.2500     -20.6936       0.0000       0.0000
   1861.7653       8.9828      -0.2550    -999.2500     395.4632    -999.2500       8.5216    -999.2500     -21.3607       0.0000       0.0000
   1861.9176       8.9823      -0.2550    -999.2500     333.2832    -999.2500      11.0170    -999.2500     -21.4073       0.0000       0.0000
   1862.0699       8.9820      -0.2550    -999.2500     252.8999    -999.2500      12.6739    -999.2500     -21.3216       0.0000       0.0000
   1862.2224       8.9820      -0.2550    -999.2500     199.3302    -999.2500      12.4104    -999.2500     -21.3220       0.0000       0.0000
   1862.3748       8.9820      -0.2550    -999.2500     151.2624    -999.2500      12.0204    -999.2500     -21.3400       0.0000       0.0000
   1862.5272       8.9820      -0.2550    -999.2500     189.2221    -999.2500      11.3404    -999.2500     -21.7014       0.0000       0.0000
   1862.6796       8.9818      -0.2550    -999.2500     244.1458    -999.2500      10.7866    -999.2500     -22.1304       0.0000       0.0000
