#------------------------------------------------------------------------------
#
#   Created by  : [OpenWorks] Log Export Utility (LEXP)
#   Created on  : 2016-05-23 17:52:10
#   Project     : CANT971
#   User        : R5K
#   Interpreter : PEP
#
#------------------------------------------------------------------------------
~VERSION INFORMATION
VERS. 2.0 : CWLS Log ASCII Standard - version 2.0
WRAP.  NO : One line per depth step
~WELL INFORMATION
#MNEMONIC   .UNIT                                           VALUE :DESCRIPTION
#------------------------------------------------------------------------------
STRT        .M                                           540.0000 :START DEPTH
STOP        .M                                          2444.3904 :STOP DEPTH
STEP        .M                                             0.1524 :STEP
NULL        .                                           -999.2500 :NULL VALUE
COMP        .                                   PEMEX EXPL & PROD :COMPANY
WELL        .                                                1063 :WELL
FLD         .                                           CANTARELL :FIELD
LOC         .                                             UNKNOWN :LOCATION
CNTY        .                                      CD. DEL CARMEN :COUNTY
STAT        .                                            CAMPECHE :STATE
CTRY        .                                              MEXICO :COUNTRY
SRVC        .                                             UNKNOWN :SERVICE COMPANY
DATE        .                                             UNKNOWN :LOG DATE
UWI         .                                          3060000211 :UNIQUE WELL ID
XCOORD      .                                       598505.130000 :SURFACE X
YCOORD      .                                      2149276.180000 :SURFACE Y
LAT         .                                           19.436588 :LATITUDE
LON         .                                          -92.061656 :LONGITUDE
ELEV        .M                                            27.6000 :SURFACE ELEV
ELEV_TYPE   .                                                  KB :ELEV TYPE
~CURVE INFORMATION
#MNEMONIC.UNIT        API CODE       : CURVE DESCRIPTION
#------------------------------------------------------------------------------
DEPTH    .M                          : Measured Depth
CALI     .inches      UNKNOWN        : CALI:litodensidad:rC:NONE:v0 (auto-composite)
DRHO     .g/cm3       UNKNOWN        : DRHO:litodensidad:rC:NONE:v0 (auto-composite)
DT       .us/ft       UNKNOWN        : DT:DT:rC:NONE:v0 (auto-composite)
LLD      .UNKNOWN     UNKNOWN        : LLD:UNKNOWN:rC:NONE:v0 (auto-composite)
MSFL     .UNKNOWN     UNKNOWN        : MSFL:UNKNOWN:rC:NONE:v0 (auto-composite)
NPHI     .v/v_decimal UNKNOWN        : NPHI:NPHI:rC:NONE:v0 (auto-composite)
RHOB     .g/cm3       UNKNOWN        : RHOB:litodensidad:rC:NONE:v0 (auto-composite)
SIGM     .UNKNOWN     UNKNOWN        : SIGM:UNKNOWN:rC:NONE:v0 (auto-composite)
SP       .UNKNOWN     UNKNOWN        : SP:UNKNOWN:rC:NONE:v0 (auto-composite)
TAU      .UNKNOWN     UNKNOWN        : TAU:UNKNOWN:rC:NONE:v0 (auto-composite)
~A     DEPTH         CALI         DRHO           DT          LLD         MSFL         NPHI         RHOB         SIGM           SP          TAU
# ...
   2144.4673      10.9048      -0.1310      90.3215   10888.9893    1893.4359       6.5481       2.6929    -999.2500       0.0000       0.0000
   2144.6196      10.9095      -0.1315      94.2672    9966.6094    1456.9865       7.8548       2.6994    -999.2500       0.0000       0.0000
   2144.7720      10.9080      -0.1330      96.5275    8750.1582     871.0411       7.7788       2.7139    -999.2500       0.0000       0.0000
   2144.9243      10.8983      -0.1352      97.7931    7434.2114    1171.0853       7.5832       2.7301    -999.2500       0.0000       0.0000
   2145.0769      10.8698      -0.1392      96.8080    6077.9854    1829.8143       7.1151       2.7501    -999.2500       0.0000       0.0000
   2145.2292      10.8593      -0.1434      94.6506    4818.3940    2015.1521       6.5045       2.7667    -999.2500       0.0000       0.0000
   2145.3816      10.8898      -0.1479      89.8303    3596.8755    2013.9813       5.5704       2.7757    -999.2500       0.0000       0.0000
   2145.5339      10.9015      -0.1522      83.8879    2517.4419    2012.6954       4.7089       2.7806    -999.2500       0.0000       0.0000
   2145.6863      10.8705      -0.1562      75.4050    1492.4686    2011.3652       4.0132       2.7761    -999.2500       0.0000       0.0000
   2145.8389      10.8505      -0.1590      67.7094    1221.6060    2010.0344       3.4645       2.7744    -999.2500       0.0000       0.0000
   2145.9912      10.8555      -0.1590      61.8033    1234.1312    2008.7032       3.2501       2.7789    -999.2500       0.0000       0.0000
   2146.1436      10.8768      -0.1585      57.6188    1263.1835    2007.3717       3.0381       2.7808    -999.2500       0.0000       0.0000
   2146.2959      10.9354      -0.1570      57.3339    1298.2742    2006.0400       2.8315       2.7768    -999.2500       0.0000       0.0000
   2146.4485      10.9723      -0.1563      57.1389     911.1379    2004.7094       2.6923       2.7742    -999.2500       0.0000       0.0000
   2146.6008      10.9603      -0.1573      57.1484     374.0612    2003.3792       2.7063       2.7747    -999.2500       0.0000       0.0000
   2146.7532      10.9322      -0.1560      57.1772     236.8591    1921.7156       2.7877       2.7803    -999.2500       0.0000       0.0000
   2146.9055      10.8672      -0.1495      57.2497     237.6192    1812.3359       3.0233       2.7978    -999.2500       0.0000       0.0000
   2147.0581      10.8377      -0.1450      57.5206     293.6247    1356.6332       3.1762       2.8100    -999.2500       0.0000       0.0000
   2147.2104      10.8892      -0.1450      58.2434     368.1406     784.8923       3.1406       2.8100    -999.2500       0.0000       0.0000
   2147.3628      10.9241      -0.1452      59.4696    1007.8627    1153.5382       3.1197       2.8091    -999.2500       0.0000       0.0000
   2147.5151      10.9211      -0.1457      61.8375    1833.0110    1830.6953       3.1317       2.8061    -999.2500       0.0000       0.0000
   2147.6675      10.9134      -0.1466      66.2974    3595.6843    1993.5492       3.1688       2.8008    -999.2500       0.0000       0.0000
   2147.8201      10.8948      -0.1486      75.4849    5656.8291    1992.6688       3.2634       2.7903    -999.2500       0.0000       0.0000
   2147.9724      10.8864      -0.1511      87.3901    5104.0381    1670.5731       3.3810       2.7804    -999.2500       0.0000       0.0000
   2148.1248      10.9009      -0.1546     105.4617    3744.0757    1249.2877       3.5509       2.7719    -999.2500       0.0000       0.0000
   2148.2771      10.9240      -0.1578     120.4748    2785.8691    1440.9235       3.6859       2.7596    -999.2500       0.0000       0.0000
   2148.4297      10.9665      -0.1603     128.5718    1947.9348    1816.0474       3.7415       2.7386    -999.2500       0.0000       0.0000
   2148.5820      10.9929      -0.1622     134.9543    1329.7733    1174.8975       4.0986       2.7240    -999.2500       0.0000       0.0000
   2148.7344      10.9829      -0.1627     137.4443     775.3620     238.9536       5.1407       2.7240    -999.2500       0.0000       0.0000
   2148.8867      10.9676      -0.1632     138.0141     818.3705     159.9515       5.8569       2.7248    -999.2500       0.0000       0.0000
   2149.0393      10.9401      -0.1637     134.2397    1030.7748     323.9316       5.8304       2.7273    -999.2500       0.0000       0.0000
   2149.1917      10.9135      -0.1649     128.7655    1452.9441     996.5181       5.7454       2.7316    -999.2500       0.0000       0.0000
   2149.3440      10.8890      -0.1679     119.4296    1932.6890    1808.7050       5.5275       2.7401    -999.2500       0.0000       0.0000
   2149.4963      10.8863      -0.1700     111.6443    3073.6431    1650.1617       5.0934       2.7518    -999.2500       0.0000       0.0000
   2149.6487      10.9333      -0.1700     107.3697    4390.1709    1233.8561       4.1660       2.7708    -999.2500       0.0000       0.0000
   2149.8013      10.9658      -0.1697     104.5743    5786.2646    1150.1703       3.5406       2.7835    -999.2500       0.0000       0.0000
   2149.9536      10.9653      -0.1687     105.1415    7202.7847    1151.8735       3.6016       2.7820    -999.2500       0.0000       0.0000
   2150.1060      10.9620      -0.1674     103.9206   10250.6533    1491.6680       3.6925       2.7748    -999.2500       0.0000       0.0000
   2150.2583      10.9519      -0.1654      98.6494   13703.1318    1915.3164       3.8515       2.7542    -999.2500       0.0000       0.0000
   2150.4109      10.9340      -0.1631      91.3279   16178.4355    1995.4883       4.0014       2.7400    -999.2500       0.0000       0.0000
   2150.5632      10.8980      -0.1601      79.3429   18419.7578    1993.4161       4.1303       2.7400    -999.2500       0.0000       0.0000
   2150.7156      10.8771      -0.1569      70.0388   17194.4766    1990.3643       4.3297       2.7414    -999.2500       0.0000       0.0000
   2150.8679      10.8906      -0.1534      66.8107   15160.0225    1987.0836       4.6898       2.7459    -999.2500       0.0000       0.0000
   2151.0205      10.9118      -0.1524      63.7633   13560.5723    1289.5562       4.9011       2.7528    -999.2500       0.0000       0.0000
   2151.1729      10.9503      -0.1569      61.1273   12059.0156     435.7939       4.7735       2.7653    -999.2500       0.0000       0.0000
   2151.3252      10.9715      -0.1579      60.6122   11267.3623     978.7128       4.5206       2.7703    -999.2500       0.0000       0.0000
   2151.4775      10.9535      -0.1509      64.9068   10629.5996    1824.4011       3.9833       2.7583    -999.2500       0.0000       0.0000
   2151.6299      10.9204      -0.1462      70.7082    8971.3467    1968.9675       3.6402       2.7509    -999.2500       0.0000       0.0000
   2151.7825      10.8529      -0.1467      79.9152    7100.1948    1967.2628       3.7393       2.7539    -999.2500       0.0000       0.0000
   2151.9348      10.8080      -0.1476      86.8087    6181.9546    1517.4529       3.8075       2.7651    -999.2500       0.0000       0.0000
   2152.0872      10.8145      -0.1496      88.4524    5454.8491     977.7621       3.8060       2.7951    -999.2500       0.0000       0.0000
   2152.2395      10.8260      -0.1510      89.3465    4977.1099    1175.2867       3.7788       2.8160    -999.2500       0.0000       0.0000
   2152.3921      10.8490      -0.1510      88.5458    4547.9780    1516.5127       3.6927       2.8160    -999.2500       0.0000       0.0000
   2152.5444      10.8781      -0.1507      87.4663    3432.4109    1012.5662       3.6379       2.8104    -999.2500       0.0000       0.0000
   2152.6968      10.9211      -0.1497      85.7537    2188.4390     350.5215       3.6539       2.7919    -999.2500       0.0000       0.0000
   2152.8491      10.9403      -0.1488      84.4635    1639.4421     715.9675       3.7437       2.7792    -999.2500       0.0000       0.0000
