#------------------------------------------------------------------------------
#
#   Created by  : [OpenWorks] Log Export Utility (LEXP)
#   Created on  : 2016-05-23 17:52:10
#   Project     : CANT971
#   User        : R5K
#   Interpreter : PEP
#
#------------------------------------------------------------------------------
~VERSION INFORMATION
VERS. 2.0 : CWLS Log ASCII Standard - version 2.0
WRAP.  NO : One line per depth step
~WELL INFORMATION
#MNEMONIC   .UNIT                                           VALUE :DESCRIPTION
#------------------------------------------------------------------------------
STRT        .M                                           540.0000 :START DEPTH
STOP        .M                                          2444.3904 :STOP DEPTH
STEP        .M                                             0.1524 :STEP
NULL        .                                           -999.2500 :NULL VALUE
COMP        .                                   PEMEX EXPL & PROD :COMPANY
WELL        .                                                1063 :WELL
FLD         .                                           CANTARELL :FIELD
LOC         .                                             UNKNOWN :LOCATION
CNTY        .                                      CD. DEL CARMEN :COUNTY
STAT        .                                            CAMPECHE :STATE
CTRY        .                                              MEXICO :COUNTRY
SRVC        .                                             UNKNOWN :SERVICE COMPANY
DATE        .                                             UNKNOWN :LOG DATE
UWI         .                                          3060000211 :UNIQUE WELL ID
XCOORD      .                                       598505.130000 :SURFACE X
YCOORD      .                                      2149276.180000 :SURFACE Y
LAT         .                                           19.436588 :LATITUDE
LON         .                                          -92.061656 :LONGITUDE
ELEV        .M                                            27.6000 :SURFACE ELEV
ELEV_TYPE   .                                                  KB :ELEV TYPE
~CURVE INFORMATION
#MNEMONIC.UNIT        API CODE       : CURVE DESCRIPTION
#------------------------------------------------------------------------------
DEPTH    .M                          : Measured Depth
CALI     .inches      UNKNOWN        : CALI:litodensidad:rC:NONE:v0 (auto-composite)
DRHO     .g/cm3       UNKNOWN        : DRHO:litodensidad:rC:NONE:v0 (auto-composite)
DT       .us/ft       UNKNOWN        : DT:DT:rC:NONE:v0 (auto-composite)
LLD      .UNKNOWN     UNKNOWN        : LLD:UNKNOWN:rC:NONE:v0 (auto-composite)
MSFL     .UNKNOWN     UNKNOWN        : MSFL:UNKNOWN:rC:NONE:v0 (auto-composite)
NPHI     .v/v_decimal UNKNOWN        : NPHI:NPHI:rC:NONE:v0 (auto-composite)
RHOB     .g/cm3       UNKNOWN        : RHOB:litodensidad:rC:NONE:v0 (auto-composite)
SIGM     .UNKNOWN     UNKNOWN        : SIGM:UNKNOWN:rC:NONE:v0 (auto-composite)
SP       .UNKNOWN     UNKNOWN        : SP:UNKNOWN:rC:NONE:v0 (auto-composite)
TAU      .UNKNOWN     UNKNOWN        : TAU:UNKNOWN:rC:NONE:v0 (auto-composite)
~A     DEPTH         CALI         DRHO           DT          LLD         MSFL         NPHI         RHOB         SIGM           SP          TAU
# ...
   2289.5520      10.5187       0.1230      95.7471     120.0059      23.8477      14.1886       2.7002    -999.2500       0.0000       0.0000
   2289.7043      10.5557       0.1611      90.1309      72.7374      12.3759      13.9131       2.7797    -999.2500       0.0000       0.0000
   2289.8567      10.5677       0.2006      86.6834      36.0305       3.4350      13.2538       2.6837    -999.2500       0.0000       0.0000
   2290.0093      10.5719       0.2259      83.1892      37.7969       3.7138      12.4409       2.6207    -999.2500       0.0000       0.0000
   2290.1616      10.5584       0.2189      79.5889      41.2870       3.6491      11.2785       2.6327    -999.2500       0.0000       0.0000
   2290.3140      10.5461       0.2051      76.1524      50.8555       2.3730      10.0185       2.6612    -999.2500       0.0000       0.0000
   2290.4663      10.5366       0.1761      73.0873      63.3341       1.3379       8.5377       2.7272    -999.2500       0.0000       0.0000
   2290.6189      10.5292       0.1435      70.6152      85.7517       1.1253       7.2449       2.7718    -999.2500       0.0000       0.0000
   2290.7712      10.5267       0.1025      69.4822     123.0293       1.7794       6.3801       2.7678    -999.2500       0.0000       0.0000
   2290.9236      10.5132       0.0694      70.1429     209.4922       5.3023       5.8124       2.7566    -999.2500       0.0000       0.0000
   2291.0759      10.4747       0.0544      74.8702     268.0305      11.1875       5.9184       2.7291    -999.2500       0.0000       0.0000
   2291.2285      10.4414       0.0496      84.3467     236.1506      24.7216       6.0712       2.7051    -999.2500       0.0000       0.0000
   2291.3809      10.4199       0.0682     104.5530     202.4739      32.9534       6.3308       2.6891    -999.2500       0.0000       0.0000
   2291.5332      10.4636       0.0781     121.3015     163.1539      24.5331       7.2474       2.6275    -999.2500       0.0000       0.0000
   2291.6855      10.6550       0.0686     130.2063     129.9744      16.0867       9.6544       2.4626    -999.2500       0.0000       0.0000
   2291.8379      10.9916       0.0547     136.9875     115.5093       7.5611      12.8303       2.3581    -999.2500       0.0000       0.0000
   2291.9905      11.6588       0.0307     138.9681     104.7991       1.2972      17.7576       2.3911    -999.2500       0.0000       0.0000
   2292.1428      12.2370       0.0022     140.3286     105.1992       1.7253      22.3400       2.3811    -999.2500       0.0000       0.0000
   2292.2952      12.6132      -0.0363     140.2816     106.8371       2.1068      26.1394       2.2737    -999.2500       0.0000       0.0000
   2292.4475      12.7620      -0.0688     140.2355     112.0323       2.3537      28.7199       2.1255    -999.2500       0.0000       0.0000
   2292.6001      12.3967      -0.0878     140.1915     119.4461       2.4551      28.5435       1.8844    -999.2500       0.0000       0.0000
   2292.7524      12.0450      -0.0979     140.1434     133.1065       2.1462      27.6522       1.7283    -999.2500       0.0000       0.0000
   2292.9048      11.7244      -0.0879     140.0859     145.4517       1.9599      25.1372       1.7653    -999.2500       0.0000       0.0000
   2293.0571      11.4355      -0.0720     140.0462     154.1980       2.1088      22.5467       1.8447    -999.2500       0.0000       0.0000
   2293.2097      11.2186      -0.0425     140.0466     159.9480      25.0231      19.7849       2.0207    -999.2500       0.0000       0.0000
   2293.3621      11.0142      -0.0261     140.0360     157.7258     108.5095      16.7790       2.0918    -999.2500       0.0000       0.0000
   2293.5144      10.8381      -0.0396     140.0000     152.8984     167.3978      13.2187       1.9244    -999.2500       0.0000       0.0000
   2293.6667      10.7397      -0.0514     139.9531     141.3288     162.6285      10.2469       1.8112    -999.2500       0.0000       0.0000
   2293.8191      10.8172      -0.0594     139.8816     128.5804     145.7206       8.6076       1.8217    -999.2500       0.0000       0.0000
   2293.9717      10.9891      -0.0516     139.8193     112.8639      98.2485       7.8578       1.9277    -999.2500       0.0000       0.0000
   2294.1240      11.3757      -0.0075     139.7778     102.2405      56.1159       9.1308       2.2508    -999.2500       0.0000       0.0000
   2294.2764      12.0592       0.0225     139.6928     104.0987      27.0681      10.5227       2.4710    -999.2500       0.0000       0.0000
   2294.4287      13.4151       0.0210     139.5092     109.0533       5.9709      12.1840       2.4580    -999.2500       0.0000       0.0000
   2294.5813      14.6105       0.0215     138.8684     121.4526       3.9895      15.0312       2.4301    -999.2500       0.0000       0.0000
   2294.7336      15.4408       0.0265     137.1951     128.6141       3.4769      20.5768       2.3680    -999.2500       0.0000       0.0000
   2294.8860      15.8674       0.0381     134.2865     123.5125       6.4035      23.6857       2.3423    -999.2500       0.0000       0.0000
   2295.0383      15.3786       0.0646     128.5769     112.3839       8.2888      21.2703       2.3988    -999.2500       0.0000       0.0000
   2295.1909      14.8877       0.0977     114.4240      87.5109       7.7995      18.7102       2.4792    -999.2500       0.0000       0.0000
   2295.3433      14.3920       0.1457      81.1943      67.0115       6.4346      15.8212       2.6143    -999.2500       0.0000       0.0000
   2295.4956      14.0616       0.1639      61.1651      56.2297       3.1244      12.8177       2.7013    -999.2500       0.0000       0.0000
   2295.6479      14.1061       0.1144      71.0822      48.4665       0.9075       9.5546       2.6793    -999.2500       0.0000       0.0000
   2295.8003      14.1973       0.0589      83.6858      47.2401       1.0578       7.3601       2.6217    -999.2500       0.0000       0.0000
   2295.9529      14.3948      -0.0101     102.3628      46.7051       1.3701       7.5997       2.4832    -999.2500       0.0000       0.0000
   2296.1052      14.5855      -0.0675     116.1636      47.6402       2.0269       8.2735       2.3019    -999.2500       0.0000       0.0000
   2296.2576      14.7606      -0.0985     118.8962      48.3939       2.3021       9.9331       2.0235    -999.2500       0.0000       0.0000
   2296.4099      14.8484      -0.1267     119.8144      48.7714       1.7862      13.4762       1.8384    -999.2500       0.0000       0.0000
   2296.5625      14.7390      -0.1487     116.6288      49.1450       1.7603      21.2799       1.8659    -999.2500       0.0000       0.0000
   2296.7148      14.7904      -0.1544     112.8857      49.5105       2.7249      26.4475       1.9108    -999.2500       0.0000       0.0000
   2296.8672      15.2070      -0.1229     107.8763      50.7496       3.3205      25.6282       1.9953    -999.2500       0.0000       0.0000
   2297.0195      16.5386      -0.0825     109.1214      53.7113       3.1881      23.3421       2.0885    -999.2500       0.0000       0.0000
   2297.1721      19.9412      -0.0220     124.5228      58.3755       2.9178      17.7361       2.2015    -999.2500       0.0000       0.0000
   2297.3245      22.7494       0.0309     135.7907      66.3145       2.3824      14.0865       2.2899    -999.2500       0.0000       0.0000
   2297.4768      24.2069       0.0664     137.6649      74.9248       2.3243      14.8833       2.3224    -999.2500       0.0000       0.0000
   2297.6292      25.2625       0.0982     138.9670      84.7953       3.1625      17.5545       2.3502    -999.2500       0.0000       0.0000
   2297.7815      25.4080       0.1217     138.9735      90.2553       4.1621      24.4711       2.3672    -999.2500       0.0000       0.0000
   2297.9341      25.5070       0.1378     138.9774      87.5794       5.4597      30.0839       2.3877    -999.2500       0.0000       0.0000
