#------------------------------------------------------------------------------
#
#   Created by  : [OpenWorks] Log Export Utility (LEXP)
#   Created on  : 2016-05-23 17:52:10
#   Project     : CANT971
#   User        : R5K
#   Interpreter : PEP
#
#------------------------------------------------------------------------------
~VERSION INFORMATION
VERS. 2.0 : CWLS Log ASCII Standard - version 2.0
WRAP.  NO : One line per depth step
~WELL INFORMATION
#MNEMONIC   .UNIT                                           VALUE :DESCRIPTION
#------------------------------------------------------------------------------
STRT        .M                                           540.0000 :START DEPTH
STOP        .M                                          2444.3904 :STOP DEPTH
STEP        .M                                             0.1524 :STEP
NULL        .                                           -999.2500 :NULL VALUE
COMP        .                                   PEMEX EXPL & PROD :COMPANY
WELL        .                                                1063 :WELL
FLD         .                                           CANTARELL :FIELD
LOC         .                                             UNKNOWN :LOCATION
CNTY        .                                      CD. DEL CARMEN :COUNTY
STAT        .                                            CAMPECHE :STATE
CTRY        .                                              MEXICO :COUNTRY
SRVC        .                                             UNKNOWN :SERVICE COMPANY
DATE        .                                             UNKNOWN :LOG DATE
UWI         .                                          3060000211 :UNIQUE WELL ID
XCOORD      .                                       598505.130000 :SURFACE X
YCOORD      .                                      2149276.180000 :SURFACE Y
LAT         .                                           19.436588 :LATITUDE
LON         .                                          -92.061656 :LONGITUDE
ELEV        .M                                            27.6000 :SURFACE ELEV
ELEV_TYPE   .                                                  KB :ELEV TYPE
~CURVE INFORMATION
#MNEMONIC.UNIT        API CODE       : CURVE DESCRIPTION
#------------------------------------------------------------------------------
DEPTH    .M                          : Measured Depth
CALI     .inches      UNKNOWN        : CALI:litodensidad:rC:NONE:v0 (auto-composite)
DRHO     .g/cm3       UNKNOWN        : DRHO:litodensidad:rC:NONE:v0 (auto-composite)
DT       .us/ft       UNKNOWN        : DT:DT:rC:NONE:v0 (auto-composite)
LLD      .UNKNOWN     UNKNOWN        : LLD:UNKNOWN:rC:NONE:v0 (auto-composite)
MSFL     .UNKNOWN     UNKNOWN        : MSFL:UNKNOWN:rC:NONE:v0 (auto-composite)
NPHI     .v/v_decimal UNKNOWN        : NPHI:NPHI:rC:NONE:v0 (auto-composite)
RHOB     .g/cm3       UNKNOWN        : RHOB:litodensidad:rC:NONE:v0 (auto-composite)
SIGM     .UNKNOWN     UNKNOWN        : SIGM:UNKNOWN:rC:NONE:v0 (auto-composite)
SP       .UNKNOWN     UNKNOWN        : SP:UNKNOWN:rC:NONE:v0 (auto-composite)
TAU      .UNKNOWN     UNKNOWN        : TAU:UNKNOWN:rC:NONE:v0 (auto-composite)
~A     DEPTH         CALI         DRHO           DT          LLD         MSFL         NPHI         RHOB         SIGM           SP          TAU
# ...
   1495.8528    -999.2500      -0.2540    -999.2500      75.2873    -999.2500       7.4705    -999.2500     -10.8944       0.0000       0.0000
   1496.0052    -999.2500      -0.2540    -999.2500      76.4310    -999.2500       7.8281    -999.2500      -9.8435       0.0000       0.0000
   1496.1576    -999.2500      -0.2540    -999.2500      87.7383    -999.2500       7.7556    -999.2500     -10.1528       0.0000       0.0000
   1496.3101    -999.2500      -0.2540    -999.2500     108.8313    -999.2500       7.5644    -999.2500     -11.7718       0.0000       0.0000
   1496.4624    -999.2500      -0.2540    -999.2500     130.7983    -999.2500       7.0994    -999.2500     -14.4036       0.0000       0.0000
   1496.6147    -999.2500      -0.2540    -999.2500     153.5883    -999.2500       6.3070    -999.2500     -17.9891       0.0000       0.0000
   1496.7672    -999.2500      -0.2540    -999.2500     164.1838    -999.2500       4.7591    -999.2500     -19.2552       0.0000       0.0000
   1496.9196    -999.2500      -0.2540    -999.2500     163.5119    -999.2500       3.7308    -999.2500     -18.3783       0.0000       0.0000
   1497.0720    -999.2500      -0.2540    -999.2500     155.7088    -999.2500       3.9023    -999.2500     -22.1307       0.0000       0.0000
   1497.2244    -999.2500      -0.2540    -999.2500     141.4615    -999.2500       4.2004    -999.2500     -30.0666       0.0000       0.0000
   1497.3768    -999.2500      -0.2540    -999.2500     132.2296    -999.2500       4.7906    -999.2500     -32.0470       0.0000       0.0000
   1497.5292    -999.2500      -0.2540    -999.2500     127.4443    -999.2500       5.3766    -999.2500     -28.7474       0.0000       0.0000
   1497.6816    -999.2500      -0.2540    -999.2500     127.3405    -999.2500       5.9531    -999.2500     -24.5812       0.0000       0.0000
   1497.8340    -999.2500      -0.2540    -999.2500     131.2960    -999.2500       6.4250    -999.2500     -19.6635       0.0000       0.0000
   1497.9865    -999.2500      -0.2540    -999.2500     137.9318    -999.2500       6.6560    -999.2500     -17.0086       0.0000       0.0000
   1498.1388    -999.2500      -0.2540    -999.2500     146.8404    -999.2500       6.8028    -999.2500     -16.2723       0.0000       0.0000
   1498.2913    -999.2500      -0.2540    -999.2500     156.2691    -999.2500       6.7558    -999.2500     -14.8443       0.0000       0.0000
   1498.4436    -999.2500      -0.2540    -999.2500     166.1304    -999.2500       6.7890    -999.2500     -12.8407       0.0000       0.0000
   1498.5959    -999.2500      -0.2540    -999.2500     166.3291    -999.2500       7.0070    -999.2500     -12.3689       0.0000       0.0000
   1498.7484    -999.2500      -0.2540    -999.2500     158.6674    -999.2500       7.5482    -999.2500     -13.1430       0.0000       0.0000
   1498.9008    -999.2500      -0.2540    -999.2500     142.6190    -999.2500       8.8342    -999.2500     -13.4818       0.0000       0.0000
   1499.0532    -999.2500      -0.2540    -999.2500     119.8996    -999.2500       9.6628    -999.2500     -13.4743       0.0000       0.0000
   1499.2056    -999.2500      -0.2540    -999.2500     105.0170    -999.2500       9.4373    -999.2500     -12.8491       0.0000       0.0000
   1499.3580    -999.2500      -0.2540    -999.2500      96.2492    -999.2500       8.9278    -999.2500     -11.7421       0.0000       0.0000
   1499.5104    -999.2500      -0.2540    -999.2500      93.6513    -999.2500       7.7639    -999.2500      -9.5197       0.0000       0.0000
   1499.6628    -999.2500      -0.2537    -999.2500      95.7603    -999.2500       7.0379    -999.2500      -6.4464       0.0000       0.0000
   1499.8152    -999.2500      -0.2527    -999.2500     101.3722    -999.2500       7.3219    -999.2500      -3.8553       0.0000       0.0000
   1499.9677    -999.2500      -0.2517    -999.2500     109.6050    -999.2500       7.4739    -999.2500      -1.6252       0.0000       0.0000
   1500.1200    -999.2500      -0.2507    -999.2500      88.2497    -999.2500       7.3214    -999.2500       0.4136       0.0000       0.0000
   1500.2725    -999.2500      -0.2500    -999.2500      45.2515    -999.2500       7.0974    -999.2500       2.3124       0.0000       0.0000
   1500.4248    -999.2500      -0.2500    -999.2500      28.7532    -999.2500       6.7084    -999.2500       4.7239       0.0000       0.0000
   1500.5771    -999.2500      -0.2500    -999.2500      31.2025    -999.2500       6.3601    -999.2500       7.5020       0.0000       0.0000
   1500.7296    -999.2500      -0.2500    -999.2500      41.7003    -999.2500       6.1056    -999.2500       9.6134       0.0000       0.0000
   1500.8820    -999.2500      -0.2500    -999.2500      57.8416    -999.2500       5.8216    -999.2500      11.2575       0.0000       0.0000
   1501.0344    -999.2500      -0.2500    -999.2500      72.0222    -999.2500       5.4696    -999.2500       7.2027       0.0000       0.0000
   1501.1868    -999.2500      -0.2500    -999.2500      84.8593    -999.2500       5.4212    -999.2500      -0.7574       0.0000       0.0000
   1501.3392    -999.2500      -0.2500    -999.2500      97.6062    -999.2500       6.0740    -999.2500      -8.1077       0.0000       0.0000
   1501.4916    -999.2500      -0.2500    -999.2500     110.2928    -999.2500       6.5246    -999.2500     -15.0496       0.0000       0.0000
   1501.6440    -999.2500      -0.2500    -999.2500     127.6279    -999.2500       6.5101    -999.2500     -18.6769       0.0000       0.0000
   1501.7964    -999.2500      -0.2500    -999.2500     148.0149    -999.2500       6.3842    -999.2500     -20.1279       0.0000       0.0000
   1501.9489    -999.2500      -0.2500    -999.2500     160.3673    -999.2500       6.0017    -999.2500     -20.2014       0.0000       0.0000
   1502.1012    -999.2500      -0.2500    -999.2500     167.5658    -999.2500       5.4850    -999.2500     -19.3911       0.0000       0.0000
   1502.2535    -999.2500      -0.2500    -999.2500     149.5884    -999.2500       4.6596    -999.2500     -14.2411       0.0000       0.0000
   1502.4060    -999.2500      -0.2500    -999.2500     115.8338    -999.2500       4.1831    -999.2500      -6.3715       0.0000       0.0000
   1502.5583    -999.2500      -0.2500    -999.2500      82.6430    -999.2500       4.5106    -999.2500      -0.3803       0.0000       0.0000
   1502.7108    -999.2500      -0.2500    -999.2500      49.7985    -999.2500       4.6362    -999.2500       4.4572       0.0000       0.0000
   1502.8632    -999.2500      -0.2500    -999.2500      46.9325    -999.2500       4.2968    -999.2500     -10.9803       0.0000       0.0000
   1503.0156    -999.2500      -0.2500    -999.2500      62.0509    -999.2500       3.7164    -999.2500     -38.5808       0.0000       0.0000
   1503.1680    -999.2500      -0.2500    -999.2500     108.8317    -999.2500       2.5809    -999.2500     -44.4569       0.0000       0.0000
   1503.3204    -999.2500      -0.2500    -999.2500     174.2255    -999.2500       1.8111    -999.2500     -37.5623       0.0000       0.0000
   1503.4728    -999.2500      -0.2500    -999.2500     166.0576    -999.2500       1.8841    -999.2500     -23.4654       0.0000       0.0000
   1503.6252    -999.2500      -0.2500    -999.2500     115.6654    -999.2500       2.3813    -999.2500      -5.2343       0.0000       0.0000
   1503.7776    -999.2500      -0.2500    -999.2500     198.2495    -999.2500       3.8568    -999.2500       4.3840       0.0000       0.0000
   1503.9301    -999.2500      -0.2500    -999.2500     355.3510    -999.2500       4.8647    -999.2500       9.1758       0.0000       0.0000
   1504.0824    -999.2500      -0.2500    -999.2500     399.7152    -999.2500       4.7942    -999.2500      10.8617       0.0000       0.0000
   1504.2347    -999.2500      -0.2500    -999.2500     382.1956    -999.2500       4.6170    -999.2500      10.8426       0.0000       0.0000
