#------------------------------------------------------------------------------
#
#   Created by  : [OpenWorks] Log Export Utility (LEXP)
#   Created on  : 2016-05-23 17:52:10
#   Project     : CANT971
#   User        : R5K
#   Interpreter : PEP
#
#------------------------------------------------------------------------------
~VERSION INFORMATION
VERS. 2.0 : CWLS Log ASCII Standard - version 2.0
WRAP.  NO : One line per depth step
~WELL INFORMATION
#MNEMONIC   .UNIT                                           VALUE :DESCRIPTION
#------------------------------------------------------------------------------
STRT        .M                                           540.0000 :START DEPTH
STOP        .M                                          2444.3904 :STOP DEPTH
STEP        .M                                             0.1524 :STEP
NULL        .                                           -999.2500 :NULL VALUE
COMP        .                                   PEMEX EXPL & PROD :COMPANY
WELL        .                                                1063 :WELL
FLD         .                                           CANTARELL :FIELD
LOC         .                                             UNKNOWN :LOCATION
CNTY        .                                      CD. DEL CARMEN :COUNTY
STAT        .                                            CAMPECHE :STATE
CTRY        .                                              MEXICO :COUNTRY
SRVC        .                                             UNKNOWN :SERVICE COMPANY
DATE        .                                             UNKNOWN :LOG DATE
UWI         .                                          3060000211 :UNIQUE WELL ID
XCOORD      .                                       598505.130000 :SURFACE X
YCOORD      .                                      2149276.180000 :SURFACE Y
LAT         .                                           19.436588 :LATITUDE
LON         .                                          -92.061656 :LONGITUDE
ELEV        .M                                            27.6000 :SURFACE ELEV
ELEV_TYPE   .                                                  KB :ELEV TYPE
~CURVE INFORMATION
#MNEMONIC.UNIT        API CODE       : CURVE DESCRIPTION
#------------------------------------------------------------------------------
DEPTH    .M                          : Measured Depth
CALI     .inches      UNKNOWN        : CALI:litodensidad:rC:NONE:v0 (auto-composite)
DRHO     .g/cm3       UNKNOWN        : DRHO:litodensidad:rC:NONE:v0 (auto-composite)
DT       .us/ft       UNKNOWN        : DT:DT:rC:NONE:v0 (auto-composite)
LLD      .UNKNOWN     UNKNOWN        : LLD:UNKNOWN:rC:NONE:v0 (auto-composite)
MSFL     .UNKNOWN     UNKNOWN        : MSFL:UNKNOWN:rC:NONE:v0 (auto-composite)
NPHI     .v/v_decimal UNKNOWN        : NPHI:NPHI:rC:NONE:v0 (auto-composite)
RHOB     .g/cm3       UNKNOWN        : RHOB:litodensidad:rC:NONE:v0 (auto-composite)
SIGM     .UNKNOWN     UNKNOWN        : SIGM:UNKNOWN:rC:NONE:v0 (auto-composite)
SP       .UNKNOWN     UNKNOWN        : SP:UNKNOWN:rC:NONE:v0 (auto-composite)
TAU      .UNKNOWN     UNKNOWN        : TAU:UNKNOWN:rC:NONE:v0 (auto-composite)
~A     DEPTH         CALI         DRHO           DT          LLD         MSFL         NPHI         RHOB         SIGM           SP          TAU
# ...
   2366.3616      10.6524      -0.1306      60.2495     431.8818     653.7214       4.5098       2.7803    -999.2500       0.0000       0.0000
   2366.5139      10.6690      -0.1415      62.4715     422.8377     732.7416       4.1133       2.7839    -999.2500       0.0000       0.0000
   2366.6665      10.6985      -0.1465      62.4340     410.9518     565.1931       4.1403       2.7934    -999.2500       0.0000       0.0000
   2366.8188      10.7288      -0.1500      62.2585     419.7533     368.8983       4.2290       2.7992    -999.2500       0.0000       0.0000
   2366.9712      10.7608      -0.1500      61.7693     445.8707     148.5419       4.4581       2.7967    -999.2500       0.0000       0.0000
   2367.1235      10.7907      -0.1486      60.8888     490.2121      58.0142       4.7902       2.7904    -999.2500       0.0000       0.0000
   2367.2759      10.8156      -0.1441      59.1227     549.5666      74.4418       5.3555       2.7754    -999.2500       0.0000       0.0000
   2367.4285      10.8419      -0.1412      57.2451     556.1408     651.1866       5.9406       2.7612    -999.2500       0.0000       0.0000
   2367.5808      10.8709      -0.1417      55.1160     520.1971    1679.3015       6.5708       2.7487    -999.2500       0.0000       0.0000
   2367.7332      10.8905      -0.1434      53.6464     451.2698    1758.7279       7.3160       2.7305    -999.2500       0.0000       0.0000
   2367.8855      10.8890      -0.1479      53.6704     356.3622    1090.9037       8.3215       2.6995    -999.2500       0.0000       0.0000
   2368.0381      10.8846      -0.1499      53.7823     330.5464     579.5276       8.9966       2.6925    -999.2500       0.0000       0.0000
   2368.1904      10.8736      -0.1464      54.0927     357.9399     188.6361       8.9201       2.7400    -999.2500       0.0000       0.0000
   2368.3428      10.8620      -0.1440      54.6914     410.6085      29.2067       8.6898       2.7728    -999.2500       0.0000       0.0000
   2368.4951      10.8490      -0.1440      55.9439     482.3073      44.0500       8.1111       2.7723    -999.2500       0.0000       0.0000
   2368.6477      10.8383      -0.1463      56.7888     525.9412      46.6675       7.2950       2.7659    -999.2500       0.0000       0.0000
   2368.8000      10.8328      -0.1538      56.7134     548.7820      40.2272       5.9425       2.7459    -999.2500       0.0000       0.0000
   2368.9524      10.8256      -0.1590      56.4678     575.6595     140.4442       5.0412       2.7322    -999.2500       0.0000       0.0000
   2369.1047      10.8146      -0.1590      55.8366     605.4606     317.9076       5.1627       2.7327    -999.2500       0.0000       0.0000
   2369.2571      10.7999      -0.1585      54.6531     652.7281     560.3073       5.1752       2.7382    -999.2500       0.0000       0.0000
   2369.4097      10.7770      -0.1570      52.2217     712.3604     848.6766       4.9413       2.7552    -999.2500       0.0000       0.0000
   2369.5620      10.7622      -0.1552      50.5498     756.2760    1275.3923       4.7793       2.7664    -999.2500       0.0000       0.0000
   2369.7144      10.7662      -0.1527      50.6013     789.3171    1797.8301       4.7803       2.7644    -999.2500       0.0000       0.0000
   2369.8667      10.7790      -0.1495      50.7798     781.0194    1514.1200       4.7870       2.7506    -999.2500       0.0000       0.0000
   2370.0193      10.8114      -0.1445      51.2456     744.7694     685.3100       4.8065       2.7101    -999.2500       0.0000       0.0000
   2370.1716      10.8337      -0.1194      52.3117     722.8971     616.5667       4.8660       2.6828    -999.2500       0.0000       0.0000
   2370.3240      10.8327      -0.0489      54.7406     710.5247    1050.0342       5.0166       2.6853    -999.2500       0.0000       0.0000
   2370.4763      10.8289      -0.0034      55.7542     692.7785     927.6327       5.4560       2.7048    -999.2500       0.0000       0.0000
   2370.6289      10.8189      -0.0144      53.5656     671.5397     443.9478       6.5491       2.7627    -999.2500       0.0000       0.0000
   2370.7812      10.8041      -0.0199      52.3415     635.8272     257.0170       7.1463       2.8028    -999.2500       0.0000       0.0000
   2370.9336      10.7780      -0.0129      53.3084     590.9243     258.5211       6.6171       2.8023    -999.2500       0.0000       0.0000
   2371.0859      10.7514      -0.0098      53.9703     589.6069     187.9939       6.3064       2.7940    -999.2500       0.0000       0.0000
   2371.2383      10.7234      -0.0158      53.9418     615.3256      72.7855       6.4903       2.7680    -999.2500       0.0000       0.0000
   2371.3909      10.6970      -0.0389      53.8159     632.1910     581.4926       6.6041       2.7503    -999.2500       0.0000       0.0000
   2371.5432      10.6740      -0.1010      53.4706     643.6924    1468.2141       6.5586       2.7513    -999.2500       0.0000       0.0000
   2371.6956      10.6543      -0.1440      52.6417     617.3470    1894.7570       6.4278       2.7587    -999.2500       0.0000       0.0000
   2371.8479      10.6423      -0.1440      50.7175     568.6074    2049.0105       6.1040       2.7807    -999.2500       0.0000       0.0000
   2372.0005      10.6215      -0.1445      49.8259     527.3336    1753.2725       5.6065       2.7955    -999.2500       0.0000       0.0000
   2372.1528      10.5805      -0.1460      51.2653     490.4033    1195.7389       4.7142       2.7940    -999.2500       0.0000       0.0000
   2372.3052      10.5522      -0.1470      52.2534     490.3602     686.2014       4.0956       2.7907    -999.2500       0.0000       0.0000
   2372.4575      10.5527      -0.1470      52.2189     511.2702     203.9270       4.0976       2.7832    -999.2500       0.0000       0.0000
   2372.6101      10.5555      -0.1467      52.1300     544.9478     696.0988       4.1076       2.7760    -999.2500       0.0000       0.0000
   2372.7625      10.5635      -0.1457      51.9181     585.7053    1728.6139       4.1356       2.7695    -999.2500       0.0000       0.0000
   2372.9148      10.5923      -0.1444      51.6415     570.0611    1461.1847       4.1923       2.7645    -999.2500       0.0000       0.0000
   2373.0671      10.6683      -0.1424      51.2184     523.8906     490.1861       4.3144       2.7630    -999.2500       0.0000       0.0000
   2373.2195      10.7201      -0.1412      50.5704     540.3133     177.4728       4.5505       2.7615    -999.2500       0.0000       0.0000
   2373.3721      10.7171      -0.1417      49.4144     589.7960     212.4477       5.0443       2.7600    -999.2500       0.0000       0.0000
   2373.5244      10.7029      -0.1431      48.8242     704.4349     418.8426       5.2960       2.7585    -999.2500       0.0000       0.0000
   2373.6768      10.6634      -0.1466      49.5180     852.6510     713.5760       4.9984       2.7570    -999.2500       0.0000       0.0000
   2373.8291      10.6362      -0.1487      50.9592     789.8638    1222.0710       4.7937       2.7529    -999.2500       0.0000       0.0000
   2373.9817      10.6367      -0.1477      54.0909     620.2382    1838.8011       4.7992       2.7429    -999.2500       0.0000       0.0000
   2374.1340      10.6381      -0.1455      56.5126     496.9698    1406.7822       4.8316       2.7362    -999.2500       0.0000       0.0000
   2374.2864      10.6416      -0.1405      57.3224     396.5956     456.8279       4.9251       2.7367    -999.2500       0.0000       0.0000
   2374.4387      10.6483      -0.1284      57.8812     354.3032     268.5625       5.1482       2.7378    -999.2500       0.0000       0.0000
   2374.5913      10.6623      -0.1004      57.8722     339.9825     447.1185       5.6645       2.7403    -999.2500       0.0000       0.0000
   2374.7437      10.6868      -0.0821      57.8313     330.6904     425.0634       5.7590       2.7499    -999.2500       0.0000       0.0000
