#------------------------------------------------------------------------------
#
#   Created by  : [OpenWorks] Log Export Utility (LEXP)
#   Created on  : 2016-05-23 17:52:10
#   Project     : CANT971
#   User        : R5K
#   Interpreter : PEP
#
#------------------------------------------------------------------------------
~VERSION INFORMATION
VERS. 2.0 : CWLS Log ASCII Standard - version 2.0
WRAP.  NO : One line per depth step
~WELL INFORMATION
#MNEMONIC   .UNIT                                           VALUE :DESCRIPTION
#------------------------------------------------------------------------------
STRT        .M                                           540.0000 :START DEPTH
STOP        .M                                          2444.3904 :STOP DEPTH
STEP        .M                                             0.1524 :STEP
NULL        .                                           -999.2500 :NULL VALUE
COMP        .                                   PEMEX EXPL & PROD :COMPANY
WELL        .                                                1063 :WELL
FLD         .                                           CANTARELL :FIELD
LOC         .                                             UNKNOWN :LOCATION
CNTY        .                                      CD. DEL CARMEN :COUNTY
STAT        .                                            CAMPECHE :STATE
CTRY        .                                              MEXICO :COUNTRY
SRVC        .                                             UNKNOWN :SERVICE COMPANY
DATE        .                                             UNKNOWN :LOG DATE
UWI         .                                          3060000211 :UNIQUE WELL ID
XCOORD      .                                       598505.130000 :SURFACE X
YCOORD      .                                      2149276.180000 :SURFACE Y
LAT         .                                           19.436588 :LATITUDE
LON         .                                          -92.061656 :LONGITUDE
ELEV        .M                                            27.6000 :SURFACE ELEV
ELEV_TYPE   .                                                  KB :ELEV TYPE
~CURVE INFORMATION
#MNEMONIC.UNIT        API CODE       : CURVE DESCRIPTION
#------------------------------------------------------------------------------
DEPTH    .M                          : Measured Depth
CALI     .inches      UNKNOWN        : CALI:litodensidad:rC:NONE:v0 (auto-composite)
DRHO     .g/cm3       UNKNOWN        : DRHO:litodensidad:rC:NONE:v0 (auto-composite)
DT       .us/ft       UNKNOWN        : DT:DT:rC:NONE:v0 (auto-composite)
LLD      .UNKNOWN     UNKNOWN        : LLD:UNKNOWN:rC:NONE:v0 (auto-composite)
MSFL     .UNKNOWN     UNKNOWN        : MSFL:UNKNOWN:rC:NONE:v0 (auto-composite)
NPHI     .v/v_decimal UNKNOWN        : NPHI:NPHI:rC:NONE:v0 (auto-composite)
RHOB     .g/cm3       UNKNOWN        : RHOB:litodensidad:rC:NONE:v0 (auto-composite)
SIGM     .UNKNOWN     UNKNOWN        : SIGM:UNKNOWN:rC:NONE:v0 (auto-composite)
SP       .UNKNOWN     UNKNOWN        : SP:UNKNOWN:rC:NONE:v0 (auto-composite)
TAU      .UNKNOWN     UNKNOWN        : TAU:UNKNOWN:rC:NONE:v0 (auto-composite)
~A     DEPTH         CALI         DRHO           DT          LLD         MSFL         NPHI         RHOB         SIGM           SP          TAU
# ...
   1564.1281       8.9820      -0.2540    -999.2500       4.4103    -999.2500      34.7195    -999.2500      15.0646       0.0000       0.0000
   1564.2804       8.9818      -0.2540    -999.2500       4.7116    -999.2500      33.6762    -999.2500      15.0768       0.0000       0.0000
   1564.4327       8.9813      -0.2540    -999.2500       5.2060    -999.2500      31.3783    -999.2500      15.0182       0.0000       0.0000
   1564.5852       8.9810      -0.2540    -999.2500       5.1478    -999.2500      29.9663    -999.2500      14.8203       0.0000       0.0000
   1564.7375       8.9810      -0.2540    -999.2500       4.8420    -999.2500      30.5947    -999.2500      14.5601       0.0000       0.0000
   1564.8900       8.9808      -0.2540    -999.2500       4.4902    -999.2500      31.2479    -999.2500      14.5556       0.0000       0.0000
   1565.0424       8.9803      -0.2540    -999.2500       4.1183    -999.2500      31.9579    -999.2500      14.6629       0.0000       0.0000
   1565.1948       8.9800      -0.2540    -999.2500       4.1265    -999.2500      32.0236    -999.2500      14.8127       0.0000       0.0000
   1565.3472       8.9800      -0.2540    -999.2500       4.2969    -999.2500      30.6046    -999.2500      14.9807       0.0000       0.0000
   1565.4996       8.9800      -0.2540    -999.2500       4.2762    -999.2500      29.6567    -999.2500      15.0254       0.0000       0.0000
   1565.6520       8.9800      -0.2540    -999.2500       4.1759    -999.2500      29.7947    -999.2500      15.0189       0.0000       0.0000
   1565.8044       8.9798      -0.2540    -999.2500       4.2387    -999.2500      30.4703    -999.2500      14.9770       0.0000       0.0000
   1565.9568       8.9793      -0.2540    -999.2500       4.3675    -999.2500      32.3855    -999.2500      14.9209       0.0000       0.0000
   1566.1093       8.9790      -0.2540    -999.2500       4.6203    -999.2500      34.8183    -999.2500      14.8256       0.0000       0.0000
   1566.2616       8.9790      -0.2540    -999.2500       4.9221    -999.2500      38.4401    -999.2500      14.7148       0.0000       0.0000
   1566.4139       8.9788      -0.2540    -999.2500       4.8416    -999.2500      40.3956    -999.2500      14.5620       0.0000       0.0000
   1566.5664       8.9783      -0.2540    -999.2500       4.6140    -999.2500      38.5206    -999.2500      14.3930       0.0000       0.0000
   1566.7188       8.9780      -0.2540    -999.2500       4.4266    -999.2500      36.2617    -999.2500      14.2675       0.0000       0.0000
   1566.8712       8.9780      -0.2540    -999.2500       4.2541    -999.2500      33.1198    -999.2500      14.1582       0.0000       0.0000
   1567.0236       8.9780      -0.2540    -999.2500       4.4757    -999.2500      29.8347    -999.2500      14.2979       0.0000       0.0000
   1567.1760       8.9780      -0.2540    -999.2500       4.8412    -999.2500      26.2203    -999.2500      14.5286       0.0000       0.0000
   1567.3284       8.9778      -0.2540    -999.2500       4.9015    -999.2500      23.7189    -999.2500      14.9622       0.0000       0.0000
   1567.4808       8.9773      -0.2540    -999.2500       4.8534    -999.2500      23.7779    -999.2500      15.4679       0.0000       0.0000
   1567.6332       8.9770      -0.2540    -999.2500       4.6693    -999.2500      24.4512    -999.2500      15.5295       0.0000       0.0000
   1567.7856       8.9770      -0.2540    -999.2500       4.4382    -999.2500      26.5381    -999.2500      15.4372       0.0000       0.0000
   1567.9380       8.9770      -0.2540    -999.2500       4.1909    -999.2500      27.9227    -999.2500      15.1949       0.0000       0.0000
   1568.0905       8.9770      -0.2540    -999.2500       3.9382    -999.2500      27.6907    -999.2500      14.9021       0.0000       0.0000
   1568.2428       8.9768      -0.2540    -999.2500       3.7389    -999.2500      27.6551    -999.2500      14.6015       0.0000       0.0000
   1568.3951       8.9763      -0.2540    -999.2500       3.5569    -999.2500      28.0716    -999.2500      14.2982       0.0000       0.0000
   1568.5476       8.9760      -0.2540    -999.2500       3.6035    -999.2500      29.1990    -999.2500      14.2277       0.0000       0.0000
   1568.7000       8.9760      -0.2540    -999.2500       3.7228    -999.2500      31.9639    -999.2500      14.2312       0.0000       0.0000
   1568.8524       8.9758      -0.2540    -999.2500       4.1712    -999.2500      33.8864    -999.2500      14.2799       0.0000       0.0000
   1569.0048       8.9753      -0.2540    -999.2500       4.7213    -999.2500      33.8679    -999.2500      14.3426       0.0000       0.0000
   1569.1572       8.9750      -0.2540    -999.2500       4.7612    -999.2500      34.4172    -999.2500      14.5283       0.0000       0.0000
   1569.3096       8.9750      -0.2540    -999.2500       4.6484    -999.2500      36.2752    -999.2500      14.7508       0.0000       0.0000
   1569.4620       8.9750      -0.2540    -999.2500       3.9727    -999.2500      39.3998    -999.2500      15.0110       0.0000       0.0000
   1569.6144       8.9750      -0.2540    -999.2500       3.1329    -999.2500      45.4446    -999.2500      15.2823       0.0000       0.0000
   1569.7668       8.9748      -0.2540    -999.2500       2.9660    -999.2500      49.2914    -999.2500      15.5648       0.0000       0.0000
   1569.9192       8.9743      -0.2540    -999.2500       2.9890    -999.2500      48.0694    -999.2500      15.8505       0.0000       0.0000
   1570.0717       8.9740      -0.2540    -999.2500       3.1663    -999.2500      45.3870    -999.2500      15.8581       0.0000       0.0000
   1570.2240       8.9740      -0.2540    -999.2500       3.3859    -999.2500      39.3482    -999.2500      15.7894       0.0000       0.0000
   1570.3763       8.9738      -0.2540    -999.2500       3.6630    -999.2500      35.3640    -999.2500      15.6256       0.0000       0.0000
   1570.5288       8.9733      -0.2540    -999.2500       3.9553    -999.2500      36.1030    -999.2500      15.4366       0.0000       0.0000
   1570.6812       8.9730      -0.2540    -999.2500       3.9289    -999.2500      37.2770    -999.2500      15.1942       0.0000       0.0000
   1570.8336       8.9730      -0.2540    -999.2500       3.8206    -999.2500      39.4515    -999.2500      14.9381       0.0000       0.0000
   1570.9860       8.9730      -0.2540    -999.2500       3.6654    -999.2500      41.4617    -999.2500      14.6639       0.0000       0.0000
   1571.1384       8.9730      -0.2540    -999.2500       3.4984    -999.2500      43.0941    -999.2500      14.3851       0.0000       0.0000
   1571.2908       8.9728      -0.2540    -999.2500       3.3654    -999.2500      45.0480    -999.2500      14.1564       0.0000       0.0000
   1571.4432       8.9723      -0.2540    -999.2500       3.2405    -999.2500      47.7414    -999.2500      13.9398       0.0000       0.0000
   1571.5956       8.9720      -0.2540    -999.2500       3.2731    -999.2500      48.9099    -999.2500      13.9275       0.0000       0.0000
   1571.7480       8.9720      -0.2540    -999.2500       3.3423    -999.2500      46.5690    -999.2500      13.9626       0.0000       0.0000
   1571.9004       8.9718      -0.2540    -999.2500       3.4995    -999.2500      45.0322    -999.2500      14.0562       0.0000       0.0000
   1572.0529       8.9713      -0.2540    -999.2500       3.6765    -999.2500      45.3467    -999.2500      14.1630       0.0000       0.0000
   1572.2052       8.9710      -0.2540    -999.2500       3.7447    -999.2500      45.4728    -999.2500      14.1321       0.0000       0.0000
   1572.3575       8.9710      -0.2540    -999.2500       3.7893    -999.2500      45.1648    -999.2500      14.0715       0.0000       0.0000
   1572.5100       8.9710      -0.2540    -999.2500       3.6539    -999.2500      44.3647    -999.2500      13.8566       0.0000       0.0000
