#------------------------------------------------------------------------------
#
#   Created by  : [OpenWorks] Log Export Utility (LEXP)
#   Created on  : 2016-05-11 12:25:19
#   Project     : CANT971
#   User        : R5K
#   Interpreter : PEP
#
#------------------------------------------------------------------------------
~VERSION INFORMATION
VERS. 2.0 : CWLS Log ASCII Standard - version 2.0
WRAP.  NO : One line per depth step
~WELL INFORMATION
#MNEMONIC   .UNIT                                           VALUE :DESCRIPTION
#------------------------------------------------------------------------------
STRT        .M                                          1784.4515 :START DEPTH
STOP        .M                                          2909.3159 :STOP DEPTH
STEP        .M                                             0.1524 :STEP
NULL        .                                           -999.2500 :NULL VALUE
COMP        .                                   PEMEX EXPL & PROD :COMPANY
WELL        .                                               1063D :WELL
FLD         .                                           CANTARELL :FIELD
LOC         .                                             UNKNOWN :LOCATION
CNTY        .                                      CD. DEL CARMEN :COUNTY
STAT        .                                            CAMPECHE :STATE
CTRY        .                                              MEXICO :COUNTRY
SRVC        .                                             UNKNOWN :SERVICE COMPANY
DATE        .                                             UNKNOWN :LOG DATE
UWI         .                                                1000 :UNIQUE WELL ID
XCOORD      .                                       599718.040000 :SURFACE X
YCOORD      .                                      2149967.520000 :SURFACE Y
LAT         .                                           19.442775 :LATITUDE
LON         .                                          -92.050067 :LONGITUDE
ELEV        .M                                            30.0000 :SURFACE ELEV
ELEV_TYPE   .                                                  KB :ELEV TYPE
~CURVE INFORMATION
#MNEMONIC.UNIT        API CODE       : CURVE DESCRIPTION
#------------------------------------------------------------------------------
DEPTH    .M                          : Measured Depth
CALI     .inches      UNKNOWN        : CALI:CALI:rC:NONE:v0 (auto-composite)
DRHO     .g/cm3       UNKNOWN        : DRHO:DRHO:rC:NONE:v0 (auto-composite)
DT       .us/ft       UNKNOWN        : DT:DT:rC:NONE:v0 (auto-composite)
GR       .API         UNKNOWN        : GR:GR:rC:NONE:v0 (auto-composite)
GR-LWD   .UNKNOWN     UNKNOWN        : GR-LWD:registros:rC:NONE:v0 (auto-composite)
LLD      .ohm.m       UNKNOWN        : LLD:LLD:rC:NONE:v0 (auto-composite)
LLD-LWD  .UNKNOWN     UNKNOWN        : LLD-LWD:registros:rC:NONE:v0 (auto-composite)
LLS      .ohm.m       UNKNOWN        : LLS:LLS:rC:NONE:v0 (auto-composite)
LLS-LWD  .UNKNOWN     UNKNOWN        : LLS-LWD:registros:rC:NONE:v0 (auto-composite)
MSFL     .ohm.m       UNKNOWN        : MSFL:MSFL:rC:NONE:v0 (auto-composite)
MSFL-LWD .UNKNOWN     UNKNOWN        : MSFL-LWD:registros:rC:NONE:v0 (auto-composite)
NPHI     .v/v_decimal UNKNOWN        : NPHI:NPHI:rC:NONE:v0 (auto-composite)
PEF      .b/elec      UNKNOWN        : PEF:PEF:rC:NONE:v0 (auto-composite)
RHOB     .g/cm3       UNKNOWN        : RHOB:RHOB:rC:NONE:v0 (auto-composite)
SP       .mV          UNKNOWN        : SP:SP:rC:NONE:v0 (auto-composite)
~A     DEPTH         CALI         DRHO           DT           GR       GR-LWD          LLD      LLD-LWD          LLS      LLS-LWD         MSFL     MSFL-LWD         NPHI          PEF         RHOB           SP
# ...
   2420.4167      10.9170      -0.0140      68.9000      33.8960    -999.2500     166.4480    -999.2500      82.4850    -999.2500      67.7590    -999.2500       0.0790       3.2380       2.6770     -42.8750
   2420.5691      10.9330      -0.0140      66.1000      33.1530    -999.2500     172.5850    -999.2500      85.9020    -999.2500      92.0680    -999.2500       0.0690       3.3350       2.6690     -42.9380
   2420.7214      10.8940      -0.0120      70.3000      30.6210    -999.2500     166.9610    -999.2500      83.6910    -999.2500     118.8840    -999.2500       0.0610       3.3590       2.6570     -42.8750
   2420.8740      10.8260      -0.0140      72.9000      32.3850    -999.2500     162.7260    -999.2500      82.0000    -999.2500     110.7620    -999.2500       0.0620       3.5620       2.6210     -42.7500
   2421.0264      10.7470      -0.0110      71.7000      34.1790    -999.2500     155.6280    -999.2500      78.2970    -999.2500      43.6480    -999.2500       0.0760       3.4150       2.6020     -42.5630
   2421.1787      10.7270      -0.0010      68.0000      35.7700    -999.2500     146.4170    -999.2500      73.7150    -999.2500      60.3600    -999.2500       0.0840       3.3830       2.6030     -42.5000
   2421.3311      10.7690      -0.0010      71.7000      32.0140    -999.2500     137.9120    -999.2500      69.6130    -999.2500      49.3140    -999.2500       0.0850       3.3000       2.6020     -42.3130
   2421.4836      10.8410      -0.0020      73.0000      33.8930    -999.2500     140.0040    -999.2500      70.1420    -999.2500      32.3350    -999.2500       0.0830       3.4460       2.5860     -42.1250
   2421.6360      10.9040      -0.0010      80.5000      34.4630    -999.2500     142.8520    -999.2500      71.0130    -999.2500      47.4910    -999.2500       0.0900       3.4830       2.5810     -41.8750
   2421.7883      10.9780      -0.0040      82.5000      38.3790    -999.2500     142.2490    -999.2500      70.2580    -999.2500      60.3220    -999.2500       0.1050       3.4360       2.5650     -41.5630
   2421.9407      10.7980      -0.0090      81.9000      39.7380    -999.2500     148.0660    -999.2500      72.7370    -999.2500      68.2930    -999.2500       0.1090       3.4400       2.5830     -41.2500
   2422.0930      10.7480      -0.0010      77.6000      41.0940    -999.2500     143.6560    -999.2500      70.8420    -999.2500      74.6540    -999.2500       0.1060       3.2830       2.5980     -41.0630
   2422.2456      10.7460       0.0020      80.0000      41.4880    -999.2500     130.3600    -999.2500      64.2660    -999.2500      61.5770    -999.2500       0.0990       3.2680       2.6090     -40.9380
   2422.3979      10.7850      -0.0020      78.6000      38.0680    -999.2500     127.9720    -999.2500      62.8410    -999.2500      55.7800    -999.2500       0.1010       3.0390       2.6090     -40.5000
   2422.5503      10.8690       0.0000      81.7000      34.6180    -999.2500     128.9530    -999.2500      63.3000    -999.2500      63.0930    -999.2500       0.0930       3.1120       2.6060     -39.8130
   2422.7026      10.8620       0.0040      79.2000      30.2620    -999.2500     119.1520    -999.2500      58.5960    -999.2500     246.8100    -999.2500       0.0890       3.2170       2.5910     -39.5000
   2422.8552      10.8640       0.0000      69.0000      27.1730    -999.2500     119.8210    -999.2500      58.8060    -999.2500     291.4300    -999.2500       0.0780       3.4090       2.5510     -39.8130
   2423.0076      10.8210       0.0020      69.4000      24.0490    -999.2500     129.6820    -999.2500      63.7220    -999.2500      30.2010    -999.2500       0.0920       3.4620       2.5180     -39.8130
   2423.1599      10.7590       0.0070      63.5000      21.0180    -999.2500     128.7220    -999.2500      62.8680    -999.2500      42.4700    -999.2500       0.1030       3.5520       2.4980     -39.5630
   2423.3123      10.7920       0.0030      70.6000      19.6880    -999.2500     136.9500    -999.2500      65.9020    -999.2500      34.9460    -999.2500       0.1180       3.5270       2.4820     -39.3750
   2423.4648      10.7810      -0.0010      68.3000      17.3830    -999.2500     155.3290    -999.2500      74.9280    -999.2500      47.4900    -999.2500       0.1250       3.4330       2.4880     -39.2500
   2423.6172      10.7990      -0.0020      72.2000      16.9500    -999.2500     156.8170    -999.2500      75.3310    -999.2500      45.7200    -999.2500       0.1260       3.3090       2.5190     -39.1880
   2423.7695      10.8320      -0.0080      74.4000      17.6300    -999.2500     156.0660    -999.2500      74.0130    -999.2500      82.2270    -999.2500       0.1220       3.3880       2.5390     -38.8130
   2423.9219      10.8670      -0.0110      72.7000      18.2800    -999.2500     154.5670    -999.2500      73.0360    -999.2500      55.9050    -999.2500       0.1090       3.5970       2.5510     -38.6250
   2424.0742      10.8730      -0.0180      72.5000      17.6850    -999.2500     148.0960    -999.2500      69.8060    -999.2500      29.9820    -999.2500       0.1060       3.6520       2.5500     -38.6880
   2424.2268      10.8330      -0.0120      59.4000      16.4100    -999.2500     141.5250    -999.2500      66.4340    -999.2500      33.3330    -999.2500       0.1110       3.5500       2.5490     -38.5630
   2424.3792      10.8140      -0.0120      57.0000      16.9880    -999.2500     150.3470    -999.2500      70.8100    -999.2500      74.5020    -999.2500       0.1140       3.3560       2.5590     -38.4380
   2424.5315      10.7760      -0.0090      61.3000      14.6000    -999.2500     175.6810    -999.2500      83.0810    -999.2500     251.8830    -999.2500       0.1070       3.2360       2.5710     -38.6880
   2424.6838      10.8090      -0.0040      74.0000      13.7730    -999.2500     218.8110    -999.2500     103.3300    -999.2500     501.8560    -999.2500       0.1010       3.2690       2.6040     -38.6880
   2424.8364      10.8410       0.0050      67.6000      12.2830    -999.2500     267.8770    -999.2500     126.3870    -999.2500     648.3200    -999.2500       0.1000       3.2620       2.6050     -38.4380
   2424.9888      10.8550       0.0010      66.0000      15.2720    -999.2500     301.9760    -999.2500     144.2190    -999.2500     158.5660    -999.2500       0.1020       3.3140       2.5660     -38.1250
   2425.1411      10.8480       0.0080      64.7000      15.0640    -999.2500     299.0920    -999.2500     145.1840    -999.2500     137.3180    -999.2500       0.1080       3.1820       2.5430     -38.0000
   2425.2935      10.8620       0.0060      67.5000      15.8490    -999.2500     268.8740    -999.2500     132.2450    -999.2500     123.9690    -999.2500       0.1220       3.1090       2.5150     -38.1880
   2425.4460      10.8490       0.0100      72.8000      14.5360    -999.2500     233.0810    -999.2500     116.2750    -999.2500      39.8510    -999.2500       0.1280       3.1480       2.5270     -38.1250
   2425.5984      10.8950       0.0120      69.7000      13.9170    -999.2500     177.3700    -999.2500      90.8090    -999.2500      40.4390    -999.2500       0.1290       3.3310       2.5390     -37.5000
   2425.7507      10.9460       0.0110      71.3000      13.9070    -999.2500     136.0530    -999.2500      69.6010    -999.2500      36.7310    -999.2500       0.1190       3.3990       2.5470     -37.7500
   2425.9031      11.0530       0.0030      69.6000      16.0340    -999.2500     123.3100    -999.2500      62.5540    -999.2500      35.5460    -999.2500       0.1150       3.2610       2.5280     -37.7500
   2426.0554      10.9460       0.0020      71.1000      18.5130    -999.2500     115.3830    -999.2500      58.1570    -999.2500      31.0670    -999.2500       0.1070       3.1210       2.5290     -37.5630
   2426.2080      11.0850      -0.0030      74.2000      22.8380    -999.2500     115.5920    -999.2500      57.6640    -999.2500      27.4630    -999.2500       0.1070       3.4760       2.5530     -37.2500
