#------------------------------------------------------------------------------
#
#   Created by  : [OpenWorks] Log Export Utility (LEXP)
#   Created on  : 2016-05-11 12:25:19
#   Project     : CANT971
#   User        : R5K
#   Interpreter : PEP
#
#------------------------------------------------------------------------------
~VERSION INFORMATION
VERS. 2.0 : CWLS Log ASCII Standard - version 2.0
WRAP.  NO : One line per depth step
~WELL INFORMATION
#MNEMONIC   .UNIT                                           VALUE :DESCRIPTION
#------------------------------------------------------------------------------
STRT        .M                                          1784.4515 :START DEPTH
STOP        .M                                          2909.3159 :STOP DEPTH
STEP        .M                                             0.1524 :STEP
NULL        .                                           -999.2500 :NULL VALUE
COMP        .                                   PEMEX EXPL & PROD :COMPANY
WELL        .                                               1063D :WELL
FLD         .                                           CANTARELL :FIELD
LOC         .                                             UNKNOWN :LOCATION
CNTY        .                                      CD. DEL CARMEN :COUNTY
STAT        .                                            CAMPECHE :STATE
CTRY        .                                              MEXICO :COUNTRY
SRVC        .                                             UNKNOWN :SERVICE COMPANY
DATE        .                                             UNKNOWN :LOG DATE
UWI         .                                                1000 :UNIQUE WELL ID
XCOORD      .                                       599718.040000 :SURFACE X
YCOORD      .                                      2149967.520000 :SURFACE Y
LAT         .                                           19.442775 :LATITUDE
LON         .                                          -92.050067 :LONGITUDE
ELEV        .M                                            30.0000 :SURFACE ELEV
ELEV_TYPE   .                                                  KB :ELEV TYPE
~CURVE INFORMATION
#MNEMONIC.UNIT        API CODE       : CURVE DESCRIPTION
#------------------------------------------------------------------------------
DEPTH    .M                          : Measured Depth
CALI     .inches      UNKNOWN        : CALI:CALI:rC:NONE:v0 (auto-composite)
DRHO     .g/cm3       UNKNOWN        : DRHO:DRHO:rC:NONE:v0 (auto-composite)
DT       .us/ft       UNKNOWN        : DT:DT:rC:NONE:v0 (auto-composite)
GR       .API         UNKNOWN        : GR:GR:rC:NONE:v0 (auto-composite)
GR-LWD   .UNKNOWN     UNKNOWN        : GR-LWD:registros:rC:NONE:v0 (auto-composite)
LLD      .ohm.m       UNKNOWN        : LLD:LLD:rC:NONE:v0 (auto-composite)
LLD-LWD  .UNKNOWN     UNKNOWN        : LLD-LWD:registros:rC:NONE:v0 (auto-composite)
LLS      .ohm.m       UNKNOWN        : LLS:LLS:rC:NONE:v0 (auto-composite)
LLS-LWD  .UNKNOWN     UNKNOWN        : LLS-LWD:registros:rC:NONE:v0 (auto-composite)
MSFL     .ohm.m       UNKNOWN        : MSFL:MSFL:rC:NONE:v0 (auto-composite)
MSFL-LWD .UNKNOWN     UNKNOWN        : MSFL-LWD:registros:rC:NONE:v0 (auto-composite)
NPHI     .v/v_decimal UNKNOWN        : NPHI:NPHI:rC:NONE:v0 (auto-composite)
PEF      .b/elec      UNKNOWN        : PEF:PEF:rC:NONE:v0 (auto-composite)
RHOB     .g/cm3       UNKNOWN        : RHOB:RHOB:rC:NONE:v0 (auto-composite)
SP       .mV          UNKNOWN        : SP:SP:rC:NONE:v0 (auto-composite)
~A     DEPTH         CALI         DRHO           DT           GR       GR-LWD          LLD      LLD-LWD          LLS      LLS-LWD         MSFL     MSFL-LWD         NPHI          PEF         RHOB           SP
# ...
   2705.7095      11.2260      -0.0110      73.0000      42.7170    -999.2500      11.5500    -999.2500       8.2870    -999.2500      17.4000    -999.2500       0.1450       3.6980       2.5860    -109.4380
   2705.8618      11.1360      -0.0150      71.3000      43.7150    -999.2500      10.2010    -999.2500       7.2740    -999.2500      18.2200    -999.2500       0.1550       3.5400       2.5780    -110.3750
   2706.0144      11.1150      -0.0140      67.3000      42.2920    -999.2500       7.0850    -999.2500       5.3060    -999.2500      11.1000    -999.2500       0.1920       3.5310       2.5910    -112.0630
   2706.1667      11.0920      -0.0060      67.5000      40.5060    -999.2500       6.7050    -999.2500       5.0760    -999.2500      10.0420    -999.2500       0.2230       3.7760       2.6210    -112.7500
   2706.3191      11.1270      -0.0010      68.3000      41.1040    -999.2500       8.0390    -999.2500       5.9870    -999.2500       3.5800    -999.2500       0.2260       3.7780       2.6590    -113.3750
   2706.4714      11.2740       0.0000      66.5000      43.0210    -999.2500      10.6560    -999.2500       7.6540    -999.2500      17.9630    -999.2500       0.1920       3.6680       2.6720    -113.4380
   2706.6240      11.2700       0.0050      66.6000      52.3880    -999.2500      14.5990    -999.2500      10.1820    -999.2500      60.4750    -999.2500       0.1330       3.5390       2.6950    -112.6250
   2706.7764      11.3200       0.0040      74.1000      55.4490    -999.2500      18.9980    -999.2500      13.3560    -999.2500       9.1480    -999.2500       0.1020       3.4750       2.6900    -112.5630
   2706.9287      11.3230       0.0020      61.6000      58.0280    -999.2500      16.6180    -999.2500      12.2440    -999.2500       5.0610    -999.2500       0.0940       3.3870       2.6920    -112.6250
   2707.0811      11.2540       0.0040      61.4000      45.6830    -999.2500      12.4100    -999.2500       9.4140    -999.2500       4.1500    -999.2500       0.1210       3.6980       2.7010    -112.6250
   2707.2336      11.0170       0.0040      62.3000      39.3540    -999.2500      11.1670    -999.2500       8.3700    -999.2500      11.4080    -999.2500       0.1370       3.5350       2.6980    -112.8130
   2707.3860      11.0550      -0.0000      66.6000      40.5010    -999.2500      12.4500    -999.2500       8.9980    -999.2500       8.3110    -999.2500       0.1380       3.5660       2.6710    -112.8130
   2707.5383      11.1270       0.0030      72.3000      47.6620    -999.2500      12.7320    -999.2500       8.8000    -999.2500       6.1830    -999.2500       0.1310       3.4490       2.6910    -112.3750
   2707.6907      11.2320       0.0010      77.2000      56.3230    -999.2500      10.4840    -999.2500       7.1750    -999.2500       4.3210    -999.2500       0.1440       3.6550       2.6920    -112.4380
   2707.8430      11.2500      -0.0020      74.1000      60.2230    -999.2500       8.3520    -999.2500       5.7530    -999.2500      43.5570    -999.2500       0.1620       3.6900       2.6720    -113.1250
   2707.9956      11.2640      -0.0150      79.2000      66.2740    -999.2500       7.5120    -999.2500       5.1900    -999.2500       4.5200    -999.2500       0.1800       3.5680       2.5710    -113.0630
   2708.1479      11.3090      -0.0180      84.5000      67.5810    -999.2500       7.0080    -999.2500       4.8450    -999.2500      15.3360    -999.2500       0.1830       3.4180       2.5220    -112.2500
   2708.3003      10.9740      -0.0160      76.8000      67.4830    -999.2500       7.2950    -999.2500       5.0550    -999.2500       7.2090    -999.2500       0.1910       3.4460       2.5310    -111.6250
   2708.4526      10.9380      -0.0080      71.6000      71.5800    -999.2500       8.6280    -999.2500       6.0530    -999.2500       9.3830    -999.2500       0.1730       3.3630       2.6000    -111.7500
   2708.6052      11.1720      -0.0030      70.0000      74.6680    -999.2500      10.2850    -999.2500       7.2690    -999.2500      28.6590    -999.2500       0.1530       3.3330       2.6520    -111.9380
   2708.7576      11.2570      -0.0070      66.5000      72.2160    -999.2500      11.7290    -999.2500       8.2840    -999.2500      29.5840    -999.2500       0.1250       3.3080       2.6690    -111.5630
   2708.9099      11.2540      -0.0100      64.4000      63.8780    -999.2500      13.8230    -999.2500       9.6900    -999.2500      31.9160    -999.2500       0.1170       3.4730       2.6600    -110.9380
   2709.0623      11.2580      -0.0080      69.7000      52.3770    -999.2500      15.2060    -999.2500      10.5470    -999.2500      25.5910    -999.2500       0.1100       3.4410       2.6680    -109.3750
   2709.2148      11.1770      -0.0050      64.8000      44.4070    -999.2500      13.8240    -999.2500       9.6740    -999.2500      19.4530    -999.2500       0.1050       3.5190       2.6500    -107.0000
   2709.3672      10.9830      -0.0100      70.2000      36.6280    -999.2500      10.5000    -999.2500       7.4800    -999.2500      13.5400    -999.2500       0.1110       3.4130       2.6020    -104.7500
   2709.5195      10.9420      -0.0040      73.6000      32.2630    -999.2500       9.6340    -999.2500       6.7080    -999.2500      12.0650    -999.2500       0.1400       3.3710       2.5650    -103.6880
   2709.6719      11.0430       0.0010      75.6000      29.3400    -999.2500       9.1160    -999.2500       6.2320    -999.2500       4.3460    -999.2500       0.1620       3.3350       2.5480    -104.0630
   2709.8242      11.1860       0.0040      79.4000      32.1960    -999.2500       6.9710    -999.2500       4.8210    -999.2500      13.7970    -999.2500       0.1760       3.4050       2.5580    -104.5630
   2709.9768      11.2390       0.0050      78.9000      33.0790    -999.2500       6.9420    -999.2500       4.7400    -999.2500       4.4980    -999.2500       0.1850       3.3650       2.5650    -104.3130
   2710.1292      11.2210       0.0060      69.7000      39.2580    -999.2500       7.2000    -999.2500       4.8770    -999.2500      14.8510    -999.2500       0.1860       3.1520       2.5770    -103.0630
   2710.2815      11.1270       0.0020      68.2000      40.7830    -999.2500       6.9260    -999.2500       4.7140    -999.2500      17.6540    -999.2500       0.1780       2.9980       2.5790    -102.8130
   2710.4338      11.1130      -0.0010      67.6000      47.6140    -999.2500       8.0830    -999.2500       5.5140    -999.2500      16.6210    -999.2500       0.1670       3.1260       2.5950    -102.0000
   2710.5864      11.0910      -0.0040      66.9000      50.0420    -999.2500       8.4120    -999.2500       5.9200    -999.2500      12.3160    -999.2500       0.1720       3.4420       2.6260    -101.6250
   2710.7388      10.9650      -0.0060      63.6000      47.6140    -999.2500       7.9620    -999.2500       5.7830    -999.2500      15.8590    -999.2500       0.1760       3.5560       2.6540    -101.4380
   2710.8911      11.0670      -0.0090      62.9000      41.8590    -999.2500       8.0640    -999.2500       5.9150    -999.2500      17.8330    -999.2500       0.1580       3.5730       2.6390    -100.2500
   2711.0435      11.1600      -0.0100      61.6000      36.7440    -999.2500       9.9160    -999.2500       7.2030    -999.2500      17.8450    -999.2500       0.1450       3.5220       2.6060    -100.9380
   2711.1960      11.1720      -0.0160      67.9000      39.4610    -999.2500       9.3160    -999.2500       6.9280    -999.2500      17.1780    -999.2500       0.1690       3.3150       2.5760    -102.4380
   2711.3484      11.1580      -0.0120      71.4000      42.2380    -999.2500       9.0310    -999.2500       6.7300    -999.2500       9.0340    -999.2500       0.1910       3.3440       2.5830    -104.0630
   2711.5007      11.0860      -0.0080      72.1000      48.6330    -999.2500       9.8090    -999.2500       7.2010    -999.2500      11.7790    -999.2500       0.1850       3.2710       2.5870    -105.4380
