#------------------------------------------------------------------------------
#
#   Created by  : [OpenWorks] Log Export Utility (LEXP)
#   Created on  : 2016-05-23 17:52:10
#   Project     : CANT971
#   User        : R5K
#   Interpreter : PEP
#
#------------------------------------------------------------------------------
~VERSION INFORMATION
VERS. 2.0 : CWLS Log ASCII Standard - version 2.0
WRAP.  NO : One line per depth step
~WELL INFORMATION
#MNEMONIC   .UNIT                                           VALUE :DESCRIPTION
#------------------------------------------------------------------------------
STRT        .M                                           540.0000 :START DEPTH
STOP        .M                                          2444.3904 :STOP DEPTH
STEP        .M                                             0.1524 :STEP
NULL        .                                           -999.2500 :NULL VALUE
COMP        .                                   PEMEX EXPL & PROD :COMPANY
WELL        .                                                1063 :WELL
FLD         .                                           CANTARELL :FIELD
LOC         .                                             UNKNOWN :LOCATION
CNTY        .                                      CD. DEL CARMEN :COUNTY
STAT        .                                            CAMPECHE :STATE
CTRY        .                                              MEXICO :COUNTRY
SRVC        .                                             UNKNOWN :SERVICE COMPANY
DATE        .                                             UNKNOWN :LOG DATE
UWI         .                                          3060000211 :UNIQUE WELL ID
XCOORD      .                                       598505.130000 :SURFACE X
YCOORD      .                                      2149276.180000 :SURFACE Y
LAT         .                                           19.436588 :LATITUDE
LON         .                                          -92.061656 :LONGITUDE
ELEV        .M                                            27.6000 :SURFACE ELEV
ELEV_TYPE   .                                                  KB :ELEV TYPE
~CURVE INFORMATION
#MNEMONIC.UNIT        API CODE       : CURVE DESCRIPTION
#------------------------------------------------------------------------------
DEPTH    .M                          : Measured Depth
CALI     .inches      UNKNOWN        : CALI:litodensidad:rC:NONE:v0 (auto-composite)
DRHO     .g/cm3       UNKNOWN        : DRHO:litodensidad:rC:NONE:v0 (auto-composite)
DT       .us/ft       UNKNOWN        : DT:DT:rC:NONE:v0 (auto-composite)
LLD      .UNKNOWN     UNKNOWN        : LLD:UNKNOWN:rC:NONE:v0 (auto-composite)
MSFL     .UNKNOWN     UNKNOWN        : MSFL:UNKNOWN:rC:NONE:v0 (auto-composite)
NPHI     .v/v_decimal UNKNOWN        : NPHI:NPHI:rC:NONE:v0 (auto-composite)
RHOB     .g/cm3       UNKNOWN        : RHOB:litodensidad:rC:NONE:v0 (auto-composite)
SIGM     .UNKNOWN     UNKNOWN        : SIGM:UNKNOWN:rC:NONE:v0 (auto-composite)
SP       .UNKNOWN     UNKNOWN        : SP:UNKNOWN:rC:NONE:v0 (auto-composite)
TAU      .UNKNOWN     UNKNOWN        : TAU:UNKNOWN:rC:NONE:v0 (auto-composite)
~A     DEPTH         CALI         DRHO           DT          LLD         MSFL         NPHI         RHOB         SIGM           SP          TAU
# ...
   1419.0432      13.6105       0.0073    -999.2500      76.3842    -999.2500       4.5183    -999.2500     -18.9514       0.0000       0.0000
   1419.1956      13.8314       0.0141    -999.2500      80.3207    -999.2500       3.1805    -999.2500     -18.2377       0.0000       0.0000
   1419.3480      14.5008       0.0111    -999.2500      91.3283    -999.2500       3.1855    -999.2500     -16.8574       0.0000       0.0000
   1419.5004      14.9678       0.0090    -999.2500     101.2654    -999.2500       3.2596    -999.2500     -15.5894       0.0000       0.0000
   1419.6528      14.9673       0.0090    -999.2500     106.5444    -999.2500       3.4931    -999.2500     -14.8100       0.0000       0.0000
   1419.8052      14.9634       0.0111    -999.2500     110.2376    -999.2500       3.8284    -999.2500     -13.7786       0.0000       0.0000
   1419.9576      14.9514       0.0181    -999.2500     107.2398    -999.2500       4.3988    -999.2500     -11.6838       0.0000       0.0000
   1420.1100      14.9172       0.0230    -999.2500     105.5590    -999.2500       5.2306    -999.2500      -9.8658       0.0000       0.0000
   1420.2625      14.8317       0.0230    -999.2500     109.2417    -999.2500       6.6661    -999.2500      -9.1749       0.0000       0.0000
   1420.4148      14.6933       0.0218    -999.2500     114.6786    -999.2500       8.6527    -999.2500      -8.9792       0.0000       0.0000
   1420.5673      14.4328       0.0178    -999.2500     127.0164    -999.2500      11.9131    -999.2500     -10.7319       0.0000       0.0000
   1420.7196      14.1793       0.0120    -999.2500     145.8116    -999.2500      14.1872    -999.2500     -12.0901       0.0000       0.0000
   1420.8719      13.9418       0.0020    -999.2500     189.2806    -999.2500      14.1812    -999.2500     -11.9412       0.0000       0.0000
   1421.0244      13.6437      -0.0027    -999.2500     220.8425    -999.2500      13.2491    -999.2500     -12.1095       0.0000       0.0000
   1421.1768      13.2056       0.0048    -999.2500     208.4020    -999.2500      10.1755    -999.2500     -13.4502       0.0000       0.0000
   1421.3292      12.9006       0.0100    -999.2500     197.2025    -999.2500       8.0328    -999.2500     -15.0250       0.0000       0.0000
   1421.4816      12.9026       0.0100    -999.2500     190.4618    -999.2500       8.0353    -999.2500     -17.4412       0.0000       0.0000
   1421.6340      12.9890       0.0098    -999.2500     196.8528    -999.2500       8.0697    -999.2500     -19.8383       0.0000       0.0000
   1421.7864      13.2700       0.0093    -999.2500     248.9306    -999.2500       8.1777    -999.2500     -22.1688       0.0000       0.0000
   1421.9388      13.4649       0.0061    -999.2500     286.2894    -999.2500       8.6980    -999.2500     -24.4539       0.0000       0.0000
   1422.0912      13.4614      -0.0034    -999.2500     274.0358    -999.2500      10.1689    -999.2500     -26.5865       0.0000       0.0000
   1422.2437      13.3907      -0.0100    -999.2500     261.6736    -999.2500      11.1909    -999.2500     -28.1115       0.0000       0.0000
   1422.3960      13.1647      -0.0100    -999.2500     248.9548    -999.2500      11.1774    -999.2500     -27.6427       0.0000       0.0000
   1422.5483      13.0085      -0.0061    -999.2500     238.9005    -999.2500      10.7736    -999.2500     -26.3445       0.0000       0.0000
   1422.7008      13.0135       0.0069    -999.2500     237.3256    -999.2500       9.4691    -999.2500     -22.4066       0.0000       0.0000
   1422.8531      13.1171       0.0124    -999.2500     240.9564    -999.2500       8.5667    -999.2500     -18.4451       0.0000       0.0000
   1423.0056      13.4480       0.0004    -999.2500     260.6612    -999.2500       8.5922    -999.2500     -14.4111       0.0000       0.0000
   1423.1580      13.6782      -0.0080    -999.2500     272.8574    -999.2500       8.8333    -999.2500     -12.2935       0.0000       0.0000
   1423.3104      13.6757      -0.0080    -999.2500     262.4531    -999.2500       9.5723    -999.2500     -15.9446       0.0000       0.0000
   1423.4628      13.5648      -0.0069    -999.2500     249.1146    -999.2500      10.7930    -999.2500     -18.4446       0.0000       0.0000
   1423.6152      13.2033      -0.0034    -999.2500     227.2001    -999.2500      13.1259    -999.2500     -17.5801       0.0000       0.0000
   1423.7676      12.9512      -0.0019    -999.2500     206.3575    -999.2500      15.5493    -999.2500     -16.5565       0.0000       0.0000
   1423.9200      12.9517      -0.0049    -999.2500     188.5712    -999.2500      18.1817    -999.2500     -15.0794       0.0000       0.0000
   1424.0724      12.9573      -0.0070    -999.2500     266.9140    -999.2500      20.0187    -999.2500     -14.1756       0.0000       0.0000
   1424.2249      12.9748      -0.0070    -999.2500     611.5955    -999.2500      20.0177    -999.2500     -14.8605       0.0000       0.0000
   1424.3772      13.0251      -0.0070    -999.2500    1529.6322    -999.2500      20.0061    -999.2500     -15.1833       0.0000       0.0000
   1424.5295      13.1510      -0.0070    -999.2500    3991.9587    -999.2500      19.9701    -999.2500     -14.5308       0.0000       0.0000
   1424.6820      13.2381      -0.0073    -999.2500    5581.5029    -999.2500      19.7323    -999.2500     -14.1008       0.0000       0.0000
   1424.8344      13.2351      -0.0083    -999.2500    4875.7710    -999.2500      19.0278    -999.2500     -14.2563       0.0000       0.0000
   1424.9868      13.1543      -0.0088    -999.2500    3845.4485    -999.2500      18.5390    -999.2500     -14.5112       0.0000       0.0000
   1425.1392      12.8937      -0.0083    -999.2500    1984.7487    -999.2500      18.5490    -999.2500     -15.0206       0.0000       0.0000
   1425.2916      12.7125      -0.0082    -999.2500     587.0659    -999.2500      18.7727    -999.2500     -15.2504       0.0000       0.0000
   1425.4440      12.7140      -0.0087    -999.2500     342.0157    -999.2500      19.4886    -999.2500     -14.7843       0.0000       0.0000
   1425.5964      12.7451      -0.0110    -999.2500     161.7706    -999.2500      19.9842    -999.2500     -14.2375       0.0000       0.0000
   1425.7488      12.8446      -0.0175    -999.2500     139.1689    -999.2500      19.9717    -999.2500     -13.4945       0.0000       0.0000
   1425.9012      12.9137      -0.0220    -999.2500     123.3264    -999.2500      19.8831    -999.2500     -12.7685       0.0000       0.0000
   1426.0536      12.9127      -0.0220    -999.2500     123.4929    -999.2500      19.6192    -999.2500     -12.0831       0.0000       0.0000
   1426.2061      12.9013      -0.0218    -999.2500     123.3876    -999.2500      19.2581    -999.2500     -11.3596       0.0000       0.0000
   1426.3584      12.8658      -0.0213    -999.2500     122.6553    -999.2500      18.6731    -999.2500     -10.5482       0.0000       0.0000
   1426.5107      12.8415      -0.0196    -999.2500     120.6497    -999.2500      17.9200    -999.2500      -9.6336       0.0000       0.0000
   1426.6632      12.8430      -0.0151    -999.2500     115.7717    -999.2500      16.7791    -999.2500      -8.4865       0.0000       0.0000
   1426.8156      12.8653      -0.0120    -999.2500     107.0216    -999.2500      14.9457    -999.2500      -7.1930       0.0000       0.0000
   1426.9680      12.9358      -0.0120    -999.2500      89.7612    -999.2500      11.5143    -999.2500      -5.5782       0.0000       0.0000
   1427.1204      12.9802      -0.0120    -999.2500      76.4555    -999.2500       9.1230    -999.2500      -3.6413       0.0000       0.0000
   1427.2728      12.9642      -0.0120    -999.2500      71.6532    -999.2500       9.1330    -999.2500      -1.0121       0.0000       0.0000
   1427.4252      12.9541      -0.0122    -999.2500      70.0124    -999.2500       9.2075    -999.2500       1.6111       0.0000       0.0000
