#------------------------------------------------------------------------------
#
#   Created by  : [OpenWorks] Log Export Utility (LEXP)
#   Created on  : 2016-05-23 17:52:10
#   Project     : CANT971
#   User        : R5K
#   Interpreter : PEP
#
#------------------------------------------------------------------------------
~VERSION INFORMATION
VERS. 2.0 : CWLS Log ASCII Standard - version 2.0
WRAP.  NO : One line per depth step
~WELL INFORMATION
#MNEMONIC   .UNIT                                           VALUE :DESCRIPTION
#------------------------------------------------------------------------------
STRT        .M                                           540.0000 :START DEPTH
STOP        .M                                          2444.3904 :STOP DEPTH
STEP        .M                                             0.1524 :STEP
NULL        .                                           -999.2500 :NULL VALUE
COMP        .                                   PEMEX EXPL & PROD :COMPANY
WELL        .                                                1063 :WELL
FLD         .                                           CANTARELL :FIELD
LOC         .                                             UNKNOWN :LOCATION
CNTY        .                                      CD. DEL CARMEN :COUNTY
STAT        .                                            CAMPECHE :STATE
CTRY        .                                              MEXICO :COUNTRY
SRVC        .                                             UNKNOWN :SERVICE COMPANY
DATE        .                                             UNKNOWN :LOG DATE
UWI         .                                          3060000211 :UNIQUE WELL ID
XCOORD      .                                       598505.130000 :SURFACE X
YCOORD      .                                      2149276.180000 :SURFACE Y
LAT         .                                           19.436588 :LATITUDE
LON         .                                          -92.061656 :LONGITUDE
ELEV        .M                                            27.6000 :SURFACE ELEV
ELEV_TYPE   .                                                  KB :ELEV TYPE
~CURVE INFORMATION
#MNEMONIC.UNIT        API CODE       : CURVE DESCRIPTION
#------------------------------------------------------------------------------
DEPTH    .M                          : Measured Depth
CALI     .inches      UNKNOWN        : CALI:litodensidad:rC:NONE:v0 (auto-composite)
DRHO     .g/cm3       UNKNOWN        : DRHO:litodensidad:rC:NONE:v0 (auto-composite)
DT       .us/ft       UNKNOWN        : DT:DT:rC:NONE:v0 (auto-composite)
LLD      .UNKNOWN     UNKNOWN        : LLD:UNKNOWN:rC:NONE:v0 (auto-composite)
MSFL     .UNKNOWN     UNKNOWN        : MSFL:UNKNOWN:rC:NONE:v0 (auto-composite)
NPHI     .v/v_decimal UNKNOWN        : NPHI:NPHI:rC:NONE:v0 (auto-composite)
RHOB     .g/cm3       UNKNOWN        : RHOB:litodensidad:rC:NONE:v0 (auto-composite)
SIGM     .UNKNOWN     UNKNOWN        : SIGM:UNKNOWN:rC:NONE:v0 (auto-composite)
SP       .UNKNOWN     UNKNOWN        : SP:UNKNOWN:rC:NONE:v0 (auto-composite)
TAU      .UNKNOWN     UNKNOWN        : TAU:UNKNOWN:rC:NONE:v0 (auto-composite)
~A     DEPTH         CALI         DRHO           DT          LLD         MSFL         NPHI         RHOB         SIGM           SP          TAU
# ...
   2221.2769      10.9533      -0.1415      62.3083    1316.3798     546.5964       9.9921       2.6577    -999.2500       0.0000       0.0000
   2221.4292      10.9561      -0.1382      64.1674    1142.6238     559.0152       9.1294       2.6691    -999.2500       0.0000       0.0000
   2221.5815      10.9596      -0.1387      65.3814    1095.8651     308.3722       8.6176       2.6826    -999.2500       0.0000       0.0000
   2221.7339      10.9713      -0.1392      65.7952    1052.6292      71.0062       8.1759       2.6963    -999.2500       0.0000       0.0000
   2221.8865      11.0018      -0.1397      64.4003    1095.7562     159.1451       7.8938       2.7103    -999.2500       0.0000       0.0000
   2222.0388      11.0216      -0.1402      63.0564    1140.2692     238.9970       7.6281       2.7250    -999.2500       0.0000       0.0000
   2222.1912      11.0171      -0.1407      61.8285    1214.3772     141.8918       7.3997       2.7415    -999.2500       0.0000       0.0000
   2222.3435      10.9986      -0.1418      61.4198    1296.8221      49.7511       7.1234       2.7571    -999.2500       0.0000       0.0000
   2222.4961      10.9481      -0.1443      62.8642    1536.7467      51.3836       6.7377       2.7706    -999.2500       0.0000       0.0000
   2222.6484      10.9135      -0.1429      63.6236    1761.4980      53.3170       6.2093       2.7794    -999.2500       0.0000       0.0000
   2222.8008      10.9150      -0.1329      62.8273    1729.6121      60.3400       5.3567       2.7774    -999.2500       0.0000       0.0000
   2222.9531      10.9218      -0.1169      62.0788    1692.9404     124.8411       4.8230       2.7714    -999.2500       0.0000       0.0000
   2223.1057      10.9408      -0.0868      61.4386    1583.0684    1068.4927       5.0166       2.7564    -999.2500       0.0000       0.0000
   2223.2581      10.9719      -0.0665      61.1854    1476.3450    1915.6846       5.3749       2.7362    -999.2500       0.0000       0.0000
   2223.4104      11.0304      -0.0680      61.8116    1414.6857    1382.3682       6.1077       2.7042    -999.2500       0.0000       0.0000
   2223.5627      11.0686      -0.0745      62.4564    1355.7203     865.1014       6.9063       2.6823    -999.2500       0.0000       0.0000
   2223.7151      11.0606      -0.0925      63.1431    1332.0844     558.3039       7.8539       2.6833    -999.2500       0.0000       0.0000
   2223.8677      11.0588      -0.1047      63.4852    1301.5153     317.6189       8.7420       2.6866    -999.2500       0.0000       0.0000
   2224.0200      11.0713      -0.1037      63.0441    1187.1292     876.1968       9.4947       2.6951    -999.2500       0.0000       0.0000
   2224.1724      11.0932      -0.1044      62.0981    1069.1060    1336.4144       9.9901       2.7054    -999.2500       0.0000       0.0000
   2224.3247      11.1361      -0.1089      60.0083     910.3349     694.6203       9.9021       2.7199    -999.2500       0.0000       0.0000
   2224.4773      11.1568      -0.1114      58.7415     760.2010     104.4087       9.6444       2.7356    -999.2500       0.0000       0.0000
   2224.6296      11.1268      -0.1094      59.3327     700.1566      52.2248       9.0007       2.7541    -999.2500       0.0000       0.0000
   2224.7820      11.1077      -0.1071      60.1656     649.8411       8.3309       8.2708       2.7641    -999.2500       0.0000       0.0000
   2224.9343      11.1132      -0.1041      61.5461     696.2072      46.8196       7.3457       2.7546    -999.2500       0.0000       0.0000
   2225.0869      11.1269      -0.1014      62.7273     749.0485      80.7700       6.7537       2.7385    -999.2500       0.0000       0.0000
   2225.2393      11.1594      -0.0994      63.4585     862.1896      72.4579       6.9197       2.7076    -999.2500       0.0000       0.0000
   2225.3916      11.1993      -0.0946      63.3142     958.1652      62.8857       7.2266       2.6779    -999.2500       0.0000       0.0000
   2225.5439      11.2558      -0.0836      61.1839     903.8637      42.2811       7.8528       2.6514    -999.2500       0.0000       0.0000
   2225.6963      11.3150      -0.0726      59.8586     843.3130      23.9053       8.0948       2.6359    -999.2500       0.0000       0.0000
   2225.8489      11.3805      -0.0616      60.3529     731.1818      23.9269       7.4616       2.6454    -999.2500       0.0000       0.0000
   2226.0012      11.4469      -0.0490      61.3720     623.7207      23.5334       7.0734       2.6629    -999.2500       0.0000       0.0000
   2226.1536      11.5154      -0.0325      63.5823     552.6998      19.9019       7.2413       2.6983    -999.2500       0.0000       0.0000
   2226.3059      11.5787      -0.0097      66.1761     485.6627      16.0698       7.5842       2.7218    -999.2500       0.0000       0.0000
   2226.4585      11.6302       0.0273      69.6371     448.0766      10.7559       8.3260       2.7178    -999.2500       0.0000       0.0000
   2226.6108      11.6720       0.0331      71.9976     404.8849       8.2034       9.1669       2.7008    -999.2500       0.0000       0.0000
   2226.7632      11.6915      -0.0318      71.8591     321.7579      25.3238      10.2329       2.6543    -999.2500       0.0000       0.0000
   2226.9155      11.7077      -0.0755      71.1445     247.2138      38.2838      11.1312       2.6232    -999.2500       0.0000       0.0000
   2227.0681      11.7167      -0.0705      69.1264     230.8088      23.0606      11.6469       2.6272    -999.2500       0.0000       0.0000
   2227.2205      11.7348      -0.0577      67.0899     218.4494      36.4527      12.0571       2.6364    -999.2500       0.0000       0.0000
   2227.3728      11.7733      -0.0272      65.0116     232.1950     234.4927      12.2277       2.6574    -999.2500       0.0000       0.0000
   2227.5251      11.7934      -0.0115      63.2197     248.9212     523.2813      12.4339       2.6670    -999.2500       0.0000       0.0000
   2227.6775      11.7719      -0.0295      62.0762     283.9995    1370.8118      12.7208       2.6505    -999.2500       0.0000       0.0000
   2227.8301      11.7428      -0.0527      61.1116     324.0563    1951.9940      12.6858       2.6173    -999.2500       0.0000       0.0000
   2227.9824      11.6963      -0.0877      60.5539     393.4065     966.0150      11.9190       2.5464    -999.2500       0.0000       0.0000
   2228.1348      11.6775      -0.1079      60.3591     461.0781     163.5487      11.0258       2.5008    -999.2500       0.0000       0.0000
   2228.2871      11.7214      -0.0944      60.9863     519.1787     407.4728       9.8463       2.5133    -999.2500       0.0000       0.0000
   2228.4397      11.7476      -0.0818      62.0475     570.1911     573.2322       9.1945       2.5154    -999.2500       0.0000       0.0000
   2228.5920      11.7331      -0.0713      64.0886     582.4887     312.0627       9.7432       2.4939    -999.2500       0.0000       0.0000
   2228.7444      11.7002      -0.0588      72.6992     599.2825      86.7993      10.3648       2.4805    -999.2500       0.0000       0.0000
   2228.8967      11.6257      -0.0418      96.2039     639.6293      49.6262      11.1514       2.4855    -999.2500       0.0000       0.0000
   2229.0493      11.5397      -0.0155     111.4885     686.9860      25.8882      11.9078       2.5001    -999.2500       0.0000       0.0000
   2229.2017      11.4271       0.0320     108.2014     769.6010      69.7262      12.5950       2.5366    -999.2500       0.0000       0.0000
   2229.3540      11.3248       0.0574     102.9336     829.6230     101.1881      13.3575       2.5727    -999.2500       0.0000       0.0000
   2229.5063      11.2459       0.0324      93.1725     780.4120      72.8139      14.2906       2.6077    -999.2500       0.0000       0.0000
   2229.6587      11.2189      -0.0100      83.5287     728.7592      52.8302      14.5786       2.6456    -999.2500       0.0000       0.0000
