#------------------------------------------------------------------------------
#
#   Created by  : [OpenWorks] Log Export Utility (LEXP)
#   Created on  : 2016-05-11 12:25:19
#   Project     : CANT971
#   User        : R5K
#   Interpreter : PEP
#
#------------------------------------------------------------------------------
~VERSION INFORMATION
VERS. 2.0 : CWLS Log ASCII Standard - version 2.0
WRAP.  NO : One line per depth step
~WELL INFORMATION
#MNEMONIC   .UNIT                                           VALUE :DESCRIPTION
#------------------------------------------------------------------------------
STRT        .M                                          1784.4515 :START DEPTH
STOP        .M                                          2909.3159 :STOP DEPTH
STEP        .M                                             0.1524 :STEP
NULL        .                                           -999.2500 :NULL VALUE
COMP        .                                   PEMEX EXPL & PROD :COMPANY
WELL        .                                               1063D :WELL
FLD         .                                           CANTARELL :FIELD
LOC         .                                             UNKNOWN :LOCATION
CNTY        .                                      CD. DEL CARMEN :COUNTY
STAT        .                                            CAMPECHE :STATE
CTRY        .                                              MEXICO :COUNTRY
SRVC        .                                             UNKNOWN :SERVICE COMPANY
DATE        .                                             UNKNOWN :LOG DATE
UWI         .                                                1000 :UNIQUE WELL ID
XCOORD      .                                       599718.040000 :SURFACE X
YCOORD      .                                      2149967.520000 :SURFACE Y
LAT         .                                           19.442775 :LATITUDE
LON         .                                          -92.050067 :LONGITUDE
ELEV        .M                                            30.0000 :SURFACE ELEV
ELEV_TYPE   .                                                  KB :ELEV TYPE
~CURVE INFORMATION
#MNEMONIC.UNIT        API CODE       : CURVE DESCRIPTION
#------------------------------------------------------------------------------
DEPTH    .M                          : Measured Depth
CALI     .inches      UNKNOWN        : CALI:CALI:rC:NONE:v0 (auto-composite)
DRHO     .g/cm3       UNKNOWN        : DRHO:DRHO:rC:NONE:v0 (auto-composite)
DT       .us/ft       UNKNOWN        : DT:DT:rC:NONE:v0 (auto-composite)
GR       .API         UNKNOWN        : GR:GR:rC:NONE:v0 (auto-composite)
GR-LWD   .UNKNOWN     UNKNOWN        : GR-LWD:registros:rC:NONE:v0 (auto-composite)
LLD      .ohm.m       UNKNOWN        : LLD:LLD:rC:NONE:v0 (auto-composite)
LLD-LWD  .UNKNOWN     UNKNOWN        : LLD-LWD:registros:rC:NONE:v0 (auto-composite)
LLS      .ohm.m       UNKNOWN        : LLS:LLS:rC:NONE:v0 (auto-composite)
LLS-LWD  .UNKNOWN     UNKNOWN        : LLS-LWD:registros:rC:NONE:v0 (auto-composite)
MSFL     .ohm.m       UNKNOWN        : MSFL:MSFL:rC:NONE:v0 (auto-composite)
MSFL-LWD .UNKNOWN     UNKNOWN        : MSFL-LWD:registros:rC:NONE:v0 (auto-composite)
NPHI     .v/v_decimal UNKNOWN        : NPHI:NPHI:rC:NONE:v0 (auto-composite)
PEF      .b/elec      UNKNOWN        : PEF:PEF:rC:NONE:v0 (auto-composite)
RHOB     .g/cm3       UNKNOWN        : RHOB:RHOB:rC:NONE:v0 (auto-composite)
SP       .mV          UNKNOWN        : SP:SP:rC:NONE:v0 (auto-composite)
~A     DEPTH         CALI         DRHO           DT           GR       GR-LWD          LLD      LLD-LWD          LLS      LLS-LWD         MSFL     MSFL-LWD         NPHI          PEF         RHOB           SP
# ...
   2176.7292    -999.2500    -999.2500      56.5000      22.0930    -999.2500    -999.2500       2.6059    -999.2500       2.4690    -999.2500       2.8159    -999.2500    -999.2500    -999.2500    -324.2500
   2176.8816    -999.2500    -999.2500      56.4000      23.8370    -999.2500    -999.2500       2.3742    -999.2500       2.7987    -999.2500       3.1017    -999.2500    -999.2500    -999.2500    -323.5630
   2177.0339    -999.2500    -999.2500      56.5000      21.6390    -999.2500    -999.2500       2.2281    -999.2500       2.7948    -999.2500       3.0832    -999.2500    -999.2500    -999.2500    -322.7500
   2177.1863    -999.2500    -999.2500      56.5000      20.2940    -999.2500    -999.2500       1.9561    -999.2500       2.4734    -999.2500       2.7792    -999.2500    -999.2500    -999.2500    -322.5000
   2177.3386    -999.2500    -999.2500      56.7000      16.7140    -999.2500    -999.2500       1.6760    -999.2500       2.0704    -999.2500       2.3566    -999.2500    -999.2500    -999.2500    -322.4380
   2177.4912    -999.2500    -999.2500      56.7000      17.4530    -999.2500    -999.2500       1.4780    -999.2500       1.7430    -999.2500       2.0110    -999.2500    -999.2500    -999.2500    -321.7500
   2177.6436    -999.2500    -999.2500      56.1000      17.4900    -999.2500    -999.2500       1.3605    -999.2500       1.5189    -999.2500       1.7903    -999.2500    -999.2500    -999.2500    -320.3130
   2177.7959    -999.2500    -999.2500      56.5000      19.1970    -999.2500    -999.2500       1.2964    -999.2500       1.3927    -999.2500       1.6434    -999.2500    -999.2500    -999.2500    -318.5000
   2177.9482      10.4860      -1.2320      56.6000      20.1310    -999.2500    -999.2500       1.2171    -999.2500       1.3034    -999.2500       1.5199       0.5180      18.3940       1.8100    -316.5000
   2178.1008      10.4850      -1.2320      56.6000      21.5310    -999.2500    -999.2500       1.1422    -999.2500       1.2297    -999.2500       1.4246       0.5180      18.3940       1.8100    -314.5000
   2178.2532      10.4750      -1.2320      56.5000      21.8100    -999.2500    -999.2500       1.1267    -999.2500       1.2052    -999.2500       1.4057       0.5380      18.3940       1.8100    -312.6250
   2178.4055      10.5180      -1.2250      56.8000      20.8290    -999.2500    -999.2500       1.1888    -999.2500       1.2484    -999.2500       1.4876       0.4910      29.7100       1.8740    -311.1880
   2178.5579      10.4780      -1.2020      56.9000      20.8050    -999.2500    -999.2500       1.2802    -999.2500       1.3487    -999.2500       1.6278       0.4580      33.4580       1.9330    -310.3750
   2178.7104      10.4800      -1.2010      56.6000      21.0280    -999.2500    -999.2500       1.2927    -999.2500       1.4576    -999.2500       1.7647       0.4390      47.9770       1.9590    -309.1250
   2178.8628      10.4860      -1.2200      56.6000      19.6070    -999.2500    -999.2500       1.2525    -999.2500       1.5000    -999.2500       1.8539       0.4280      35.2350       1.9310    -307.3750
   2179.0151      10.4900      -1.2430      56.5000      18.0950    -999.2500    -999.2500    -999.2500    -999.2500    -999.2500    -999.2500    -999.2500       0.4510      27.3060       1.8720    -306.2500
   2179.1675      10.4730      -1.2480      56.7000      17.1610    -999.2500    -999.2500    -999.2500    -999.2500    -999.2500    -999.2500    -999.2500       0.4610      17.3680       1.8540    -305.5630
   2179.3198      10.4840      -1.2490      56.7000      19.6980    -999.2500    -999.2500    -999.2500    -999.2500    -999.2500    -999.2500    -999.2500       0.4990      15.2010       1.8330    -305.6250
   2179.4724      10.4890      -1.2460      56.5000      22.3860    -999.2500    -999.2500    -999.2500    -999.2500    -999.2500    -999.2500    -999.2500       0.4770      19.9330       1.8580    -305.9380
   2179.6248      10.4880      -1.2440      56.6000      24.6890    -999.2500    -999.2500    -999.2500    -999.2500    -999.2500    -999.2500    -999.2500       0.4910      27.6950       1.8880    -306.6880
   2179.7771      10.4780      -1.2240      56.6000      24.3920    -999.2500    -999.2500    -999.2500    -999.2500    -999.2500    -999.2500    -999.2500       0.5050      32.0760       1.9240    -307.1880
   2179.9294      10.4860      -1.2290      56.5000      23.3960    -999.2500    -999.2500    -999.2500    -999.2500    -999.2500    -999.2500    -999.2500       0.5280      26.4030       1.9130    -307.0630
   2180.0820      10.4870      -1.2670      56.4000      23.4310    -999.2500    -999.2500    -999.2500    -999.2500    -999.2500    -999.2500    -999.2500       0.5450      26.3790       1.8190    -306.8750
   2180.2344      10.4890      -1.2700      56.3000      24.4360    -999.2500    -999.2500    -999.2500    -999.2500    -999.2500    -999.2500    -999.2500       0.5210      29.4530       1.7970    -307.2500
   2180.3867      10.4810      -1.2490      56.3000      24.6760    -999.2500    -999.2500    -999.2500    -999.2500    -999.2500    -999.2500    -999.2500       0.5170      25.2450       1.8150    -307.0630
   2180.5391      10.4860      -1.2550      56.3000      25.1880    -999.2500    -999.2500    -999.2500    -999.2500    -999.2500    -999.2500    -999.2500       0.5000      18.8030       1.8350    -307.0000
   2180.6917      10.4830      -1.2350      56.6000      25.6000    -999.2500    -999.2500    -999.2500    -999.2500    -999.2500    -999.2500    -999.2500       0.5340      13.5670       1.8990    -307.4380
   2180.8440      10.4880      -1.2120      56.3000      25.7620    -999.2500    -999.2500    -999.2500    -999.2500    -999.2500    -999.2500    -999.2500       0.5420      15.5950       1.9580    -307.5630
   2180.9963      10.4910      -1.2060      56.6000      24.5410    -999.2500    -999.2500    -999.2500    -999.2500    -999.2500    -999.2500    -999.2500       0.5110      19.6830       1.9780    -307.4380
   2181.1487      10.4820      -1.2420      56.6000      24.1340    -999.2500    -999.2500    -999.2500    -999.2500    -999.2500    -999.2500    -999.2500       0.4820      31.0000       1.9140    -307.4380
   2181.3010      10.4810      -1.2400      56.7000      23.3370    -999.2500    -999.2500    -999.2500    -999.2500    -999.2500    -999.2500    -999.2500       0.4580      42.3110       1.9130    -307.3130
   2181.4536      10.4900      -1.2400      56.6000      23.5460    -999.2500    -999.2500    -999.2500    -999.2500    -999.2500    -999.2500    -999.2500       0.5170      66.0610       1.9170    -307.0000
   2181.6060      10.5010      -1.2500      56.6000      23.8960    -999.2500    -999.2500    -999.2500    -999.2500    -999.2500    -999.2500    -999.2500       0.5160      60.5430       1.9230    -307.1880
   2181.7583      10.4880      -1.2400      56.3000      24.2230    -999.2500    -999.2500    -999.2500    -999.2500    -999.2500    -999.2500    -999.2500       0.5580      26.4760       1.9360    -307.1250
   2181.9106      10.4940      -1.2330      56.3000      25.8710    -999.2500    -999.2500    -999.2500    -999.2500    -999.2500    -999.2500    -999.2500       0.5130      24.0970       1.9480    -307.4380
   2182.0632      10.4840      -1.2160      56.7000      24.6660    -999.2500    -999.2500    -999.2500    -999.2500    -999.2500    -999.2500    -999.2500       0.4910      28.4860       1.9780    -307.5630
   2182.2156      10.4850      -1.2320      56.4000      25.2600    -999.2500    -999.2500    -999.2500    -999.2500    -999.2500    -999.2500    -999.2500       0.4710      42.5770       1.9380    -307.3750
   2182.3679      10.4820      -1.2330      56.8000      20.7890    -999.2500    -999.2500    -999.2500    -999.2500    -999.2500    -999.2500    -999.2500       0.5070      49.5110       1.9100    -307.3130
   2182.5203      10.4880      -1.2580      56.7000      21.9630    -999.2500    -999.2500    -999.2500    -999.2500    -999.2500    -999.2500    -999.2500       0.5280      42.4400       1.8360    -307.0000
