#------------------------------------------------------------------------------
#
#   Created by  : [OpenWorks] Log Export Utility (LEXP)
#   Created on  : 2016-05-11 12:25:19
#   Project     : CANT971
#   User        : R5K
#   Interpreter : PEP
#
#------------------------------------------------------------------------------
~VERSION INFORMATION
VERS. 2.0 : CWLS Log ASCII Standard - version 2.0
WRAP.  NO : One line per depth step
~WELL INFORMATION
#MNEMONIC   .UNIT                                           VALUE :DESCRIPTION
#------------------------------------------------------------------------------
STRT        .M                                          1784.4515 :START DEPTH
STOP        .M                                          2909.3159 :STOP DEPTH
STEP        .M                                             0.1524 :STEP
NULL        .                                           -999.2500 :NULL VALUE
COMP        .                                   PEMEX EXPL & PROD :COMPANY
WELL        .                                               1063D :WELL
FLD         .                                           CANTARELL :FIELD
LOC         .                                             UNKNOWN :LOCATION
CNTY        .                                      CD. DEL CARMEN :COUNTY
STAT        .                                            CAMPECHE :STATE
CTRY        .                                              MEXICO :COUNTRY
SRVC        .                                             UNKNOWN :SERVICE COMPANY
DATE        .                                             UNKNOWN :LOG DATE
UWI         .                                                1000 :UNIQUE WELL ID
XCOORD      .                                       599718.040000 :SURFACE X
YCOORD      .                                      2149967.520000 :SURFACE Y
LAT         .                                           19.442775 :LATITUDE
LON         .                                          -92.050067 :LONGITUDE
ELEV        .M                                            30.0000 :SURFACE ELEV
ELEV_TYPE   .                                                  KB :ELEV TYPE
~CURVE INFORMATION
#MNEMONIC.UNIT        API CODE       : CURVE DESCRIPTION
#------------------------------------------------------------------------------
DEPTH    .M                          : Measured Depth
CALI     .inches      UNKNOWN        : CALI:CALI:rC:NONE:v0 (auto-composite)
DRHO     .g/cm3       UNKNOWN        : DRHO:DRHO:rC:NONE:v0 (auto-composite)
DT       .us/ft       UNKNOWN        : DT:DT:rC:NONE:v0 (auto-composite)
GR       .API         UNKNOWN        : GR:GR:rC:NONE:v0 (auto-composite)
GR-LWD   .UNKNOWN     UNKNOWN        : GR-LWD:registros:rC:NONE:v0 (auto-composite)
LLD      .ohm.m       UNKNOWN        : LLD:LLD:rC:NONE:v0 (auto-composite)
LLD-LWD  .UNKNOWN     UNKNOWN        : LLD-LWD:registros:rC:NONE:v0 (auto-composite)
LLS      .ohm.m       UNKNOWN        : LLS:LLS:rC:NONE:v0 (auto-composite)
LLS-LWD  .UNKNOWN     UNKNOWN        : LLS-LWD:registros:rC:NONE:v0 (auto-composite)
MSFL     .ohm.m       UNKNOWN        : MSFL:MSFL:rC:NONE:v0 (auto-composite)
MSFL-LWD .UNKNOWN     UNKNOWN        : MSFL-LWD:registros:rC:NONE:v0 (auto-composite)
NPHI     .v/v_decimal UNKNOWN        : NPHI:NPHI:rC:NONE:v0 (auto-composite)
PEF      .b/elec      UNKNOWN        : PEF:PEF:rC:NONE:v0 (auto-composite)
RHOB     .g/cm3       UNKNOWN        : RHOB:RHOB:rC:NONE:v0 (auto-composite)
SP       .mV          UNKNOWN        : SP:SP:rC:NONE:v0 (auto-composite)
~A     DEPTH         CALI         DRHO           DT           GR       GR-LWD          LLD      LLD-LWD          LLS      LLS-LWD         MSFL     MSFL-LWD         NPHI          PEF         RHOB           SP
# ...
   2759.2019      10.9440       0.0020      59.5000      41.5850    -999.2500      26.5120    -999.2500      19.7520    -999.2500      25.3350    -999.2500       0.1080       3.6960       2.7360    -104.8750
   2759.3542      10.9470      -0.0070      59.3000      42.5070    -999.2500      33.3480    -999.2500      24.5110    -999.2500      48.8750    -999.2500       0.1070       3.4030       2.7200    -101.6250
   2759.5068      10.9420      -0.0090      61.6000      45.9680    -999.2500      34.2740    -999.2500      25.3460    -999.2500      63.1140    -999.2500       0.1000       3.3180       2.7100     -96.1250
   2759.6592      10.9370      -0.0050      58.8000      49.4000    -999.2500      26.8150    -999.2500      20.3770    -999.2500      75.8430    -999.2500       0.0910       3.3310       2.7040     -94.0000
   2759.8115      10.9060      -0.0040      58.1000      54.3890    -999.2500      22.0050    -999.2500      16.9940    -999.2500      56.9490    -999.2500       0.0880       3.5440       2.6940     -92.6250
   2759.9639      10.9150      -0.0010      57.6000      54.7250    -999.2500      21.9400    -999.2500      16.7080    -999.2500      20.3070    -999.2500       0.0990       3.3750       2.6990     -91.2500
   2760.1165      10.9140       0.0020      56.9000      57.8400    -999.2500      23.9930    -999.2500      17.6940    -999.2500      26.9550    -999.2500       0.1010       3.3370       2.7120     -87.3130
   2760.2688      10.9730       0.0080      58.8000      55.6280    -999.2500      29.0060    -999.2500      20.6410    -999.2500      66.3630    -999.2500       0.0960       3.4450       2.7530     -82.9380
   2760.4211      11.0280       0.0060      58.9000      58.3830    -999.2500      25.9750    -999.2500      18.7550    -999.2500      75.6500    -999.2500       0.0770       3.5690       2.7700     -81.2500
   2760.5735      11.0470       0.0150      62.0000      56.2750    -999.2500      16.7820    -999.2500      12.5180    -999.2500      59.4750    -999.2500       0.0670       3.4820       2.7610     -79.5000
   2760.7258      11.0390       0.0100      61.1500      52.6160    -999.2500      15.3090    -999.2500      11.5290    -999.2500      44.5680    -999.2500       0.0680       3.4110       2.7230     -77.1880
   2760.8784      11.0580       0.0050      61.9000      52.4150    -999.2500      15.0000    -999.2500      11.3360    -999.2500      22.6540    -999.2500       0.0990       3.4690       2.6850     -76.1250
   2761.0308      11.4720       0.0030      58.5000      53.3170    -999.2500      17.5560    -999.2500      12.8820    -999.2500       7.6900    -999.2500       0.1240       3.3300       2.6860     -75.5630
   2761.1831      10.9220       0.0070      59.5000      56.9110    -999.2500      27.2160    -999.2500      19.5470    -999.2500      29.4820    -999.2500       0.1340       3.2930       2.7000     -75.0630
   2761.3354      10.9000      -0.0040      60.8000      59.9350    -999.2500      31.7160    -999.2500      23.0920    -999.2500      50.1260    -999.2500       0.1160       3.2690       2.7020     -73.7500
   2761.4880      10.9180      -0.0040      62.9000      58.7530    -999.2500      29.4890    -999.2500      21.8120    -999.2500      36.4040    -999.2500       0.1050       3.4480       2.7070     -72.8130
   2761.6404      10.9100       0.0000      64.0000      56.0220    -999.2500      24.3150    -999.2500      18.1690    -999.2500      42.1020    -999.2500       0.1080       3.2610       2.6990     -71.2500
   2761.7927      10.9190       0.0030      64.0000      52.1010    -999.2500      22.3850    -999.2500      16.8610    -999.2500      49.9190    -999.2500       0.1140       3.3230       2.6910     -69.3750
   2761.9451      10.8120       0.0050      69.2000      49.0280    -999.2500      20.2480    -999.2500      15.4390    -999.2500      52.2540    -999.2500       0.1230       3.2970       2.6960     -67.6250
   2762.0977      10.8100       0.0030      68.5500      54.6210    -999.2500      19.1000    -999.2500      14.5550    -999.2500      17.8350    -999.2500       0.1420       3.5250       2.6790     -66.3130
   2762.2500      10.8090       0.0020      68.1000      59.4560    -999.2500      21.6430    -999.2500      16.2470    -999.2500      19.9410    -999.2500       0.1460       3.5870       2.6880     -65.8130
   2762.4023      10.9170      -0.0040      67.3000      63.3160    -999.2500      23.1680    -999.2500      17.3700    -999.2500      28.6040    -999.2500       0.1490       3.7670       2.6710     -65.2500
   2762.5547      10.9700      -0.0050      68.0000      56.1220    -999.2500      24.4260    -999.2500      18.1950    -999.2500      36.7530    -999.2500       0.1310       3.7940       2.6930     -64.6250
   2762.7070      11.0030      -0.0090      66.3000      46.2970    -999.2500      25.4470    -999.2500      19.1540    -999.2500      39.2750    -999.2500       0.1180       3.6850       2.6860     -63.7500
   2762.8596      10.9410      -0.0080      65.4000      40.7290    -999.2500      26.1950    -999.2500      19.9320    -999.2500      36.7530    -999.2500       0.1080       3.6950       2.6840     -63.6250
   2763.0120      10.8370      -0.0060      63.7000      39.2540    -999.2500      27.3580    -999.2500      20.8860    -999.2500      31.9060    -999.2500       0.1110       3.6740       2.6720     -63.5000
   2763.1643      10.7900       0.0000      62.5000      40.3370    -999.2500      28.2720    -999.2500      21.7110    -999.2500      53.2040    -999.2500       0.1110       3.8380       2.6810     -64.0000
   2763.3167      10.7920       0.0040      61.4000      42.2920    -999.2500      28.1630    -999.2500      21.7870    -999.2500      50.6860    -999.2500       0.1010       3.5680       2.7000     -64.5000
   2763.4692      10.8520       0.0050      62.3000      42.5130    -999.2500      27.4520    -999.2500      21.4780    -999.2500      52.4820    -999.2500       0.0950       3.5410       2.7150     -65.0630
   2763.6216      10.9090       0.0040      60.8000      42.3060    -999.2500      27.3120    -999.2500      21.4820    -999.2500      48.8720    -999.2500       0.1000       3.5330       2.7260     -64.8750
   2763.7739      10.9240       0.0050      61.9000      41.7490    -999.2500      27.5970    -999.2500      21.7880    -999.2500      47.9850    -999.2500       0.1060       3.7340       2.7220     -64.3130
   2763.9263      10.9080      -0.0020      62.0000      43.1780    -999.2500      28.6030    -999.2500      22.6290    -999.2500      51.3810    -999.2500       0.0980       3.7080       2.7000     -63.8750
   2764.0789      10.8680      -0.0070      62.4000      45.5100    -999.2500      30.4480    -999.2500      24.0920    -999.2500      38.5390    -999.2500       0.0980       3.5060       2.6730     -63.9380
   2764.2312      10.8280      -0.0110      65.0000      44.2010    -999.2500      30.8670    -999.2500      24.5820    -999.2500      51.3750    -999.2500       0.1030       3.4260       2.6550     -64.0630
   2764.3835      10.7790      -0.0120      65.4000      43.0490    -999.2500      30.1010    -999.2500      24.1660    -999.2500      45.2370    -999.2500       0.1130       3.6320       2.6440     -63.8130
   2764.5359      10.7780      -0.0140      66.4000      39.0870    -999.2500      30.2650    -999.2500      24.4360    -999.2500      37.1640    -999.2500       0.1280       3.6460       2.6140     -63.0630
   2764.6882      10.8180      -0.0170      67.3000      40.0650    -999.2500      29.3560    -999.2500      23.9590    -999.2500      36.3770    -999.2500       0.1370       3.6450       2.5670     -63.1250
   2764.8408      10.8790      -0.0160      68.7000      40.5660    -999.2500      28.5170    -999.2500      23.4210    -999.2500      38.4460    -999.2500       0.1480       3.1970       2.5510     -63.6880
   2764.9932      10.8840      -0.0130      68.1000      40.3450    -999.2500      29.5510    -999.2500      24.4290    -999.2500      54.9070    -999.2500       0.1350       3.1960       2.5480     -65.1880
