#------------------------------------------------------------------------------
#
#   Created by  : [OpenWorks] Log Export Utility (LEXP)
#   Created on  : 2016-05-11 12:25:19
#   Project     : CANT971
#   User        : R5K
#   Interpreter : PEP
#
#------------------------------------------------------------------------------
~VERSION INFORMATION
VERS. 2.0 : CWLS Log ASCII Standard - version 2.0
WRAP.  NO : One line per depth step
~WELL INFORMATION
#MNEMONIC   .UNIT                                           VALUE :DESCRIPTION
#------------------------------------------------------------------------------
STRT        .M                                          1784.4515 :START DEPTH
STOP        .M                                          2909.3159 :STOP DEPTH
STEP        .M                                             0.1524 :STEP
NULL        .                                           -999.2500 :NULL VALUE
COMP        .                                   PEMEX EXPL & PROD :COMPANY
WELL        .                                               1063D :WELL
FLD         .                                           CANTARELL :FIELD
LOC         .                                             UNKNOWN :LOCATION
CNTY        .                                      CD. DEL CARMEN :COUNTY
STAT        .                                            CAMPECHE :STATE
CTRY        .                                              MEXICO :COUNTRY
SRVC        .                                             UNKNOWN :SERVICE COMPANY
DATE        .                                             UNKNOWN :LOG DATE
UWI         .                                                1000 :UNIQUE WELL ID
XCOORD      .                                       599718.040000 :SURFACE X
YCOORD      .                                      2149967.520000 :SURFACE Y
LAT         .                                           19.442775 :LATITUDE
LON         .                                          -92.050067 :LONGITUDE
ELEV        .M                                            30.0000 :SURFACE ELEV
ELEV_TYPE   .                                                  KB :ELEV TYPE
~CURVE INFORMATION
#MNEMONIC.UNIT        API CODE       : CURVE DESCRIPTION
#------------------------------------------------------------------------------
DEPTH    .M                          : Measured Depth
CALI     .inches      UNKNOWN        : CALI:CALI:rC:NONE:v0 (auto-composite)
DRHO     .g/cm3       UNKNOWN        : DRHO:DRHO:rC:NONE:v0 (auto-composite)
DT       .us/ft       UNKNOWN        : DT:DT:rC:NONE:v0 (auto-composite)
GR       .API         UNKNOWN        : GR:GR:rC:NONE:v0 (auto-composite)
GR-LWD   .UNKNOWN     UNKNOWN        : GR-LWD:registros:rC:NONE:v0 (auto-composite)
LLD      .ohm.m       UNKNOWN        : LLD:LLD:rC:NONE:v0 (auto-composite)
LLD-LWD  .UNKNOWN     UNKNOWN        : LLD-LWD:registros:rC:NONE:v0 (auto-composite)
LLS      .ohm.m       UNKNOWN        : LLS:LLS:rC:NONE:v0 (auto-composite)
LLS-LWD  .UNKNOWN     UNKNOWN        : LLS-LWD:registros:rC:NONE:v0 (auto-composite)
MSFL     .ohm.m       UNKNOWN        : MSFL:MSFL:rC:NONE:v0 (auto-composite)
MSFL-LWD .UNKNOWN     UNKNOWN        : MSFL-LWD:registros:rC:NONE:v0 (auto-composite)
NPHI     .v/v_decimal UNKNOWN        : NPHI:NPHI:rC:NONE:v0 (auto-composite)
PEF      .b/elec      UNKNOWN        : PEF:PEF:rC:NONE:v0 (auto-composite)
RHOB     .g/cm3       UNKNOWN        : RHOB:RHOB:rC:NONE:v0 (auto-composite)
SP       .mV          UNKNOWN        : SP:SP:rC:NONE:v0 (auto-composite)
~A     DEPTH         CALI         DRHO           DT           GR       GR-LWD          LLD      LLD-LWD          LLS      LLS-LWD         MSFL     MSFL-LWD         NPHI          PEF         RHOB           SP
# ...
   2854.2996      10.6250      -0.0100      78.1000      51.7230    -999.2500     241.5380    -999.2500     252.2780    -999.2500     212.6280    -999.2500       0.0930       4.1950       2.6270     -11.5000
   2854.4519      10.5670      -0.0160      75.3000      44.0430    -999.2500     205.8910    -999.2500     216.7500    -999.2500     851.9120    -999.2500       0.1300       4.1420       2.5810     -11.5000
   2854.6042      10.5270      -0.0230      72.9000      45.9920    -999.2500     116.8400    -999.2500     125.7230    -999.2500     205.9140    -999.2500       0.1470       3.8970       2.5440     -11.8750
   2854.7568      10.6040      -0.0170      68.6000      61.6830    -999.2500      97.1080    -999.2500     108.3080    -999.2500     222.2920    -999.2500       0.1360       3.6280       2.5760     -11.8750
   2854.9092      10.6550      -0.0150      63.8000      75.2010    -999.2500      85.8520    -999.2500      98.6920    -999.2500     290.2810    -999.2500       0.1140       3.6040       2.6100     -11.7500
   2855.0615      10.6580      -0.0150      63.9000      80.1990    -999.2500      88.6740    -999.2500     100.7070    -999.2500      38.7640    -999.2500       0.0950       3.6930       2.6530     -11.5000
   2855.2139      10.7090      -0.0110      64.5000      72.7760    -999.2500     127.2210    -999.2500     143.2080    -999.2500      82.3710    -999.2500       0.0750       3.9290       2.6660     -11.3130
   2855.3665      10.6730      -0.0070      63.2000      64.3110    -999.2500     130.9390    -999.2500     146.7770    -999.2500      84.4060    -999.2500       0.0650       4.1290       2.6830     -11.0630
   2855.5188      10.5790      -0.0070      64.6000      63.7280    -999.2500     117.1710    -999.2500     129.7210    -999.2500      78.1920    -999.2500       0.0640       3.8390       2.6720     -11.3750
   2855.6711      10.5250      -0.0090      66.0000      74.8760    -999.2500     115.6630    -999.2500     124.5720    -999.2500     153.4170    -999.2500       0.0760       3.6180       2.6530     -11.5630
   2855.8235      10.4870      -0.0090      65.4000      91.7450    -999.2500     132.4980    -999.2500     133.2760    -999.2500      53.6550    -999.2500       0.0840       3.6550       2.6340     -11.6880
   2855.9758      10.5190      -0.0130      65.3000      98.5030    -999.2500     182.7220    -999.2500     173.4810    -999.2500      79.6160    -999.2500       0.0810       4.2480       2.6280     -11.6880
   2856.1284      10.5850      -0.0110      65.2000      98.6490    -999.2500     320.5160    -999.2500     287.8400    -999.2500    1333.6639    -999.2500       0.0700       4.7670       2.6390     -11.1250
   2856.2808      10.6250      -0.0110      65.2000      89.6470    -999.2500     713.1430    -999.2500     586.5610    -999.2500    1608.4060    -999.2500       0.0650       5.1850       2.6360     -11.0000
   2856.4331      10.6160      -0.0120      63.8000      75.3130    -999.2500    1240.3210    -999.2500     874.6780    -999.2500     710.5650    -999.2500       0.0580       5.2560       2.6320     -10.3750
   2856.5854      10.5720      -0.0130      62.3000      59.4740    -999.2500    1067.0580    -999.2500     756.8750    -999.2500    1466.5870    -999.2500       0.0520       5.3620       2.6300      -9.6250
   2856.7380      10.5570      -0.0060      62.6000      47.9060    -999.2500     507.1090    -999.2500     402.9550    -999.2500     253.8560    -999.2500       0.0400       4.8170       2.6650      -9.6880
   2856.8904      10.5070      -0.0070      64.6000      50.9520    -999.2500     239.5490    -999.2500     209.2750    -999.2500     177.9850    -999.2500       0.0370       4.6340       2.6750      -9.6250
   2857.0427      10.5030      -0.0050      67.3000      61.6500    -999.2500     141.2650    -999.2500     132.3010    -999.2500     167.7850    -999.2500       0.0430       4.3520       2.6850      -9.2500
   2857.1951      10.5290      -0.0070      67.9000      78.0520    -999.2500     111.8600    -999.2500     109.3790    -999.2500     157.2780    -999.2500       0.0610       4.1630       2.6610      -8.3750
   2857.3477      10.6090      -0.0090      69.0000      93.2860    -999.2500     111.0290    -999.2500     112.5880    -999.2500      87.0590    -999.2500       0.0800       4.0150       2.6360      -8.1880
   2857.5000      10.6660      -0.0100      68.4000     102.2270    -999.2500     121.5120    -999.2500     127.0130    -999.2500      43.0340    -999.2500       0.0860       4.1870       2.6300      -8.0630
   2857.6523      10.6930      -0.0030      70.8000     102.4700    -999.2500     118.2530    -999.2500     125.6520    -999.2500     134.7510    -999.2500       0.0780       4.2350       2.6440      -7.4380
   2857.8047      10.6450      -0.0020      69.5000     102.1750    -999.2500     129.5720    -999.2500     137.5670    -999.2500     596.9790    -999.2500       0.0690       4.2850       2.6450      -7.0000
   2857.9570      10.5780      -0.0070      69.7000      93.1380    -999.2500     120.5390    -999.2500     130.6070    -999.2500      74.2860    -999.2500       0.0790       4.2440       2.6230      -6.1880
   2858.1096      10.5570      -0.0080      70.9000      88.0900    -999.2500      74.0870    -999.2500      80.3800    -999.2500      41.0470    -999.2500       0.0900       4.2670       2.6110      -5.9380
   2858.2620      10.5820      -0.0060      68.6000      78.0100    -999.2500      65.7260    -999.2500      69.4200    -999.2500     198.3810    -999.2500       0.1060       4.2640       2.6140      -5.8750
   2858.4143      10.5730      -0.0080      67.2000      76.0250    -999.2500      75.0920    -999.2500      77.4060    -999.2500      70.0480    -999.2500       0.1150       4.1570       2.6110      -5.7500
   2858.5667      10.6300      -0.0110      62.1000      77.6770    -999.2500      91.3740    -999.2500      90.3330    -999.2500      30.0540    -999.2500       0.1230       4.3250       2.5940      -5.3750
   2858.7192      10.6680      -0.0100      60.0000      81.9840    -999.2500     141.5590    -999.2500     134.0350    -999.2500     100.4970    -999.2500       0.0960       4.8160       2.6010      -4.6880
   2858.8716      10.6990      -0.0060      58.8000      86.1340    -999.2500     302.9400    -999.2500     277.2320    -999.2500    1164.5240    -999.2500       0.0540       5.1570       2.6500      -4.7500
   2859.0239      10.6530      -0.0040      65.2000      79.7540    -999.2500     684.6690    -999.2500     617.1350    -999.2500     741.1560    -999.2500       0.0310       4.9020       2.6720      -3.5630
   2859.1763      10.5870      -0.0130      65.1000      73.5220    -999.2500     814.3910    -999.2500     721.0340    -999.2500    1060.1830    -999.2500       0.0460       4.6320       2.6450      -3.7500
   2859.3289      10.5540      -0.0220      66.4000      64.4230    -999.2500     595.9780    -999.2500     525.3000    -999.2500     348.1630    -999.2500       0.0680       4.2500       2.6130      -3.6880
   2859.4812      10.5210      -0.0180      64.4000      57.8670    -999.2500     440.2930    -999.2500     379.4930    -999.2500     285.3260    -999.2500       0.0680       4.4040       2.6300      -3.0000
   2859.6335      10.5060      -0.0170      66.1000      52.5980    -999.2500     420.3520    -999.2500     351.0600    -999.2500     168.8220    -999.2500       0.0640       4.5850       2.6720      -2.3750
   2859.7859      10.5320      -0.0170      69.1000      52.3620    -999.2500     415.6750    -999.2500     341.0330    -999.2500     128.9230    -999.2500       0.0630       4.7810       2.6670      -1.6880
   2859.9382      10.6290      -0.0160      67.5000      51.9060    -999.2500     470.0550    -999.2500     379.9870    -999.2500    1206.1331    -999.2500       0.0810       4.8080       2.6420      -0.8130
   2860.0908      10.7000      -0.0140      64.6000      58.2160    -999.2500     660.2720    -999.2500     526.6230    -999.2500     580.9650    -999.2500       0.0920       4.9330       2.6280      -0.2500
