#------------------------------------------------------------------------------
#
#   Created by  : [OpenWorks] Log Export Utility (LEXP)
#   Created on  : 2016-05-11 12:25:19
#   Project     : CANT971
#   User        : R5K
#   Interpreter : PEP
#
#------------------------------------------------------------------------------
~VERSION INFORMATION
VERS. 2.0 : CWLS Log ASCII Standard - version 2.0
WRAP.  NO : One line per depth step
~WELL INFORMATION
#MNEMONIC   .UNIT                                           VALUE :DESCRIPTION
#------------------------------------------------------------------------------
STRT        .M                                          1784.4515 :START DEPTH
STOP        .M                                          2909.3159 :STOP DEPTH
STEP        .M                                             0.1524 :STEP
NULL        .                                           -999.2500 :NULL VALUE
COMP        .                                   PEMEX EXPL & PROD :COMPANY
WELL        .                                               1063D :WELL
FLD         .                                           CANTARELL :FIELD
LOC         .                                             UNKNOWN :LOCATION
CNTY        .                                      CD. DEL CARMEN :COUNTY
STAT        .                                            CAMPECHE :STATE
CTRY        .                                              MEXICO :COUNTRY
SRVC        .                                             UNKNOWN :SERVICE COMPANY
DATE        .                                             UNKNOWN :LOG DATE
UWI         .                                                1000 :UNIQUE WELL ID
XCOORD      .                                       599718.040000 :SURFACE X
YCOORD      .                                      2149967.520000 :SURFACE Y
LAT         .                                           19.442775 :LATITUDE
LON         .                                          -92.050067 :LONGITUDE
ELEV        .M                                            30.0000 :SURFACE ELEV
ELEV_TYPE   .                                                  KB :ELEV TYPE
~CURVE INFORMATION
#MNEMONIC.UNIT        API CODE       : CURVE DESCRIPTION
#------------------------------------------------------------------------------
DEPTH    .M                          : Measured Depth
CALI     .inches      UNKNOWN        : CALI:CALI:rC:NONE:v0 (auto-composite)
DRHO     .g/cm3       UNKNOWN        : DRHO:DRHO:rC:NONE:v0 (auto-composite)
DT       .us/ft       UNKNOWN        : DT:DT:rC:NONE:v0 (auto-composite)
GR       .API         UNKNOWN        : GR:GR:rC:NONE:v0 (auto-composite)
GR-LWD   .UNKNOWN     UNKNOWN        : GR-LWD:registros:rC:NONE:v0 (auto-composite)
LLD      .ohm.m       UNKNOWN        : LLD:LLD:rC:NONE:v0 (auto-composite)
LLD-LWD  .UNKNOWN     UNKNOWN        : LLD-LWD:registros:rC:NONE:v0 (auto-composite)
LLS      .ohm.m       UNKNOWN        : LLS:LLS:rC:NONE:v0 (auto-composite)
LLS-LWD  .UNKNOWN     UNKNOWN        : LLS-LWD:registros:rC:NONE:v0 (auto-composite)
MSFL     .ohm.m       UNKNOWN        : MSFL:MSFL:rC:NONE:v0 (auto-composite)
MSFL-LWD .UNKNOWN     UNKNOWN        : MSFL-LWD:registros:rC:NONE:v0 (auto-composite)
NPHI     .v/v_decimal UNKNOWN        : NPHI:NPHI:rC:NONE:v0 (auto-composite)
PEF      .b/elec      UNKNOWN        : PEF:PEF:rC:NONE:v0 (auto-composite)
RHOB     .g/cm3       UNKNOWN        : RHOB:RHOB:rC:NONE:v0 (auto-composite)
SP       .mV          UNKNOWN        : SP:SP:rC:NONE:v0 (auto-composite)
~A     DEPTH         CALI         DRHO           DT           GR       GR-LWD          LLD      LLD-LWD          LLS      LLS-LWD         MSFL     MSFL-LWD         NPHI          PEF         RHOB           SP
# ...
   2372.8679      11.0080       0.0550      89.9000      40.1470    -999.2500      36.1840    -999.2500      27.6980    -999.2500      39.1250    -999.2500       0.1260       3.2140       2.5260     -60.9380
   2373.0203      10.8570       0.0350      90.4000      39.0970    -999.2500      37.9140    -999.2500      29.1670    -999.2500      39.3940    -999.2500       0.1270       3.2440       2.5560     -60.9380
   2373.1729      10.8090       0.0110      74.4000      34.9160    -999.2500      38.9210    -999.2500      29.8190    -999.2500      43.9890    -999.2500       0.1300       3.2740       2.5520     -61.0630
   2373.3252      10.8010      -0.0010      77.9000      36.6550    -999.2500      42.6770    -999.2500      32.7960    -999.2500      84.6780    -999.2500       0.1250       3.5500       2.5500     -61.1250
   2373.4775      10.8550      -0.0000      77.5000      37.0440    -999.2500      49.5690    -999.2500      38.6650    -999.2500      84.0620    -999.2500       0.1180       3.0720       2.5660     -60.6250
   2373.6299      10.9170       0.0020      75.8000      39.2710    -999.2500      51.7400    -999.2500      40.7350    -999.2500      42.0060    -999.2500       0.1030       3.1360       2.5740     -60.1880
   2373.7822      10.9240       0.0030      79.8000      38.0230    -999.2500      52.5690    -999.2500      41.3640    -999.2500      33.7990    -999.2500       0.0960       3.0340       2.5970     -60.3750
   2373.9348      10.9480      -0.0000      77.1000      39.2480    -999.2500      56.3090    -999.2500      44.7080    -999.2500      57.4510    -999.2500       0.0880       3.6400       2.5940     -60.2500
   2374.0872      10.9170      -0.0050      75.3000      41.8900    -999.2500      63.6220    -999.2500      51.1920    -999.2500      48.0080    -999.2500       0.0890       3.7690       2.5970     -60.1250
   2374.2395      10.8580      -0.0130      78.3000      41.0600    -999.2500      71.1480    -999.2500      57.7190    -999.2500     119.4290    -999.2500       0.0820       3.2760       2.5690     -60.1250
   2374.3918      10.8370      -0.0140      75.1000      40.2760    -999.2500      80.2390    -999.2500      65.5370    -999.2500     155.2620    -999.2500       0.0810       2.9950       2.5840     -60.0000
   2374.5444      10.9040      -0.0090      73.1000      38.4260    -999.2500      87.9090    -999.2500      72.0620    -999.2500     129.9190    -999.2500       0.0760       2.7720       2.6040     -60.1250
   2374.6968      10.9710       0.0010      81.1000      38.9850    -999.2500      99.1830    -999.2500      81.8670    -999.2500      60.6060    -999.2500       0.0810       3.2810       2.6520     -60.0000
   2374.8491      10.9990      -0.0010      74.3000      37.2020    -999.2500     103.9080    -999.2500      87.9400    -999.2500      62.6850    -999.2500       0.0840       3.4330       2.6810     -60.1880
   2375.0015      10.9670      -0.0040      74.4000      35.4160    -999.2500     103.1160    -999.2500      89.0340    -999.2500     118.9340    -999.2500       0.0800       3.5590       2.6900     -60.0630
   2375.1541      11.0310      -0.0080      72.5000      34.1720    -999.2500     102.9440    -999.2500      89.7320    -999.2500      70.3520    -999.2500       0.0690       3.2770       2.7020     -60.0630
   2375.3064      10.9710      -0.0110      70.1000      33.7180    -999.2500      96.9530    -999.2500      85.4610    -999.2500     126.5390    -999.2500       0.0600       3.3390       2.6960     -60.6250
   2375.4587      10.9390      -0.0150      69.2000      36.8310    -999.2500      91.0980    -999.2500      81.1670    -999.2500     153.7100    -999.2500       0.0560       3.2610       2.6960     -60.5000
   2375.6111      10.9330      -0.0110      65.1000      36.5500    -999.2500      90.2460    -999.2500      80.9220    -999.2500     122.0710    -999.2500       0.0570       3.2530       2.6670     -60.2500
   2375.7634      10.9650      -0.0070      63.3000      39.5440    -999.2500      91.8860    -999.2500      82.8600    -999.2500      64.4380    -999.2500       0.0600       3.3520       2.6490     -60.0630
   2375.9160      11.0010       0.0010      62.9000      35.5440    -999.2500     112.2840    -999.2500     100.5440    -999.2500      99.8710    -999.2500       0.0670       3.2230       2.6470     -59.9380
   2376.0684      11.0200       0.0000      62.7000      38.3790    -999.2500     148.0000    -999.2500     133.0190    -999.2500     238.2040    -999.2500       0.0770       3.2870       2.6580     -59.9380
   2376.2207      11.0530      -0.0030      61.4000      34.0060    -999.2500     164.1930    -999.2500     148.7230    -999.2500     357.1460    -999.2500       0.0760       3.4590       2.6820     -60.0000
   2376.3730      10.9900      -0.0060      60.2000      37.1070    -999.2500     170.7190    -999.2500     156.7980    -999.2500     266.0310    -999.2500       0.0660       3.7780       2.7010     -59.9380
   2376.5256      10.9670      -0.0050      59.8000      36.4360    -999.2500     175.2910    -999.2500     163.6220    -999.2500     143.9910    -999.2500       0.0430       3.9650       2.7230     -59.4380
   2376.6780      10.9360      -0.0090      62.1000      39.4730    -999.2500     215.1080    -999.2500     199.2710    -999.2500     301.1140    -999.2500       0.0310       3.7190       2.7380     -59.6250
   2376.8303      10.9360      -0.0010      60.4000      36.2100    -999.2500     240.6340    -999.2500     225.1940    -999.2500     371.3990    -999.2500       0.0260       3.7760       2.7220     -59.6880
   2376.9827      11.0320      -0.0030      58.9000      37.8490    -999.2500     205.7450    -999.2500     198.6480    -999.2500     573.2030    -999.2500       0.0310       3.6000       2.6560     -59.5000
   2377.1353      10.9070      -0.0090      59.2000      37.0340    -999.2500     159.9870    -999.2500     158.9290    -999.2500     458.5480    -999.2500       0.0360       3.3650       2.5900     -59.2500
   2377.2876      10.9330      -0.0130      61.2000      41.3590    -999.2500     128.2760    -999.2500     130.4810    -999.2500      64.6040    -999.2500       0.0570       3.2200       2.5820     -59.1880
   2377.4399      10.9080      -0.0040      55.2000      37.2010    -999.2500     104.6050    -999.2500     107.8300    -999.2500      93.3330    -999.2500       0.0680       3.3470       2.6440     -59.3130
   2377.5923      10.9810      -0.0030      31.5000      38.0940    -999.2500     103.0130    -999.2500     106.0210    -999.2500     190.0770    -999.2500       0.0730       3.4600       2.7190     -59.2500
   2377.7446      11.0050       0.0090      25.6000      36.4870    -999.2500     122.3970    -999.2500     127.3890    -999.2500     389.5510    -999.2500       0.0630       3.5180       2.7850     -59.1880
   2377.8972      11.0060       0.0130      26.2000      38.0230    -999.2500     141.2400    -999.2500     148.1580    -999.2500     565.2980    -999.2500       0.0580       3.4770       2.8060     -59.3130
   2378.0496      11.0250       0.0200      25.4000      39.8950    -999.2500     174.8910    -999.2500     184.6600    -999.2500     208.5930    -999.2500       0.0530       3.4130       2.7970     -59.5000
   2378.2019      11.1120       0.0090      40.3000      41.0680    -999.2500     197.3430    -999.2500     211.2700    -999.2500     258.1720    -999.2500       0.0490       3.2690       2.7540     -59.4380
   2378.3542      11.1250       0.0100      40.3000      44.1930    -999.2500     190.0210    -999.2500     204.3650    -999.2500     187.7150    -999.2500       0.0410       3.3330       2.7670     -59.6250
   2378.5068      11.0940       0.0070      56.0000      42.5960    -999.2500     203.3430    -999.2500     219.4420    -999.2500     238.5680    -999.2500       0.0330       3.3950       2.7930     -59.3750
   2378.6592      11.0930       0.0030      64.7000      40.9400    -999.2500     219.4830    -999.2500     233.6140    -999.2500     700.5550    -999.2500       0.0230       3.4570       2.8270     -59.0630
