#------------------------------------------------------------------------------
#
#   Created by  : [OpenWorks] Log Export Utility (LEXP)
#   Created on  : 2016-05-23 17:52:10
#   Project     : CANT971
#   User        : R5K
#   Interpreter : PEP
#
#------------------------------------------------------------------------------
~VERSION INFORMATION
VERS. 2.0 : CWLS Log ASCII Standard - version 2.0
WRAP.  NO : One line per depth step
~WELL INFORMATION
#MNEMONIC   .UNIT                                           VALUE :DESCRIPTION
#------------------------------------------------------------------------------
STRT        .M                                           540.0000 :START DEPTH
STOP        .M                                          2444.3904 :STOP DEPTH
STEP        .M                                             0.1524 :STEP
NULL        .                                           -999.2500 :NULL VALUE
COMP        .                                   PEMEX EXPL & PROD :COMPANY
WELL        .                                                1063 :WELL
FLD         .                                           CANTARELL :FIELD
LOC         .                                             UNKNOWN :LOCATION
CNTY        .                                      CD. DEL CARMEN :COUNTY
STAT        .                                            CAMPECHE :STATE
CTRY        .                                              MEXICO :COUNTRY
SRVC        .                                             UNKNOWN :SERVICE COMPANY
DATE        .                                             UNKNOWN :LOG DATE
UWI         .                                          3060000211 :UNIQUE WELL ID
XCOORD      .                                       598505.130000 :SURFACE X
YCOORD      .                                      2149276.180000 :SURFACE Y
LAT         .                                           19.436588 :LATITUDE
LON         .                                          -92.061656 :LONGITUDE
ELEV        .M                                            27.6000 :SURFACE ELEV
ELEV_TYPE   .                                                  KB :ELEV TYPE
~CURVE INFORMATION
#MNEMONIC.UNIT        API CODE       : CURVE DESCRIPTION
#------------------------------------------------------------------------------
DEPTH    .M                          : Measured Depth
CALI     .inches      UNKNOWN        : CALI:litodensidad:rC:NONE:v0 (auto-composite)
DRHO     .g/cm3       UNKNOWN        : DRHO:litodensidad:rC:NONE:v0 (auto-composite)
DT       .us/ft       UNKNOWN        : DT:DT:rC:NONE:v0 (auto-composite)
LLD      .UNKNOWN     UNKNOWN        : LLD:UNKNOWN:rC:NONE:v0 (auto-composite)
MSFL     .UNKNOWN     UNKNOWN        : MSFL:UNKNOWN:rC:NONE:v0 (auto-composite)
NPHI     .v/v_decimal UNKNOWN        : NPHI:NPHI:rC:NONE:v0 (auto-composite)
RHOB     .g/cm3       UNKNOWN        : RHOB:litodensidad:rC:NONE:v0 (auto-composite)
SIGM     .UNKNOWN     UNKNOWN        : SIGM:UNKNOWN:rC:NONE:v0 (auto-composite)
SP       .UNKNOWN     UNKNOWN        : SP:UNKNOWN:rC:NONE:v0 (auto-composite)
TAU      .UNKNOWN     UNKNOWN        : TAU:UNKNOWN:rC:NONE:v0 (auto-composite)
~A     DEPTH         CALI         DRHO           DT          LLD         MSFL         NPHI         RHOB         SIGM           SP          TAU
# ...
   1999.3824       8.7697      -0.2570    -999.2500    -999.2500    -999.2500      15.4384    -999.2500    -999.2500       0.0000       0.0000
   1999.5348       8.7688      -0.2565    -999.2500    -999.2500    -999.2500      18.3823    -999.2500    -999.2500       0.0000       0.0000
   1999.6873       8.7683      -0.2550    -999.2500    -999.2500    -999.2500      18.3473    -999.2500    -999.2500       0.0000       0.0000
   1999.8396       8.7677      -0.2534    -999.2500    -999.2500    -999.2500      17.9734    -999.2500    -999.2500       0.0000       0.0000
   1999.9919       8.7667      -0.2514    -999.2500    -999.2500    -999.2500      16.8250    -999.2500    -999.2500       0.0000       0.0000
   2000.1444       8.7658      -0.2500    -999.2500    -999.2500    -999.2500      16.0828    -999.2500    -999.2500       0.0000       0.0000
   2000.2968       8.7653      -0.2500    -999.2500    -999.2500    -999.2500      16.2692    -999.2500    -999.2500       0.0000       0.0000
   2000.4492       8.7647      -0.2500    -999.2500    -999.2500    -999.2500      16.5285    -999.2500    -999.2500       0.0000       0.0000
   2000.6016       8.7637      -0.2500    -999.2500    -999.2500    -999.2500      16.9542    -999.2500    -999.2500       0.0000       0.0000
   2000.7540       8.7628      -0.2500    -999.2500    -999.2500    -999.2500      17.3930    -999.2500    -999.2500       0.0000       0.0000
   2000.9064       8.7623      -0.2500    -999.2500    -999.2500    -999.2500      17.8620    -999.2500    -999.2500       0.0000       0.0000
   2001.0588       8.7617      -0.2500    -999.2500    -999.2500    -999.2500      18.1631    -999.2500    -999.2500       0.0000       0.0000
   2001.2112       8.7607      -0.2500    -999.2500    -999.2500    -999.2500      18.0817    -999.2500    -999.2500       0.0000       0.0000
   2001.3636       8.7598      -0.2500    -999.2500    -999.2500    -999.2500      17.8410    -999.2500    -999.2500       0.0000       0.0000
   2001.5160       8.7593      -0.2500    -999.2500    -999.2500    -999.2500      17.2375    -999.2500    -999.2500       0.0000       0.0000
   2001.6685       8.7587      -0.2500    -999.2500    -999.2500    -999.2500      16.6110    -999.2500    -999.2500       0.0000       0.0000
   2001.8208       8.7577      -0.2500    -999.2500    -999.2500    -999.2500      15.9321    -999.2500    -999.2500       0.0000       0.0000
   2001.9731       8.7568      -0.2500    -999.2500    -999.2500    -999.2500      15.0174    -999.2500    -999.2500       0.0000       0.0000
   2002.1256       8.7563      -0.2500    -999.2500    -999.2500    -999.2500      13.5649    -999.2500    -999.2500       0.0000       0.0000
   2002.2780       8.7557      -0.2500    -999.2500    -999.2500    -999.2500      13.0607    -999.2500    -999.2500       0.0000       0.0000
   2002.4304       8.7547      -0.2500    -999.2500    -999.2500    -999.2500      14.7207    -999.2500    -999.2500       0.0000       0.0000
   2002.5828       8.7538      -0.2500    -999.2500    -999.2500    -999.2500      17.3660    -999.2500    -999.2500       0.0000       0.0000
   2002.7352       8.7533      -0.2500    -999.2500    -999.2500    -999.2500      22.2609    -999.2500    -999.2500       0.0000       0.0000
   2002.8876       8.7527      -0.2500    -999.2500    -999.2500    -999.2500      27.6144    -999.2500    -999.2500       0.0000       0.0000
   2003.0400       8.7517      -0.2500    -999.2500    -999.2500    -999.2500      34.0152    -999.2500    -999.2500       0.0000       0.0000
   2003.1924       8.7508      -0.2500    -999.2500    -999.2500    -999.2500      41.1976    -999.2500    -999.2500       0.0000       0.0000
   2003.3448       8.7503      -0.2500    -999.2500    -999.2500    -999.2500      50.1653    -999.2500    -999.2500       0.0000       0.0000
   2003.4972       8.7497      -0.2500    -999.2500    -999.2500    -999.2500      56.2375    -999.2500    -999.2500       0.0000       0.0000
   2003.6497       8.7487      -0.2500    -999.2500    -999.2500    -999.2500      55.6941    -999.2500    -999.2500       0.0000       0.0000
   2003.8020       8.7478      -0.2500    -999.2500    -999.2500    -999.2500      54.8400    -999.2500    -999.2500       0.0000       0.0000
   2003.9543       8.7473      -0.2500    -999.2500    -999.2500    -999.2500      53.2760    -999.2500    -999.2500       0.0000       0.0000
   2004.1068       8.7467      -0.2500    -999.2500    -999.2500    -999.2500      51.8367    -999.2500    -999.2500       0.0000       0.0000
   2004.2592       8.7457      -0.2500    -999.2500    -999.2500    -999.2500      50.6823    -999.2500    -999.2500       0.0000       0.0000
   2004.4116       8.7448      -0.2500    -999.2500    -999.2500    -999.2500      49.2391    -999.2500    -999.2500       0.0000       0.0000
   2004.5640       8.7443      -0.2500    -999.2500    -999.2500    -999.2500      47.1382    -999.2500    -999.2500       0.0000       0.0000
   2004.7164       8.7437      -0.2500    -999.2500    -999.2500    -999.2500      44.3102    -999.2500    -999.2500       0.0000       0.0000
   2004.8688       8.7427      -0.2500    -999.2500    -999.2500    -999.2500      39.8254    -999.2500    -999.2500       0.0000       0.0000
   2005.0212       8.7418      -0.2500    -999.2500    -999.2500    -999.2500      35.7983    -999.2500    -999.2500       0.0000       0.0000
   2005.1736       8.7413      -0.2500    -999.2500    -999.2500    -999.2500      32.8149    -999.2500    -999.2500       0.0000       0.0000
   2005.3260       8.7407      -0.2500    -999.2500    -999.2500    -999.2500      30.5227    -999.2500    -999.2500       0.0000       0.0000
   2005.4784       8.7397      -0.2500    -999.2500    -999.2500    -999.2500      29.8068    -999.2500    -999.2500       0.0000       0.0000
   2005.6309       8.7388      -0.2500    -999.2500    -999.2500    -999.2500      31.6282    -999.2500    -999.2500       0.0000       0.0000
   2005.7832       8.7383      -0.2500    -999.2500    -999.2500    -999.2500      39.2375    -999.2500    -999.2500       0.0000       0.0000
   2005.9355       8.7377      -0.2500    -999.2500    -999.2500    -999.2500      44.4477    -999.2500    -999.2500       0.0000       0.0000
   2006.0880       8.7367      -0.2500    -999.2500    -999.2500    -999.2500      44.1842    -999.2500    -999.2500       0.0000       0.0000
   2006.2404       8.7358      -0.2500    -999.2500    -999.2500    -999.2500      44.0932    -999.2500    -999.2500       0.0000       0.0000
   2006.3928       8.7353      -0.2500    -999.2500    -999.2500    -999.2500      44.3956    -999.2500    -999.2500       0.0000       0.0000
   2006.5452       8.7347      -0.2502    -999.2500    -999.2500    -999.2500      44.2914    -999.2500    -999.2500       0.0000       0.0000
   2006.6976       8.7337      -0.2507    -999.2500    -999.2500    -999.2500      43.2584    -999.2500    -999.2500       0.0000       0.0000
   2006.8500       8.7327      -0.2510    -999.2500    -999.2500    -999.2500      41.5453    -999.2500    -999.2500       0.0000       0.0000
   2007.0024       8.7317      -0.2510    -999.2500    -999.2500    -999.2500      38.2789    -999.2500    -999.2500       0.0000       0.0000
   2007.1548       8.7308      -0.2510    -999.2500    -999.2500    -999.2500      34.4116    -999.2500    -999.2500       0.0000       0.0000
   2007.3073       8.7303      -0.2510    -999.2500    -999.2500    -999.2500      29.1718    -999.2500    -999.2500       0.0000       0.0000
   2007.4596       8.7297      -0.2510    -999.2500    -999.2500    -999.2500      23.8659    -999.2500    -999.2500       0.0000       0.0000
   2007.6121       8.7287      -0.2510    -999.2500    -999.2500    -999.2500      18.4091    -999.2500    -999.2500       0.0000       0.0000
   2007.7644       8.7278      -0.2510    -999.2500    -999.2500    -999.2500      14.7857    -999.2500    -999.2500       0.0000       0.0000
