#------------------------------------------------------------------------------
#
#   Created by  : [OpenWorks] Log Export Utility (LEXP)
#   Created on  : 2016-05-23 17:52:10
#   Project     : CANT971
#   User        : R5K
#   Interpreter : PEP
#
#------------------------------------------------------------------------------
~VERSION INFORMATION
VERS. 2.0 : CWLS Log ASCII Standard - version 2.0
WRAP.  NO : One line per depth step
~WELL INFORMATION
#MNEMONIC   .UNIT                                           VALUE :DESCRIPTION
#------------------------------------------------------------------------------
STRT        .M                                           540.0000 :START DEPTH
STOP        .M                                          2444.3904 :STOP DEPTH
STEP        .M                                             0.1524 :STEP
NULL        .                                           -999.2500 :NULL VALUE
COMP        .                                   PEMEX EXPL & PROD :COMPANY
WELL        .                                                1063 :WELL
FLD         .                                           CANTARELL :FIELD
LOC         .                                             UNKNOWN :LOCATION
CNTY        .                                      CD. DEL CARMEN :COUNTY
STAT        .                                            CAMPECHE :STATE
CTRY        .                                              MEXICO :COUNTRY
SRVC        .                                             UNKNOWN :SERVICE COMPANY
DATE        .                                             UNKNOWN :LOG DATE
UWI         .                                          3060000211 :UNIQUE WELL ID
XCOORD      .                                       598505.130000 :SURFACE X
YCOORD      .                                      2149276.180000 :SURFACE Y
LAT         .                                           19.436588 :LATITUDE
LON         .                                          -92.061656 :LONGITUDE
ELEV        .M                                            27.6000 :SURFACE ELEV
ELEV_TYPE   .                                                  KB :ELEV TYPE
~CURVE INFORMATION
#MNEMONIC.UNIT        API CODE       : CURVE DESCRIPTION
#------------------------------------------------------------------------------
DEPTH    .M                          : Measured Depth
CALI     .inches      UNKNOWN        : CALI:litodensidad:rC:NONE:v0 (auto-composite)
DRHO     .g/cm3       UNKNOWN        : DRHO:litodensidad:rC:NONE:v0 (auto-composite)
DT       .us/ft       UNKNOWN        : DT:DT:rC:NONE:v0 (auto-composite)
LLD      .UNKNOWN     UNKNOWN        : LLD:UNKNOWN:rC:NONE:v0 (auto-composite)
MSFL     .UNKNOWN     UNKNOWN        : MSFL:UNKNOWN:rC:NONE:v0 (auto-composite)
NPHI     .v/v_decimal UNKNOWN        : NPHI:NPHI:rC:NONE:v0 (auto-composite)
RHOB     .g/cm3       UNKNOWN        : RHOB:litodensidad:rC:NONE:v0 (auto-composite)
SIGM     .UNKNOWN     UNKNOWN        : SIGM:UNKNOWN:rC:NONE:v0 (auto-composite)
SP       .UNKNOWN     UNKNOWN        : SP:UNKNOWN:rC:NONE:v0 (auto-composite)
TAU      .UNKNOWN     UNKNOWN        : TAU:UNKNOWN:rC:NONE:v0 (auto-composite)
~A     DEPTH         CALI         DRHO           DT          LLD         MSFL         NPHI         RHOB         SIGM           SP          TAU
# ...
   1640.9376       8.8830      -0.2550    -999.2500     261.2513    -999.2500       7.5239    -999.2500      17.4249       0.0000       0.0000
   1641.0900       8.8828      -0.2550    -999.2500     275.8940    -999.2500       6.8719    -999.2500      17.0430       0.0000       0.0000
   1641.2424       8.8823      -0.2550    -999.2500     250.6926    -999.2500       6.5084    -999.2500      16.3268       0.0000       0.0000
   1641.3948       8.8820      -0.2550    -999.2500     225.5090    -999.2500       6.1711    -999.2500      15.6226       0.0000       0.0000
   1641.5472       8.8820      -0.2550    -999.2500     184.1318    -999.2500       5.8941    -999.2500      15.0605       0.0000       0.0000
   1641.6996       8.8818      -0.2548    -999.2500     143.5388    -999.2500       5.5294    -999.2500      14.5077       0.0000       0.0000
   1641.8521       8.8813      -0.2543    -999.2500     134.6623    -999.2500       4.9629    -999.2500      14.3277       0.0000       0.0000
   1642.0044       8.8810      -0.2540    -999.2500     126.4241    -999.2500       4.4803    -999.2500      14.1500       0.0000       0.0000
   1642.1569       8.8810      -0.2540    -999.2500     139.6588    -999.2500       4.1908    -999.2500      14.0452       0.0000       0.0000
   1642.3092       8.8810      -0.2542    -999.2500     153.0747    -999.2500       4.1516    -999.2500      13.9312       0.0000       0.0000
   1642.4615       8.8810      -0.2547    -999.2500     171.5760    -999.2500       4.6888    -999.2500      13.5592       0.0000       0.0000
   1642.6140       8.8808      -0.2550    -999.2500     189.6675    -999.2500       5.1495    -999.2500      13.1765       0.0000       0.0000
   1642.7664       8.8803      -0.2550    -999.2500     197.9141    -999.2500       5.4345    -999.2500      12.5395       0.0000       0.0000
   1642.9188       8.8800      -0.2548    -999.2500     206.9752    -999.2500       5.6776    -999.2500      11.9096       0.0000       0.0000
   1643.0712       8.8800      -0.2543    -999.2500     233.4436    -999.2500       5.8246    -999.2500      11.4308       0.0000       0.0000
   1643.2236       8.8800      -0.2540    -999.2500     259.2660    -999.2500       5.8683    -999.2500      10.9827       0.0000       0.0000
   1643.3760       8.8800      -0.2540    -999.2500     272.8777    -999.2500       5.6748    -999.2500      11.1165       0.0000       0.0000
   1643.5284       8.8798      -0.2542    -999.2500     286.6322    -999.2500       5.3941    -999.2500      11.2704       0.0000       0.0000
   1643.6808       8.8793      -0.2547    -999.2500     302.8391    -999.2500       4.9131    -999.2500      11.7693       0.0000       0.0000
   1643.8333       8.8790      -0.2550    -999.2500     317.9937    -999.2500       4.7246    -999.2500      12.2656       0.0000       0.0000
   1643.9856       8.8790      -0.2550    -999.2500     316.8159    -999.2500       5.2081    -999.2500      12.7219       0.0000       0.0000
   1644.1379       8.8788      -0.2550    -999.2500     314.3793    -999.2500       5.5207    -999.2500      13.1422       0.0000       0.0000
   1644.2904       8.8783      -0.2550    -999.2500     294.1498    -999.2500       5.4407    -999.2500      13.0545       0.0000       0.0000
   1644.4427       8.8780      -0.2548    -999.2500     274.1664    -999.2500       5.1146    -999.2500      12.9573       0.0000       0.0000
   1644.5952       8.8780      -0.2543    -999.2500     257.4109    -999.2500       4.2227    -999.2500      12.7362       0.0000       0.0000
   1644.7476       8.8780      -0.2542    -999.2500     244.3432    -999.2500       3.6586    -999.2500      12.5281       0.0000       0.0000
   1644.9000       8.8780      -0.2547    -999.2500     275.8786    -999.2500       3.8486    -999.2500      12.4770       0.0000       0.0000
   1645.0524       8.8778      -0.2550    -999.2500     303.9920    -999.2500       4.1042    -999.2500      12.4531       0.0000       0.0000
   1645.2048       8.8773      -0.2550    -999.2500     293.7487    -999.2500       4.5106    -999.2500      12.7347       0.0000       0.0000
   1645.3572       8.8770      -0.2550    -999.2500     280.5272    -999.2500       4.7858    -999.2500      13.0238       0.0000       0.0000
   1645.5096       8.8770      -0.2550    -999.2500     235.9145    -999.2500       4.7588    -999.2500      13.3914       0.0000       0.0000
   1645.6620       8.8768      -0.2550    -999.2500     196.3800    -999.2500       4.8256    -999.2500      13.7640       0.0000       0.0000
   1645.8145       8.8763      -0.2550    -999.2500     206.8465    -999.2500       5.1080    -999.2500      14.1866       0.0000       0.0000
   1645.9668       8.8760      -0.2550    -999.2500     217.5626    -999.2500       5.3859    -999.2500      14.6138       0.0000       0.0000
   1646.1191       8.8760      -0.2550    -999.2500     230.5825    -999.2500       5.6530    -999.2500      15.0819       0.0000       0.0000
   1646.2716       8.8760      -0.2550    -999.2500     239.7123    -999.2500       5.7479    -999.2500      15.5377       0.0000       0.0000
   1646.4240       8.8760      -0.2550    -999.2500     214.7747    -999.2500       5.4480    -999.2500      15.8862       0.0000       0.0000
   1646.5764       8.8758      -0.2550    -999.2500     192.9405    -999.2500       5.2390    -999.2500      16.2268       0.0000       0.0000
   1646.7288       8.8753      -0.2550    -999.2500     196.7310    -999.2500       5.2390    -999.2500      16.5024       0.0000       0.0000
   1646.8812       8.8750      -0.2550    -999.2500     202.1939    -999.2500       5.2743    -999.2500      16.7279       0.0000       0.0000
   1647.0336       8.8750      -0.2550    -999.2500     220.8145    -999.2500       5.3908    -999.2500      16.5590       0.0000       0.0000
   1647.1860       8.8748      -0.2548    -999.2500     235.7598    -999.2500       5.5980    -999.2500      16.3554       0.0000       0.0000
   1647.3384       8.8743      -0.2543    -999.2500     223.3168    -999.2500       6.0135    -999.2500      15.8941       0.0000       0.0000
   1647.4908       8.8740      -0.2542    -999.2500     210.5731    -999.2500       6.6575    -999.2500      15.5355       0.0000       0.0000
   1647.6432       8.8740      -0.2547    -999.2500     195.7023    -999.2500       7.8265    -999.2500      15.9029       0.0000       0.0000
   1647.7957       8.8740      -0.2550    -999.2500     182.1062    -999.2500       8.6407    -999.2500      16.3205       0.0000       0.0000
   1647.9480       8.8740      -0.2550    -999.2500     177.1464    -999.2500       8.6397    -999.2500      17.0786       0.0000       0.0000
   1648.1003       8.8738      -0.2550    -999.2500     171.2962    -999.2500       8.6144    -999.2500      17.7193       0.0000       0.0000
   1648.2528       8.8733      -0.2550    -999.2500     159.6980    -999.2500       8.5334    -999.2500      17.6019       0.0000       0.0000
   1648.4052       8.8730      -0.2550    -999.2500     148.2035    -999.2500       8.2447    -999.2500      17.5053       0.0000       0.0000
   1648.5576       8.8730      -0.2550    -999.2500     137.3472    -999.2500       7.4782    -999.2500      17.5358       0.0000       0.0000
   1648.7100       8.8728      -0.2550    -999.2500     128.8550    -999.2500       6.9449    -999.2500      17.6052       0.0000       0.0000
   1648.8624       8.8723      -0.2550    -999.2500     134.3663    -999.2500       6.9479    -999.2500      17.9046       0.0000       0.0000
   1649.0148       8.8720      -0.2550    -999.2500     143.5598    -999.2500       7.0260    -999.2500      18.2857       0.0000       0.0000
   1649.1672       8.8720      -0.2550    -999.2500     173.6231    -999.2500       7.2770    -999.2500      19.1302       0.0000       0.0000
   1649.3196       8.8720      -0.2550    -999.2500     199.0321    -999.2500       7.6851    -999.2500      19.9504       0.0000       0.0000
