#------------------------------------------------------------------------------
#
#   Created by  : [OpenWorks] Log Export Utility (LEXP)
#   Created on  : 2016-05-11 12:25:19
#   Project     : CANT971
#   User        : R5K
#   Interpreter : PEP
#
#------------------------------------------------------------------------------
~VERSION INFORMATION
VERS. 2.0 : CWLS Log ASCII Standard - version 2.0
WRAP.  NO : One line per depth step
~WELL INFORMATION
#MNEMONIC   .UNIT                                           VALUE :DESCRIPTION
#------------------------------------------------------------------------------
STRT        .M                                          1784.4515 :START DEPTH
STOP        .M                                          2909.3159 :STOP DEPTH
STEP        .M                                             0.1524 :STEP
NULL        .                                           -999.2500 :NULL VALUE
COMP        .                                   PEMEX EXPL & PROD :COMPANY
WELL        .                                               1063D :WELL
FLD         .                                           CANTARELL :FIELD
LOC         .                                             UNKNOWN :LOCATION
CNTY        .                                      CD. DEL CARMEN :COUNTY
STAT        .                                            CAMPECHE :STATE
CTRY        .                                              MEXICO :COUNTRY
SRVC        .                                             UNKNOWN :SERVICE COMPANY
DATE        .                                             UNKNOWN :LOG DATE
UWI         .                                                1000 :UNIQUE WELL ID
XCOORD      .                                       599718.040000 :SURFACE X
YCOORD      .                                      2149967.520000 :SURFACE Y
LAT         .                                           19.442775 :LATITUDE
LON         .                                          -92.050067 :LONGITUDE
ELEV        .M                                            30.0000 :SURFACE ELEV
ELEV_TYPE   .                                                  KB :ELEV TYPE
~CURVE INFORMATION
#MNEMONIC.UNIT        API CODE       : CURVE DESCRIPTION
#------------------------------------------------------------------------------
DEPTH    .M                          : Measured Depth
CALI     .inches      UNKNOWN        : CALI:CALI:rC:NONE:v0 (auto-composite)
DRHO     .g/cm3       UNKNOWN        : DRHO:DRHO:rC:NONE:v0 (auto-composite)
DT       .us/ft       UNKNOWN        : DT:DT:rC:NONE:v0 (auto-composite)
GR       .API         UNKNOWN        : GR:GR:rC:NONE:v0 (auto-composite)
GR-LWD   .UNKNOWN     UNKNOWN        : GR-LWD:registros:rC:NONE:v0 (auto-composite)
LLD      .ohm.m       UNKNOWN        : LLD:LLD:rC:NONE:v0 (auto-composite)
LLD-LWD  .UNKNOWN     UNKNOWN        : LLD-LWD:registros:rC:NONE:v0 (auto-composite)
LLS      .ohm.m       UNKNOWN        : LLS:LLS:rC:NONE:v0 (auto-composite)
LLS-LWD  .UNKNOWN     UNKNOWN        : LLS-LWD:registros:rC:NONE:v0 (auto-composite)
MSFL     .ohm.m       UNKNOWN        : MSFL:MSFL:rC:NONE:v0 (auto-composite)
MSFL-LWD .UNKNOWN     UNKNOWN        : MSFL-LWD:registros:rC:NONE:v0 (auto-composite)
NPHI     .v/v_decimal UNKNOWN        : NPHI:NPHI:rC:NONE:v0 (auto-composite)
PEF      .b/elec      UNKNOWN        : PEF:PEF:rC:NONE:v0 (auto-composite)
RHOB     .g/cm3       UNKNOWN        : RHOB:RHOB:rC:NONE:v0 (auto-composite)
SP       .mV          UNKNOWN        : SP:SP:rC:NONE:v0 (auto-composite)
~A     DEPTH         CALI         DRHO           DT           GR       GR-LWD          LLD      LLD-LWD          LLS      LLS-LWD         MSFL     MSFL-LWD         NPHI          PEF         RHOB           SP
# ...
   2901.8484      10.3830      -0.0000      67.5000      67.7830    -999.2500      60.5200    -999.2500      93.6410    -999.2500     796.9600    -999.2500       0.1550       3.7550       2.7430      -0.5000
   2902.0007      10.2700       0.0050      67.5000      67.7830    -999.2500      60.5200    -999.2500      93.6860    -999.2500     686.9070    -999.2500       0.1560       3.9630       2.7190      -0.5000
   2902.1531      10.1890       0.0100      67.6000      67.7830    -999.2500      60.5200    -999.2500      93.4590    -999.2500     354.3960    -999.2500       0.1570       3.7210       2.7200      -0.5000
   2902.3054      10.0390       0.0230      67.5000      67.7830    -999.2500      60.5200    -999.2500      93.2650    -999.2500     354.3960    -999.2500       0.1590       3.4420       2.7200      -0.5000
   2902.4580       9.9380       0.0350      67.4000      67.7830    -999.2500      60.5200    -999.2500      93.6410    -999.2500     354.3960    -999.2500       0.1600       3.4730       2.7210      -0.5000
   2902.6104       9.7340       0.0550      67.5000      67.7830    -999.2500      60.5200    -999.2500      93.4390    -999.2500     354.3960    -999.2500       0.1630       3.4640       2.7220      -0.5000
   2902.7627       9.6960       0.0690      67.4000      67.7830    -999.2500      60.5200    -999.2500      93.2230    -999.2500     354.3960    -999.2500       0.1630       3.5340       2.7130      -0.5000
   2902.9150       9.6900       0.0980      67.3000      67.7830    -999.2500      60.5200    -999.2500      93.2390    -999.2500     354.3960    -999.2500       0.1630       3.5250       2.7310      -0.5000
   2903.0676       9.6790       0.1090      67.5000      67.7830    -999.2500      60.5200    -999.2500      92.9600    -999.2500     354.3960    -999.2500       0.1630       3.5250       2.7350      -0.5000
   2903.2200       9.6750       0.1100      67.5000      67.7830    -999.2500      60.5200    -999.2500      92.7540    -999.2500     354.3960    -999.2500       0.1630       3.4100       2.7370      -0.5000
   2903.3723       9.6710       0.1060      67.5000      67.7830    -999.2500      60.5200    -999.2500      92.9840    -999.2500     354.3960    -999.2500       0.1630       3.1930       2.7300      -0.5000
   2903.5247       9.6590       0.1080      67.4000      67.7830    -999.2500      60.5200    -999.2500      92.8580    -999.2500     354.3960    -999.2500       0.1630       3.1050       2.7330      -0.5000
   2903.6772       9.6540       0.1150      67.4000      67.7830    -999.2500      60.5200    -999.2500      92.4220    -999.2500     354.3960    -999.2500       0.1640       3.1670       2.7440      -0.5000
   2903.8296       9.6570       0.1190      67.5000      67.7830    -999.2500      60.5200    -999.2500      92.6300    -999.2500     354.3960    -999.2500       0.1630       3.3040       2.7540      -0.5000
   2903.9819       9.6490       0.1310      67.4000      67.7830    -999.2500      60.5200    -999.2500      92.3700    -999.2500     354.3960    -999.2500       0.1640       3.4740       2.7650      -0.5000
   2904.1343       9.6440       0.1380      67.3000      67.7830    -999.2500      60.5200    -999.2500      91.9410    -999.2500     354.3960    -999.2500       0.1640       3.4930       2.7660      -0.5000
   2904.2866       9.6340       0.1360      67.5000      67.7830    -999.2500      60.5200    -999.2500      91.3380    -999.2500     354.3960    -999.2500       0.1640       3.4580       2.7540      -0.5000
   2904.4392       9.6230       0.1230      67.5000      67.7830    -999.2500      60.5200    -999.2500      89.9620    -999.2500     354.3960    -999.2500       0.1640       3.3770       2.7360      -0.5000
   2904.5916       9.6210       0.1220      67.4000      67.7830    -999.2500      39.0110    -999.2500      48.8440    -999.2500     354.3960    -999.2500       0.1640       3.3090       2.7340      -0.5000
   2904.7439       9.6240       0.1160      67.4000      67.7830    -999.2500      38.1440    -999.2500      48.9660    -999.2500     354.3960    -999.2500       0.1640       3.3450       2.7310      -0.5000
   2904.8962       9.6240       0.1260      67.4000      67.7830    -999.2500      38.1510    -999.2500      48.9550    -999.2500     354.3960    -999.2500       0.1640       3.3210       2.7510      -0.5000
   2905.0488       9.6230       0.1330      67.4000      67.7830    -999.2500      38.7470    -999.2500      49.3850    -999.2500     354.3960    -999.2500       0.1640       3.2420       2.7580      -0.5000
   2905.2012       9.6160       0.1450      67.6000      67.7830    -999.2500      38.7470    -999.2500      49.3850    -999.2500     354.3960    -999.2500       0.1640       3.1530       2.7700      -0.5000
   2905.3535       9.6170       0.1490      67.4000      67.7830    -999.2500      38.7470    -999.2500      49.3850    -999.2500     354.3960    -999.2500       0.1640       3.2140       2.7750      -0.5000
   2905.5059       9.6150       0.1490      67.5000      67.7830    -999.2500      38.7470    -999.2500      49.3850    -999.2500     354.3960    -999.2500       0.1640       3.3090       2.7700      -0.5000
   2905.6584       9.6140       0.1460      67.4000      67.7830    -999.2500      38.7470    -999.2500      49.3850    -999.2500     354.3960    -999.2500       0.1640       3.3080       2.7690      -0.5000
   2905.8108       9.6150       0.1500      67.4000      67.7830    -999.2500      38.7470    -999.2500      49.3850    -999.2500     354.3960    -999.2500       0.1640       3.3300       2.7680      -0.5000
   2905.9631       9.6120       0.1450      67.5000      67.7830    -999.2500      38.7470    -999.2500      49.3850    -999.2500     354.3960    -999.2500       0.1640       3.4000       2.7760      -0.5000
   2906.1155       9.6100       0.1370      67.5000      67.7830    -999.2500      38.7470    -999.2500      49.3850    -999.2500     354.3960    -999.2500       0.1640       3.3280       2.7610      -0.5000
   2906.2678       9.6130       0.1340      67.4000      67.7830    -999.2500      38.7470    -999.2500      49.3850    -999.2500     354.3960    -999.2500       0.1640       3.3790       2.7560      -0.5000
   2906.4204       9.6120       0.1300      67.4000      67.7830    -999.2500      38.7470    -999.2500      49.3850    -999.2500     354.3960    -999.2500       0.1640       3.1940       2.7480      -0.5000
   2906.5728       9.6110       0.1250      67.5000      67.7830    -999.2500      38.7470    -999.2500      49.3850    -999.2500     354.3960    -999.2500       0.1640       3.2810       2.7410      -0.5000
   2906.7251       9.6120       0.1260      67.5000      67.7830    -999.2500      38.7470    -999.2500      49.3850    -999.2500     354.3960    -999.2500       0.1640       3.1290       2.7530      -0.5000
   2906.8774       9.6120       0.1350      67.5000      67.7830    -999.2500      38.7470    -999.2500      49.3850    -999.2500     354.3960    -999.2500       0.1640       3.2110       2.7650      -0.5000
   2907.0300       9.6100       0.1420      67.5000      67.7830    -999.2500      38.7470    -999.2500      49.3850    -999.2500     354.3960    -999.2500       0.1640       3.2380       2.7790      -0.5000
   2907.1824       9.6130       0.1410      67.5000      67.7830    -999.2500      38.7470    -999.2500      49.3850    -999.2500     354.3960    -999.2500       0.1640       3.8360       2.7680      -0.5000
   2907.3347       9.6100       0.1370      67.5000      67.7830    -999.2500      38.7470    -999.2500      49.3850    -999.2500     354.3960    -999.2500       0.1640       4.5060       2.7520      -0.5000
   2907.4871       4.7650       0.1410      67.5000      67.7830    -999.2500      38.7470    -999.2500      49.3850    -999.2500     354.3960    -999.2500       0.2130       5.3250       2.7190      -0.5000
   2907.6396       2.3990       0.1400      67.5000      67.7830    -999.2500      38.7470    -999.2500      49.3850    -999.2500     354.3960    -999.2500       0.2340       5.3250       2.6840      -0.5000
