#------------------------------------------------------------------------------
#
#   Created by  : [OpenWorks] Log Export Utility (LEXP)
#   Created on  : 2016-05-11 12:25:19
#   Project     : CANT971
#   User        : R5K
#   Interpreter : PEP
#
#------------------------------------------------------------------------------
~VERSION INFORMATION
VERS. 2.0 : CWLS Log ASCII Standard - version 2.0
WRAP.  NO : One line per depth step
~WELL INFORMATION
#MNEMONIC   .UNIT                                           VALUE :DESCRIPTION
#------------------------------------------------------------------------------
STRT        .M                                          1784.4515 :START DEPTH
STOP        .M                                          2909.3159 :STOP DEPTH
STEP        .M                                             0.1524 :STEP
NULL        .                                           -999.2500 :NULL VALUE
COMP        .                                   PEMEX EXPL & PROD :COMPANY
WELL        .                                               1063D :WELL
FLD         .                                           CANTARELL :FIELD
LOC         .                                             UNKNOWN :LOCATION
CNTY        .                                      CD. DEL CARMEN :COUNTY
STAT        .                                            CAMPECHE :STATE
CTRY        .                                              MEXICO :COUNTRY
SRVC        .                                             UNKNOWN :SERVICE COMPANY
DATE        .                                             UNKNOWN :LOG DATE
UWI         .                                                1000 :UNIQUE WELL ID
XCOORD      .                                       599718.040000 :SURFACE X
YCOORD      .                                      2149967.520000 :SURFACE Y
LAT         .                                           19.442775 :LATITUDE
LON         .                                          -92.050067 :LONGITUDE
ELEV        .M                                            30.0000 :SURFACE ELEV
ELEV_TYPE   .                                                  KB :ELEV TYPE
~CURVE INFORMATION
#MNEMONIC.UNIT        API CODE       : CURVE DESCRIPTION
#------------------------------------------------------------------------------
DEPTH    .M                          : Measured Depth
CALI     .inches      UNKNOWN        : CALI:CALI:rC:NONE:v0 (auto-composite)
DRHO     .g/cm3       UNKNOWN        : DRHO:DRHO:rC:NONE:v0 (auto-composite)
DT       .us/ft       UNKNOWN        : DT:DT:rC:NONE:v0 (auto-composite)
GR       .API         UNKNOWN        : GR:GR:rC:NONE:v0 (auto-composite)
GR-LWD   .UNKNOWN     UNKNOWN        : GR-LWD:registros:rC:NONE:v0 (auto-composite)
LLD      .ohm.m       UNKNOWN        : LLD:LLD:rC:NONE:v0 (auto-composite)
LLD-LWD  .UNKNOWN     UNKNOWN        : LLD-LWD:registros:rC:NONE:v0 (auto-composite)
LLS      .ohm.m       UNKNOWN        : LLS:LLS:rC:NONE:v0 (auto-composite)
LLS-LWD  .UNKNOWN     UNKNOWN        : LLS-LWD:registros:rC:NONE:v0 (auto-composite)
MSFL     .ohm.m       UNKNOWN        : MSFL:MSFL:rC:NONE:v0 (auto-composite)
MSFL-LWD .UNKNOWN     UNKNOWN        : MSFL-LWD:registros:rC:NONE:v0 (auto-composite)
NPHI     .v/v_decimal UNKNOWN        : NPHI:NPHI:rC:NONE:v0 (auto-composite)
PEF      .b/elec      UNKNOWN        : PEF:PEF:rC:NONE:v0 (auto-composite)
RHOB     .g/cm3       UNKNOWN        : RHOB:RHOB:rC:NONE:v0 (auto-composite)
SP       .mV          UNKNOWN        : SP:SP:rC:NONE:v0 (auto-composite)
~A     DEPTH         CALI         DRHO           DT           GR       GR-LWD          LLD      LLD-LWD          LLS      LLS-LWD         MSFL     MSFL-LWD         NPHI          PEF         RHOB           SP
# ...
   2467.9656      11.0700      -0.0230      59.6000      31.2860    -999.2500     661.7050    -999.2500     308.6290    -999.2500     101.5860    -999.2500       0.0680       3.4950       2.5680     -35.7500
   2468.1179      11.2270      -0.0260      59.5000      33.7010    -999.2500     561.0870    -999.2500     281.6010    -999.2500     112.3670    -999.2500       0.0730       3.3720       2.5560     -35.2500
   2468.2703      11.0850      -0.0170      58.4000      33.2240    -999.2500     489.3770    -999.2500     263.7560    -999.2500     156.1070    -999.2500       0.0690       3.2820       2.5890     -34.5000
   2468.4229      11.1600      -0.0060      56.6000      32.0400    -999.2500     450.0570    -999.2500     252.2100    -999.2500     169.8440    -999.2500       0.0640       3.2610       2.6570     -33.4380
   2468.5752      11.2490      -0.0020      55.4000      31.7590    -999.2500     468.1310    -999.2500     265.9490    -999.2500     175.9720    -999.2500       0.0550       3.3760       2.6960     -32.3750
   2468.7275      11.3240       0.0050      54.7000      32.2810    -999.2500     504.4750    -999.2500     289.7700    -999.2500     213.5350    -999.2500       0.0530       3.4840       2.7410     -31.5630
   2468.8799      11.2350       0.0030      55.7000      33.7700    -999.2500     550.6610    -999.2500     316.4000    -999.2500     149.4790    -999.2500       0.0550       3.5500       2.7180     -30.7500
   2469.0322      11.1820      -0.0020      57.0000      35.9660    -999.2500     646.4900    -999.2500     367.1500    -999.2500     196.9930    -999.2500       0.0680       3.4680       2.7110     -30.0000
   2469.1848      11.2040      -0.0020      59.7000      35.9740    -999.2500     740.0500    -999.2500     411.3310    -999.2500     347.3460    -999.2500       0.0740       3.2980       2.7030     -29.1250
   2469.3372      11.2410      -0.0050      59.9000      34.0760    -999.2500     864.5070    -999.2500     462.0700    -999.2500     284.4480    -999.2500       0.0740       3.2340       2.7210     -28.4380
   2469.4895      11.1700      -0.0020      56.1000      30.0030    -999.2500    1052.4871    -999.2500     549.3300    -999.2500     332.6480    -999.2500       0.0670       3.2580       2.7350     -27.6880
   2469.6418      11.2570      -0.0000      55.0000      27.6340    -999.2500    1202.1479    -999.2500     624.2010    -999.2500     341.7610    -999.2500       0.0690       3.2580       2.7420     -27.0630
   2469.7944      11.3290       0.0010      55.3000      24.8930    -999.2500    1286.5210    -999.2500     664.7350    -999.2500     216.2980    -999.2500       0.0750       3.2310       2.7430     -26.5630
   2469.9468      11.4520      -0.0010      56.0000      24.9750    -999.2500    1238.6700    -999.2500     652.9480    -999.2500     310.7900    -999.2500       0.0830       3.4260       2.7440     -26.2500
   2470.0991      11.2400      -0.0010      55.2000      23.3470    -999.2500    1139.0760    -999.2500     606.1680    -999.2500     113.1570    -999.2500       0.0870       3.5630       2.7480     -26.2500
   2470.2515      11.1560      -0.0070      55.2000      24.2480    -999.2500    1044.0200    -999.2500     570.9400    -999.2500     203.4170    -999.2500       0.0850       3.6050       2.7190     -26.5000
   2470.4041      11.2780      -0.0090      57.1000      23.6860    -999.2500     961.0530    -999.2500     541.7670    -999.2500     317.1450    -999.2500       0.0820       3.5420       2.6880     -26.9380
   2470.5564      11.2950      -0.0070      54.9000      23.1500    -999.2500     967.3870    -999.2500     551.8540    -999.2500     197.1290    -999.2500       0.0810       3.6240       2.6630     -27.1880
   2470.7087      11.2880      -0.0100      54.9000      22.4930    -999.2500    1099.9100    -999.2500     624.0650    -999.2500     298.8150    -999.2500       0.0810       3.6940       2.6440     -26.6880
   2470.8611      11.2570      -0.0060      54.7000      22.3210    -999.2500    1248.9680    -999.2500     715.2200    -999.2500     423.4700    -999.2500       0.0810       3.5590       2.6360     -26.0630
   2471.0134      11.2500      -0.0060      53.9000      24.3070    -999.2500    1451.9410    -999.2500     836.1540    -999.2500     450.7440    -999.2500       0.0840       3.7610       2.6300     -26.1880
   2471.1660      11.2430      -0.0110      54.8000      26.2810    -999.2500    1593.0710    -999.2500     912.1160    -999.2500     607.8070    -999.2500       0.0920       3.7160       2.6090     -26.0630
   2471.3184      11.2230      -0.0190      53.4000      25.5980    -999.2500    1438.8560    -999.2500     833.4630    -999.2500     248.5200    -999.2500       0.0990       3.8050       2.5770     -25.5630
   2471.4707      11.2310      -0.0170      57.0000      27.6110    -999.2500    1260.6090    -999.2500     734.6670    -999.2500     333.1630    -999.2500       0.1000       3.5260       2.5640     -25.0000
   2471.6230      11.1990      -0.0180      59.2000      24.9510    -999.2500    1101.7510    -999.2500     644.0750    -999.2500     500.2520    -999.2500       0.1020       3.5190       2.5510     -25.0630
   2471.7756      11.2140      -0.0160      59.4000      25.5530    -999.2500     940.8110    -999.2500     555.2240    -999.2500     290.2510    -999.2500       0.1040       3.3720       2.5490     -24.8750
   2471.9280      11.2730      -0.0160      59.0000      25.5670    -999.2500     919.2760    -999.2500     545.8280    -999.2500     279.7790    -999.2500       0.1070       3.3190       2.5430     -24.6880
   2472.0803      11.3250      -0.0140      59.3000      27.5500    -999.2500     930.4610    -999.2500     547.8540    -999.2500     486.6760    -999.2500       0.1050       3.3020       2.5460     -24.7500
   2472.2327      11.3360      -0.0140      62.1000      28.8840    -999.2500     891.3530    -999.2500     532.2530    -999.2500     168.3820    -999.2500       0.1010       3.4760       2.5380     -24.8130
   2472.3853      11.3110      -0.0070      58.0000      28.2950    -999.2500     870.8030    -999.2500     534.0350    -999.2500     270.2920    -999.2500       0.1000       3.7470       2.5420     -24.8130
   2472.5376      11.1150      -0.0020      56.9000      30.2970    -999.2500     768.1470    -999.2500     486.9030    -999.2500     486.6760    -999.2500       0.0930       3.6050       2.5650     -24.8750
   2472.6899      11.1210       0.0020      53.7000      30.7260    -999.2500     655.3490    -999.2500     427.4900    -999.2500     146.3700    -999.2500       0.0920       3.4410       2.5920     -24.8130
   2472.8423      11.1310       0.0050      52.7000      34.0580    -999.2500     582.6740    -999.2500     389.4020    -999.2500     159.9070    -999.2500       0.0900       3.1310       2.6480     -24.7500
   2472.9946      11.2360      -0.0020      55.9000      35.5620    -999.2500     565.0640    -999.2500     385.2520    -999.2500     206.9380    -999.2500       0.0900       3.4170       2.6630     -24.6250
   2473.1472      11.3380      -0.0070      54.4000      36.7270    -999.2500     539.9720    -999.2500     372.0070    -999.2500    1154.2740    -999.2500       0.0760       3.4100       2.7140     -24.3750
   2473.2996      11.3980      -0.0140      54.6000      39.0360    -999.2500     574.8360    -999.2500     397.0130    -999.2500     415.5990    -999.2500       0.0590       3.7660       2.7210     -24.3130
   2473.4519      11.3800      -0.0120      50.7000      45.1320    -999.2500     668.6040    -999.2500     459.5800    -999.2500     455.7560    -999.2500       0.0450       3.7120       2.7610     -24.0630
   2473.6042      11.1770      -0.0130      54.1000      50.5720    -999.2500     770.6630    -999.2500     522.1660    -999.2500     440.3680    -999.2500       0.0420       3.6570       2.7620     -23.5000
   2473.7568      11.1090      -0.0070      53.1000      49.3810    -999.2500     906.7350    -999.2500     588.0720    -999.2500     396.6410    -999.2500       0.0460       3.4230       2.7610     -23.4380
