#------------------------------------------------------------------------------
#
#   Created by  : [OpenWorks] Log Export Utility (LEXP)
#   Created on  : 2016-05-11 12:25:21
#   Project     : CANT971
#   User        : R5K
#   Interpreter : PEP
#
#------------------------------------------------------------------------------
~VERSION INFORMATION
VERS. 2.0 : CWLS Log ASCII Standard - version 2.0
WRAP.  NO : One line per depth step
~WELL INFORMATION
#MNEMONIC   .UNIT                                           VALUE :DESCRIPTION
#------------------------------------------------------------------------------
STRT        .M                                           765.2640 :START DEPTH
STOP        .M                                          3197.2632 :STOP DEPTH
STEP        .M                                             0.1524 :STEP
NULL        .                                           -999.2500 :NULL VALUE
COMP        .                                   PEMEX EXPL & PROD :COMPANY
WELL        .                                               1065D :WELL
FLD         .                                           CANTARELL :FIELD
LOC         .                                             UNKNOWN :LOCATION
CNTY        .                                      CD. DEL CARMEN :COUNTY
STAT        .                                             UNKNOWN :STATE
CTRY        .                                             UNKNOWN :COUNTRY
SRVC        .                                             UNKNOWN :SERVICE COMPANY
DATE        .                                             UNKNOWN :LOG DATE
UWI         .                                           W-C-1065D :UNIQUE WELL ID
XCOORD      .                                       599712.630000 :SURFACE X
YCOORD      .                                      2149962.600000 :SURFACE Y
LAT         .                                           19.442731 :LATITUDE
LON         .                                          -92.050118 :LONGITUDE
ELEV        .M                                            30.0000 :SURFACE ELEV
ELEV_TYPE   .                                                  KB :ELEV TYPE
~CURVE INFORMATION
#MNEMONIC.UNIT        API CODE       : CURVE DESCRIPTION
#------------------------------------------------------------------------------
DEPTH    .M                          : Measured Depth
CALI     .inches      UNKNOWN        : CALI:registros:rC:NONE:v0 (auto-composite)
CGR      .API         UNKNOWN        : CGR:registros:rC:NONE:v0 (auto-composite)
DRHO     .g/cm3       UNKNOWN        : DRHO:registros:rC:NONE:v0 (auto-composite)
DT       .us/ft       UNKNOWN        : DT:registros:rC:NONE:v0 (auto-composite)
GR       .API         UNKNOWN        : GR:registros:rC:NONE:v0 (auto-composite)
GR-LWD   .UNKNOWN     UNKNOWN        : GR-LWD:registros:rC:NONE:v0 (auto-composite)
ILD-LWD  .ohm.m       UNKNOWN        : ILD-LWD:registros:rC:NONE:v0 (auto-composite)
ILM-LWD  .UNKNOWN     UNKNOWN        : ILM-LWD:registros:rC:NONE:v0 (auto-composite)
LLD      .ohm.m       UNKNOWN        : LLD:registros:rC:NONE:v0 (auto-composite)
LLS      .ohm.m       UNKNOWN        : LLS:registros:rC:NONE:v0 (auto-composite)
MSFL     .ohm.m       UNKNOWN        : MSFL:registros:rC:NONE:v0 (auto-composite)
NPHI     .UNKNOWN     UNKNOWN        : NPHI:registros:rC:NONE:v0 (auto-composite)
PEF      .UNKNOWN     UNKNOWN        : PEF:registros:rC:NONE:v0 (auto-composite)
POTA     .wtpercent   UNKNOWN        : POTA:registros:rC:NONE:v0 (auto-composite)
RHOB     .g/cm3       UNKNOWN        : RHOB:registros:rC:NONE:v0 (auto-composite)
SP       .mV          UNKNOWN        : SP:registros:rC:NONE:v0 (auto-composite)
THOR     .ppm         UNKNOWN        : THOR:registros:rC:NONE:v0 (auto-composite)
URAN     .ppm         UNKNOWN        : URAN:registros:rC:NONE:v0 (auto-composite)
~A     DEPTH         CALI          CGR         DRHO           DT           GR       GR-LWD      ILD-LWD      ILM-LWD          LLD          LLS         MSFL         NPHI          PEF         POTA         RHOB           SP         THOR         URAN
# ...
   2439.9875      11.3411      39.1079       0.0121      52.8786      63.1379    -999.2500    -999.2500    -999.2500      23.7339      22.6750      52.9280       0.0799       3.2105       0.0156       2.7364    -999.2500       4.1262       1.6541
   2440.1399      11.3094      33.9371       0.0195      57.0709      58.4525    -999.2500    -999.2500    -999.2500      27.3644      26.0558      78.6935       0.0655       3.3424       0.0133       2.7506    -999.2500       3.7581       1.3560
   2440.2925      11.3824      32.5877       0.0165      59.1425      51.0182    -999.2500    -999.2500    -999.2500      39.6991      38.5339      52.6812       0.0635       3.2449       0.0124       2.7481    -999.2500       3.6132       1.2068
   2440.4448      11.4513      31.4647       0.0161      60.5806      44.3361    -999.2500    -999.2500    -999.2500      51.0074      49.9487      40.6522       0.0609       3.1685       0.0119       2.7481    -999.2500       3.5951       1.1072
   2440.5972      11.5002      31.4512       0.0286      58.9147      41.3398    -999.2500    -999.2500    -999.2500      57.2872      56.1536      97.1376       0.0549       3.1950       0.0114       2.7606    -999.2500       3.7381       1.0369
   2440.7495      11.5533      31.7152       0.0370      57.5571      39.0409    -999.2500    -999.2500    -999.2500      61.0416      59.9665     135.1225       0.0483       3.2278       0.0112       2.7692    -999.2500       3.9646       1.0055
   2440.9019      11.6267      33.3630       0.0250      57.7370      40.2199    -999.2500    -999.2500    -999.2500      52.2030      51.8515      80.8489       0.0382       3.2922       0.0116       2.7582    -999.2500       4.2687       1.0558
   2441.0544      11.6665      35.0742       0.0193      57.3512      41.4431    -999.2500    -999.2500    -999.2500      43.7103      43.9680      38.3096       0.0334       3.3223       0.0124       2.7546    -999.2500       4.4504       1.2154
   2441.2068      11.5371      37.1033       0.0454      54.1268      42.8881    -999.2500    -999.2500    -999.2500      36.9541      37.2458      54.6519       0.0545       3.1794       0.0137       2.7882    -999.2500       4.3143       1.5658
   2441.3591      11.4420      38.8478       0.0635      51.3310      44.6832    -999.2500    -999.2500    -999.2500      30.8755      31.1825      63.2594       0.0748       3.0795       0.0150       2.8076    -999.2500       4.1397       1.8975
   2441.5115      11.5120      39.2191       0.0430      50.6028      48.1667    -999.2500    -999.2500    -999.2500      28.0657      28.2967      34.5568       0.0911       3.1875       0.0156       2.7586    -999.2500       4.0614       2.0669
   2441.6641      11.5567      39.1919       0.0274      50.1174      51.4956    -999.2500    -999.2500    -999.2500      26.0809      26.2269      18.0788       0.1024       3.2852       0.0158       2.7162    -999.2500       3.9554       2.1441
   2441.8164      11.4788      37.2309       0.0354      50.8106      54.0744    -999.2500    -999.2500    -999.2500      28.1000      28.1165      60.9280       0.0892       3.3331       0.0154       2.7057    -999.2500       3.7314       2.1138
   2441.9688      11.4423      35.3028       0.0394      51.7782      55.8298    -999.2500    -999.2500    -999.2500      30.9156      30.7952      92.1017       0.0761       3.3849       0.0149       2.6996    -999.2500       3.4796       2.0745
   2442.1211      11.6102      33.5375       0.0239      54.1012      53.5183    -999.2500    -999.2500    -999.2500      37.6657      37.3703      65.6132       0.0637       3.4553       0.0144       2.7151    -999.2500       3.2135       2.0955
   2442.2737      11.7349      31.2367       0.0116      55.8704      51.1963    -999.2500    -999.2500    -999.2500      43.8372      43.4008      44.6662       0.0544       3.4960       0.0136       2.7319    -999.2500       2.7597       2.2704
   2442.4260      11.6450      26.2743       0.0151      54.8878      48.8223    -999.2500    -999.2500    -999.2500      47.1338      46.7243      51.2573       0.0606       3.3885       0.0123       2.7554    -999.2500       1.9363       2.7416
   2442.5784      11.5696      22.3335       0.0165      54.1759      46.9611    -999.2500    -999.2500    -999.2500      51.1327      50.7409      53.4743       0.0648       3.3076       0.0112       2.7741    -999.2500       1.3508       3.1998
   2442.7307      11.5671      23.5005       0.0075      54.8177      47.6638    -999.2500    -999.2500    -999.2500      58.6435      58.2227      33.8188       0.0592       3.3591       0.0109       2.7686    -999.2500       1.5041       3.4370
   2442.8831      11.5479      23.4991       0.0003      55.1562      48.3201    -999.2500    -999.2500    -999.2500      65.7322      65.2792      19.6270       0.0532       3.3911       0.0100       2.7655    -999.2500       1.6933       3.5254
   2443.0356      11.4447      17.6190       0.0023      53.9694      48.7429    -999.2500    -999.2500    -999.2500      70.6975      70.1964      32.9267       0.0451       3.3255       0.0076       2.7745    -999.2500       1.5190       3.4180
   2443.1880      11.3637      12.4474       0.0041      52.9324      48.1211    -999.2500    -999.2500    -999.2500      78.7942      77.7717      49.9098       0.0380       3.2573       0.0053       2.7823    -999.2500       1.2863       3.2785
   2443.3403      11.3912      10.7411       0.0046      52.6286      42.3890    -999.2500    -999.2500    -999.2500     102.2081      98.3488      84.9102       0.0353       3.1763       0.0045       2.7838    -999.2500       1.1566       3.1934
   2443.4927      11.4140       9.7889       0.0048      52.3913      37.4958    -999.2500    -999.2500    -999.2500     126.1315     119.6423     109.2173       0.0328       3.1131       0.0044       2.7860    -999.2500       1.1515       3.1830
   2443.6453      11.4140      12.5477       0.0038      52.4817      36.7306    -999.2500    -999.2500    -999.2500     152.5625     144.4615      80.8961       0.0309       3.1370       0.0052       2.7920    -999.2500       1.3523       3.3007
   2443.7976      11.4081      15.3609       0.0034      52.3027      36.3991    -999.2500    -999.2500    -999.2500     172.4150     163.1881      61.6714       0.0296       3.1753       0.0065       2.7947    -999.2500       1.5631       3.4273
   2443.9500      11.3731      18.4436       0.0059      50.7894      38.2148    -999.2500    -999.2500    -999.2500     159.6895     151.7431      87.4937       0.0318       3.2843       0.0083       2.7812    -999.2500       1.6642       3.4918
   2444.1023      11.3498      21.1345       0.0077      49.5019      40.4723    -999.2500    -999.2500    -999.2500     144.9930     138.4341     106.3707       0.0337       3.3569       0.0099       2.7692    -999.2500       1.6914       3.5126
   2444.2549      11.3848      21.8736       0.0063      49.3396      44.9313    -999.2500    -999.2500    -999.2500     120.4752     115.8375      90.6401       0.0344       3.2485       0.0106       2.7642    -999.2500       1.6215       3.4730
   2444.4072      11.4140      22.2601       0.0046      49.3054      49.0404    -999.2500    -999.2500    -999.2500     100.6115      97.5620      75.2552       0.0347       3.1699       0.0108       2.7624    -999.2500       1.5101       3.3996
   2444.5596      11.4140      20.8577       0.0021      49.9211      51.3749    -999.2500    -999.2500    -999.2500     104.3554     101.2056      61.6239       0.0333       3.2421       0.0104       2.7769    -999.2500       1.3848       3.2823
   2444.7119      11.4140      19.6058      -0.0004      50.4326      52.2911    -999.2500    -999.2500    -999.2500     112.7096     108.9283      56.0927       0.0317       3.3248       0.0097       2.7906    -999.2500       1.3954       3.0970
   2444.8643      11.4140      19.0875      -0.0029      50.4361      46.2937    -999.2500    -999.2500    -999.2500     143.5378     136.5348      90.0465       0.0293       3.4587       0.0089       2.8001    -999.2500       1.7069       2.8032
