#------------------------------------------------------------------------------
#
#   Created by  : [OpenWorks] Log Export Utility (LEXP)
#   Created on  : 2016-05-11 12:25:21
#   Project     : CANT971
#   User        : R5K
#   Interpreter : PEP
#
#------------------------------------------------------------------------------
~VERSION INFORMATION
VERS. 2.0 : CWLS Log ASCII Standard - version 2.0
WRAP.  NO : One line per depth step
~WELL INFORMATION
#MNEMONIC   .UNIT                                           VALUE :DESCRIPTION
#------------------------------------------------------------------------------
STRT        .M                                           765.2640 :START DEPTH
STOP        .M                                          3197.2632 :STOP DEPTH
STEP        .M                                             0.1524 :STEP
NULL        .                                           -999.2500 :NULL VALUE
COMP        .                                   PEMEX EXPL & PROD :COMPANY
WELL        .                                               1065D :WELL
FLD         .                                           CANTARELL :FIELD
LOC         .                                             UNKNOWN :LOCATION
CNTY        .                                      CD. DEL CARMEN :COUNTY
STAT        .                                             UNKNOWN :STATE
CTRY        .                                             UNKNOWN :COUNTRY
SRVC        .                                             UNKNOWN :SERVICE COMPANY
DATE        .                                             UNKNOWN :LOG DATE
UWI         .                                           W-C-1065D :UNIQUE WELL ID
XCOORD      .                                       599712.630000 :SURFACE X
YCOORD      .                                      2149962.600000 :SURFACE Y
LAT         .                                           19.442731 :LATITUDE
LON         .                                          -92.050118 :LONGITUDE
ELEV        .M                                            30.0000 :SURFACE ELEV
ELEV_TYPE   .                                                  KB :ELEV TYPE
~CURVE INFORMATION
#MNEMONIC.UNIT        API CODE       : CURVE DESCRIPTION
#------------------------------------------------------------------------------
DEPTH    .M                          : Measured Depth
CALI     .inches      UNKNOWN        : CALI:registros:rC:NONE:v0 (auto-composite)
CGR      .API         UNKNOWN        : CGR:registros:rC:NONE:v0 (auto-composite)
DRHO     .g/cm3       UNKNOWN        : DRHO:registros:rC:NONE:v0 (auto-composite)
DT       .us/ft       UNKNOWN        : DT:registros:rC:NONE:v0 (auto-composite)
GR       .API         UNKNOWN        : GR:registros:rC:NONE:v0 (auto-composite)
GR-LWD   .UNKNOWN     UNKNOWN        : GR-LWD:registros:rC:NONE:v0 (auto-composite)
ILD-LWD  .ohm.m       UNKNOWN        : ILD-LWD:registros:rC:NONE:v0 (auto-composite)
ILM-LWD  .UNKNOWN     UNKNOWN        : ILM-LWD:registros:rC:NONE:v0 (auto-composite)
LLD      .ohm.m       UNKNOWN        : LLD:registros:rC:NONE:v0 (auto-composite)
LLS      .ohm.m       UNKNOWN        : LLS:registros:rC:NONE:v0 (auto-composite)
MSFL     .ohm.m       UNKNOWN        : MSFL:registros:rC:NONE:v0 (auto-composite)
NPHI     .UNKNOWN     UNKNOWN        : NPHI:registros:rC:NONE:v0 (auto-composite)
PEF      .UNKNOWN     UNKNOWN        : PEF:registros:rC:NONE:v0 (auto-composite)
POTA     .wtpercent   UNKNOWN        : POTA:registros:rC:NONE:v0 (auto-composite)
RHOB     .g/cm3       UNKNOWN        : RHOB:registros:rC:NONE:v0 (auto-composite)
SP       .mV          UNKNOWN        : SP:registros:rC:NONE:v0 (auto-composite)
THOR     .ppm         UNKNOWN        : THOR:registros:rC:NONE:v0 (auto-composite)
URAN     .ppm         UNKNOWN        : URAN:registros:rC:NONE:v0 (auto-composite)
~A     DEPTH         CALI          CGR         DRHO           DT           GR       GR-LWD      ILD-LWD      ILM-LWD          LLD          LLS         MSFL         NPHI          PEF         POTA         RHOB           SP         THOR         URAN
# ...
    921.1692      15.1157       0.0000      -0.0043     135.3605      51.6525    -999.2500    -999.2500    -999.2500    -999.2500    -999.2500    -999.2500       0.3426       4.3417    -999.2500       2.2339       0.0000    -999.2500    -999.2500
    921.3216      15.1132       0.0000      -0.0038     135.4151      51.2885    -999.2500    -999.2500    -999.2500    -999.2500    -999.2500    -999.2500       0.3478       4.3189    -999.2500       2.2390       0.0000    -999.2500    -999.2500
    921.4740      15.0896       0.0000      -0.0033     135.2236      51.9607    -999.2500    -999.2500    -999.2500    -999.2500    -999.2500    -999.2500       0.3520       4.3475    -999.2500       2.2416       0.0000    -999.2500    -999.2500
    921.6264      15.0792       0.0000      -0.0028     135.1548      52.0508    -999.2500    -999.2500    -999.2500    -999.2500    -999.2500    -999.2500       0.3594       4.3786    -999.2500       2.2411       0.0000    -999.2500    -999.2500
    921.7787      15.0867       0.0000      -0.0023     135.2537      51.3447    -999.2500    -999.2500    -999.2500    -999.2500    -999.2500    -999.2500       0.3710       4.4130    -999.2500       2.2366       0.0000    -999.2500    -999.2500
    921.9312      15.0719       0.0000      -0.0020     135.4221      50.5735    -999.2500    -999.2500    -999.2500    -999.2500    -999.2500    -999.2500       0.3699       4.4164    -999.2500       2.2338       0.0000    -999.2500    -999.2500
    922.0836      15.0264       0.0000      -0.0020     135.6859      49.7125    -999.2500    -999.2500    -999.2500    -999.2500    -999.2500    -999.2500       0.3514       4.3769    -999.2500       2.2333       0.0000    -999.2500    -999.2500
    922.2360      15.0109       0.0000      -0.0022     135.9298      49.8803    -999.2500    -999.2500    -999.2500    -999.2500    -999.2500    -999.2500       0.3469       4.3475    -999.2500       2.2326       0.0000    -999.2500    -999.2500
    922.3884      15.0369       0.0000      -0.0027     136.1462      51.4698    -999.2500    -999.2500    -999.2500    -999.2500    -999.2500    -999.2500       0.3620       4.3320    -999.2500       2.2316       0.0000    -999.2500    -999.2500
    922.5408      15.0461       0.0000      -0.0032     136.3034      52.1478    -999.2500    -999.2500    -999.2500    -999.2500    -999.2500    -999.2500       0.3746       4.3197    -999.2500       2.2302       0.0000    -999.2500    -999.2500
    922.6932      15.0322       0.0000      -0.0037     136.3783      51.5597    -999.2500    -999.2500    -999.2500    -999.2500    -999.2500    -999.2500       0.3838       4.3117    -999.2500       2.2282       0.0000    -999.2500    -999.2500
    922.8456      15.0250       0.0000      -0.0040     136.5705      50.4671    -999.2500    -999.2500    -999.2500    -999.2500    -999.2500    -999.2500       0.3849       4.3101    -999.2500       2.2272       0.0000    -999.2500    -999.2500
    922.9980      15.0276       0.0000      -0.0040     136.9264      48.6700    -999.2500    -999.2500    -999.2500    -999.2500    -999.2500    -999.2500       0.3748       4.3177    -999.2500       2.2277       0.0000    -999.2500    -999.2500
    923.1504      15.0187       0.0000      -0.0038     137.1795      47.8969    -999.2500    -999.2500    -999.2500    -999.2500    -999.2500    -999.2500       0.3751       4.3205    -999.2500       2.2278       0.0000    -999.2500    -999.2500
    923.3028      14.9942       0.0000      -0.0033     137.2919      48.5240    -999.2500    -999.2500    -999.2500    -999.2500    -999.2500    -999.2500       0.3895       4.3170    -999.2500       2.2273       0.0000    -999.2500    -999.2500
    923.4552      14.9842       0.0000      -0.0030     137.2126      48.9632    -999.2500    -999.2500    -999.2500    -999.2500    -999.2500    -999.2500       0.3941       4.3108    -999.2500       2.2278       0.0000    -999.2500    -999.2500
    923.6076      14.9942       0.0000      -0.0030     136.8698      49.1441    -999.2500    -999.2500    -999.2500    -999.2500    -999.2500    -999.2500       0.3852       4.3008    -999.2500       2.2298       0.0000    -999.2500    -999.2500
    923.7599      15.0073       0.0000      -0.0030     136.5172      49.7276    -999.2500    -999.2500    -999.2500    -999.2500    -999.2500    -999.2500       0.3730       4.3055    -999.2500       2.2300       0.0000    -999.2500    -999.2500
    923.9124      15.0248       0.0000      -0.0030     136.1509      50.8674    -999.2500    -999.2500    -999.2500    -999.2500    -999.2500    -999.2500       0.3564       4.3305    -999.2500       2.2275       0.0000    -999.2500    -999.2500
    924.0648      15.0237       0.0000      -0.0032     135.8905      51.9525    -999.2500    -999.2500    -999.2500    -999.2500    -999.2500    -999.2500       0.3483       4.3473    -999.2500       2.2264       0.0000    -999.2500    -999.2500
    924.2172      14.9967       0.0000      -0.0037     135.7771      52.9616    -999.2500    -999.2500    -999.2500    -999.2500    -999.2500    -999.2500       0.3520       4.3528    -999.2500       2.2274       0.0000    -999.2500    -999.2500
    924.3696      14.9762       0.0000      -0.0038     135.7447      52.3916    -999.2500    -999.2500    -999.2500    -999.2500    -999.2500    -999.2500       0.3558       4.3633    -999.2500       2.2282       0.0000    -999.2500    -999.2500
    924.5220      14.9647       0.0000      -0.0033     135.8254      49.6134    -999.2500    -999.2500    -999.2500    -999.2500    -999.2500    -999.2500       0.3597       4.3809    -999.2500       2.2287       0.0000    -999.2500    -999.2500
    924.6744      14.9715       0.0000      -0.0030     135.9301      48.4177    -999.2500    -999.2500    -999.2500    -999.2500    -999.2500    -999.2500       0.3581       4.4058    -999.2500       2.2277       0.0000    -999.2500    -999.2500
    924.8268      15.0035       0.0000      -0.0030     136.0675      49.3851    -999.2500    -999.2500    -999.2500    -999.2500    -999.2500    -999.2500       0.3492       4.4408    -999.2500       2.2247       0.0000    -999.2500    -999.2500
    924.9792      15.0062       0.0000      -0.0032     136.1761      50.5647    -999.2500    -999.2500    -999.2500    -999.2500    -999.2500    -999.2500       0.3536       4.4639    -999.2500       2.2234       0.0000    -999.2500    -999.2500
    925.1316      14.9687       0.0000      -0.0037     136.2450      52.0358    -999.2500    -999.2500    -999.2500    -999.2500    -999.2500    -999.2500       0.3762       4.4709    -999.2500       2.2244       0.0000    -999.2500    -999.2500
    925.2840      14.9522       0.0000      -0.0038     136.2305      51.7463    -999.2500    -999.2500    -999.2500    -999.2500    -999.2500    -999.2500       0.3862       4.4593    -999.2500       2.2263       0.0000    -999.2500    -999.2500
    925.4364      14.9647       0.0000      -0.0033     136.1006      49.0256    -999.2500    -999.2500    -999.2500    -999.2500    -999.2500    -999.2500       0.3787       4.4218    -999.2500       2.2293       0.0000    -999.2500    -999.2500
    925.5888      14.9655       0.0000      -0.0032     135.8229      47.9867    -999.2500    -999.2500    -999.2500    -999.2500    -999.2500    -999.2500       0.3728       4.3969    -999.2500       2.2306       0.0000    -999.2500    -999.2500
    925.7411      14.9500       0.0000      -0.0037     135.3397      49.2864    -999.2500    -999.2500    -999.2500    -999.2500    -999.2500    -999.2500       0.3690       4.3894    -999.2500       2.2296       0.0000    -999.2500    -999.2500
    925.8936      14.9266       0.0000      -0.0040     135.0053      49.3989    -999.2500    -999.2500    -999.2500    -999.2500    -999.2500    -999.2500       0.3680       4.4199    -999.2500       2.2288       0.0000    -999.2500    -999.2500
    926.0460      14.8920       0.0000      -0.0040     134.8790      47.8521    -999.2500    -999.2500    -999.2500    -999.2500    -999.2500    -999.2500       0.3710       4.5037    -999.2500       2.2283       0.0000    -999.2500    -999.2500
