#------------------------------------------------------------------------------
#
#   Created by  : [OpenWorks] Log Export Utility (LEXP)
#   Created on  : 2016-05-11 12:25:21
#   Project     : CANT971
#   User        : R5K
#   Interpreter : PEP
#
#------------------------------------------------------------------------------
~VERSION INFORMATION
VERS. 2.0 : CWLS Log ASCII Standard - version 2.0
WRAP.  NO : One line per depth step
~WELL INFORMATION
#MNEMONIC   .UNIT                                           VALUE :DESCRIPTION
#------------------------------------------------------------------------------
STRT        .M                                           765.2640 :START DEPTH
STOP        .M                                          3197.2632 :STOP DEPTH
STEP        .M                                             0.1524 :STEP
NULL        .                                           -999.2500 :NULL VALUE
COMP        .                                   PEMEX EXPL & PROD :COMPANY
WELL        .                                               1065D :WELL
FLD         .                                           CANTARELL :FIELD
LOC         .                                             UNKNOWN :LOCATION
CNTY        .                                      CD. DEL CARMEN :COUNTY
STAT        .                                             UNKNOWN :STATE
CTRY        .                                             UNKNOWN :COUNTRY
SRVC        .                                             UNKNOWN :SERVICE COMPANY
DATE        .                                             UNKNOWN :LOG DATE
UWI         .                                           W-C-1065D :UNIQUE WELL ID
XCOORD      .                                       599712.630000 :SURFACE X
YCOORD      .                                      2149962.600000 :SURFACE Y
LAT         .                                           19.442731 :LATITUDE
LON         .                                          -92.050118 :LONGITUDE
ELEV        .M                                            30.0000 :SURFACE ELEV
ELEV_TYPE   .                                                  KB :ELEV TYPE
~CURVE INFORMATION
#MNEMONIC.UNIT        API CODE       : CURVE DESCRIPTION
#------------------------------------------------------------------------------
DEPTH    .M                          : Measured Depth
CALI     .inches      UNKNOWN        : CALI:registros:rC:NONE:v0 (auto-composite)
CGR      .API         UNKNOWN        : CGR:registros:rC:NONE:v0 (auto-composite)
DRHO     .g/cm3       UNKNOWN        : DRHO:registros:rC:NONE:v0 (auto-composite)
DT       .us/ft       UNKNOWN        : DT:registros:rC:NONE:v0 (auto-composite)
GR       .API         UNKNOWN        : GR:registros:rC:NONE:v0 (auto-composite)
GR-LWD   .UNKNOWN     UNKNOWN        : GR-LWD:registros:rC:NONE:v0 (auto-composite)
ILD-LWD  .ohm.m       UNKNOWN        : ILD-LWD:registros:rC:NONE:v0 (auto-composite)
ILM-LWD  .UNKNOWN     UNKNOWN        : ILM-LWD:registros:rC:NONE:v0 (auto-composite)
LLD      .ohm.m       UNKNOWN        : LLD:registros:rC:NONE:v0 (auto-composite)
LLS      .ohm.m       UNKNOWN        : LLS:registros:rC:NONE:v0 (auto-composite)
MSFL     .ohm.m       UNKNOWN        : MSFL:registros:rC:NONE:v0 (auto-composite)
NPHI     .UNKNOWN     UNKNOWN        : NPHI:registros:rC:NONE:v0 (auto-composite)
PEF      .UNKNOWN     UNKNOWN        : PEF:registros:rC:NONE:v0 (auto-composite)
POTA     .wtpercent   UNKNOWN        : POTA:registros:rC:NONE:v0 (auto-composite)
RHOB     .g/cm3       UNKNOWN        : RHOB:registros:rC:NONE:v0 (auto-composite)
SP       .mV          UNKNOWN        : SP:registros:rC:NONE:v0 (auto-composite)
THOR     .ppm         UNKNOWN        : THOR:registros:rC:NONE:v0 (auto-composite)
URAN     .ppm         UNKNOWN        : URAN:registros:rC:NONE:v0 (auto-composite)
~A     DEPTH         CALI          CGR         DRHO           DT           GR       GR-LWD      ILD-LWD      ILM-LWD          LLD          LLS         MSFL         NPHI          PEF         POTA         RHOB           SP         THOR         URAN
# ...
   2289.1116      11.4611       3.3205       0.0057      59.7559      28.4829    -999.2500    -999.2500    -999.2500     465.9291     434.3608     349.5128       0.0922       3.0400       0.0014       2.6777    -999.2500       0.4640       3.2411
   2289.2639      11.4959       3.3114       0.0038      59.7253      26.8625    -999.2500    -999.2500    -999.2500     492.9478     460.4761     198.1248       0.0959       3.0283       0.0013       2.6737    -999.2500       0.6072       3.1803
   2289.4163      11.5364       5.6464       0.0028      59.6804      27.1594    -999.2500    -999.2500    -999.2500     527.2401     487.0677     142.6803       0.0928       3.1357       0.0016       2.6717    -999.2500       0.8453       3.2185
   2289.5688      11.5568       7.3553       0.0023      59.7561      27.6705    -999.2500    -999.2500    -999.2500     551.3870     505.4043     118.1015       0.0905       3.2324       0.0019       2.6688    -999.2500       0.9761       3.2451
   2289.7212      11.4788       5.9929       0.0038      60.4238      29.2323    -999.2500    -999.2500    -999.2500     525.7705     483.2504     244.9217       0.0925       3.2758       0.0020       2.6618    -999.2500       0.8583       3.1815
   2289.8735      11.4121       4.9828       0.0052      60.9750      30.5698    -999.2500    -999.2500    -999.2500     500.9569     461.4357     322.7977       0.0946       3.2965       0.0020       2.6568    -999.2500       0.6850       3.1037
   2290.0259      11.4006       5.7119       0.0062      60.9510      30.8000    -999.2500    -999.2500    -999.2500     480.1057     441.2950     159.1165       0.0967       3.2046       0.0020       2.6613    -999.2500       0.6016       3.0742
   2290.1785      11.3961       6.4067       0.0065      60.9985      31.2741    -999.2500    -999.2500    -999.2500     465.6764     426.6469      52.9782       0.0992       3.1230       0.0022       2.6635    -999.2500       0.5617       3.1024
   2290.3308      11.4271       6.9290       0.0035      61.4054      32.9734    -999.2500    -999.2500    -999.2500     483.5081     439.5908     235.9072       0.1040       3.0930       0.0026       2.6545    -999.2500       0.5284       3.1882
   2290.4832      11.4498       7.2814       0.0010      61.7271      34.4268    -999.2500    -999.2500    -999.2500     492.4331     445.2529     371.1271       0.1070       3.0894       0.0029       2.6478    -999.2500       0.4882       3.2585
   2290.6355      11.4302       6.7755       0.0010      61.6188      34.6374    -999.2500    -999.2500    -999.2500     456.3341     414.1056     265.1768       0.1004       3.2187       0.0030       2.6528    -999.2500       0.4312       3.2588
   2290.7881      11.4140       6.2302       0.0007      61.4352      34.6174    -999.2500    -999.2500    -999.2500     421.1602     383.0043     164.9605       0.0936       3.3143       0.0030       2.6591    -999.2500       0.3673       3.2317
   2290.9404      11.4140       5.4930      -0.0008      60.8860      33.4774    -999.2500    -999.2500    -999.2500     390.4809     352.1266      92.6013       0.0859       3.2458       0.0030       2.6716    -999.2500       0.3039       3.2230
   2291.0928      11.4140       5.0242      -0.0012      60.5683      32.1905    -999.2500    -999.2500    -999.2500     367.6754     328.2116      47.1107       0.0803       3.1844       0.0032       2.6828    -999.2500       0.2421       3.3102
   2291.2451      11.4140       5.8671       0.0038      61.3828      30.1855    -999.2500    -999.2500    -999.2500     383.3581     338.3311     132.9584       0.0844       3.1575       0.0035       2.6873    -999.2500       0.1801       3.5337
   2291.3975      11.4140       6.1686       0.0082      61.6697      28.3487    -999.2500    -999.2500    -999.2500     398.3488     347.7894     192.0503       0.0886       3.1316       0.0033       2.6891    -999.2500       0.1013       3.7071
   2291.5500      11.4140       3.7761       0.0092      59.3317      27.3491    -999.2500    -999.2500    -999.2500     409.8968     353.9577     118.0353       0.0935       3.1111       0.0023       2.6776    -999.2500       0.0012       3.6996
   2291.7024      11.4140       1.7552       0.0098      57.4147      26.9893    -999.2500    -999.2500    -999.2500     412.5916     353.1340      83.3534       0.0973       3.0961       0.0013       2.6675    -999.2500      -0.0558       3.6655
   2291.8547      11.4140       1.5943       0.0088      57.6053      29.8322    -999.2500    -999.2500    -999.2500     370.9682     317.3087     245.5685       0.0958       3.1086       0.0010       2.6645    -999.2500      -0.0196       3.7209
   2292.0071      11.4140       1.6250       0.0083      57.9368      32.1203    -999.2500    -999.2500    -999.2500     334.8751     285.7473     350.1478       0.0943       3.1118       0.0010       2.6638    -999.2500       0.0693       3.8191
   2292.1597      11.4140       2.5781       0.0103      58.9468      31.7385    -999.2500    -999.2500    -999.2500     325.3957     274.7056     177.3629       0.0927       3.0698       0.0010       2.6743    -999.2500       0.1718       3.9211
   2292.3120      11.4140       3.3524       0.0121      59.7070      31.7235    -999.2500    -999.2500    -999.2500     321.4433     268.4633      38.4704       0.0917       3.0459       0.0012       2.6827    -999.2500       0.2210       3.9971
   2292.4644      11.4140       3.2610       0.0126      59.2570      33.4848    -999.2500    -999.2500    -999.2500     344.2512     285.4589      63.6738       0.0933       3.1099       0.0016       2.6812    -999.2500       0.1715       4.0254
   2292.6167      11.4122       3.6993       0.0124      59.1012      35.1852    -999.2500    -999.2500    -999.2500     363.7547     300.1991     108.9520       0.0949       3.1717       0.0025       2.6787    -999.2500       0.1025       4.0335
   2292.7693      11.4017       6.7475       0.0089      60.3947      36.5851    -999.2500    -999.2500    -999.2500     366.9773     303.8270     253.1398       0.0965       3.2232       0.0038       2.6712    -999.2500       0.0677       4.0368
   2292.9216      11.3810       9.1244       0.0064      61.3917      38.1511    -999.2500    -999.2500    -999.2500     368.1859     304.4060     345.6456       0.0974       3.2496       0.0049       2.6635    -999.2500       0.0132       4.0042
   2293.0740      11.3095       8.1739       0.0089      60.9194      40.5406    -999.2500    -999.2500    -999.2500     359.4097     289.8698     181.9353       0.0943       3.1522       0.0055       2.6545    -999.2500      -0.0893       3.9130
   2293.2263      11.2500       7.1889       0.0147      60.3232      42.1714    -999.2500    -999.2500    -999.2500     352.6515     277.8839      51.0251       0.0920       3.0599       0.0055       2.6476    -999.2500      -0.1340       3.8012
   2293.3787      11.2500       6.0323       0.0366      59.1087      40.0181    -999.2500    -999.2500    -999.2500     355.9599     278.6200      83.7343       0.0934       2.9935       0.0049       2.6511    -999.2500      -0.0361       3.7080
   2293.5312      11.2600       5.6241       0.0566      58.1183      38.0798    -999.2500    -999.2500    -999.2500     357.1483     277.2406     105.0685       0.0954       2.9600       0.0046       2.6527    -999.2500       0.1638       3.6998
   2293.6836      11.3207       9.0165       0.0667      58.2657      37.2334    -999.2500    -999.2500    -999.2500     347.5713     265.1185      68.6396       0.0998       3.0939       0.0052       2.6447    -999.2500       0.4275       3.8211
   2293.8359      11.3753      11.9373       0.0731      58.5818      36.9268    -999.2500    -999.2500    -999.2500     335.8536     251.6295      36.8920       0.1035       3.1923       0.0058       2.6397    -999.2500       0.6610       3.9589
   2293.9883      11.4008      12.5565       0.0621      59.7213      39.2543    -999.2500    -999.2500    -999.2500     313.6897     231.4702      27.9899       0.1042       3.1173       0.0059       2.6497    -999.2500       0.7886       4.0223
