#------------------------------------------------------------------------------
#
#   Created by  : [OpenWorks] Log Export Utility (LEXP)
#   Created on  : 2016-05-11 12:25:21
#   Project     : CANT971
#   User        : R5K
#   Interpreter : PEP
#
#------------------------------------------------------------------------------
~VERSION INFORMATION
VERS. 2.0 : CWLS Log ASCII Standard - version 2.0
WRAP.  NO : One line per depth step
~WELL INFORMATION
#MNEMONIC   .UNIT                                           VALUE :DESCRIPTION
#------------------------------------------------------------------------------
STRT        .M                                           765.2640 :START DEPTH
STOP        .M                                          3197.2632 :STOP DEPTH
STEP        .M                                             0.1524 :STEP
NULL        .                                           -999.2500 :NULL VALUE
COMP        .                                   PEMEX EXPL & PROD :COMPANY
WELL        .                                               1065D :WELL
FLD         .                                           CANTARELL :FIELD
LOC         .                                             UNKNOWN :LOCATION
CNTY        .                                      CD. DEL CARMEN :COUNTY
STAT        .                                             UNKNOWN :STATE
CTRY        .                                             UNKNOWN :COUNTRY
SRVC        .                                             UNKNOWN :SERVICE COMPANY
DATE        .                                             UNKNOWN :LOG DATE
UWI         .                                           W-C-1065D :UNIQUE WELL ID
XCOORD      .                                       599712.630000 :SURFACE X
YCOORD      .                                      2149962.600000 :SURFACE Y
LAT         .                                           19.442731 :LATITUDE
LON         .                                          -92.050118 :LONGITUDE
ELEV        .M                                            30.0000 :SURFACE ELEV
ELEV_TYPE   .                                                  KB :ELEV TYPE
~CURVE INFORMATION
#MNEMONIC.UNIT        API CODE       : CURVE DESCRIPTION
#------------------------------------------------------------------------------
DEPTH    .M                          : Measured Depth
CALI     .inches      UNKNOWN        : CALI:registros:rC:NONE:v0 (auto-composite)
CGR      .API         UNKNOWN        : CGR:registros:rC:NONE:v0 (auto-composite)
DRHO     .g/cm3       UNKNOWN        : DRHO:registros:rC:NONE:v0 (auto-composite)
DT       .us/ft       UNKNOWN        : DT:registros:rC:NONE:v0 (auto-composite)
GR       .API         UNKNOWN        : GR:registros:rC:NONE:v0 (auto-composite)
GR-LWD   .UNKNOWN     UNKNOWN        : GR-LWD:registros:rC:NONE:v0 (auto-composite)
ILD-LWD  .ohm.m       UNKNOWN        : ILD-LWD:registros:rC:NONE:v0 (auto-composite)
ILM-LWD  .UNKNOWN     UNKNOWN        : ILM-LWD:registros:rC:NONE:v0 (auto-composite)
LLD      .ohm.m       UNKNOWN        : LLD:registros:rC:NONE:v0 (auto-composite)
LLS      .ohm.m       UNKNOWN        : LLS:registros:rC:NONE:v0 (auto-composite)
MSFL     .ohm.m       UNKNOWN        : MSFL:registros:rC:NONE:v0 (auto-composite)
NPHI     .UNKNOWN     UNKNOWN        : NPHI:registros:rC:NONE:v0 (auto-composite)
PEF      .UNKNOWN     UNKNOWN        : PEF:registros:rC:NONE:v0 (auto-composite)
POTA     .wtpercent   UNKNOWN        : POTA:registros:rC:NONE:v0 (auto-composite)
RHOB     .g/cm3       UNKNOWN        : RHOB:registros:rC:NONE:v0 (auto-composite)
SP       .mV          UNKNOWN        : SP:registros:rC:NONE:v0 (auto-composite)
THOR     .ppm         UNKNOWN        : THOR:registros:rC:NONE:v0 (auto-composite)
URAN     .ppm         UNKNOWN        : URAN:registros:rC:NONE:v0 (auto-composite)
~A     DEPTH         CALI          CGR         DRHO           DT           GR       GR-LWD      ILD-LWD      ILM-LWD          LLD          LLS         MSFL         NPHI          PEF         POTA         RHOB           SP         THOR         URAN
# ...
   1529.7024      14.9273       0.0000      -0.0036     115.7953      53.9764    -999.2500    -999.2500    -999.2500    -999.2500    -999.2500    -999.2500       0.3399       4.6587    -999.2500       2.2973       0.0000    -999.2500    -999.2500
   1529.8547      14.9398       0.0000      -0.0026     117.1157      52.2603    -999.2500    -999.2500    -999.2500    -999.2500    -999.2500    -999.2500       0.3281       4.6462    -999.2500       2.3003       0.0000    -999.2500    -999.2500
   1530.0072      14.9609       0.0000      -0.0020     118.0542      50.4086    -999.2500    -999.2500    -999.2500    -999.2500    -999.2500    -999.2500       0.3245       4.6169    -999.2500       2.2925       0.0000    -999.2500    -999.2500
   1530.1595      14.9939       0.0000      -0.0020     118.4679      48.3703    -999.2500    -999.2500    -999.2500    -999.2500    -999.2500    -999.2500       0.3322       4.5645    -999.2500       2.2701       0.0000    -999.2500    -999.2500
   1530.3120      15.0013       0.0000      -0.0018     118.5413      47.4491    -999.2500    -999.2500    -999.2500    -999.2500    -999.2500    -999.2500       0.3289       4.5797    -999.2500       2.2606       0.0000    -999.2500    -999.2500
   1530.4644      14.9733       0.0000      -0.0013     118.1440      48.0738    -999.2500    -999.2500    -999.2500    -999.2500    -999.2500    -999.2500       0.3103       4.6887    -999.2500       2.2691       0.0000    -999.2500    -999.2500
   1530.6168      14.9670       0.0000      -0.0012     117.7193      48.9964    -999.2500    -999.2500    -999.2500    -999.2500    -999.2500    -999.2500       0.3055       4.7658    -999.2500       2.2753       0.0000    -999.2500    -999.2500
   1530.7692      14.9910       0.0000      -0.0017     117.2567      50.3328    -999.2500    -999.2500    -999.2500    -999.2500    -999.2500    -999.2500       0.3198       4.7988    -999.2500       2.2783       0.0000    -999.2500    -999.2500
   1530.9216      14.9956       0.0000      -0.0020     117.5485      51.8257    -999.2500    -999.2500    -999.2500    -999.2500    -999.2500    -999.2500       0.3307       4.7894    -999.2500       2.2750       0.0000    -999.2500    -999.2500
   1531.0740      14.9730       0.0000      -0.0020     118.8953      53.5375    -999.2500    -999.2500    -999.2500    -999.2500    -999.2500    -999.2500       0.3368       4.7207    -999.2500       2.2629       0.0000    -999.2500    -999.2500
   1531.2263      14.9627       0.0000      -0.0020     120.3193      55.8321    -999.2500    -999.2500    -999.2500    -999.2500    -999.2500    -999.2500       0.3427       4.6578    -999.2500       2.2543       0.0000    -999.2500    -999.2500
   1531.3788      14.9692       0.0000      -0.0020     121.8490      58.9236    -999.2500    -999.2500    -999.2500    -999.2500    -999.2500    -999.2500       0.3483       4.6028    -999.2500       2.2503       0.0000    -999.2500    -999.2500
   1531.5311      14.9707       0.0000      -0.0022     122.8919      60.7689    -999.2500    -999.2500    -999.2500    -999.2500    -999.2500    -999.2500       0.3541       4.5434    -999.2500       2.2465       0.0000    -999.2500    -999.2500
   1531.6836      14.9652       0.0000      -0.0027     123.2647      60.8993    -999.2500    -999.2500    -999.2500    -999.2500    -999.2500    -999.2500       0.3602       4.4780    -999.2500       2.2430       0.0000    -999.2500    -999.2500
   1531.8359      14.9526       0.0000      -0.0028     122.4038      59.4646    -999.2500    -999.2500    -999.2500    -999.2500    -999.2500    -999.2500       0.3592       4.4788    -999.2500       2.2444       0.0000    -999.2500    -999.2500
   1531.9884      14.9301       0.0000      -0.0023     119.8390      55.8680    -999.2500    -999.2500    -999.2500    -999.2500    -999.2500    -999.2500       0.3483       4.5712    -999.2500       2.2524       0.0000    -999.2500    -999.2500
   1532.1407      14.9057       0.0000      -0.0005     116.1154      51.9732    -999.2500    -999.2500    -999.2500    -999.2500    -999.2500    -999.2500       0.3276       4.7053    -999.2500       2.2704       0.0000    -999.2500    -999.2500
   1532.2932      14.8787       0.0000       0.0030     110.7807      47.6636    -999.2500    -999.2500    -999.2500    -999.2500    -999.2500    -999.2500       0.2932       4.8972    -999.2500       2.3024       0.0000    -999.2500    -999.2500
   1532.4456      14.8703       0.0000       0.0044     106.0269      44.6507    -999.2500    -999.2500    -999.2500    -999.2500    -999.2500    -999.2500       0.2723       4.9969    -999.2500       2.3290       0.0000    -999.2500    -999.2500
   1532.5980      14.8879       0.0000       0.0029     102.0835      43.4473    -999.2500    -999.2500    -999.2500    -999.2500    -999.2500    -999.2500       0.2703       4.9678    -999.2500       2.3480       0.0000    -999.2500    -999.2500
   1532.7504      14.9440       0.0000       0.0009     100.0629      42.0280    -999.2500    -999.2500    -999.2500    -999.2500    -999.2500    -999.2500       0.2676       4.9464    -999.2500       2.3571       0.0000    -999.2500    -999.2500
   1532.9028      15.0530       0.0000      -0.0016     100.6736      40.3133    -999.2500    -999.2500    -999.2500    -999.2500    -999.2500    -999.2500       0.2641       4.9354    -999.2500       2.3526       0.0000    -999.2500    -999.2500
   1533.0552      15.0762       0.0000      -0.0026     101.7509      39.6388    -999.2500    -999.2500    -999.2500    -999.2500    -999.2500    -999.2500       0.2748       4.9372    -999.2500       2.3428       0.0000    -999.2500    -999.2500
   1533.2075      14.9818       0.0000      -0.0016     103.4689      40.3932    -999.2500    -999.2500    -999.2500    -999.2500    -999.2500    -999.2500       0.3053       4.9567    -999.2500       2.3259       0.0000    -999.2500    -999.2500
   1533.3600      14.9073       0.0000      -0.0006     104.1797      41.5038    -999.2500    -999.2500    -999.2500    -999.2500    -999.2500    -999.2500       0.3188       4.9665    -999.2500       2.3150       0.0000    -999.2500    -999.2500
   1533.5123      14.8603       0.0000       0.0004     103.4975      43.1072    -999.2500    -999.2500    -999.2500    -999.2500    -999.2500    -999.2500       0.3088       4.9630    -999.2500       2.3125       0.0000    -999.2500    -999.2500
   1533.6648      14.8675       0.0000       0.0018     102.7133      43.0684    -999.2500    -999.2500    -999.2500    -999.2500    -999.2500    -999.2500       0.2971       4.9957    -999.2500       2.3200       0.0000    -999.2500    -999.2500
   1533.8171      14.9500       0.0000       0.0038     101.7876      40.7508    -999.2500    -999.2500    -999.2500    -999.2500    -999.2500    -999.2500       0.2831       5.0787    -999.2500       2.3415       0.0000    -999.2500    -999.2500
   1533.9696      14.9650       0.0000       0.0044     100.9019      39.2503    -999.2500    -999.2500    -999.2500    -999.2500    -999.2500    -999.2500       0.2721       5.0998    -999.2500       2.3563       0.0000    -999.2500    -999.2500
   1534.1219      14.8857       0.0000       0.0029     100.0721      38.8913    -999.2500    -999.2500    -999.2500    -999.2500    -999.2500    -999.2500       0.2651       5.0346    -999.2500       2.3618       0.0000    -999.2500    -999.2500
   1534.2744      14.8415       0.0000       0.0016     100.1095      39.8999    -999.2500    -999.2500    -999.2500    -999.2500    -999.2500    -999.2500       0.2748       4.9845    -999.2500       2.3530       0.0000    -999.2500    -999.2500
   1534.4268      14.8450       0.0000       0.0006     101.3315      42.7765    -999.2500    -999.2500    -999.2500    -999.2500    -999.2500    -999.2500       0.3071       4.9551    -999.2500       2.3245       0.0000    -999.2500    -999.2500
   1534.5792      14.8504       0.0000       0.0004     102.9053      43.9776    -999.2500    -999.2500    -999.2500    -999.2500    -999.2500    -999.2500       0.3297       4.9607    -999.2500       2.3091       0.0000    -999.2500    -999.2500
