#------------------------------------------------------------------------------
#
#   Created by  : [OpenWorks] Log Export Utility (LEXP)
#   Created on  : 2016-05-11 12:25:21
#   Project     : CANT971
#   User        : R5K
#   Interpreter : PEP
#
#------------------------------------------------------------------------------
~VERSION INFORMATION
VERS. 2.0 : CWLS Log ASCII Standard - version 2.0
WRAP.  NO : One line per depth step
~WELL INFORMATION
#MNEMONIC   .UNIT                                           VALUE :DESCRIPTION
#------------------------------------------------------------------------------
STRT        .M                                           765.2640 :START DEPTH
STOP        .M                                          3197.2632 :STOP DEPTH
STEP        .M                                             0.1524 :STEP
NULL        .                                           -999.2500 :NULL VALUE
COMP        .                                   PEMEX EXPL & PROD :COMPANY
WELL        .                                               1065D :WELL
FLD         .                                           CANTARELL :FIELD
LOC         .                                             UNKNOWN :LOCATION
CNTY        .                                      CD. DEL CARMEN :COUNTY
STAT        .                                             UNKNOWN :STATE
CTRY        .                                             UNKNOWN :COUNTRY
SRVC        .                                             UNKNOWN :SERVICE COMPANY
DATE        .                                             UNKNOWN :LOG DATE
UWI         .                                           W-C-1065D :UNIQUE WELL ID
XCOORD      .                                       599712.630000 :SURFACE X
YCOORD      .                                      2149962.600000 :SURFACE Y
LAT         .                                           19.442731 :LATITUDE
LON         .                                          -92.050118 :LONGITUDE
ELEV        .M                                            30.0000 :SURFACE ELEV
ELEV_TYPE   .                                                  KB :ELEV TYPE
~CURVE INFORMATION
#MNEMONIC.UNIT        API CODE       : CURVE DESCRIPTION
#------------------------------------------------------------------------------
DEPTH    .M                          : Measured Depth
CALI     .inches      UNKNOWN        : CALI:registros:rC:NONE:v0 (auto-composite)
CGR      .API         UNKNOWN        : CGR:registros:rC:NONE:v0 (auto-composite)
DRHO     .g/cm3       UNKNOWN        : DRHO:registros:rC:NONE:v0 (auto-composite)
DT       .us/ft       UNKNOWN        : DT:registros:rC:NONE:v0 (auto-composite)
GR       .API         UNKNOWN        : GR:registros:rC:NONE:v0 (auto-composite)
GR-LWD   .UNKNOWN     UNKNOWN        : GR-LWD:registros:rC:NONE:v0 (auto-composite)
ILD-LWD  .ohm.m       UNKNOWN        : ILD-LWD:registros:rC:NONE:v0 (auto-composite)
ILM-LWD  .UNKNOWN     UNKNOWN        : ILM-LWD:registros:rC:NONE:v0 (auto-composite)
LLD      .ohm.m       UNKNOWN        : LLD:registros:rC:NONE:v0 (auto-composite)
LLS      .ohm.m       UNKNOWN        : LLS:registros:rC:NONE:v0 (auto-composite)
MSFL     .ohm.m       UNKNOWN        : MSFL:registros:rC:NONE:v0 (auto-composite)
NPHI     .UNKNOWN     UNKNOWN        : NPHI:registros:rC:NONE:v0 (auto-composite)
PEF      .UNKNOWN     UNKNOWN        : PEF:registros:rC:NONE:v0 (auto-composite)
POTA     .wtpercent   UNKNOWN        : POTA:registros:rC:NONE:v0 (auto-composite)
RHOB     .g/cm3       UNKNOWN        : RHOB:registros:rC:NONE:v0 (auto-composite)
SP       .mV          UNKNOWN        : SP:registros:rC:NONE:v0 (auto-composite)
THOR     .ppm         UNKNOWN        : THOR:registros:rC:NONE:v0 (auto-composite)
URAN     .ppm         UNKNOWN        : URAN:registros:rC:NONE:v0 (auto-composite)
~A     DEPTH         CALI          CGR         DRHO           DT           GR       GR-LWD      ILD-LWD      ILM-LWD          LLD          LLS         MSFL         NPHI          PEF         POTA         RHOB           SP         THOR         URAN
# ...
   1072.0452      15.1292       0.0000      -0.0034     125.6224      43.8004    -999.2500    -999.2500    -999.2500    -999.2500    -999.2500    -999.2500       0.3631       4.7677    -999.2500       2.2572       0.0000    -999.2500    -999.2500
   1072.1976      15.1372       0.0000      -0.0038     125.0918      44.9441    -999.2500    -999.2500    -999.2500    -999.2500    -999.2500    -999.2500       0.3480       4.6836    -999.2500       2.2570       0.0000    -999.2500    -999.2500
   1072.3500      15.1041       0.0000      -0.0033     126.2209      45.8150    -999.2500    -999.2500    -999.2500    -999.2500    -999.2500    -999.2500       0.3362       4.6420    -999.2500       2.2596       0.0000    -999.2500    -999.2500
   1072.5023      15.0738       0.0000      -0.0026     127.1685      47.0036    -999.2500    -999.2500    -999.2500    -999.2500    -999.2500    -999.2500       0.3452       4.7016    -999.2500       2.2587       0.0000    -999.2500    -999.2500
   1072.6548      15.0473       0.0000      -0.0016     127.8679      48.6262    -999.2500    -999.2500    -999.2500    -999.2500    -999.2500    -999.2500       0.3828       4.8994    -999.2500       2.2532       0.0000    -999.2500    -999.2500
   1072.8071      14.9983       0.0000       0.0001     128.3681      50.2006    -999.2500    -999.2500    -999.2500    -999.2500    -999.2500    -999.2500       0.4014       5.0838    -999.2500       2.2532       0.0000    -999.2500    -999.2500
   1072.9596      14.9184       0.0000       0.0026     128.5940      51.7084    -999.2500    -999.2500    -999.2500    -999.2500    -999.2500    -999.2500       0.3939       5.2498    -999.2500       2.2607       0.0000    -999.2500    -999.2500
   1073.1119      14.8747       0.0000       0.0034     129.0236      51.6166    -999.2500    -999.2500    -999.2500    -999.2500    -999.2500    -999.2500       0.3794       5.2577    -999.2500       2.2667       0.0000    -999.2500    -999.2500
   1073.2644      14.8812       0.0000       0.0019     129.7345      49.3155    -999.2500    -999.2500    -999.2500    -999.2500    -999.2500    -999.2500       0.3551       5.0473    -999.2500       2.2707       0.0000    -999.2500    -999.2500
   1073.4167      14.8936       0.0000       0.0002     130.0393      47.6578    -999.2500    -999.2500    -999.2500    -999.2500    -999.2500    -999.2500       0.3481       4.8903    -999.2500       2.2686       0.0000    -999.2500    -999.2500
   1073.5692      14.9141       0.0000      -0.0018     129.7794      46.8946    -999.2500    -999.2500    -999.2500    -999.2500    -999.2500    -999.2500       0.3650       4.8073    -999.2500       2.2581       0.0000    -999.2500    -999.2500
   1073.7216      14.9377       0.0000      -0.0028     129.5464      46.7973    -999.2500    -999.2500    -999.2500    -999.2500    -999.2500    -999.2500       0.3728       4.7454    -999.2500       2.2530       0.0000    -999.2500    -999.2500
   1073.8740      14.9658       0.0000      -0.0023     129.3510      47.6293    -999.2500    -999.2500    -999.2500    -999.2500    -999.2500    -999.2500       0.3679       4.7128    -999.2500       2.2556       0.0000    -999.2500    -999.2500
   1074.0264      14.9778       0.0000      -0.0020     129.3762      48.5544    -999.2500    -999.2500    -999.2500    -999.2500    -999.2500    -999.2500       0.3742       4.6731    -999.2500       2.2581       0.0000    -999.2500    -999.2500
   1074.1788      14.9678       0.0000      -0.0020     129.7036      49.6069    -999.2500    -999.2500    -999.2500    -999.2500    -999.2500    -999.2500       0.3959       4.6236    -999.2500       2.2606       0.0000    -999.2500    -999.2500
   1074.3312      14.9386       0.0000      -0.0018     129.9463      49.6843    -999.2500    -999.2500    -999.2500    -999.2500    -999.2500    -999.2500       0.4038       4.5862    -999.2500       2.2633       0.0000    -999.2500    -999.2500
   1074.4835      14.8832       0.0000      -0.0013     130.0726      48.4224    -999.2500    -999.2500    -999.2500    -999.2500    -999.2500    -999.2500       0.3930       4.5652    -999.2500       2.2663       0.0000    -999.2500    -999.2500
   1074.6360      14.8728       0.0000      -0.0016     129.7886      47.3127    -999.2500    -999.2500    -999.2500    -999.2500    -999.2500    -999.2500       0.3840       4.5694    -999.2500       2.2632       0.0000    -999.2500    -999.2500
   1074.7883      14.9248       0.0000      -0.0031     128.9370      46.4136    -999.2500    -999.2500    -999.2500    -999.2500    -999.2500    -999.2500       0.3774       4.6083    -999.2500       2.2517       0.0000    -999.2500    -999.2500
   1074.9408      14.9433       0.0000      -0.0050     129.0056      46.5643    -999.2500    -999.2500    -999.2500    -999.2500    -999.2500    -999.2500       0.3829       4.6360    -999.2500       2.2412       0.0000    -999.2500    -999.2500
   1075.0931      14.9153       0.0000      -0.0075     130.3515      48.1719    -999.2500    -999.2500    -999.2500    -999.2500    -999.2500    -999.2500       0.4051       4.6480    -999.2500       2.2322       0.0000    -999.2500    -999.2500
   1075.2456      14.9053       0.0000      -0.0082     131.6172      49.1948    -999.2500    -999.2500    -999.2500    -999.2500    -999.2500    -999.2500       0.4164       4.6575    -999.2500       2.2306       0.0000    -999.2500    -999.2500
   1075.3979      14.9203       0.0000      -0.0062     132.7709      49.4003    -999.2500    -999.2500    -999.2500    -999.2500    -999.2500    -999.2500       0.4125       4.6635    -999.2500       2.2391       0.0000    -999.2500    -999.2500
   1075.5504      14.9529       0.0000      -0.0046     133.1952      49.7576    -999.2500    -999.2500    -999.2500    -999.2500    -999.2500    -999.2500       0.4014       4.6725    -999.2500       2.2423       0.0000    -999.2500    -999.2500
   1075.7028      15.0093       0.0000      -0.0036     132.6232      50.3221    -999.2500    -999.2500    -999.2500    -999.2500    -999.2500    -999.2500       0.3806       4.6855    -999.2500       2.2383       0.0000    -999.2500    -999.2500
   1075.8552      15.0231       0.0000      -0.0030     131.9322      50.2635    -999.2500    -999.2500    -999.2500    -999.2500    -999.2500    -999.2500       0.3710       4.7363    -999.2500       2.2347       0.0000    -999.2500    -999.2500
   1076.0076      14.9781       0.0000      -0.0030     131.0776      49.3479    -999.2500    -999.2500    -999.2500    -999.2500    -999.2500    -999.2500       0.3770       4.8393    -999.2500       2.2317       0.0000    -999.2500    -999.2500
   1076.1600      14.9631       0.0000      -0.0030     130.5268      47.9696    -999.2500    -999.2500    -999.2500    -999.2500    -999.2500    -999.2500       0.3772       4.9087    -999.2500       2.2329       0.0000    -999.2500    -999.2500
   1076.3124      14.9896       0.0000      -0.0030     130.3954      45.9528    -999.2500    -999.2500    -999.2500    -999.2500    -999.2500    -999.2500       0.3695       4.9316    -999.2500       2.2399       0.0000    -999.2500    -999.2500
   1076.4647      15.0316       0.0000      -0.0030     130.3982      44.9454    -999.2500    -999.2500    -999.2500    -999.2500    -999.2500    -999.2500       0.3574       4.8823    -999.2500       2.2461       0.0000    -999.2500    -999.2500
   1076.6172      15.0950       0.0000      -0.0030     130.5876      45.3405    -999.2500    -999.2500    -999.2500    -999.2500    -999.2500    -999.2500       0.3391       4.7324    -999.2500       2.2511       0.0000    -999.2500    -999.2500
   1076.7695      15.1422       0.0000      -0.0028     130.8804      46.6235    -999.2500    -999.2500    -999.2500    -999.2500    -999.2500    -999.2500       0.3317       4.6272    -999.2500       2.2557       0.0000    -999.2500    -999.2500
   1076.9220      15.1668       0.0000      -0.0023     131.3182      49.1485    -999.2500    -999.2500    -999.2500    -999.2500    -999.2500    -999.2500       0.3393       4.5846    -999.2500       2.2597       0.0000    -999.2500    -999.2500
