#------------------------------------------------------------------------------
#
#   Created by  : [OpenWorks] Log Export Utility (LEXP)
#   Created on  : 2016-05-11 12:25:21
#   Project     : CANT971
#   User        : R5K
#   Interpreter : PEP
#
#------------------------------------------------------------------------------
~VERSION INFORMATION
VERS. 2.0 : CWLS Log ASCII Standard - version 2.0
WRAP.  NO : One line per depth step
~WELL INFORMATION
#MNEMONIC   .UNIT                                           VALUE :DESCRIPTION
#------------------------------------------------------------------------------
STRT        .M                                           765.2640 :START DEPTH
STOP        .M                                          3197.2632 :STOP DEPTH
STEP        .M                                             0.1524 :STEP
NULL        .                                           -999.2500 :NULL VALUE
COMP        .                                   PEMEX EXPL & PROD :COMPANY
WELL        .                                               1065D :WELL
FLD         .                                           CANTARELL :FIELD
LOC         .                                             UNKNOWN :LOCATION
CNTY        .                                      CD. DEL CARMEN :COUNTY
STAT        .                                             UNKNOWN :STATE
CTRY        .                                             UNKNOWN :COUNTRY
SRVC        .                                             UNKNOWN :SERVICE COMPANY
DATE        .                                             UNKNOWN :LOG DATE
UWI         .                                           W-C-1065D :UNIQUE WELL ID
XCOORD      .                                       599712.630000 :SURFACE X
YCOORD      .                                      2149962.600000 :SURFACE Y
LAT         .                                           19.442731 :LATITUDE
LON         .                                          -92.050118 :LONGITUDE
ELEV        .M                                            30.0000 :SURFACE ELEV
ELEV_TYPE   .                                                  KB :ELEV TYPE
~CURVE INFORMATION
#MNEMONIC.UNIT        API CODE       : CURVE DESCRIPTION
#------------------------------------------------------------------------------
DEPTH    .M                          : Measured Depth
CALI     .inches      UNKNOWN        : CALI:registros:rC:NONE:v0 (auto-composite)
CGR      .API         UNKNOWN        : CGR:registros:rC:NONE:v0 (auto-composite)
DRHO     .g/cm3       UNKNOWN        : DRHO:registros:rC:NONE:v0 (auto-composite)
DT       .us/ft       UNKNOWN        : DT:registros:rC:NONE:v0 (auto-composite)
GR       .API         UNKNOWN        : GR:registros:rC:NONE:v0 (auto-composite)
GR-LWD   .UNKNOWN     UNKNOWN        : GR-LWD:registros:rC:NONE:v0 (auto-composite)
ILD-LWD  .ohm.m       UNKNOWN        : ILD-LWD:registros:rC:NONE:v0 (auto-composite)
ILM-LWD  .UNKNOWN     UNKNOWN        : ILM-LWD:registros:rC:NONE:v0 (auto-composite)
LLD      .ohm.m       UNKNOWN        : LLD:registros:rC:NONE:v0 (auto-composite)
LLS      .ohm.m       UNKNOWN        : LLS:registros:rC:NONE:v0 (auto-composite)
MSFL     .ohm.m       UNKNOWN        : MSFL:registros:rC:NONE:v0 (auto-composite)
NPHI     .UNKNOWN     UNKNOWN        : NPHI:registros:rC:NONE:v0 (auto-composite)
PEF      .UNKNOWN     UNKNOWN        : PEF:registros:rC:NONE:v0 (auto-composite)
POTA     .wtpercent   UNKNOWN        : POTA:registros:rC:NONE:v0 (auto-composite)
RHOB     .g/cm3       UNKNOWN        : RHOB:registros:rC:NONE:v0 (auto-composite)
SP       .mV          UNKNOWN        : SP:registros:rC:NONE:v0 (auto-composite)
THOR     .ppm         UNKNOWN        : THOR:registros:rC:NONE:v0 (auto-composite)
URAN     .ppm         UNKNOWN        : URAN:registros:rC:NONE:v0 (auto-composite)
~A     DEPTH         CALI          CGR         DRHO           DT           GR       GR-LWD      ILD-LWD      ILM-LWD          LLD          LLS         MSFL         NPHI          PEF         POTA         RHOB           SP         THOR         URAN
# ...
   1680.5784      15.6496       0.0000       0.0048     117.7273      41.3195      25.2932       0.8968       1.0618    -999.2500    -999.2500    -999.2500       0.3041       5.9587    -999.2500       2.3786       0.0000    -999.2500    -999.2500
   1680.7308      15.6935       0.0000       0.0043     117.3135      42.6900      24.8133       0.8983       1.0925    -999.2500    -999.2500    -999.2500       0.2893       6.0647    -999.2500       2.3681       0.0000    -999.2500    -999.2500
   1680.8832      15.7222       0.0000       0.0067     116.8793      43.0208      24.9043       0.9083       1.1175    -999.2500    -999.2500    -999.2500       0.2868       6.2037    -999.2500       2.3647       0.0000    -999.2500    -999.2500
   1681.0355      15.7297       0.0000       0.0132     116.4172      41.9237      25.1514       0.9468       1.1255    -999.2500    -999.2500    -999.2500       0.3010       6.3880    -999.2500       2.3712       0.0000    -999.2500    -999.2500
   1681.1880      15.7392       0.0000       0.0160     116.0808      41.0173      25.2351       0.9789       1.1220    -999.2500    -999.2500    -999.2500       0.3074       6.4742    -999.2500       2.3784       0.0000    -999.2500    -999.2500
   1681.3403      15.7517       0.0000       0.0135     115.9184      40.3746      24.8680       0.9824       1.1178    -999.2500    -999.2500    -999.2500       0.3030       6.4248    -999.2500       2.3864       0.0000    -999.2500    -999.2500
   1681.4928      15.7730       0.0000       0.0107     116.3257      40.1370      24.3728       0.9872       1.1088    -999.2500    -999.2500    -999.2500       0.3072       6.3506    -999.2500       2.3837       0.0000    -999.2500    -999.2500
   1681.6451      15.8065       0.0000       0.0077     117.5237      40.4617      24.6386       0.9913       1.0948    -999.2500    -999.2500    -999.2500       0.3236       6.2422    -999.2500       2.3662       0.0000    -999.2500    -999.2500
   1681.7976      15.7846       0.0000       0.0052     118.7386      41.3173      25.0913       0.9659       1.0810    -999.2500    -999.2500    -999.2500       0.3346       6.1073    -999.2500       2.3510       0.0000    -999.2500    -999.2500
   1681.9500      15.6853       0.0000       0.0032     119.9770      42.9147      25.1742       0.8979       1.0572    -999.2500    -999.2500    -999.2500       0.3383       5.9353    -999.2500       2.3389       0.0000    -999.2500    -999.2500
   1682.1024      15.6381       0.0000       0.0020     120.5123      44.6835      26.3481       0.8005       1.0186    -999.2500    -999.2500    -999.2500       0.3330       5.7296    -999.2500       2.3442       0.0000    -999.2500    -999.2500
   1682.2548      15.6621       0.0000       0.0020     120.0872      46.6863      27.3895       0.7128       0.9797    -999.2500    -999.2500    -999.2500       0.3153       5.4778    -999.2500       2.3732       0.0000    -999.2500    -999.2500
   1682.4072      15.7208       0.0000       0.0018     119.3937      46.9440      29.1004       0.6951       0.9664    -999.2500    -999.2500    -999.2500       0.2981       5.2523    -999.2500       2.3980       0.0000    -999.2500    -999.2500
   1682.5596      15.8273       0.0000       0.0013     118.3311      44.8014      32.8254       0.8059       1.0695    -999.2500    -999.2500    -999.2500       0.2813       5.0628    -999.2500       2.4170       0.0000    -999.2500    -999.2500
   1682.7120      15.8619       0.0000       0.0004     117.8084      43.2444      32.8469       0.8620       1.1226    -999.2500    -999.2500    -999.2500       0.2694       4.9341    -999.2500       2.4293       0.0000    -999.2500    -999.2500
   1682.8644      15.7975       0.0000      -0.0011     118.0307      42.4955      32.5430       0.9115       1.1250    -999.2500    -999.2500    -999.2500       0.2644       4.8891    -999.2500       2.4323       0.0000    -999.2500    -999.2500
   1683.0167      15.7525       0.0000      -0.0018     118.4514      42.8024      31.6449       0.9205       1.0840    -999.2500    -999.2500    -999.2500       0.2696       4.8385    -999.2500       2.4298       0.0000    -999.2500    -999.2500
   1683.1692      15.7345       0.0000      -0.0013     119.1479      44.5764      30.0772       0.9081       1.0452    -999.2500    -999.2500    -999.2500       0.2891       4.7801    -999.2500       2.4198       0.0000    -999.2500    -999.2500
   1683.3215      15.7215       0.0000      -0.0008     119.5989      45.9734      27.9338       0.8920       1.0235    -999.2500    -999.2500    -999.2500       0.2935       4.7761    -999.2500       2.4161       0.0000    -999.2500    -999.2500
   1683.4740      15.7155       0.0000      -0.0003     119.7067      46.8428      27.9007       0.8703       1.0235    -999.2500    -999.2500    -999.2500       0.2770       4.8483    -999.2500       2.4211       0.0000    -999.2500    -999.2500
   1683.6263      15.7293       0.0000       0.0004     119.5330      45.7965      27.3861       0.8563       1.0235    -999.2500    -999.2500    -999.2500       0.2715       4.9736    -999.2500       2.4202       0.0000    -999.2500    -999.2500
   1683.7788      15.7703       0.0000       0.0014     118.9743      42.1301      27.2555       0.8488       1.0371    -999.2500    -999.2500    -999.2500       0.2810       5.1715    -999.2500       2.4112       0.0000    -999.2500    -999.2500
   1683.9312      15.7633       0.0000       0.0024     118.9127      40.5078      27.2119       0.8574       1.0746    -999.2500    -999.2500    -999.2500       0.2958       5.3256    -999.2500       2.4005       0.0000    -999.2500    -999.2500
   1684.0836      15.6903       0.0000       0.0034     119.5337      41.6913      26.3283       0.8790       1.1197    -999.2500    -999.2500    -999.2500       0.3178       5.4195    -999.2500       2.3875       0.0000    -999.2500    -999.2500
   1684.2360      15.6342       0.0000       0.0042     120.0553      42.5772      25.3744       0.8790       1.1475    -999.2500    -999.2500    -999.2500       0.3211       5.4558    -999.2500       2.3899       0.0000    -999.2500    -999.2500
   1684.3884      15.6012       0.0000       0.0047     120.4395      43.0518      25.0792       0.8954       1.1294    -999.2500    -999.2500    -999.2500       0.2984       5.4123    -999.2500       2.4133       0.0000    -999.2500    -999.2500
   1684.5408      15.6154       0.0000       0.0048     120.0902      43.7978      26.0238       0.9319       1.0839    -999.2500    -999.2500    -999.2500       0.2820       5.3809    -999.2500       2.4306       0.0000    -999.2500    -999.2500
   1684.6932      15.6954       0.0000       0.0043     118.7203      44.9213      26.4179       0.9442       1.0454    -999.2500    -999.2500    -999.2500       0.2744       5.3664    -999.2500       2.4390       0.0000    -999.2500    -999.2500
   1684.8456      15.7092       0.0000       0.0038     118.1106      45.9315      25.4840       0.8894       1.0560    -999.2500    -999.2500    -999.2500       0.2753       5.3379    -999.2500       2.4400       0.0000    -999.2500    -999.2500
   1684.9979      15.6305       0.0000       0.0033     118.5627      46.7836      27.2112       0.8703       1.0764    -999.2500    -999.2500    -999.2500       0.2883       5.2898    -999.2500       2.4305       0.0000    -999.2500    -999.2500
   1685.1504      15.6029       0.0000       0.0022     119.1935      47.7590      29.4525       0.8652       1.0890    -999.2500    -999.2500    -999.2500       0.2952       5.1871    -999.2500       2.4180       0.0000    -999.2500    -999.2500
   1685.3027      15.6454       0.0000       0.0002     120.0692      48.9035      29.7680       0.8878       1.0896    -999.2500    -999.2500    -999.2500       0.2938       5.0097    -999.2500       2.4015       0.0000    -999.2500    -999.2500
   1685.4552      15.7098       0.0000      -0.0006     120.2840      49.9593      29.4720       0.9194       1.0891    -999.2500    -999.2500    -999.2500       0.2937       4.9003    -999.2500       2.3983       0.0000    -999.2500    -999.2500
