#------------------------------------------------------------------------------
#
#   Created by  : [OpenWorks] Log Export Utility (LEXP)
#   Created on  : 2016-05-11 12:25:21
#   Project     : CANT971
#   User        : R5K
#   Interpreter : PEP
#
#------------------------------------------------------------------------------
~VERSION INFORMATION
VERS. 2.0 : CWLS Log ASCII Standard - version 2.0
WRAP.  NO : One line per depth step
~WELL INFORMATION
#MNEMONIC   .UNIT                                           VALUE :DESCRIPTION
#------------------------------------------------------------------------------
STRT        .M                                           765.2640 :START DEPTH
STOP        .M                                          3197.2632 :STOP DEPTH
STEP        .M                                             0.1524 :STEP
NULL        .                                           -999.2500 :NULL VALUE
COMP        .                                   PEMEX EXPL & PROD :COMPANY
WELL        .                                               1065D :WELL
FLD         .                                           CANTARELL :FIELD
LOC         .                                             UNKNOWN :LOCATION
CNTY        .                                      CD. DEL CARMEN :COUNTY
STAT        .                                             UNKNOWN :STATE
CTRY        .                                             UNKNOWN :COUNTRY
SRVC        .                                             UNKNOWN :SERVICE COMPANY
DATE        .                                             UNKNOWN :LOG DATE
UWI         .                                           W-C-1065D :UNIQUE WELL ID
XCOORD      .                                       599712.630000 :SURFACE X
YCOORD      .                                      2149962.600000 :SURFACE Y
LAT         .                                           19.442731 :LATITUDE
LON         .                                          -92.050118 :LONGITUDE
ELEV        .M                                            30.0000 :SURFACE ELEV
ELEV_TYPE   .                                                  KB :ELEV TYPE
~CURVE INFORMATION
#MNEMONIC.UNIT        API CODE       : CURVE DESCRIPTION
#------------------------------------------------------------------------------
DEPTH    .M                          : Measured Depth
CALI     .inches      UNKNOWN        : CALI:registros:rC:NONE:v0 (auto-composite)
CGR      .API         UNKNOWN        : CGR:registros:rC:NONE:v0 (auto-composite)
DRHO     .g/cm3       UNKNOWN        : DRHO:registros:rC:NONE:v0 (auto-composite)
DT       .us/ft       UNKNOWN        : DT:registros:rC:NONE:v0 (auto-composite)
GR       .API         UNKNOWN        : GR:registros:rC:NONE:v0 (auto-composite)
GR-LWD   .UNKNOWN     UNKNOWN        : GR-LWD:registros:rC:NONE:v0 (auto-composite)
ILD-LWD  .ohm.m       UNKNOWN        : ILD-LWD:registros:rC:NONE:v0 (auto-composite)
ILM-LWD  .UNKNOWN     UNKNOWN        : ILM-LWD:registros:rC:NONE:v0 (auto-composite)
LLD      .ohm.m       UNKNOWN        : LLD:registros:rC:NONE:v0 (auto-composite)
LLS      .ohm.m       UNKNOWN        : LLS:registros:rC:NONE:v0 (auto-composite)
MSFL     .ohm.m       UNKNOWN        : MSFL:registros:rC:NONE:v0 (auto-composite)
NPHI     .UNKNOWN     UNKNOWN        : NPHI:registros:rC:NONE:v0 (auto-composite)
PEF      .UNKNOWN     UNKNOWN        : PEF:registros:rC:NONE:v0 (auto-composite)
POTA     .wtpercent   UNKNOWN        : POTA:registros:rC:NONE:v0 (auto-composite)
RHOB     .g/cm3       UNKNOWN        : RHOB:registros:rC:NONE:v0 (auto-composite)
SP       .mV          UNKNOWN        : SP:registros:rC:NONE:v0 (auto-composite)
THOR     .ppm         UNKNOWN        : THOR:registros:rC:NONE:v0 (auto-composite)
URAN     .ppm         UNKNOWN        : URAN:registros:rC:NONE:v0 (auto-composite)
~A     DEPTH         CALI          CGR         DRHO           DT           GR       GR-LWD      ILD-LWD      ILM-LWD          LLD          LLS         MSFL         NPHI          PEF         POTA         RHOB           SP         THOR         URAN
# ...
   2590.8635      11.3224      36.8354       0.1927      78.8338      46.7256    -999.2500    -999.2500    -999.2500     517.3981     615.0629     108.3784       0.1309       4.2274       0.0155       2.5212    -999.2500       3.5693       3.0660
   2591.0159      11.3774      42.5407       0.1860      75.3867      43.9870    -999.2500    -999.2500    -999.2500     433.4415     515.5262     103.6236       0.1587       4.1871       0.0179       2.5067    -999.2500       3.9328       4.0826
   2591.1685      11.3974      43.4068       0.1685      71.9951      55.8214    -999.2500    -999.2500    -999.2500     388.5224     464.9045      66.5926       0.1369       4.1406       0.0186       2.5462    -999.2500       4.0329       4.1778
   2591.3208      11.4140      45.2141       0.1488      69.4904      66.5456    -999.2500    -999.2500    -999.2500     349.5136     420.4122      39.8763       0.1238       4.0879       0.0197       2.5757    -999.2500       4.2089       4.1996
   2591.4731      11.4140      51.6277       0.1184      71.3262      71.8366    -999.2500    -999.2500    -999.2500     339.4321     405.9191      63.6440       0.1527       4.0050       0.0225       2.5562    -999.2500       4.7192       4.3659
   2591.6255      11.4147      57.5598       0.0909      72.9945      77.7659    -999.2500    -999.2500    -999.2500     318.3902     379.5399      79.7301       0.1804       3.9123       0.0252       2.5351    -999.2500       5.2253       4.5383
   2591.7781      11.4187      61.0932       0.0784      73.8286      86.8750    -999.2500    -999.2500    -999.2500     242.7519     293.9529      57.5522       0.2015       3.7703       0.0267       2.5056    -999.2500       5.5713       4.6632
   2591.9304      11.4281      63.4549       0.0685      74.8547      95.0502    -999.2500    -999.2500    -999.2500     178.4214     221.0766      40.3138       0.2171       3.6906       0.0275       2.4813    -999.2500       5.7568       4.6798
   2592.0828      11.4647      59.9432       0.0715      76.8427      98.5444    -999.2500    -999.2500    -999.2500     170.7702     211.9112      47.8342       0.2047       3.9228       0.0262       2.4833    -999.2500       5.5091       4.3793
   2592.2351      11.5014      56.9758       0.0728      78.8130     100.4394    -999.2500    -999.2500    -999.2500     175.5045     217.8496      56.3812       0.1937       4.1330       0.0250       2.4840    -999.2500       5.2900       4.0944
   2592.3877      11.5389      56.6315       0.0658      80.6982      94.6289    -999.2500    -999.2500    -999.2500     239.9172     296.5646      69.8754       0.1897       4.2374       0.0244       2.4780    -999.2500       5.3392       3.9830
   2592.5400      11.5676      57.4698       0.0593      82.5157      89.5985    -999.2500    -999.2500    -999.2500     303.4019     375.0696      78.2866       0.1889       4.2839       0.0245       2.4728    -999.2500       5.5712       3.9227
   2592.6924      11.5536      64.0417       0.0553      84.0048      88.3500    -999.2500    -999.2500    -999.2500     362.3882     452.5566      62.0566       0.2030       4.0492       0.0257       2.4718    -999.2500       6.2576       3.9539
   2592.8447      11.5312      68.1778       0.0524      85.4279      87.7963    -999.2500    -999.2500    -999.2500     386.8230     486.6096      46.4233       0.2110       3.8715       0.0259       2.4733    -999.2500       6.9033       3.9918
   2592.9971      11.4672      60.2972       0.0549      86.5249      90.6701    -999.2500    -999.2500    -999.2500     240.8025     306.3869      33.7338       0.1883       3.9755       0.0223       2.4868    -999.2500       7.2190       4.0122
   2593.1497      11.4140      52.6371       0.0585      87.3959      92.3654    -999.2500    -999.2500    -999.2500     120.2084     155.8757      26.1744       0.1660       4.0807       0.0187       2.5039    -999.2500       7.1954       3.9929
   2593.3020      11.4140      46.0714       0.0675      87.1450      88.2112    -999.2500    -999.2500    -999.2500     125.8290     152.8506      44.0807       0.1454       4.1921       0.0161       2.5394    -999.2500       6.2422       3.8621
   2593.4543      11.4094      40.8706       0.0743      86.5971      83.6662    -999.2500    -999.2500    -999.2500     156.0348     179.7450      61.4646       0.1312       4.2906       0.0143       2.5660    -999.2500       5.4590       3.8251
   2593.6067      11.3819      42.4869       0.0703      84.5655      77.1690    -999.2500    -999.2500    -999.2500     309.0392     356.0823      76.2392       0.1490       4.3241       0.0146       2.5480    -999.2500       5.5765       4.1288
   2593.7593      11.3629      43.9496       0.0667      82.1702      72.0021    -999.2500    -999.2500    -999.2500     447.1773     514.3101      85.7353       0.1645       4.3461       0.0151       2.5282    -999.2500       5.7067       4.4325
   2593.9116      11.3865      44.6405       0.0647      77.9474      73.5211    -999.2500    -999.2500    -999.2500     510.5968     581.5191      68.7018       0.1687       4.3105       0.0156       2.4991    -999.2500       5.5062       4.5974
   2594.0640      11.4053      43.5898       0.0634      74.4756      75.1295    -999.2500    -999.2500    -999.2500     595.0027     667.0601      56.6104       0.1648       4.3116       0.0155       2.4785    -999.2500       4.9620       4.6483
   2594.2163      11.4013      34.0294       0.0659      74.6735      77.1751    -999.2500    -999.2500    -999.2500     781.9519     842.1750      68.6677       0.1214       4.4915       0.0143       2.4990    -999.2500       3.4581       4.3905
   2594.3689      11.3994      26.8680       0.0691      75.3247      77.9141    -999.2500    -999.2500    -999.2500     991.8073    1040.2275      77.7790       0.0883       4.6178       0.0135       2.5202    -999.2500       2.0962       4.1450
   2594.5212      11.4073      31.5005       0.0756      78.2039      72.2290    -999.2500    -999.2500    -999.2500    1314.2755    1351.0483      72.4068       0.1060       4.4803       0.0148       2.5452    -999.2500       1.5733       4.0592
   2594.6736      11.4107      35.9292       0.0791      80.2706      67.2531    -999.2500    -999.2500    -999.2500    1496.3998    1527.1868      65.3588       0.1239       4.3425       0.0160       2.5586    -999.2500       1.5724       4.0770
   2594.8259      11.3912      39.3497       0.0676      78.3174      65.7847    -999.2500    -999.2500    -999.2500     984.2899    1037.0980      50.0215       0.1421       4.2025       0.0165       2.5146    -999.2500       2.9116       4.3578
   2594.9783      11.3697      40.5329       0.0583      76.3391      65.4758    -999.2500    -999.2500    -999.2500     549.0372     620.1896      40.1846       0.1507       4.1398       0.0160       2.4811    -999.2500       3.8659       4.4955
   2595.1309      11.3383      30.5802       0.0603      74.2357      70.9381    -999.2500    -999.2500    -999.2500     496.3302     567.5265      57.7254       0.1109       4.4614       0.0124       2.4996    -999.2500       3.0819       4.0854
   2595.2832      11.3197      23.0828       0.0620      72.4107      73.8884    -999.2500    -999.2500    -999.2500     463.0555     536.9775      75.4122       0.0810       4.6836       0.0098       2.5191    -999.2500       2.4372       3.8817
   2595.4355      11.3663      28.0260       0.0620      71.9966      64.1113    -999.2500    -999.2500    -999.2500     528.2402     618.4754      93.8383       0.1016       4.4024       0.0113       2.5442    -999.2500       2.9012       4.5665
   2595.5879      11.4058      33.7288       0.0623      71.6245      57.1689    -999.2500    -999.2500    -999.2500     549.0691     647.5524     104.3326       0.1314       4.1365       0.0138       2.5602    -999.2500       3.5577       5.3595
   2595.7405      11.4103      43.1302       0.0643      71.4570      64.0294    -999.2500    -999.2500    -999.2500     353.9134     421.3731      76.2042       0.2061       3.9456       0.0176       2.5322    -999.2500       4.4239       6.1657
