#------------------------------------------------------------------------------
#
#   Created by  : [OpenWorks] Log Export Utility (LEXP)
#   Created on  : 2016-05-11 12:25:21
#   Project     : CANT971
#   User        : R5K
#   Interpreter : PEP
#
#------------------------------------------------------------------------------
~VERSION INFORMATION
VERS. 2.0 : CWLS Log ASCII Standard - version 2.0
WRAP.  NO : One line per depth step
~WELL INFORMATION
#MNEMONIC   .UNIT                                           VALUE :DESCRIPTION
#------------------------------------------------------------------------------
STRT        .M                                           765.2640 :START DEPTH
STOP        .M                                          3197.2632 :STOP DEPTH
STEP        .M                                             0.1524 :STEP
NULL        .                                           -999.2500 :NULL VALUE
COMP        .                                   PEMEX EXPL & PROD :COMPANY
WELL        .                                               1065D :WELL
FLD         .                                           CANTARELL :FIELD
LOC         .                                             UNKNOWN :LOCATION
CNTY        .                                      CD. DEL CARMEN :COUNTY
STAT        .                                             UNKNOWN :STATE
CTRY        .                                             UNKNOWN :COUNTRY
SRVC        .                                             UNKNOWN :SERVICE COMPANY
DATE        .                                             UNKNOWN :LOG DATE
UWI         .                                           W-C-1065D :UNIQUE WELL ID
XCOORD      .                                       599712.630000 :SURFACE X
YCOORD      .                                      2149962.600000 :SURFACE Y
LAT         .                                           19.442731 :LATITUDE
LON         .                                          -92.050118 :LONGITUDE
ELEV        .M                                            30.0000 :SURFACE ELEV
ELEV_TYPE   .                                                  KB :ELEV TYPE
~CURVE INFORMATION
#MNEMONIC.UNIT        API CODE       : CURVE DESCRIPTION
#------------------------------------------------------------------------------
DEPTH    .M                          : Measured Depth
CALI     .inches      UNKNOWN        : CALI:registros:rC:NONE:v0 (auto-composite)
CGR      .API         UNKNOWN        : CGR:registros:rC:NONE:v0 (auto-composite)
DRHO     .g/cm3       UNKNOWN        : DRHO:registros:rC:NONE:v0 (auto-composite)
DT       .us/ft       UNKNOWN        : DT:registros:rC:NONE:v0 (auto-composite)
GR       .API         UNKNOWN        : GR:registros:rC:NONE:v0 (auto-composite)
GR-LWD   .UNKNOWN     UNKNOWN        : GR-LWD:registros:rC:NONE:v0 (auto-composite)
ILD-LWD  .ohm.m       UNKNOWN        : ILD-LWD:registros:rC:NONE:v0 (auto-composite)
ILM-LWD  .UNKNOWN     UNKNOWN        : ILM-LWD:registros:rC:NONE:v0 (auto-composite)
LLD      .ohm.m       UNKNOWN        : LLD:registros:rC:NONE:v0 (auto-composite)
LLS      .ohm.m       UNKNOWN        : LLS:registros:rC:NONE:v0 (auto-composite)
MSFL     .ohm.m       UNKNOWN        : MSFL:registros:rC:NONE:v0 (auto-composite)
NPHI     .UNKNOWN     UNKNOWN        : NPHI:registros:rC:NONE:v0 (auto-composite)
PEF      .UNKNOWN     UNKNOWN        : PEF:registros:rC:NONE:v0 (auto-composite)
POTA     .wtpercent   UNKNOWN        : POTA:registros:rC:NONE:v0 (auto-composite)
RHOB     .g/cm3       UNKNOWN        : RHOB:registros:rC:NONE:v0 (auto-composite)
SP       .mV          UNKNOWN        : SP:registros:rC:NONE:v0 (auto-composite)
THOR     .ppm         UNKNOWN        : THOR:registros:rC:NONE:v0 (auto-composite)
URAN     .ppm         UNKNOWN        : URAN:registros:rC:NONE:v0 (auto-composite)
~A     DEPTH         CALI          CGR         DRHO           DT           GR       GR-LWD      ILD-LWD      ILM-LWD          LLD          LLS         MSFL         NPHI          PEF         POTA         RHOB           SP         THOR         URAN
# ...
   2138.2356      11.5068      -1.5957       0.1249      71.1194      43.4826    -999.2500    -999.2500    -999.2500     159.3792      99.4538      67.3636       0.1713       2.5889       0.0030       2.4183    -999.2500      -1.8393       7.1531
   2138.3879      11.5277      -1.7780       0.1419      71.6529      38.0765    -999.2500    -999.2500    -999.2500     155.9358      96.5996      13.9250       0.1746       2.7251       0.0030       2.4845    -999.2500      -1.8756       7.1769
   2138.5403      11.5552      -1.9249       0.1119      71.9932      36.8740    -999.2500    -999.2500    -999.2500     165.9375     102.6949      49.9364       0.1658       2.6961       0.0030       2.5580    -999.2500      -1.9057       7.1963
   2138.6929      11.6259      -2.0845       0.0839      72.2195      36.1933    -999.2500    -999.2500    -999.2500     167.4142     103.8643      74.6866       0.1582       2.6682       0.0030       2.6106    -999.2500      -1.9381       7.2174
   2138.8452      11.9087      -2.3064       0.0654      71.8857      38.0745    -999.2500    -999.2500    -999.2500     127.0297      80.8447      44.1393       0.1571       2.6457       0.0030       2.5611    -999.2500      -1.9805       7.2457
   2138.9976      12.2468      -2.5007       0.0498      71.7248      40.0785    -999.2500    -999.2500    -999.2500      92.0441      60.8528      30.7297       0.1557       2.6316       0.0030       2.5176    -999.2500      -2.0174       7.2702
   2139.1499      12.8576      -2.5581       0.0488      72.4190      42.6893    -999.2500    -999.2500    -999.2500      83.7333      55.8200     101.9933       0.1529       2.6591       0.0030       2.5031    -999.2500      -2.0307       7.2791
   2139.3025      13.2180      -2.5914       0.0497      72.8748      45.8654    -999.2500    -999.2500    -999.2500      77.2078      51.9152     151.9481       0.1513       2.6946       0.0030       2.4925    -999.2500      -2.0369       7.2831
   2139.4548      12.3199      -2.5034       0.0597      72.1321      51.8848    -999.2500    -999.2500    -999.2500      79.6602      53.6829      94.7388       0.1554       2.7706       0.0030       2.5015    -999.2500      -2.0217       7.2726
   2139.6072      11.5746      -2.4096       0.0644      71.8056      57.2518    -999.2500    -999.2500    -999.2500      82.2664      55.5204      54.3086       0.1594       2.8203       0.0030       2.5044    -999.2500      -2.0038       7.2601
   2139.7595      11.6027      -2.2857       0.0423      73.5850      59.3176    -999.2500    -999.2500    -999.2500      85.6508      57.7104      98.7914       0.1627       2.7370       0.0030       2.4763    -999.2500      -1.9804       7.2437
   2139.9119      11.6352      -2.1573       0.0229      75.6217      60.3091    -999.2500    -999.2500    -999.2500      86.5304      58.2757     127.8863       0.1654       2.6558       0.0030       2.4400    -999.2500      -1.9558       7.2266
   2140.0645      11.6892      -2.0063       0.0164      78.9092      56.0765    -999.2500    -999.2500    -999.2500      75.2278      50.9383      82.1401       0.1651       2.5843       0.0030       2.3641    -999.2500      -1.9271       7.2072
   2140.2168      11.8479      -1.8496       0.0149      81.5674      53.1075    -999.2500    -999.2500    -999.2500      65.2075      44.4743      50.0636       0.1644       2.5394       0.0030       2.3157    -999.2500      -1.8968       7.1866
   2140.3691      12.5191      -1.6643       0.0379      81.1454      56.3226    -999.2500    -999.2500    -999.2500      61.4621      42.2835      84.8802       0.1618       2.6243       0.0030       2.4021    -999.2500      -1.8620       7.1624
   2140.5215      12.9349      -1.4721       0.0537      79.7036      57.9214    -999.2500    -999.2500    -999.2500      60.0683      41.6609     106.4045       0.1601       2.6916       0.0030       2.4822    -999.2500      -1.8254       7.1368
   2140.6741      12.0793      -1.2452       0.0342      73.1824      51.4712    -999.2500    -999.2500    -999.2500      70.3864      48.8488      61.7283       0.1635       2.6711       0.0030       2.5312    -999.2500      -1.7827       7.1075
   2140.8264      11.3563      -1.0098       0.0232      68.1886      45.4736    -999.2500    -999.2500    -999.2500      81.4720      56.6936      45.1179       0.1663       2.6664       0.0031       2.5753    -999.2500      -1.7377       7.0766
   2140.9788      11.2982      -0.7320       0.0543      70.8495      41.7443    -999.2500    -999.2500    -999.2500      96.4044      67.8305     169.1572       0.1665       2.7411       0.0036       2.5948    -999.2500      -1.6849       7.0402
   2141.1311      11.2621      -0.4436       0.0798      73.0881      39.1876    -999.2500    -999.2500    -999.2500     108.2387      76.6049     251.8929       0.1667       2.7889       0.0040       2.6022    -999.2500      -1.6294       7.0020
   2141.2837      11.3326      -0.1037       0.0788      73.2920      42.2803    -999.2500    -999.2500    -999.2500     105.1481      73.9980     135.6461       0.1664       2.7069       0.0040       2.5507    -999.2500      -1.5653       6.9578
   2141.4360      11.3793       0.2490       0.0815      74.0209      44.9347    -999.2500    -999.2500    -999.2500      99.4295      69.5797      37.4888       0.1662       2.6228       0.0040       2.4887    -999.2500      -1.4978       6.9112
   2141.5884      11.3109       0.6640       0.1020      77.2949      45.4650    -999.2500    -999.2500    -999.2500      80.9738      56.3815      27.0097       0.1665       2.5279       0.0040       2.3758    -999.2500      -1.4195       6.8572
   2141.7407      11.2425       1.0943       0.1101      80.7885      45.3242    -999.2500    -999.2500    -999.2500      64.0908      44.2682      17.1597       0.1667       2.4156       0.0040       2.2628    -999.2500      -1.3370       6.8001
   2141.8931      11.1740       1.6006       0.0571      85.3655      41.8727    -999.2500    -999.2500    -999.2500      54.9658      37.5061      10.4126       0.1670       2.2177       0.0040       2.1488    -999.2500      -1.2411       6.7330
   2142.0457      11.1415       2.1181       0.0157      88.9335      38.8900    -999.2500    -999.2500    -999.2500      49.2639      32.8839      17.3914       0.1671       2.1164       0.0040       2.0893    -999.2500      -1.1415       6.6620
   2142.1980      11.2874       2.6908       0.0317      87.4937      38.2343    -999.2500    -999.2500    -999.2500      60.5510      38.8823      92.4920       0.1666       2.4942       0.0040       2.2997    -999.2500      -1.0297       6.5743
   2142.3503      11.4498       3.2127       0.0422      83.9018      38.2527    -999.2500    -999.2500    -999.2500      80.3693      50.7551     148.6165       0.1632       2.8023       0.0040       2.4887    -999.2500      -0.9192       6.4218
   2142.5027      11.6942       3.4806       0.0258      69.5630      41.6378    -999.2500    -999.2500    -999.2500     142.7913      91.9638     109.9767       0.1456       2.7623       0.0040       2.5706    -999.2500      -0.8093       6.0174
   2142.6553      11.8311       4.3208       0.0113      57.0368      44.6409    -999.2500    -999.2500    -999.2500     189.8655     123.1536     161.6278       0.1321       2.7366       0.0040       2.6374    -999.2500      -0.5400       5.6979
   2142.8076      11.4284       8.0371       0.0067      53.6190      45.7251    -999.2500    -999.2500    -999.2500     159.8152     103.9973     666.9989       0.1390       2.7822       0.0040       2.6279    -999.2500       0.3555       5.7683
   2142.9600      11.1125      10.4634       0.0026      51.0180      46.6568    -999.2500    -999.2500    -999.2500     129.9825      84.9916    1000.9477       0.1431       2.8288       0.0038       2.6169    -999.2500       1.0047       5.6857
   2143.1123      11.2215       6.5876       0.0001      52.4069      46.8443    -999.2500    -999.2500    -999.2500     101.2119      66.7209     497.4467       0.1328       2.8808       0.0028       2.5984    -999.2500       0.5501       4.9207
