#------------------------------------------------------------------------------
#
#   Created by  : [OpenWorks] Log Export Utility (LEXP)
#   Created on  : 2016-05-11 12:25:21
#   Project     : CANT971
#   User        : R5K
#   Interpreter : PEP
#
#------------------------------------------------------------------------------
~VERSION INFORMATION
VERS. 2.0 : CWLS Log ASCII Standard - version 2.0
WRAP.  NO : One line per depth step
~WELL INFORMATION
#MNEMONIC   .UNIT                                           VALUE :DESCRIPTION
#------------------------------------------------------------------------------
STRT        .M                                           765.2640 :START DEPTH
STOP        .M                                          3197.2632 :STOP DEPTH
STEP        .M                                             0.1524 :STEP
NULL        .                                           -999.2500 :NULL VALUE
COMP        .                                   PEMEX EXPL & PROD :COMPANY
WELL        .                                               1065D :WELL
FLD         .                                           CANTARELL :FIELD
LOC         .                                             UNKNOWN :LOCATION
CNTY        .                                      CD. DEL CARMEN :COUNTY
STAT        .                                             UNKNOWN :STATE
CTRY        .                                             UNKNOWN :COUNTRY
SRVC        .                                             UNKNOWN :SERVICE COMPANY
DATE        .                                             UNKNOWN :LOG DATE
UWI         .                                           W-C-1065D :UNIQUE WELL ID
XCOORD      .                                       599712.630000 :SURFACE X
YCOORD      .                                      2149962.600000 :SURFACE Y
LAT         .                                           19.442731 :LATITUDE
LON         .                                          -92.050118 :LONGITUDE
ELEV        .M                                            30.0000 :SURFACE ELEV
ELEV_TYPE   .                                                  KB :ELEV TYPE
~CURVE INFORMATION
#MNEMONIC.UNIT        API CODE       : CURVE DESCRIPTION
#------------------------------------------------------------------------------
DEPTH    .M                          : Measured Depth
CALI     .inches      UNKNOWN        : CALI:registros:rC:NONE:v0 (auto-composite)
CGR      .API         UNKNOWN        : CGR:registros:rC:NONE:v0 (auto-composite)
DRHO     .g/cm3       UNKNOWN        : DRHO:registros:rC:NONE:v0 (auto-composite)
DT       .us/ft       UNKNOWN        : DT:registros:rC:NONE:v0 (auto-composite)
GR       .API         UNKNOWN        : GR:registros:rC:NONE:v0 (auto-composite)
GR-LWD   .UNKNOWN     UNKNOWN        : GR-LWD:registros:rC:NONE:v0 (auto-composite)
ILD-LWD  .ohm.m       UNKNOWN        : ILD-LWD:registros:rC:NONE:v0 (auto-composite)
ILM-LWD  .UNKNOWN     UNKNOWN        : ILM-LWD:registros:rC:NONE:v0 (auto-composite)
LLD      .ohm.m       UNKNOWN        : LLD:registros:rC:NONE:v0 (auto-composite)
LLS      .ohm.m       UNKNOWN        : LLS:registros:rC:NONE:v0 (auto-composite)
MSFL     .ohm.m       UNKNOWN        : MSFL:registros:rC:NONE:v0 (auto-composite)
NPHI     .UNKNOWN     UNKNOWN        : NPHI:registros:rC:NONE:v0 (auto-composite)
PEF      .UNKNOWN     UNKNOWN        : PEF:registros:rC:NONE:v0 (auto-composite)
POTA     .wtpercent   UNKNOWN        : POTA:registros:rC:NONE:v0 (auto-composite)
RHOB     .g/cm3       UNKNOWN        : RHOB:registros:rC:NONE:v0 (auto-composite)
SP       .mV          UNKNOWN        : SP:registros:rC:NONE:v0 (auto-composite)
THOR     .ppm         UNKNOWN        : THOR:registros:rC:NONE:v0 (auto-composite)
URAN     .ppm         UNKNOWN        : URAN:registros:rC:NONE:v0 (auto-composite)
~A     DEPTH         CALI          CGR         DRHO           DT           GR       GR-LWD      ILD-LWD      ILM-LWD          LLD          LLS         MSFL         NPHI          PEF         POTA         RHOB           SP         THOR         URAN
# ...
   3048.5208      12.0159     122.7270       0.1149    -999.2500     135.4234    -999.2500    -999.2500    -999.2500       3.6150       3.4010       2.1146       0.2978       3.2435       0.0340       2.3568     213.2713      16.4990       0.0247
   3048.6731      11.9304     122.7150       0.1134    -999.2500     130.9909    -999.2500    -999.2500    -999.2500       3.6030       3.4015       2.0376       0.3116       3.3089       0.0340       2.3903     212.7715      16.5008       0.0236
   3048.8257      11.8792     122.7032       0.1143    -999.2500     128.9935    -999.2500    -999.2500    -999.2500       3.5734       3.3861       1.9964       0.3240       3.3593       0.0340       2.4162     212.3439      16.4989       0.0251
   3048.9780      12.2081     122.6937       0.1424    -999.2500     127.5926    -999.2500    -999.2500    -999.2500       3.3483       3.1936       2.3518       0.3227       3.2420       0.0340       2.3575     212.7185      16.4974       0.0266
   3049.1304      12.5341     122.6840       0.1729    -999.2500     129.0303    -999.2500    -999.2500    -999.2500       3.1341       3.0073       2.6574       0.3214       3.1228       0.0340       2.3074     213.0436      16.4959       0.0280
   3049.2827      12.8308     122.6730       0.2283    -999.2500     127.2293    -999.2500    -999.2500    -999.2500       3.0327       2.8860       2.4467       0.3202       2.9839       0.0340       2.3464     212.8573      16.4944       0.0291
   3049.4351      13.1331     122.6619       0.2776    -999.2500     125.3603    -999.2500    -999.2500    -999.2500       2.9382       2.7728       2.2643       0.3190       2.8434       0.0340       2.3760     212.7084      16.4927       0.0302
   3049.5876      13.4959     122.6494       0.2611    -999.2500     124.1848    -999.2500    -999.2500    -999.2500       2.9178       2.7473       2.3842       0.3175       2.6845       0.0340       2.3055     212.9583      16.4908       0.0316
   3049.7400      13.8336     122.6368       0.2437    -999.2500     121.7010    -999.2500    -999.2500    -999.2500       2.8855       2.7118       2.4785       0.3162       2.5564       0.0340       2.2382     213.1499      16.4888       0.0333
   3049.8923      13.9001     122.6223       0.2167    -999.2500     120.5672    -999.2500    -999.2500    -999.2500       2.7266       2.5684       2.2961       0.3159       2.7618       0.0340       2.2052     212.7131      16.4868       0.0352
   3050.0447      13.9314     122.6075       0.1896    -999.2500     117.0763    -999.2500    -999.2500    -999.2500       2.5865       2.4450       2.1547       0.3158       2.9705       0.0340       2.1814     212.3340      16.4847       0.0372
   3050.1973      13.5789     122.5900       0.1605    -999.2500     117.2365    -999.2500    -999.2500    -999.2500       2.6517       2.5403       2.4611       0.3172       3.2141       0.0340       2.2576     212.5847      16.4823       0.0392
   3050.3496      13.1896     122.5721       0.1332    -999.2500     120.3348    -999.2500    -999.2500    -999.2500       2.7283       2.6431       2.7128       0.3188       3.4243       0.0340       2.3280     212.8409      16.4798       0.0413
   3050.5020      12.4250     122.5511       0.1248    -999.2500     128.8658    -999.2500    -999.2500    -999.2500       2.9210       2.8229       2.4087       0.3218       3.2935       0.0340       2.3390     213.1525      16.4773       0.0437
   3050.6543      11.7365     122.5295       0.1174    -999.2500     134.4024    -999.2500    -999.2500    -999.2500       3.1060       2.9965       2.1755       0.3246       3.1642       0.0340       2.3456     213.4586      16.4747       0.0462
   3050.8069      11.8454     122.5010       0.1224    -999.2500     134.9303    -999.2500    -999.2500    -999.2500       3.2100       3.1054       2.6868       0.3242       3.0518       0.0340       2.3066     213.7070      16.4715       0.0484
   3050.9592      11.9928     122.4611       0.1289    -999.2500     132.2114    -999.2500    -999.2500    -999.2500       3.2948       3.1936       3.1174       0.3236       2.9384       0.0340       2.2609     213.9611      16.4652       0.0456
   3051.1116      12.5476     122.2997       0.1509    -999.2500     129.4482    -999.2500    -999.2500    -999.2500       3.1763       3.0617       2.6931       0.3213       2.8155       0.0338       2.1434     214.2755      16.3621       0.0231
   3051.2639      13.0657     116.9442       0.1703    -999.2500     129.4786    -999.2500    -999.2500    -999.2500       3.0486       2.9197       2.2940       0.3192       2.7065       0.0307       2.0363     214.5150      14.8263       0.0019
   3051.4163      13.1906      55.8956       0.1618    -999.2500     130.2473    -999.2500    -999.2500    -999.2500       2.8212       2.6698       2.1651       0.3187       2.7475       0.0158       2.0393     213.9522       7.5961      -0.0005
   3051.5688      13.3336       0.0019       0.1527    -999.2500     130.5031    -999.2500    -999.2500    -999.2500       2.6079       2.4357       2.0321       0.3182       2.7781       0.0019       2.0412     213.4265       0.8988      -0.0001
   3051.7212      13.6727       0.0009       0.1367    -999.2500     131.0740    -999.2500    -999.2500    -999.2500       2.5469       2.3733       1.8558       0.3168       2.6962       0.0000       2.0312     213.3016       0.0000       0.0000
   3051.8735      13.9217       0.0000       0.1225    -999.2500     132.4516    -999.2500    -999.2500    -999.2500       2.4860       2.3136       1.7114       0.3158       2.6352       0.0000       2.0279     213.2075       0.0000       0.0000
   3052.0259      13.1621       0.0000       0.1280    -999.2500     133.2626    -999.2500    -999.2500    -999.2500       2.4254       2.2840       1.9235       0.3189       2.8087       0.0000       2.1001     213.4577       0.0000       0.0000
   3052.1785      12.4662       0.0000       0.1327    -999.2500     130.3882    -999.2500    -999.2500    -999.2500       2.3949       2.2798       2.1164       0.3217       2.9615       0.0000       2.1685     213.6916       0.0000       0.0000
   3052.3308      12.4348       0.0000       0.1292    -999.2500     121.0018    -999.2500    -999.2500    -999.2500       2.6793       2.5407       2.1099       0.3218       2.8991       0.0000       2.1970     213.7550       0.0000       0.0000
   3052.4832      12.4060       0.0000       0.1269    -999.2500     113.7773    -999.2500    -999.2500    -999.2500       2.9789       2.8130       2.3166       0.3219       2.8433       0.0000       2.2215     213.7859       0.0000       0.0000
   3052.6355      12.4060       0.0000       0.1374    -999.2500     105.1404    -999.2500    -999.2500    -999.2500       3.4397       3.2053       4.7695       0.3219       2.8588       0.0000       2.2040     213.4730       0.0000       0.0000
   3052.7881      12.4060       0.0000       0.1474    -999.2500     103.2858    -999.2500    -999.2500    -999.2500       3.8331       3.5415       6.8025       0.3219       2.8765       0.0000       2.1882     213.1710       0.0000       0.0000
   3052.9404      12.4060       0.0000       0.1524    -999.2500     108.5513    -999.2500    -999.2500    -999.2500       3.5080       3.2788       4.3610       0.3219       2.9175       0.0000       2.1907     212.9842       0.0000       0.0000
   3053.0928      12.4060       0.0000       0.1576    -999.2500     119.2175    -999.2500    -999.2500    -999.2500       3.2086       3.0363       2.1519       0.3219       2.9540       0.0000       2.1932     212.9067       0.0000       0.0000
   3053.2451      12.4060       0.0000       0.1646    -999.2500     128.8895    -999.2500    -999.2500    -999.2500       3.1921       3.0163       2.4993       0.3219       2.9425       0.0000       2.1957     214.0312       0.0000       0.0000
   3053.3975      12.4060       0.0000       0.1707    -999.2500     131.9482    -999.2500    -999.2500    -999.2500       3.1850       3.0052       2.8003       0.3219       2.9309       0.0000       2.1976     215.0423       0.0000       0.0000
