#------------------------------------------------------------------------------
#
#   Created by  : [OpenWorks] Log Export Utility (LEXP)
#   Created on  : 2016-05-11 12:25:21
#   Project     : CANT971
#   User        : R5K
#   Interpreter : PEP
#
#------------------------------------------------------------------------------
~VERSION INFORMATION
VERS. 2.0 : CWLS Log ASCII Standard - version 2.0
WRAP.  NO : One line per depth step
~WELL INFORMATION
#MNEMONIC   .UNIT                                           VALUE :DESCRIPTION
#------------------------------------------------------------------------------
STRT        .M                                           765.2640 :START DEPTH
STOP        .M                                          3197.2632 :STOP DEPTH
STEP        .M                                             0.1524 :STEP
NULL        .                                           -999.2500 :NULL VALUE
COMP        .                                   PEMEX EXPL & PROD :COMPANY
WELL        .                                               1065D :WELL
FLD         .                                           CANTARELL :FIELD
LOC         .                                             UNKNOWN :LOCATION
CNTY        .                                      CD. DEL CARMEN :COUNTY
STAT        .                                             UNKNOWN :STATE
CTRY        .                                             UNKNOWN :COUNTRY
SRVC        .                                             UNKNOWN :SERVICE COMPANY
DATE        .                                             UNKNOWN :LOG DATE
UWI         .                                           W-C-1065D :UNIQUE WELL ID
XCOORD      .                                       599712.630000 :SURFACE X
YCOORD      .                                      2149962.600000 :SURFACE Y
LAT         .                                           19.442731 :LATITUDE
LON         .                                          -92.050118 :LONGITUDE
ELEV        .M                                            30.0000 :SURFACE ELEV
ELEV_TYPE   .                                                  KB :ELEV TYPE
~CURVE INFORMATION
#MNEMONIC.UNIT        API CODE       : CURVE DESCRIPTION
#------------------------------------------------------------------------------
DEPTH    .M                          : Measured Depth
CALI     .inches      UNKNOWN        : CALI:registros:rC:NONE:v0 (auto-composite)
CGR      .API         UNKNOWN        : CGR:registros:rC:NONE:v0 (auto-composite)
DRHO     .g/cm3       UNKNOWN        : DRHO:registros:rC:NONE:v0 (auto-composite)
DT       .us/ft       UNKNOWN        : DT:registros:rC:NONE:v0 (auto-composite)
GR       .API         UNKNOWN        : GR:registros:rC:NONE:v0 (auto-composite)
GR-LWD   .UNKNOWN     UNKNOWN        : GR-LWD:registros:rC:NONE:v0 (auto-composite)
ILD-LWD  .ohm.m       UNKNOWN        : ILD-LWD:registros:rC:NONE:v0 (auto-composite)
ILM-LWD  .UNKNOWN     UNKNOWN        : ILM-LWD:registros:rC:NONE:v0 (auto-composite)
LLD      .ohm.m       UNKNOWN        : LLD:registros:rC:NONE:v0 (auto-composite)
LLS      .ohm.m       UNKNOWN        : LLS:registros:rC:NONE:v0 (auto-composite)
MSFL     .ohm.m       UNKNOWN        : MSFL:registros:rC:NONE:v0 (auto-composite)
NPHI     .UNKNOWN     UNKNOWN        : NPHI:registros:rC:NONE:v0 (auto-composite)
PEF      .UNKNOWN     UNKNOWN        : PEF:registros:rC:NONE:v0 (auto-composite)
POTA     .wtpercent   UNKNOWN        : POTA:registros:rC:NONE:v0 (auto-composite)
RHOB     .g/cm3       UNKNOWN        : RHOB:registros:rC:NONE:v0 (auto-composite)
SP       .mV          UNKNOWN        : SP:registros:rC:NONE:v0 (auto-composite)
THOR     .ppm         UNKNOWN        : THOR:registros:rC:NONE:v0 (auto-composite)
URAN     .ppm         UNKNOWN        : URAN:registros:rC:NONE:v0 (auto-composite)
~A     DEPTH         CALI          CGR         DRHO           DT           GR       GR-LWD      ILD-LWD      ILM-LWD          LLD          LLS         MSFL         NPHI          PEF         POTA         RHOB           SP         THOR         URAN
# ...
   2897.6448      10.1078      25.3124       0.0116      59.2765      34.2756    -999.2500    -999.2500    -999.2500      25.2717      26.7594      28.9973       0.1082       3.2622       0.0073       2.7494     168.6610       3.1409       1.0463
   2897.7971      10.3692      26.1456       0.0071      58.5628      34.8349    -999.2500    -999.2500    -999.2500      22.3874      24.1840      40.0315       0.1186       3.3361       0.0081       2.7304     168.3492       3.1692       1.0497
   2897.9495      10.5470      26.8105       0.0027      57.8113      35.1719    -999.2500    -999.2500    -999.2500      19.7835      21.9273      48.9081       0.1285       3.4118       0.0088       2.7119     168.0527       3.0621       0.9991
   2898.1021       9.7949      25.6037      -0.0008      56.6391      33.0354    -999.2500    -999.2500    -999.2500      20.2984      23.2164      33.7726       0.1335       3.5060       0.0085       2.6983     167.9273       2.8838       0.9017
   2898.2544       9.1011      24.6857      -0.0040      55.6862      31.3579    -999.2500    -999.2500    -999.2500      20.7937      24.4378      19.7189       0.1377       3.5935       0.0083       2.6870     167.8240       2.7444       0.8410
   2898.4067       9.0117      26.7623      -0.0040      57.0066      34.4360    -999.2500    -999.2500    -999.2500      21.0861      24.9586      16.8761       0.1335       3.6099       0.0091       2.6985     167.9489       2.7758       0.9264
   2898.5591       8.9426      28.6569      -0.0055      58.1118      37.2397    -999.2500    -999.2500    -999.2500      21.4849      25.5641      14.8399       0.1343       3.5901       0.0099       2.6924     168.0358       2.8312       1.0193
   2898.7117       9.0869      28.6444      -0.0230      56.9612      37.1673    -999.2500    -999.2500    -999.2500      22.9991      27.0567      21.2540       0.1870       3.1901       0.0100       2.5022     167.7231       2.8366       1.0307
   2898.8640       9.1992      28.6160      -0.0407      55.7140      37.0699    -999.2500    -999.2500    -999.2500      24.2686      28.2347      26.0924       0.2334       2.8071       0.0101       2.3174     167.4791       2.8151       1.0204
   2899.0164       8.9648      28.4151      -0.0612      53.4219      36.7031    -999.2500    -999.2500    -999.2500      22.8931      26.0107      13.8956       0.2128       2.6072       0.0105       2.1919     167.9769       2.7455       1.0016
   2899.1687       8.7500      28.0819      -0.0779      51.6691      36.1665    -999.2500    -999.2500    -999.2500      22.7779      24.9181       4.1534       0.1888       2.4774       0.0107       2.0947     168.4385       2.6523       0.9697
   2899.3213       8.7500      26.3030      -0.0534      55.8111      33.7744    -999.2500    -999.2500    -999.2500      36.4403      36.1964      21.2463       0.1279       3.1147       0.0099       2.3063     168.5036       2.5211       0.9034
   2899.4736       8.7500      24.6617      -0.0295      59.3196      31.5463    -999.2500    -999.2500    -999.2500      51.2831      48.6106      42.5890       0.0722       3.6900       0.0091       2.5127     168.4681       2.3715       0.8262
   2899.6260       8.7500      24.4238      -0.0130      56.3719      30.9906    -999.2500    -999.2500    -999.2500      78.1575      72.6032     107.2491       0.0681       3.6335       0.0090       2.6656     167.4055       2.1923       0.7425
   2899.7783       8.7500      23.9295       0.0020      53.8832      30.1992    -999.2500    -999.2500    -999.2500     100.8936      92.9792     160.9423       0.0652       3.5853       0.0088       2.8039     166.5473       1.9984       0.6834
   2899.9307       8.7500      20.7928       0.0015      56.1229      26.9801    -999.2500    -999.2500    -999.2500      80.9976      76.0965     101.6559       0.0751       3.6222       0.0079       2.7909     167.7943       1.7855       0.7042
   2900.0833       8.7500      17.9882       0.0014      57.9860      24.1680    -999.2500    -999.2500    -999.2500      63.2753      60.4498      52.1910       0.0837       3.6652       0.0071       2.7766     168.9825       1.6320       0.7558
   2900.2356       8.7500      18.7108       0.0059      55.8464      25.6799    -999.2500    -999.2500    -999.2500      68.6505      57.9364     107.0888       0.0793       3.7727       0.0070       2.7486     169.5457       1.6740       0.8408
   2900.3879       8.7510      19.4583       0.0113      54.0437      27.1288    -999.2500    -999.2500    -999.2500      74.6867      57.0564     152.2969       0.0754       3.8662       0.0071       2.7252     170.3264       1.7603       0.9051
   2900.5403       8.7625      20.4713       0.0263      55.8604      27.9020    -999.2500    -999.2500    -999.2500      87.8245      73.7257      93.4009       0.0782       3.8097       0.0075       2.7512     173.4430       1.8450       0.8833
   2900.6929       8.7720      21.6892       0.0407      57.7053      28.8882    -999.2500    -999.2500    -999.2500      98.4464      87.8165      43.6990       0.0816       3.7399       0.0082       2.7761     176.4245       2.0326       0.8557
   2900.8452       8.7605      25.1317       0.0487      59.8563      32.1894    -999.2500    -999.2500    -999.2500      81.7351      73.8944      93.8846       0.0919       3.5253       0.0091       2.7891     177.9366       2.5212       0.8712
   2900.9976       8.7525      28.1637       0.0554      61.6992      35.0242    -999.2500    -999.2500    -999.2500      65.6782      60.4749     135.1657       0.1016       3.3315       0.0098       2.7980     178.9429       2.9071       0.8656
   2901.1499       8.7799      27.0361       0.0489      60.4218      33.1340    -999.2500    -999.2500    -999.2500      56.2518      52.1472      86.2266       0.1055       3.3480       0.0100       2.7645     174.8230       2.7748       0.7682
   2901.3025       8.8067      26.1372       0.0428      59.0281      31.5770    -999.2500    -999.2500    -999.2500      47.4825      44.3941      42.7256       0.1086       3.3671       0.0101       2.7328     171.1067       2.5514       0.6846
   2901.4548       8.8262      27.6276       0.0403      56.4197      33.5002    -999.2500    -999.2500    -999.2500      45.5763      42.6444      56.0323       0.1033       3.4141       0.0105       2.7193     171.6064       2.4391       0.7110
   2901.6072       8.8399      28.9194       0.0377      54.2784      35.2696    -999.2500    -999.2500    -999.2500      44.7923      41.8674      66.9923       0.0976       3.4544       0.0109       2.7086     171.9387       2.3787       0.7776
   2901.7595       8.7930      28.1142       0.0342      57.0692      35.4150    -999.2500    -999.2500    -999.2500      55.8596      51.3628      53.1698       0.0877       3.4250       0.0110       2.7271     170.5013       2.3906       0.8808
   2901.9119       8.7500      27.3917       0.0306      59.3663      35.5206    -999.2500    -999.2500    -999.2500      67.4119      61.2120      52.3599       0.0789       3.4010       0.0109       2.7453     169.3840       2.4210       0.9625
   2902.0645       8.7500      27.5520       0.0261      56.3925      35.2010    -999.2500    -999.2500    -999.2500      84.1438      74.8392     190.4866       0.0829       3.4354       0.0105       2.7608     171.6841       2.4488       0.9516
   2902.2168       8.7500      27.5147       0.0215      53.4745      34.6204    -999.2500    -999.2500    -999.2500     101.3064      88.8869     307.9930       0.0866       3.4606       0.0100       2.7735     173.8510       2.4190       0.8848
   2902.3691       8.7500      25.2986       0.0150      51.1720      31.1624    -999.2500    -999.2500    -999.2500     123.2180     107.5693     198.1969       0.0889       3.3836       0.0095       2.7555     174.5476       2.2239       0.7244
   2902.5215       8.7500      23.3224       0.0090      48.9817      28.0565    -999.2500    -999.2500    -999.2500     143.6467     125.3568     112.1787       0.0906       3.3143       0.0092       2.7388     175.4481       2.0464       0.5849
