#------------------------------------------------------------------------------
#
#   Created by  : [OpenWorks] Log Export Utility (LEXP)
#   Created on  : 2016-05-11 12:25:21
#   Project     : CANT971
#   User        : R5K
#   Interpreter : PEP
#
#------------------------------------------------------------------------------
~VERSION INFORMATION
VERS. 2.0 : CWLS Log ASCII Standard - version 2.0
WRAP.  NO : One line per depth step
~WELL INFORMATION
#MNEMONIC   .UNIT                                           VALUE :DESCRIPTION
#------------------------------------------------------------------------------
STRT        .M                                           765.2640 :START DEPTH
STOP        .M                                          3197.2632 :STOP DEPTH
STEP        .M                                             0.1524 :STEP
NULL        .                                           -999.2500 :NULL VALUE
COMP        .                                   PEMEX EXPL & PROD :COMPANY
WELL        .                                               1065D :WELL
FLD         .                                           CANTARELL :FIELD
LOC         .                                             UNKNOWN :LOCATION
CNTY        .                                      CD. DEL CARMEN :COUNTY
STAT        .                                             UNKNOWN :STATE
CTRY        .                                             UNKNOWN :COUNTRY
SRVC        .                                             UNKNOWN :SERVICE COMPANY
DATE        .                                             UNKNOWN :LOG DATE
UWI         .                                           W-C-1065D :UNIQUE WELL ID
XCOORD      .                                       599712.630000 :SURFACE X
YCOORD      .                                      2149962.600000 :SURFACE Y
LAT         .                                           19.442731 :LATITUDE
LON         .                                          -92.050118 :LONGITUDE
ELEV        .M                                            30.0000 :SURFACE ELEV
ELEV_TYPE   .                                                  KB :ELEV TYPE
~CURVE INFORMATION
#MNEMONIC.UNIT        API CODE       : CURVE DESCRIPTION
#------------------------------------------------------------------------------
DEPTH    .M                          : Measured Depth
CALI     .inches      UNKNOWN        : CALI:registros:rC:NONE:v0 (auto-composite)
CGR      .API         UNKNOWN        : CGR:registros:rC:NONE:v0 (auto-composite)
DRHO     .g/cm3       UNKNOWN        : DRHO:registros:rC:NONE:v0 (auto-composite)
DT       .us/ft       UNKNOWN        : DT:registros:rC:NONE:v0 (auto-composite)
GR       .API         UNKNOWN        : GR:registros:rC:NONE:v0 (auto-composite)
GR-LWD   .UNKNOWN     UNKNOWN        : GR-LWD:registros:rC:NONE:v0 (auto-composite)
ILD-LWD  .ohm.m       UNKNOWN        : ILD-LWD:registros:rC:NONE:v0 (auto-composite)
ILM-LWD  .UNKNOWN     UNKNOWN        : ILM-LWD:registros:rC:NONE:v0 (auto-composite)
LLD      .ohm.m       UNKNOWN        : LLD:registros:rC:NONE:v0 (auto-composite)
LLS      .ohm.m       UNKNOWN        : LLS:registros:rC:NONE:v0 (auto-composite)
MSFL     .ohm.m       UNKNOWN        : MSFL:registros:rC:NONE:v0 (auto-composite)
NPHI     .UNKNOWN     UNKNOWN        : NPHI:registros:rC:NONE:v0 (auto-composite)
PEF      .UNKNOWN     UNKNOWN        : PEF:registros:rC:NONE:v0 (auto-composite)
POTA     .wtpercent   UNKNOWN        : POTA:registros:rC:NONE:v0 (auto-composite)
RHOB     .g/cm3       UNKNOWN        : RHOB:registros:rC:NONE:v0 (auto-composite)
SP       .mV          UNKNOWN        : SP:registros:rC:NONE:v0 (auto-composite)
THOR     .ppm         UNKNOWN        : THOR:registros:rC:NONE:v0 (auto-composite)
URAN     .ppm         UNKNOWN        : URAN:registros:rC:NONE:v0 (auto-composite)
~A     DEPTH         CALI          CGR         DRHO           DT           GR       GR-LWD      ILD-LWD      ILM-LWD          LLD          LLS         MSFL         NPHI          PEF         POTA         RHOB           SP         THOR         URAN
# ...
   1227.9503      15.0618       0.0000      -0.0034     134.8719      55.7451    -999.2500    -999.2500    -999.2500    -999.2500    -999.2500    -999.2500       0.4158       4.4125    -999.2500       2.2498       0.0000    -999.2500    -999.2500
   1228.1028      15.0803       0.0000      -0.0019     134.6231      55.1795    -999.2500    -999.2500    -999.2500    -999.2500    -999.2500    -999.2500       0.4009       4.4514    -999.2500       2.2518       0.0000    -999.2500    -999.2500
   1228.2551      15.0868       0.0000      -0.0014     134.4075      54.4433    -999.2500    -999.2500    -999.2500    -999.2500    -999.2500    -999.2500       0.3999       4.4835    -999.2500       2.2513       0.0000    -999.2500    -999.2500
   1228.4076      15.0768       0.0000      -0.0024     134.2376      53.4722    -999.2500    -999.2500    -999.2500    -999.2500    -999.2500    -999.2500       0.4180       4.5060    -999.2500       2.2473       0.0000    -999.2500    -999.2500
   1228.5599      15.0792       0.0000      -0.0030     134.0719      53.1811    -999.2500    -999.2500    -999.2500    -999.2500    -999.2500    -999.2500       0.4214       4.5033    -999.2500       2.2448       0.0000    -999.2500    -999.2500
   1228.7124      15.0987       0.0000      -0.0030     133.9120      53.8291    -999.2500    -999.2500    -999.2500    -999.2500    -999.2500    -999.2500       0.4041       4.4658    -999.2500       2.2443       0.0000    -999.2500    -999.2500
   1228.8647      15.1031       0.0000      -0.0030     133.4554      55.0034    -999.2500    -999.2500    -999.2500    -999.2500    -999.2500    -999.2500       0.3888       4.4461    -999.2500       2.2450       0.0000    -999.2500    -999.2500
   1229.0172      15.0866       0.0000      -0.0030     132.5863      56.9096    -999.2500    -999.2500    -999.2500    -999.2500    -999.2500    -999.2500       0.3762       4.4511    -999.2500       2.2475       0.0000    -999.2500    -999.2500
   1229.1696      15.0737       0.0000      -0.0030     131.9568      58.6188    -999.2500    -999.2500    -999.2500    -999.2500    -999.2500    -999.2500       0.3673       4.4488    -999.2500       2.2500       0.0000    -999.2500    -999.2500
   1229.3220      15.0656       0.0000      -0.0030     131.6616      60.0532    -999.2500    -999.2500    -999.2500    -999.2500    -999.2500    -999.2500       0.3637       4.4362    -999.2500       2.2526       0.0000    -999.2500    -999.2500
   1229.4744      15.0648       0.0000      -0.0030     131.9421      60.0652    -999.2500    -999.2500    -999.2500    -999.2500    -999.2500    -999.2500       0.3636       4.4452    -999.2500       2.2517       0.0000    -999.2500    -999.2500
   1229.6268      15.0738       0.0000      -0.0030     133.0107      58.1305    -999.2500    -999.2500    -999.2500    -999.2500    -999.2500    -999.2500       0.3684       4.4837    -999.2500       2.2462       0.0000    -999.2500    -999.2500
   1229.7792      15.0710       0.0000      -0.0030     133.7557      56.4789    -999.2500    -999.2500    -999.2500    -999.2500    -999.2500    -999.2500       0.3681       4.4919    -999.2500       2.2451       0.0000    -999.2500    -999.2500
   1229.9315      15.0520       0.0000      -0.0030     134.0565      55.2159    -999.2500    -999.2500    -999.2500    -999.2500    -999.2500    -999.2500       0.3609       4.4584    -999.2500       2.2501       0.0000    -999.2500    -999.2500
   1230.0840      15.0486       0.0000      -0.0028     133.9353      54.6206    -999.2500    -999.2500    -999.2500    -999.2500    -999.2500    -999.2500       0.3580       4.4201    -999.2500       2.2570       0.0000    -999.2500    -999.2500
   1230.2363      15.0665       0.0000      -0.0023     133.2306      54.9485    -999.2500    -999.2500    -999.2500    -999.2500    -999.2500    -999.2500       0.3612       4.3751    -999.2500       2.2665       0.0000    -999.2500    -999.2500
   1230.3888      15.0709       0.0000      -0.0020     132.5982      55.2499    -999.2500    -999.2500    -999.2500    -999.2500    -999.2500    -999.2500       0.3652       4.3680    -999.2500       2.2703       0.0000    -999.2500    -999.2500
   1230.5411      15.0564       0.0000      -0.0020     132.0661      55.5147    -999.2500    -999.2500    -999.2500    -999.2500    -999.2500    -999.2500       0.3703       4.4135    -999.2500       2.2663       0.0000    -999.2500    -999.2500
   1230.6936      15.0522       0.0000      -0.0018     131.6429      55.7700    -999.2500    -999.2500    -999.2500    -999.2500    -999.2500    -999.2500       0.3736       4.4511    -999.2500       2.2644       0.0000    -999.2500    -999.2500
   1230.8459      15.0622       0.0000      -0.0013     131.3716      56.0122    -999.2500    -999.2500    -999.2500    -999.2500    -999.2500    -999.2500       0.3744       4.4777    -999.2500       2.2654       0.0000    -999.2500    -999.2500
   1230.9984      15.0610       0.0000      -0.0012     131.1643      55.9003    -999.2500    -999.2500    -999.2500    -999.2500    -999.2500    -999.2500       0.3685       4.5061    -999.2500       2.2641       0.0000    -999.2500    -999.2500
   1231.1508      15.0445       0.0000      -0.0017     131.0444      55.3048    -999.2500    -999.2500    -999.2500    -999.2500    -999.2500    -999.2500       0.3533       4.5371    -999.2500       2.2596       0.0000    -999.2500    -999.2500
   1231.3032      15.0485       0.0000      -0.0018     131.0531      55.5965    -999.2500    -999.2500    -999.2500    -999.2500    -999.2500    -999.2500       0.3468       4.5371    -999.2500       2.2604       0.0000    -999.2500    -999.2500
   1231.4556      15.0805       0.0000      -0.0013     131.2385      57.1084    -999.2500    -999.2500    -999.2500    -999.2500    -999.2500    -999.2500       0.3521       4.4946    -999.2500       2.2684       0.0000    -999.2500    -999.2500
   1231.6080      15.0948       0.0000      -0.0014     131.3808      56.9071    -999.2500    -999.2500    -999.2500    -999.2500    -999.2500    -999.2500       0.3578       4.4589    -999.2500       2.2749       0.0000    -999.2500    -999.2500
   1231.7604      15.0848       0.0000      -0.0024     131.4638      54.3418    -999.2500    -999.2500    -999.2500    -999.2500    -999.2500    -999.2500       0.3639       4.4324    -999.2500       2.2794       0.0000    -999.2500    -999.2500
   1231.9127      15.0648       0.0000      -0.0032     131.3537      52.3332    -999.2500    -999.2500    -999.2500    -999.2500    -999.2500    -999.2500       0.3624       4.4348    -999.2500       2.2799       0.0000    -999.2500    -999.2500
   1232.0652      15.0308       0.0000      -0.0037     130.9756      51.0982    -999.2500    -999.2500    -999.2500    -999.2500    -999.2500    -999.2500       0.3506       4.4772    -999.2500       2.2749       0.0000    -999.2500    -999.2500
   1232.2175      15.0263       0.0000      -0.0038     130.6488      51.3527    -999.2500    -999.2500    -999.2500    -999.2500    -999.2500    -999.2500       0.3447       4.5070    -999.2500       2.2714       0.0000    -999.2500    -999.2500
   1232.3700      15.0629       0.0000      -0.0033     130.3941      53.6912    -999.2500    -999.2500    -999.2500    -999.2500    -999.2500    -999.2500       0.3472       4.5190    -999.2500       2.2699       0.0000    -999.2500    -999.2500
   1232.5223      15.0933       0.0000      -0.0028     130.2404      54.2899    -999.2500    -999.2500    -999.2500    -999.2500    -999.2500    -999.2500       0.3502       4.5385    -999.2500       2.2696       0.0000    -999.2500    -999.2500
   1232.6748      15.1153       0.0000      -0.0023     130.2250      52.5091    -999.2500    -999.2500    -999.2500    -999.2500    -999.2500    -999.2500       0.3539       4.5679    -999.2500       2.2711       0.0000    -999.2500    -999.2500
   1232.8271      15.1396       0.0000      -0.0018     130.1511      52.2857    -999.2500    -999.2500    -999.2500    -999.2500    -999.2500    -999.2500       0.3517       4.5981    -999.2500       2.2731       0.0000    -999.2500    -999.2500
