#------------------------------------------------------------------------------
#
#   Created by  : [OpenWorks] Log Export Utility (LEXP)
#   Created on  : 2016-05-11 12:25:21
#   Project     : CANT971
#   User        : R5K
#   Interpreter : PEP
#
#------------------------------------------------------------------------------
~VERSION INFORMATION
VERS. 2.0 : CWLS Log ASCII Standard - version 2.0
WRAP.  NO : One line per depth step
~WELL INFORMATION
#MNEMONIC   .UNIT                                           VALUE :DESCRIPTION
#------------------------------------------------------------------------------
STRT        .M                                           765.2640 :START DEPTH
STOP        .M                                          3197.2632 :STOP DEPTH
STEP        .M                                             0.1524 :STEP
NULL        .                                           -999.2500 :NULL VALUE
COMP        .                                   PEMEX EXPL & PROD :COMPANY
WELL        .                                               1065D :WELL
FLD         .                                           CANTARELL :FIELD
LOC         .                                             UNKNOWN :LOCATION
CNTY        .                                      CD. DEL CARMEN :COUNTY
STAT        .                                             UNKNOWN :STATE
CTRY        .                                             UNKNOWN :COUNTRY
SRVC        .                                             UNKNOWN :SERVICE COMPANY
DATE        .                                             UNKNOWN :LOG DATE
UWI         .                                           W-C-1065D :UNIQUE WELL ID
XCOORD      .                                       599712.630000 :SURFACE X
YCOORD      .                                      2149962.600000 :SURFACE Y
LAT         .                                           19.442731 :LATITUDE
LON         .                                          -92.050118 :LONGITUDE
ELEV        .M                                            30.0000 :SURFACE ELEV
ELEV_TYPE   .                                                  KB :ELEV TYPE
~CURVE INFORMATION
#MNEMONIC.UNIT        API CODE       : CURVE DESCRIPTION
#------------------------------------------------------------------------------
DEPTH    .M                          : Measured Depth
CALI     .inches      UNKNOWN        : CALI:registros:rC:NONE:v0 (auto-composite)
CGR      .API         UNKNOWN        : CGR:registros:rC:NONE:v0 (auto-composite)
DRHO     .g/cm3       UNKNOWN        : DRHO:registros:rC:NONE:v0 (auto-composite)
DT       .us/ft       UNKNOWN        : DT:registros:rC:NONE:v0 (auto-composite)
GR       .API         UNKNOWN        : GR:registros:rC:NONE:v0 (auto-composite)
GR-LWD   .UNKNOWN     UNKNOWN        : GR-LWD:registros:rC:NONE:v0 (auto-composite)
ILD-LWD  .ohm.m       UNKNOWN        : ILD-LWD:registros:rC:NONE:v0 (auto-composite)
ILM-LWD  .UNKNOWN     UNKNOWN        : ILM-LWD:registros:rC:NONE:v0 (auto-composite)
LLD      .ohm.m       UNKNOWN        : LLD:registros:rC:NONE:v0 (auto-composite)
LLS      .ohm.m       UNKNOWN        : LLS:registros:rC:NONE:v0 (auto-composite)
MSFL     .ohm.m       UNKNOWN        : MSFL:registros:rC:NONE:v0 (auto-composite)
NPHI     .UNKNOWN     UNKNOWN        : NPHI:registros:rC:NONE:v0 (auto-composite)
PEF      .UNKNOWN     UNKNOWN        : PEF:registros:rC:NONE:v0 (auto-composite)
POTA     .wtpercent   UNKNOWN        : POTA:registros:rC:NONE:v0 (auto-composite)
RHOB     .g/cm3       UNKNOWN        : RHOB:registros:rC:NONE:v0 (auto-composite)
SP       .mV          UNKNOWN        : SP:registros:rC:NONE:v0 (auto-composite)
THOR     .ppm         UNKNOWN        : THOR:registros:rC:NONE:v0 (auto-composite)
URAN     .ppm         UNKNOWN        : URAN:registros:rC:NONE:v0 (auto-composite)
~A     DEPTH         CALI          CGR         DRHO           DT           GR       GR-LWD      ILD-LWD      ILM-LWD          LLD          LLS         MSFL         NPHI          PEF         POTA         RHOB           SP         THOR         URAN
# ...
   1378.8264      15.0346       0.0000      -0.0028     128.5625      63.0030    -999.2500    -999.2500    -999.2500    -999.2500    -999.2500    -999.2500       0.3576       4.5321    -999.2500       2.2417       0.0000    -999.2500    -999.2500
   1378.9788      15.0146       0.0000      -0.0023     128.2373      62.0448    -999.2500    -999.2500    -999.2500    -999.2500    -999.2500    -999.2500       0.3563       4.5276    -999.2500       2.2387       0.0000    -999.2500    -999.2500
   1379.1312      14.9996       0.0000      -0.0020     128.0446      60.9349    -999.2500    -999.2500    -999.2500    -999.2500    -999.2500    -999.2500       0.3512       4.5227    -999.2500       2.2372       0.0000    -999.2500    -999.2500
   1379.2836      14.9916       0.0000      -0.0020     128.0341      59.6165    -999.2500    -999.2500    -999.2500    -999.2500    -999.2500    -999.2500       0.3410       4.5172    -999.2500       2.2377       0.0000    -999.2500    -999.2500
   1379.4360      14.9822       0.0000      -0.0022     128.0685      58.5917    -999.2500    -999.2500    -999.2500    -999.2500    -999.2500    -999.2500       0.3450       4.5102    -999.2500       2.2405       0.0000    -999.2500    -999.2500
   1379.5884      14.9707       0.0000      -0.0027     128.1649      57.9722    -999.2500    -999.2500    -999.2500    -999.2500    -999.2500    -999.2500       0.3687       4.5012    -999.2500       2.2465       0.0000    -999.2500    -999.2500
   1379.7407      14.9594       0.0000      -0.0028     128.0395      59.2069    -999.2500    -999.2500    -999.2500    -999.2500    -999.2500    -999.2500       0.3795       4.5069    -999.2500       2.2506       0.0000    -999.2500    -999.2500
   1379.8932      14.9484       0.0000      -0.0023     127.6059      63.0183    -999.2500    -999.2500    -999.2500    -999.2500    -999.2500    -999.2500       0.3724       4.5328    -999.2500       2.2521       0.0000    -999.2500    -999.2500
   1380.0455      14.9458       0.0000      -0.0024     127.0905      64.2324    -999.2500    -999.2500    -999.2500    -999.2500    -999.2500    -999.2500       0.3691       4.5392    -999.2500       2.2484       0.0000    -999.2500    -999.2500
   1380.1980      14.9548       0.0000      -0.0034     126.4608      61.8127    -999.2500    -999.2500    -999.2500    -999.2500    -999.2500    -999.2500       0.3712       4.5182    -999.2500       2.2374       0.0000    -999.2500    -999.2500
   1380.3503      14.9543       0.0000      -0.0038     125.8095      59.2409    -999.2500    -999.2500    -999.2500    -999.2500    -999.2500    -999.2500       0.3788       4.5282    -999.2500       2.2270       0.0000    -999.2500    -999.2500
   1380.5028      14.9408       0.0000      -0.0033     125.1288      56.4612    -999.2500    -999.2500    -999.2500    -999.2500    -999.2500    -999.2500       0.3941       4.5806    -999.2500       2.2175       0.0000    -999.2500    -999.2500
   1380.6552      14.9355       0.0000      -0.0028     124.3793      56.0320    -999.2500    -999.2500    -999.2500    -999.2500    -999.2500    -999.2500       0.3983       4.6013    -999.2500       2.2133       0.0000    -999.2500    -999.2500
   1380.8076      14.9415       0.0000      -0.0023     123.5356      58.8291    -999.2500    -999.2500    -999.2500    -999.2500    -999.2500    -999.2500       0.3870       4.5783    -999.2500       2.2163       0.0000    -999.2500    -999.2500
   1380.9600      14.9383       0.0000      -0.0022     123.1070      60.2878    -999.2500    -999.2500    -999.2500    -999.2500    -999.2500    -999.2500       0.3866       4.5562    -999.2500       2.2176       0.0000    -999.2500    -999.2500
   1381.1124      14.9223       0.0000      -0.0027     123.2524      59.8966    -999.2500    -999.2500    -999.2500    -999.2500    -999.2500    -999.2500       0.4011       4.5352    -999.2500       2.2166       0.0000    -999.2500    -999.2500
   1381.2648      14.9151       0.0000      -0.0032     123.5341      60.2366    -999.2500    -999.2500    -999.2500    -999.2500    -999.2500    -999.2500       0.4057       4.5236    -999.2500       2.2162       0.0000    -999.2500    -999.2500
   1381.4172      14.9201       0.0000      -0.0037     124.0054      61.5940    -999.2500    -999.2500    -999.2500    -999.2500    -999.2500    -999.2500       0.3967       4.5251    -999.2500       2.2167       0.0000    -999.2500    -999.2500
   1381.5696      14.9232       0.0000      -0.0036     124.3250      61.5424    -999.2500    -999.2500    -999.2500    -999.2500    -999.2500    -999.2500       0.3926       4.5220    -999.2500       2.2187       0.0000    -999.2500    -999.2500
   1381.7219      14.9237       0.0000      -0.0026     124.4327      59.5231    -999.2500    -999.2500    -999.2500    -999.2500    -999.2500    -999.2500       0.3957       4.5125    -999.2500       2.2227       0.0000    -999.2500    -999.2500
   1381.8744      14.9126       0.0000      -0.0020     124.4781      57.5085    -999.2500    -999.2500    -999.2500    -999.2500    -999.2500    -999.2500       0.3950       4.5190    -999.2500       2.2271       0.0000    -999.2500    -999.2500
   1382.0267      14.8856       0.0000      -0.0020     124.4381      55.5004    -999.2500    -999.2500    -999.2500    -999.2500    -999.2500    -999.2500       0.3893       4.5475    -999.2500       2.2321       0.0000    -999.2500    -999.2500
   1382.1792      14.8643       0.0000      -0.0022     124.3784      54.8219    -999.2500    -999.2500    -999.2500    -999.2500    -999.2500    -999.2500       0.3818       4.5722    -999.2500       2.2382       0.0000    -999.2500    -999.2500
   1382.3315      14.8508       0.0000      -0.0027     124.2915      55.9710    -999.2500    -999.2500    -999.2500    -999.2500    -999.2500    -999.2500       0.3719       4.5917    -999.2500       2.2456       0.0000    -999.2500    -999.2500
   1382.4840      14.8455       0.0000      -0.0028     123.8286      56.2868    -999.2500    -999.2500    -999.2500    -999.2500    -999.2500    -999.2500       0.3687       4.5942    -999.2500       2.2536       0.0000    -999.2500    -999.2500
   1382.6364      14.8515       0.0000      -0.0023     122.8455      55.4497    -999.2500    -999.2500    -999.2500    -999.2500    -999.2500    -999.2500       0.3746       4.5732    -999.2500       2.2621       0.0000    -999.2500    -999.2500
   1382.7888      14.8606       0.0000      -0.0018     121.8867      54.4090    -999.2500    -999.2500    -999.2500    -999.2500    -999.2500    -999.2500       0.3745       4.5823    -999.2500       2.2685       0.0000    -999.2500    -999.2500
   1382.9412      14.8741       0.0000      -0.0013     120.9614      53.0856    -999.2500    -999.2500    -999.2500    -999.2500    -999.2500    -999.2500       0.3661       4.6333    -999.2500       2.2720       0.0000    -999.2500    -999.2500
   1383.0936      14.8870       0.0000      -0.0006     120.5922      53.2373    -999.2500    -999.2500    -999.2500    -999.2500    -999.2500    -999.2500       0.3676       4.6682    -999.2500       2.2753       0.0000    -999.2500    -999.2500
   1383.2460      14.8991       0.0000       0.0004     121.0003      55.4514    -999.2500    -999.2500    -999.2500    -999.2500    -999.2500    -999.2500       0.3832       4.6808    -999.2500       2.2783       0.0000    -999.2500    -999.2500
   1383.3984      14.9022       0.0000       0.0002     121.5609      56.9839    -999.2500    -999.2500    -999.2500    -999.2500    -999.2500    -999.2500       0.3893       4.7051    -999.2500       2.2716       0.0000    -999.2500    -999.2500
   1383.5508      14.8932       0.0000      -0.0018     122.3297      57.5849    -999.2500    -999.2500    -999.2500    -999.2500    -999.2500    -999.2500       0.3825       4.7456    -999.2500       2.2516       0.0000    -999.2500    -999.2500
   1383.7031      14.8956       0.0000      -0.0028     123.1643      58.4460    -999.2500    -999.2500    -999.2500    -999.2500    -999.2500    -999.2500       0.3829       4.7551    -999.2500       2.2387       0.0000    -999.2500    -999.2500
