#------------------------------------------------------------------------------
#
#   Created by  : [OpenWorks] Log Export Utility (LEXP)
#   Created on  : 2016-05-11 12:25:21
#   Project     : CANT971
#   User        : R5K
#   Interpreter : PEP
#
#------------------------------------------------------------------------------
~VERSION INFORMATION
VERS. 2.0 : CWLS Log ASCII Standard - version 2.0
WRAP.  NO : One line per depth step
~WELL INFORMATION
#MNEMONIC   .UNIT                                           VALUE :DESCRIPTION
#------------------------------------------------------------------------------
STRT        .M                                           765.2640 :START DEPTH
STOP        .M                                          3197.2632 :STOP DEPTH
STEP        .M                                             0.1524 :STEP
NULL        .                                           -999.2500 :NULL VALUE
COMP        .                                   PEMEX EXPL & PROD :COMPANY
WELL        .                                               1065D :WELL
FLD         .                                           CANTARELL :FIELD
LOC         .                                             UNKNOWN :LOCATION
CNTY        .                                      CD. DEL CARMEN :COUNTY
STAT        .                                             UNKNOWN :STATE
CTRY        .                                             UNKNOWN :COUNTRY
SRVC        .                                             UNKNOWN :SERVICE COMPANY
DATE        .                                             UNKNOWN :LOG DATE
UWI         .                                           W-C-1065D :UNIQUE WELL ID
XCOORD      .                                       599712.630000 :SURFACE X
YCOORD      .                                      2149962.600000 :SURFACE Y
LAT         .                                           19.442731 :LATITUDE
LON         .                                          -92.050118 :LONGITUDE
ELEV        .M                                            30.0000 :SURFACE ELEV
ELEV_TYPE   .                                                  KB :ELEV TYPE
~CURVE INFORMATION
#MNEMONIC.UNIT        API CODE       : CURVE DESCRIPTION
#------------------------------------------------------------------------------
DEPTH    .M                          : Measured Depth
CALI     .inches      UNKNOWN        : CALI:registros:rC:NONE:v0 (auto-composite)
CGR      .API         UNKNOWN        : CGR:registros:rC:NONE:v0 (auto-composite)
DRHO     .g/cm3       UNKNOWN        : DRHO:registros:rC:NONE:v0 (auto-composite)
DT       .us/ft       UNKNOWN        : DT:registros:rC:NONE:v0 (auto-composite)
GR       .API         UNKNOWN        : GR:registros:rC:NONE:v0 (auto-composite)
GR-LWD   .UNKNOWN     UNKNOWN        : GR-LWD:registros:rC:NONE:v0 (auto-composite)
ILD-LWD  .ohm.m       UNKNOWN        : ILD-LWD:registros:rC:NONE:v0 (auto-composite)
ILM-LWD  .UNKNOWN     UNKNOWN        : ILM-LWD:registros:rC:NONE:v0 (auto-composite)
LLD      .ohm.m       UNKNOWN        : LLD:registros:rC:NONE:v0 (auto-composite)
LLS      .ohm.m       UNKNOWN        : LLS:registros:rC:NONE:v0 (auto-composite)
MSFL     .ohm.m       UNKNOWN        : MSFL:registros:rC:NONE:v0 (auto-composite)
NPHI     .UNKNOWN     UNKNOWN        : NPHI:registros:rC:NONE:v0 (auto-composite)
PEF      .UNKNOWN     UNKNOWN        : PEF:registros:rC:NONE:v0 (auto-composite)
POTA     .wtpercent   UNKNOWN        : POTA:registros:rC:NONE:v0 (auto-composite)
RHOB     .g/cm3       UNKNOWN        : RHOB:registros:rC:NONE:v0 (auto-composite)
SP       .mV          UNKNOWN        : SP:registros:rC:NONE:v0 (auto-composite)
THOR     .ppm         UNKNOWN        : THOR:registros:rC:NONE:v0 (auto-composite)
URAN     .ppm         UNKNOWN        : URAN:registros:rC:NONE:v0 (auto-composite)
~A     DEPTH         CALI          CGR         DRHO           DT           GR       GR-LWD      ILD-LWD      ILM-LWD          LLD          LLS         MSFL         NPHI          PEF         POTA         RHOB           SP         THOR         URAN
# ...
   1831.4543      15.2976       0.0000       0.0006     109.8719      50.6819      33.7922       1.7083       1.9788    -999.2500    -999.2500    -999.2500       0.2859       5.3306    -999.2500       2.4115       0.0000    -999.2500    -999.2500
   1831.6068      15.2256       0.0000      -0.0004     107.8162      52.2017      34.8857       1.5596       1.9651    -999.2500    -999.2500    -999.2500       0.2888       5.2586    -999.2500       2.4080       0.0000    -999.2500    -999.2500
   1831.7592      15.1741       0.0000       0.0001     105.8069      51.8019      35.3706       1.4393       1.9449    -999.2500    -999.2500    -999.2500       0.2850       5.2896    -999.2500       2.4113       0.0000    -999.2500    -999.2500
   1831.9116      15.1506       0.0000       0.0026     103.8610      48.7669      35.2485       1.3746       1.9222    -999.2500    -999.2500    -999.2500       0.2720       5.4620    -999.2500       2.4238       0.0000    -999.2500    -999.2500
   1832.0640      15.1588       0.0000       0.0042     102.5401      47.3023      34.7815       1.3599       1.9005    -999.2500    -999.2500    -999.2500       0.2615       5.5847    -999.2500       2.4287       0.0000    -999.2500    -999.2500
   1832.2164      15.2108       0.0000       0.0047     102.0830      48.0083      33.9337       1.3685       1.8818    -999.2500    -999.2500    -999.2500       0.2544       5.6386    -999.2500       2.4232       0.0000    -999.2500    -999.2500
   1832.3688      15.2648       0.0000       0.0048     102.2755      48.8673      33.6629       1.3511       1.8652    -999.2500    -999.2500    -999.2500       0.2505       5.7156    -999.2500       2.4158       0.0000    -999.2500    -999.2500
   1832.5211      15.3218       0.0000       0.0043     103.3720      49.9393      33.8459       1.3362       1.8493    -999.2500    -999.2500    -999.2500       0.2509       5.8245    -999.2500       2.4058       0.0000    -999.2500    -999.2500
   1832.6736      15.3711       0.0000       0.0040     104.8238      51.2755      34.2667       1.3619       1.8405    -999.2500    -999.2500    -999.2500       0.2582       5.9497    -999.2500       2.3990       0.0000    -999.2500    -999.2500
   1832.8259      15.4097       0.0000       0.0040     106.7717      52.9808      34.0382       1.4149       1.8408    -999.2500    -999.2500    -999.2500       0.2751       6.0976    -999.2500       2.3964       0.0000    -999.2500    -999.2500
   1832.9784      15.3477       0.0000       0.0042     108.3145      54.5296      33.2053       1.4855       1.8410    -999.2500    -999.2500    -999.2500       0.2837       6.2478    -999.2500       2.3961       0.0000    -999.2500    -999.2500
   1833.1307      15.1484       0.0000       0.0047     109.3041      55.8650      32.9348       1.5631       1.8407    -999.2500    -999.2500    -999.2500       0.2810       6.4012    -999.2500       2.3986       0.0000    -999.2500    -999.2500
   1833.2832      15.0153       0.0000       0.0052     109.9365      56.3817      32.5590       1.6287       1.8393    -999.2500    -999.2500    -999.2500       0.2825       6.5403    -999.2500       2.4036       0.0000    -999.2500    -999.2500
   1833.4355      14.9734       0.0000       0.0057     110.0779      55.7732      32.0980       1.6402       1.8378    -999.2500    -999.2500    -999.2500       0.2897       6.6597    -999.2500       2.4121       0.0000    -999.2500    -999.2500
   1833.5880      15.0071       0.0000       0.0068     109.6753      54.9573      31.8585       1.5794       1.8456    -999.2500    -999.2500    -999.2500       0.2845       6.9198    -999.2500       2.4178       0.0000    -999.2500    -999.2500
   1833.7404      15.1455       0.0000       0.0088     108.5198      53.8543      32.0950       1.4747       1.8759    -999.2500    -999.2500    -999.2500       0.2620       7.3746    -999.2500       2.4198       0.0000    -999.2500    -999.2500
   1833.8928      15.2810       0.0000       0.0236     107.5780      54.4162      32.7330       1.3476       1.9196    -999.2500    -999.2500    -999.2500       0.2605       7.9399    -999.2500       2.4292       0.0000    -999.2500    -999.2500
   1834.0452      15.4124       0.0000       0.0561     106.9330      57.2903      33.4555       1.2708       1.9624    -999.2500    -999.2500    -999.2500       0.2880       8.6588    -999.2500       2.4486       0.0000    -999.2500    -999.2500
   1834.1976      15.4618       0.0000       0.0677     107.1208      57.7221      34.4652       1.3088       1.9963    -999.2500    -999.2500    -999.2500       0.3022       9.2701    -999.2500       2.4539       0.0000    -999.2500    -999.2500
   1834.3500      15.3966       0.0000       0.0501     108.4731      54.7388      35.3254       1.4658       2.0210    -999.2500    -999.2500    -999.2500       0.2979       9.7309    -999.2500       2.4394       0.0000    -999.2500    -999.2500
   1834.5023      15.3278       0.0000       0.0672     109.4309      52.4062      36.3434       1.5882       2.0460    -999.2500    -999.2500    -999.2500       0.2974       9.9976    -999.2500       2.4601       0.0000    -999.2500    -999.2500
   1834.6548      15.2538       0.0000       0.1317     109.8495      50.9629      37.2489       1.5927       2.0199    -999.2500    -999.2500    -999.2500       0.3022       9.9991    -999.2500       2.5291       0.0000    -999.2500    -999.2500
   1834.8071      15.1961       0.0000       0.2081     109.8749      51.0232      37.3291       1.5631       1.9212    -999.2500    -999.2500    -999.2500       0.3043       9.9752    -999.2500       2.6085       0.0000    -999.2500    -999.2500
   1834.9596      15.1606       0.0000       0.3011     109.3592      53.1528      37.5308       1.5010       1.8238    -999.2500    -999.2500    -999.2500       0.3027       9.9162    -999.2500       2.7025       0.0000    -999.2500    -999.2500
   1835.1119      15.1314       0.0000       0.3187     109.0948      53.5613      37.4303       1.4195       1.7667    -999.2500    -999.2500    -999.2500       0.3040       9.4406    -999.2500       2.7213       0.0000    -999.2500    -999.2500
   1835.2644      15.1109       0.0000       0.2323     109.1778      51.5930      36.6001       1.3580       1.7804    -999.2500    -999.2500    -999.2500       0.3092       8.3894    -999.2500       2.6364       0.0000    -999.2500    -999.2500
   1835.4167      15.1496       0.0000       0.1592     109.4566      51.1500      36.2127       1.3219       1.8202    -999.2500    -999.2500    -999.2500       0.3041       7.1866    -999.2500       2.5634       0.0000    -999.2500    -999.2500
   1835.5692      15.2705       0.0000       0.1047     110.0079      52.8283      36.3098       1.3731       1.8530    -999.2500    -999.2500    -999.2500       0.2849       5.7727    -999.2500       2.5069       0.0000    -999.2500    -999.2500
   1835.7216      15.3035       0.0000       0.0577     110.4334      53.9152      35.8525       1.4859       1.8630    -999.2500    -999.2500    -999.2500       0.2695       4.8239    -999.2500       2.4594       0.0000    -999.2500    -999.2500
   1835.8740      15.2138       0.0000       0.0211     110.6835      54.1768      35.0708       1.5070       1.8559    -999.2500    -999.2500    -999.2500       0.2593       4.5242    -999.2500       2.4243       0.0000    -999.2500    -999.2500
   1836.0264      15.1747       0.0000      -0.0004     110.6271      54.6517      35.0640       1.5075       1.8491    -999.2500    -999.2500    -999.2500       0.2610       4.3938    -999.2500       2.3989       0.0000    -999.2500    -999.2500
   1836.1788      15.2046       0.0000      -0.0014     110.1513      55.4183      35.8954       1.5111       1.8449    -999.2500    -999.2500    -999.2500       0.2788       4.4953    -999.2500       2.3869       0.0000    -999.2500    -999.2500
   1836.3312      15.2258       0.0000      -0.0018     109.7543      56.6820      36.4785       1.5135       1.8436    -999.2500    -999.2500    -999.2500       0.2958       4.6872    -999.2500       2.3741       0.0000    -999.2500    -999.2500
