#------------------------------------------------------------------------------
#
#   Created by  : [OpenWorks] Log Export Utility (LEXP)
#   Created on  : 2016-05-11 12:25:21
#   Project     : CANT971
#   User        : R5K
#   Interpreter : PEP
#
#------------------------------------------------------------------------------
~VERSION INFORMATION
VERS. 2.0 : CWLS Log ASCII Standard - version 2.0
WRAP.  NO : One line per depth step
~WELL INFORMATION
#MNEMONIC   .UNIT                                           VALUE :DESCRIPTION
#------------------------------------------------------------------------------
STRT        .M                                           765.2640 :START DEPTH
STOP        .M                                          3197.2632 :STOP DEPTH
STEP        .M                                             0.1524 :STEP
NULL        .                                           -999.2500 :NULL VALUE
COMP        .                                   PEMEX EXPL & PROD :COMPANY
WELL        .                                               1065D :WELL
FLD         .                                           CANTARELL :FIELD
LOC         .                                             UNKNOWN :LOCATION
CNTY        .                                      CD. DEL CARMEN :COUNTY
STAT        .                                             UNKNOWN :STATE
CTRY        .                                             UNKNOWN :COUNTRY
SRVC        .                                             UNKNOWN :SERVICE COMPANY
DATE        .                                             UNKNOWN :LOG DATE
UWI         .                                           W-C-1065D :UNIQUE WELL ID
XCOORD      .                                       599712.630000 :SURFACE X
YCOORD      .                                      2149962.600000 :SURFACE Y
LAT         .                                           19.442731 :LATITUDE
LON         .                                          -92.050118 :LONGITUDE
ELEV        .M                                            30.0000 :SURFACE ELEV
ELEV_TYPE   .                                                  KB :ELEV TYPE
~CURVE INFORMATION
#MNEMONIC.UNIT        API CODE       : CURVE DESCRIPTION
#------------------------------------------------------------------------------
DEPTH    .M                          : Measured Depth
CALI     .inches      UNKNOWN        : CALI:registros:rC:NONE:v0 (auto-composite)
CGR      .API         UNKNOWN        : CGR:registros:rC:NONE:v0 (auto-composite)
DRHO     .g/cm3       UNKNOWN        : DRHO:registros:rC:NONE:v0 (auto-composite)
DT       .us/ft       UNKNOWN        : DT:registros:rC:NONE:v0 (auto-composite)
GR       .API         UNKNOWN        : GR:registros:rC:NONE:v0 (auto-composite)
GR-LWD   .UNKNOWN     UNKNOWN        : GR-LWD:registros:rC:NONE:v0 (auto-composite)
ILD-LWD  .ohm.m       UNKNOWN        : ILD-LWD:registros:rC:NONE:v0 (auto-composite)
ILM-LWD  .UNKNOWN     UNKNOWN        : ILM-LWD:registros:rC:NONE:v0 (auto-composite)
LLD      .ohm.m       UNKNOWN        : LLD:registros:rC:NONE:v0 (auto-composite)
LLS      .ohm.m       UNKNOWN        : LLS:registros:rC:NONE:v0 (auto-composite)
MSFL     .ohm.m       UNKNOWN        : MSFL:registros:rC:NONE:v0 (auto-composite)
NPHI     .UNKNOWN     UNKNOWN        : NPHI:registros:rC:NONE:v0 (auto-composite)
PEF      .UNKNOWN     UNKNOWN        : PEF:registros:rC:NONE:v0 (auto-composite)
POTA     .wtpercent   UNKNOWN        : POTA:registros:rC:NONE:v0 (auto-composite)
RHOB     .g/cm3       UNKNOWN        : RHOB:registros:rC:NONE:v0 (auto-composite)
SP       .mV          UNKNOWN        : SP:registros:rC:NONE:v0 (auto-composite)
THOR     .ppm         UNKNOWN        : THOR:registros:rC:NONE:v0 (auto-composite)
URAN     .ppm         UNKNOWN        : URAN:registros:rC:NONE:v0 (auto-composite)
~A     DEPTH         CALI          CGR         DRHO           DT           GR       GR-LWD      ILD-LWD      ILM-LWD          LLD          LLS         MSFL         NPHI          PEF         POTA         RHOB           SP         THOR         URAN
# ...
    770.2932      15.0198       0.0000      -0.6827      47.8407      25.9409    -999.2500    -999.2500    -999.2500    -999.2500    -999.2500    -999.2500       0.5166      10.0000    -999.2500       1.8231       0.0000    -999.2500    -999.2500
    770.4456      15.0115       0.0000      -0.6774      47.0911      26.2176    -999.2500    -999.2500    -999.2500    -999.2500    -999.2500    -999.2500       0.4997      10.0000    -999.2500       1.8411       0.0000    -999.2500    -999.2500
    770.5980      15.0175       0.0000      -0.6638      46.5997      25.3487    -999.2500    -999.2500    -999.2500    -999.2500    -999.2500    -999.2500       0.4699      10.0000    -999.2500       1.8772       0.0000    -999.2500    -999.2500
    770.7504      15.0136       0.0000      -0.6524      46.4038      24.1207    -999.2500    -999.2500    -999.2500    -999.2500    -999.2500    -999.2500       0.4563      10.0000    -999.2500       1.9079       0.0000    -999.2500    -999.2500
    770.9028      14.9961       0.0000      -0.6439      46.6117      22.4022    -999.2500    -999.2500    -999.2500    -999.2500    -999.2500    -999.2500       0.4649      10.0000    -999.2500       1.9314       0.0000    -999.2500    -999.2500
    771.0552      14.9929       0.0000      -0.6274      46.9202      21.8609    -999.2500    -999.2500    -999.2500    -999.2500    -999.2500    -999.2500       0.4647      10.0000    -999.2500       1.9711       0.0000    -999.2500    -999.2500
    771.2076      15.0094       0.0000      -0.5999      47.3675      22.9392    -999.2500    -999.2500    -999.2500    -999.2500    -999.2500    -999.2500       0.4527      10.0000    -999.2500       2.0330       0.0000    -999.2500    -999.2500
    771.3600      15.0094       0.0000      -0.5767      48.2597      24.3424    -999.2500    -999.2500    -999.2500    -999.2500    -999.2500    -999.2500       0.4594      10.0000    -999.2500       2.0839       0.0000    -999.2500    -999.2500
    771.5124      14.9864       0.0000      -0.5592      49.7672      26.1947    -999.2500    -999.2500    -999.2500    -999.2500    -999.2500    -999.2500       0.4919      10.0000    -999.2500       2.1194       0.0000    -999.2500    -999.2500
    771.6648      14.9766       0.0000      -0.3836      51.2361      27.4792    -999.2500    -999.2500    -999.2500    -999.2500    -999.2500    -999.2500       0.5054      10.0000    -999.2500       2.3162       0.0000    -999.2500    -999.2500
    771.8172      14.9850       0.0000       0.0116      52.6512      27.9744    -999.2500    -999.2500    -999.2500    -999.2500    -999.2500    -999.2500       0.4926      10.0000    -999.2500       2.7375       0.0000    -999.2500    -999.2500
    771.9696      14.9925       0.0000       0.4969      53.0300      27.4356    -999.2500    -999.2500    -999.2500    -999.2500    -999.2500    -999.2500       0.4974       9.6052    -999.2500       3.2293       0.0000    -999.2500    -999.2500
    772.1219      14.9985       0.0000       1.1080      51.9607      25.4520    -999.2500    -999.2500    -999.2500    -999.2500    -999.2500    -999.2500       0.5270       8.6588    -999.2500       3.8198       0.0000    -999.2500    -999.2500
    772.2744      14.9967       0.0000       1.4038      50.3973      24.6841    -999.2500    -999.2500    -999.2500    -999.2500    -999.2500    -999.2500       0.5494       7.1361    -999.2500       4.0530       0.0000    -999.2500    -999.2500
    772.4268      14.9842       0.0000       1.2684      48.1577      25.5796    -999.2500    -999.2500    -999.2500    -999.2500    -999.2500    -999.2500       0.5619       4.8251    -999.2500       3.7971       0.0000    -999.2500    -999.2500
    772.5792      14.9865       0.0000       0.9830      46.3801      26.4603    -999.2500    -999.2500    -999.2500    -999.2500    -999.2500    -999.2500       0.5481       4.3874    -999.2500       3.4696       0.0000    -999.2500    -999.2500
    772.7316      15.0090       0.0000       0.4913      45.2378      27.3207    -999.2500    -999.2500    -999.2500    -999.2500    -999.2500    -999.2500       0.4978       6.5260    -999.2500       3.0433       0.0000    -999.2500    -999.2500
    772.8840      15.0142       0.0000       0.0300      44.3881      27.0393    -999.2500    -999.2500    -999.2500    -999.2500    -999.2500    -999.2500       0.4811       8.2354    -999.2500       2.6211       0.0000    -999.2500    -999.2500
    773.0364      14.9958       0.0000      -0.3892      43.9429      25.1795    -999.2500    -999.2500    -999.2500    -999.2500    -999.2500    -999.2500       0.5106       9.3511    -999.2500       2.2043       0.0000    -999.2500    -999.2500
    773.1888      14.9927       0.0000      -0.6290      43.5836      23.9985    -999.2500    -999.2500    -999.2500    -999.2500    -999.2500    -999.2500       0.5344      10.0000    -999.2500       1.9735       0.0000    -999.2500    -999.2500
    773.3412      15.0112       0.0000      -0.6195      43.3438      23.7606    -999.2500    -999.2500    -999.2500    -999.2500    -999.2500    -999.2500       0.5504      10.0000    -999.2500       2.0010       0.0000    -999.2500    -999.2500
    773.4936      15.0113       0.0000      -0.4498      43.9981      24.1754    -999.2500    -999.2500    -999.2500    -999.2500    -999.2500    -999.2500       0.5492       9.9889    -999.2500       2.1998       0.0000    -999.2500    -999.2500
    773.6460      14.9858       0.0000      -0.0563      45.9015      25.5018    -999.2500    -999.2500    -999.2500    -999.2500    -999.2500    -999.2500       0.5240       9.9623    -999.2500       2.6379       0.0000    -999.2500    -999.2500
    773.7984      14.9628       0.0000       0.2660      47.9982      26.1452    -999.2500    -999.2500    -999.2500    -999.2500    -999.2500    -999.2500       0.5131       9.5563    -999.2500       2.9402       0.0000    -999.2500    -999.2500
    773.9508      14.9433       0.0000       0.4908      50.3592      25.8544    -999.2500    -999.2500    -999.2500    -999.2500    -999.2500    -999.2500       0.5220       8.6314    -999.2500       3.0566       0.0000    -999.2500    -999.2500
    774.1031      14.9537       0.0000       0.5114      51.6237      25.9808    -999.2500    -999.2500    -999.2500    -999.2500    -999.2500    -999.2500       0.5250       8.1848    -999.2500       2.9959       0.0000    -999.2500    -999.2500
    774.2556      15.0051       0.0000       0.2510      51.3809      26.6809    -999.2500    -999.2500    -999.2500    -999.2500    -999.2500    -999.2500       0.5201       8.3957    -999.2500       2.6915       0.0000    -999.2500    -999.2500
    774.4080      15.0283       0.0000      -0.0613      51.2719      26.4241    -999.2500    -999.2500    -999.2500    -999.2500    -999.2500    -999.2500       0.5131       8.8289    -999.2500       2.3793       0.0000    -999.2500    -999.2500
    774.5604      15.0123       0.0000      -0.4456      51.3478      24.8451    -999.2500    -999.2500    -999.2500    -999.2500    -999.2500    -999.2500       0.5033       9.5694    -999.2500       2.0560       0.0000    -999.2500    -999.2500
    774.7128      15.0120       0.0000      -0.6694      51.0394      25.1957    -999.2500    -999.2500    -999.2500    -999.2500    -999.2500    -999.2500       0.5096      10.0000    -999.2500       1.8674       0.0000    -999.2500    -999.2500
    774.8652      15.0335       0.0000      -0.6704      50.1969      28.2268    -999.2500    -999.2500    -999.2500    -999.2500    -999.2500    -999.2500       0.5384      10.0000    -999.2500       1.8659       0.0000    -999.2500    -999.2500
    775.0176      15.0368       0.0000      -0.6689      49.2196      29.6834    -999.2500    -999.2500    -999.2500    -999.2500    -999.2500    -999.2500       0.5486      10.0000    -999.2500       1.8706       0.0000    -999.2500    -999.2500
    775.1700      15.0147       0.0000      -0.6639      48.0541      28.9415    -999.2500    -999.2500    -999.2500    -999.2500    -999.2500    -999.2500       0.5330      10.0000    -999.2500       1.8842       0.0000    -999.2500    -999.2500
