#------------------------------------------------------------------------------
#
#   Created by  : [OpenWorks] Log Export Utility (LEXP)
#   Created on  : 2016-05-11 12:25:21
#   Project     : CANT971
#   User        : R5K
#   Interpreter : PEP
#
#------------------------------------------------------------------------------
~VERSION INFORMATION
VERS. 2.0 : CWLS Log ASCII Standard - version 2.0
WRAP.  NO : One line per depth step
~WELL INFORMATION
#MNEMONIC   .UNIT                                           VALUE :DESCRIPTION
#------------------------------------------------------------------------------
STRT        .M                                           765.2640 :START DEPTH
STOP        .M                                          3197.2632 :STOP DEPTH
STEP        .M                                             0.1524 :STEP
NULL        .                                           -999.2500 :NULL VALUE
COMP        .                                   PEMEX EXPL & PROD :COMPANY
WELL        .                                               1065D :WELL
FLD         .                                           CANTARELL :FIELD
LOC         .                                             UNKNOWN :LOCATION
CNTY        .                                      CD. DEL CARMEN :COUNTY
STAT        .                                             UNKNOWN :STATE
CTRY        .                                             UNKNOWN :COUNTRY
SRVC        .                                             UNKNOWN :SERVICE COMPANY
DATE        .                                             UNKNOWN :LOG DATE
UWI         .                                           W-C-1065D :UNIQUE WELL ID
XCOORD      .                                       599712.630000 :SURFACE X
YCOORD      .                                      2149962.600000 :SURFACE Y
LAT         .                                           19.442731 :LATITUDE
LON         .                                          -92.050118 :LONGITUDE
ELEV        .M                                            30.0000 :SURFACE ELEV
ELEV_TYPE   .                                                  KB :ELEV TYPE
~CURVE INFORMATION
#MNEMONIC.UNIT        API CODE       : CURVE DESCRIPTION
#------------------------------------------------------------------------------
DEPTH    .M                          : Measured Depth
CALI     .inches      UNKNOWN        : CALI:registros:rC:NONE:v0 (auto-composite)
CGR      .API         UNKNOWN        : CGR:registros:rC:NONE:v0 (auto-composite)
DRHO     .g/cm3       UNKNOWN        : DRHO:registros:rC:NONE:v0 (auto-composite)
DT       .us/ft       UNKNOWN        : DT:registros:rC:NONE:v0 (auto-composite)
GR       .API         UNKNOWN        : GR:registros:rC:NONE:v0 (auto-composite)
GR-LWD   .UNKNOWN     UNKNOWN        : GR-LWD:registros:rC:NONE:v0 (auto-composite)
ILD-LWD  .ohm.m       UNKNOWN        : ILD-LWD:registros:rC:NONE:v0 (auto-composite)
ILM-LWD  .UNKNOWN     UNKNOWN        : ILM-LWD:registros:rC:NONE:v0 (auto-composite)
LLD      .ohm.m       UNKNOWN        : LLD:registros:rC:NONE:v0 (auto-composite)
LLS      .ohm.m       UNKNOWN        : LLS:registros:rC:NONE:v0 (auto-composite)
MSFL     .ohm.m       UNKNOWN        : MSFL:registros:rC:NONE:v0 (auto-composite)
NPHI     .UNKNOWN     UNKNOWN        : NPHI:registros:rC:NONE:v0 (auto-composite)
PEF      .UNKNOWN     UNKNOWN        : PEF:registros:rC:NONE:v0 (auto-composite)
POTA     .wtpercent   UNKNOWN        : POTA:registros:rC:NONE:v0 (auto-composite)
RHOB     .g/cm3       UNKNOWN        : RHOB:registros:rC:NONE:v0 (auto-composite)
SP       .mV          UNKNOWN        : SP:registros:rC:NONE:v0 (auto-composite)
THOR     .ppm         UNKNOWN        : THOR:registros:rC:NONE:v0 (auto-composite)
URAN     .ppm         UNKNOWN        : URAN:registros:rC:NONE:v0 (auto-composite)
~A     DEPTH         CALI          CGR         DRHO           DT           GR       GR-LWD      ILD-LWD      ILM-LWD          LLD          LLS         MSFL         NPHI          PEF         POTA         RHOB           SP         THOR         URAN
# ...
   2746.7688      10.0160      37.1493       0.0233      60.6418      55.2515    -999.2500    -999.2500    -999.2500      29.6914      15.7510      33.6238       0.0680       3.6777       0.0144       2.7944     212.6675       3.5709       2.2435
   2746.9211      10.0160      37.1293       0.0153      66.8806      58.2642    -999.2500    -999.2500    -999.2500      43.1036      24.0479      22.7145       0.0959       3.7947       0.0136       2.7994     210.9183       3.6131       2.5677
   2747.0735      10.0160      38.4327       0.0086      72.9908      62.8067    -999.2500    -999.2500    -999.2500      53.5310      30.5966      13.5972       0.1261       3.8906       0.0154       2.7994     208.7766       4.0699       3.0184
   2747.2261      10.0160      54.4927       0.0161      77.6662      84.4086    -999.2500    -999.2500    -999.2500      30.6747      17.6507      24.4634       0.1828       3.7517       0.0210       2.7432     202.2585       4.8751       3.5995
   2747.3784      10.0125      69.1386       0.0238      81.8602     103.9674    -999.2500    -999.2500    -999.2500       9.6837       5.7607      33.0320       0.2350       3.6277       0.0262       2.6895     196.8328       5.6120       4.0165
   2747.5308       9.9730      69.1001       0.0333      81.0540     102.3101    -999.2500    -999.2500    -999.2500       8.0634       4.8356      17.7431       0.2411       3.6582       0.0275       2.6616     202.7508       5.9032       4.0125
   2747.6831       9.9268      68.6051       0.0415      79.8615     100.0688    -999.2500    -999.2500    -999.2500       6.7352       4.0899       3.8694       0.2443       3.6896       0.0267       2.6405     208.1609       5.7704       3.7651
   2747.8357       9.8100      63.3176       0.0360      74.6130      91.6961    -999.2500    -999.2500    -999.2500       8.4736       5.2275       4.8512       0.2180       3.7316       0.0253       2.6925     208.2403       5.2584       3.4374
   2747.9880       9.7050      57.7453       0.0302      69.7596      83.2178    -999.2500    -999.2500    -999.2500      10.5638       6.6147       5.7942       0.1904       3.7735       0.0226       2.7416     208.0596       4.8173       3.1383
   2748.1404       9.7285      49.0876       0.0212      69.1868      73.5955    -999.2500    -999.2500    -999.2500      16.4657      10.7054       6.3175       0.1492       3.8144       0.0181       2.7606     205.0609       4.8343       2.9727
   2748.2927       9.7526      41.3109       0.0127      68.6320      65.1577    -999.2500    -999.2500    -999.2500      21.9838      14.5556       8.6915       0.1125       3.8481       0.0146       2.7787     202.6013       4.9902       2.9832
   2748.4451       9.7842      43.1871       0.0097      68.2730      69.6973    -999.2500    -999.2500    -999.2500      23.2970      15.7699      31.3403       0.1247       3.8020       0.0141       2.7867     206.0479       5.0011       3.1980
   2748.5977       9.8081      44.6405       0.0068      67.8356      73.5431    -999.2500    -999.2500    -999.2500      24.0197      16.5989      50.0700       0.1335       3.7703       0.0145       2.7929     208.8806       4.8904       3.4125
   2748.7500       9.7531      41.7763       0.0043      66.5982      70.3040    -999.2500    -999.2500    -999.2500      18.7135      13.4923      28.7782       0.1078       3.8852       0.0139       2.7804     205.4451       4.6848       3.4244
   2748.9023       9.7013      38.9479       0.0022      65.1983      66.2450    -999.2500    -999.2500    -999.2500      13.9975      10.7389       9.4980       0.0815       4.0204       0.0128       2.7718     202.6097       4.4969       3.0374
   2749.0547       9.6818      36.4899       0.0042      62.1226      53.7240    -999.2500    -999.2500    -999.2500      15.3733      11.6318      10.9806       0.0479       4.3650       0.0114       2.8032     205.9691       4.4164       2.1082
   2749.2073       9.6549      34.0194       0.0063      59.2747      41.9880    -999.2500    -999.2500    -999.2500      17.7089      13.2231      13.2482       0.0175       4.6895       0.0102       2.8343     208.9444       4.2895       1.2169
   2749.3596       9.5495      31.4156       0.0093      58.8513      38.6099    -999.2500    -999.2500    -999.2500      30.2624      22.2507      23.8726       0.0204       4.8005       0.0095       2.8613     207.8314       3.9837       0.8689
   2749.5120       9.4500      29.0395       0.0125      58.7921      35.4263    -999.2500    -999.2500    -999.2500      41.5527      30.4043      47.5183       0.0255       4.8763       0.0092       2.8861     207.0780       3.6115       0.7614
   2749.6643       9.4150      29.1160       0.0180      62.6519      34.3363    -999.2500    -999.2500    -999.2500      39.2427      29.1488     211.3380       0.0543       4.5739       0.0096       2.8876     210.1962       3.2901       0.6496
   2749.8169       9.3830      29.8787       0.0231      66.7451      34.5556    -999.2500    -999.2500    -999.2500      36.1545      27.3266     346.9956       0.0838       4.2813       0.0110       2.8839     213.1315       3.2457       0.7676
   2749.9692       9.3830      38.1120       0.0241      73.3785      49.0283    -999.2500    -999.2500    -999.2500      24.5955      19.3344     176.0843       0.1211       4.0953       0.0138       2.8232     214.0766       3.6707       1.3060
   2750.1216       9.3834      46.3372       0.0261      79.2424      63.0230    -999.2500    -999.2500    -999.2500      13.8552      11.8272      19.8681       0.1564       3.9436       0.0175       2.7656     214.8138       4.2457       1.8760
   2750.2739       9.3874      54.4802       0.0381      77.2958      72.1673    -999.2500    -999.2500    -999.2500      11.4267       9.2424      12.8223       0.1726       4.1404       0.0213       2.7392     213.4405       4.6906       2.1387
   2750.4263       9.3968      62.0463       0.0501      75.6496      80.7167    -999.2500    -999.2500    -999.2500       9.1827       6.8137       6.5589       0.1892       4.3019       0.0242       2.7147     212.2033       5.0466       2.2527
   2750.5789       9.4627      63.5752       0.0626      77.1475      83.0407    -999.2500    -999.2500    -999.2500       8.8698       6.0185       8.4835       0.2089       4.0940       0.0255       2.7107     212.3902       5.3807       2.3508
   2750.7312       9.5220      65.8619       0.0759      78.6403      86.0017    -999.2500    -999.2500    -999.2500       8.4789       5.2224      10.1049       0.2301       3.8982       0.0263       2.7000     212.6842       6.0861       2.3978
   2750.8835       9.5105      76.1680       0.0973      80.0797      95.7030    -999.2500    -999.2500    -999.2500       7.2619       4.4162       8.5176       0.2666       3.8307       0.0276       2.6185     214.1116       7.4943       2.3649
   2751.0359       9.4950      86.1279       0.1170      81.0260     105.1335    -999.2500    -999.2500    -999.2500       6.1068       3.6642       6.8655       0.2970       3.7574       0.0291       2.5447     215.4980       9.0434       2.3226
   2751.1885       9.4365      92.3857       0.1175      76.6973     111.6672    -999.2500    -999.2500    -999.2500       5.6135       3.4913       4.5200       0.2620       3.6220       0.0306       2.5527     216.4456      10.2014       2.3191
   2751.3408       9.3873      97.7648       0.1183      72.7651     116.8940    -999.2500    -999.2500    -999.2500       5.2727       3.4155       2.5116       0.2278       3.4902       0.0317       2.5624     216.9749      10.6283       2.1757
   2751.4932       9.4377      93.6379       0.1223      73.1212     107.9840    -999.2500    -999.2500    -999.2500       6.5806       4.3903       4.1496       0.2026       3.3978       0.0320       2.5903     212.9799      10.0452       1.7494
   2751.6455       9.4786      90.1008       0.1271      73.6224     100.1645    -999.2500    -999.2500    -999.2500       7.8612       5.3263       5.7053       0.1810       3.3158       0.0323       2.6146     209.5700       9.3995       1.3828
