#------------------------------------------------------------------------------
#
#   Created by  : [OpenWorks] Log Export Utility (LEXP)
#   Created on  : 2016-05-11 12:25:21
#   Project     : CANT971
#   User        : R5K
#   Interpreter : PEP
#
#------------------------------------------------------------------------------
~VERSION INFORMATION
VERS. 2.0 : CWLS Log ASCII Standard - version 2.0
WRAP.  NO : One line per depth step
~WELL INFORMATION
#MNEMONIC   .UNIT                                           VALUE :DESCRIPTION
#------------------------------------------------------------------------------
STRT        .M                                           765.2640 :START DEPTH
STOP        .M                                          3197.2632 :STOP DEPTH
STEP        .M                                             0.1524 :STEP
NULL        .                                           -999.2500 :NULL VALUE
COMP        .                                   PEMEX EXPL & PROD :COMPANY
WELL        .                                               1065D :WELL
FLD         .                                           CANTARELL :FIELD
LOC         .                                             UNKNOWN :LOCATION
CNTY        .                                      CD. DEL CARMEN :COUNTY
STAT        .                                             UNKNOWN :STATE
CTRY        .                                             UNKNOWN :COUNTRY
SRVC        .                                             UNKNOWN :SERVICE COMPANY
DATE        .                                             UNKNOWN :LOG DATE
UWI         .                                           W-C-1065D :UNIQUE WELL ID
XCOORD      .                                       599712.630000 :SURFACE X
YCOORD      .                                      2149962.600000 :SURFACE Y
LAT         .                                           19.442731 :LATITUDE
LON         .                                          -92.050118 :LONGITUDE
ELEV        .M                                            30.0000 :SURFACE ELEV
ELEV_TYPE   .                                                  KB :ELEV TYPE
~CURVE INFORMATION
#MNEMONIC.UNIT        API CODE       : CURVE DESCRIPTION
#------------------------------------------------------------------------------
DEPTH    .M                          : Measured Depth
CALI     .inches      UNKNOWN        : CALI:registros:rC:NONE:v0 (auto-composite)
CGR      .API         UNKNOWN        : CGR:registros:rC:NONE:v0 (auto-composite)
DRHO     .g/cm3       UNKNOWN        : DRHO:registros:rC:NONE:v0 (auto-composite)
DT       .us/ft       UNKNOWN        : DT:registros:rC:NONE:v0 (auto-composite)
GR       .API         UNKNOWN        : GR:registros:rC:NONE:v0 (auto-composite)
GR-LWD   .UNKNOWN     UNKNOWN        : GR-LWD:registros:rC:NONE:v0 (auto-composite)
ILD-LWD  .ohm.m       UNKNOWN        : ILD-LWD:registros:rC:NONE:v0 (auto-composite)
ILM-LWD  .UNKNOWN     UNKNOWN        : ILM-LWD:registros:rC:NONE:v0 (auto-composite)
LLD      .ohm.m       UNKNOWN        : LLD:registros:rC:NONE:v0 (auto-composite)
LLS      .ohm.m       UNKNOWN        : LLS:registros:rC:NONE:v0 (auto-composite)
MSFL     .ohm.m       UNKNOWN        : MSFL:registros:rC:NONE:v0 (auto-composite)
NPHI     .UNKNOWN     UNKNOWN        : NPHI:registros:rC:NONE:v0 (auto-composite)
PEF      .UNKNOWN     UNKNOWN        : PEF:registros:rC:NONE:v0 (auto-composite)
POTA     .wtpercent   UNKNOWN        : POTA:registros:rC:NONE:v0 (auto-composite)
RHOB     .g/cm3       UNKNOWN        : RHOB:registros:rC:NONE:v0 (auto-composite)
SP       .mV          UNKNOWN        : SP:registros:rC:NONE:v0 (auto-composite)
THOR     .ppm         UNKNOWN        : THOR:registros:rC:NONE:v0 (auto-composite)
URAN     .ppm         UNKNOWN        : URAN:registros:rC:NONE:v0 (auto-composite)
~A     DEPTH         CALI          CGR         DRHO           DT           GR       GR-LWD      ILD-LWD      ILM-LWD          LLD          LLS         MSFL         NPHI          PEF         POTA         RHOB           SP         THOR         URAN
# ...
   1987.3596      12.5446       7.1060       0.0260      68.7628      23.2906    -999.2500    -999.2500    -999.2500      34.9680      34.5739      13.5199       0.1650       4.0443       0.0032       2.5087    -999.2500       0.5984       1.6085
   1987.5120      11.5967       9.4900       0.0230      70.7890      22.7051    -999.2500    -999.2500    -999.2500      38.1768      37.6532       8.3537       0.1664       4.0583       0.0038       2.5332    -999.2500       0.7238       1.5506
   1987.6644      11.7531       8.7751       0.0345      69.9807      22.1665    -999.2500    -999.2500    -999.2500      34.3090      34.6197      36.8340       0.1460       3.8724       0.0040       2.5697    -999.2500       0.6540       1.4996
   1987.8168      11.8704       8.1534       0.0411      68.3271      21.7974    -999.2500    -999.2500    -999.2500      30.3619      31.3849      55.8983       0.1277       3.6845       0.0040       2.5829    -999.2500       0.5696       1.4550
   1987.9691      11.7959       7.9899       0.0241      62.5187      22.2612    -999.2500    -999.2500    -999.2500      26.0253      27.1602      28.6756       0.1198       3.4860       0.0040       2.4820    -999.2500       0.5777       1.4171
   1988.1216      11.7071       7.7553       0.0126      58.2622      22.7065    -999.2500    -999.2500    -999.2500      22.5853      23.7856      16.4833       0.1117       3.3088       0.0038       2.3922    -999.2500       0.5802       1.3680
   1988.2739      11.5472       7.1683       0.0281      61.6823      23.0602    -999.2500    -999.2500    -999.2500      23.5800      24.6154      78.6345       0.1025       3.2364       0.0034       2.3577    -999.2500       0.5311       1.3026
   1988.4264      11.4329       7.1220       0.0462      64.1490      23.4561    -999.2500    -999.2500    -999.2500      24.9846      25.8177     119.6513       0.0944       3.1946       0.0033       2.3380    -999.2500       0.6226       1.3142
   1988.5787      11.5463       9.7822       0.0777      61.8429      24.0631    -999.2500    -999.2500    -999.2500      28.4418      28.8846      54.8762       0.0918       3.3060       0.0036       2.3919    -999.2500       1.0139       1.4847
   1988.7312      11.6351      11.8951       0.1073      59.7934      24.4570    -999.2500    -999.2500    -999.2500      31.5379      31.6621       4.4081       0.0916       3.4273       0.0039       2.4510    -999.2500       1.3461       1.6375
   1988.8835      11.5995      11.2342       0.1274      59.0433      23.7716    -999.2500    -999.2500    -999.2500      32.8055      32.9727      26.4237       0.1034       3.5993       0.0040       2.5357    -999.2500       1.3649       1.6493
   1989.0360      11.5961      10.5831       0.1374      58.9226      23.6713    -999.2500    -999.2500    -999.2500      32.4665      32.7217     211.2405       0.1189       3.6702       0.0038       2.5717    -999.2500       1.3274       1.6150
   1989.1884      11.7490       9.9794       0.0990      61.8663      26.4196    -999.2500    -999.2500    -999.2500      24.3061      24.8676    1188.7244       0.1518       3.2489       0.0034       2.3703    -999.2500       1.3656       1.5798
   1989.3408      12.2801       9.2713       0.0625      63.9493      28.7616    -999.2500    -999.2500    -999.2500      17.2631      18.0151    1831.2828       0.1855       2.8657       0.0031       2.1703    -999.2500       1.3069       1.5381
   1989.4932      14.6636       8.0518       0.0360      61.8156      29.1133    -999.2500    -999.2500    -999.2500      15.6944      16.0692     833.1002       0.2223       2.6694       0.0030       1.9775    -999.2500       1.0151       1.4891
   1989.6456      16.8666       7.1405       0.0190      60.8566      29.2645    -999.2500    -999.2500    -999.2500      14.4842      14.5148     107.8878       0.2456       2.6050       0.0032       1.8581    -999.2500       0.7302       1.4743
   1989.7980      18.1750       7.7570       0.0490      65.7216      28.4217    -999.2500    -999.2500    -999.2500      15.0512      14.9010     735.8786       0.2016       3.1950       0.0036       2.1029    -999.2500       0.6185       1.5337
   1989.9503      18.6515       8.3877       0.0682      69.9872      27.6461    -999.2500    -999.2500    -999.2500      15.6818      15.3620    1155.0919       0.1647       3.7240       0.0041       2.3208    -999.2500       0.5994       1.6197
   1990.1028      14.9537       9.0896       0.0331      71.2456      27.2074    -999.2500    -999.2500    -999.2500      16.6315      16.1983     526.8679       0.1629       3.9466       0.0046       2.4041    -999.2500       0.6470       1.7076
   1990.2551      11.8997       9.7160       0.0045      72.0525      26.6107    -999.2500    -999.2500    -999.2500      17.4453      16.9401       7.2820       0.1603       4.1412       0.0049       2.4791    -999.2500       0.6807       1.7784
   1990.4076      11.9501       9.9777       0.0075      70.6811      25.2523    -999.2500    -999.2500    -999.2500      17.6042      17.2258      11.6319       0.1536       4.2007       0.0050       2.5146    -999.2500       0.6484       1.8165
   1990.5599      11.9874      10.4381       0.0151      69.0912      24.5027    -999.2500    -999.2500    -999.2500      17.3462      17.0460      78.1858       0.1477       4.2156       0.0052       2.5414    -999.2500       0.6340       1.8612
   1990.7124      11.9604      11.8675       0.0451      66.4349      26.7232    -999.2500    -999.2500    -999.2500      15.0542      14.5940     448.2799       0.1456       4.0132       0.0056       2.5259    -999.2500       0.6984       1.9389
   1990.8647      11.9235      12.8681       0.0689      64.6611      28.6387    -999.2500    -999.2500    -999.2500      13.1099      12.5268     692.1387       0.1432       3.8309       0.0057       2.5059    -999.2500       0.7848       2.0116
   1991.0172      11.8375      11.7635       0.0624      67.2204      29.0563    -999.2500    -999.2500    -999.2500      12.8731      12.3485     316.2107       0.1394       3.7475       0.0054       2.4639    -999.2500       0.8547       2.0477
   1991.1696      11.7743      10.7050       0.0584      69.0298      29.7286    -999.2500    -999.2500    -999.2500      12.7164      12.2341       5.4241       0.1331       3.7458       0.0049       2.4491    -999.2500       0.8603       2.0349
   1991.3220      11.8238       9.8754       0.0669      67.1126      31.6663    -999.2500    -999.2500    -999.2500      12.9573      12.4375      18.2925       0.1137       4.1507       0.0044       2.5690    -999.2500       0.7567       1.9547
   1991.4744      11.8665       9.0353       0.0670      65.2773      32.8126    -999.2500    -999.2500    -999.2500      13.5002      12.8403      26.6731       0.1010       4.4636       0.0041       2.6654    -999.2500       0.6748       1.8941
   1991.6268      11.8755       8.1430       0.0250      63.8509      30.0024    -999.2500    -999.2500    -999.2500      15.5530      14.2402      12.6168       0.1216       4.3172       0.0040       2.6439    -999.2500       0.7033       1.9185
   1991.7792      11.8837       7.6959      -0.0088      62.7370      27.6927    -999.2500    -999.2500    -999.2500      17.4529      15.6189       8.3143       0.1410       4.1485       0.0042       2.6212    -999.2500       0.7199       1.9780
   1991.9315      11.8877       9.5009      -0.0012      63.2038      27.9154    -999.2500    -999.2500    -999.2500      18.5795      16.8909      53.3657       0.1544       3.8667       0.0046       2.5921    -999.2500       0.6563       2.0498
   1992.0840      11.9000      11.4339       0.0056      63.4513      28.4146    -999.2500    -999.2500    -999.2500      19.2194      17.6193     223.6409       0.1637       3.6521       0.0053       2.5649    -999.2500       0.6925       2.1217
   1992.2363      11.9530      13.9898       0.0091      62.6319      30.2591    -999.2500    -999.2500    -999.2500      17.4924      15.7039    1002.8757       0.1523       3.7640       0.0062       2.5469    -999.2500       0.9601       2.1770
