~Version Information
 VERS.                  2.0:   CWLS log ASCII Standard -VERSION 2.0
 WRAP.                   NO:   One line per depth step
~Well Information Block
#MNEM.UNIT       Data Type    Information
#---------     -----------    ---------------------------
 STRT.M               755.1420:
 STOP.M              3753.3071:
 STEP.M                 0.1524:
 NULL.               -999.2500:
 UWI .                    1068:  UWI
 API .                    1068:  UWI
 WELL.                    1068:  COMMON WELL NAME
 COMP.                 UNKNOWN:  WELL OPERATOR
 FLD .                 UNKNOWN:  FIELD
 LIC .                 UNKNOWN:  AUTHORIZATION NO
 LOC .                 UNKNOWN:  BASIN
 CTRY.                 UNKNOWN:  COUNTRY
 STAT.                 UNKNOWN:  STATE
 CNTY.                 UNKNOWN:  COUNTY
 PROV.                 UNKNOWN:  STATE
 SRVC.                 UNKNOWN:  COMPANY
 DATE.                 UNKNOWN:  LOG RUN DATE
 LONG.                -92.0291:  LONGITUDE
 LATI.                 19.4295:  LATITUDE
 XCOORD.           601925.3750:  X COORDINATE
 YCOORD.          2148512.5000:  Y COORDINATE
 ELEV.M                 0.0000:  ELEVATION
~Parameter Information Block
#MNEM.UNIT       Value        Description
#---------     -----------    ---------------------------
~Curve Information Block
#MNEM.UNIT                 API CODE     Curve Description
#---------               -----------    ---------------------------
 DEPTH.M                00 000 000 000:  Index Curve
 CGR .GAPI              00 000 000 000:  Gamma ray; Uranium-free
 DT  .US/F              00 000 000 000:  Acoustic wave travel time
 GR  .GAPI              00 000 000 000:  Gamma ray; total
 GR-LWD.GAPI            00 000 000 000:  
 ILD-LWD.OHMM           00 000 000 000:  
 ILM-LWD.OHMM           00 000 000 000:  
 NPHI.V/V               00 000 000 000:  Neutron porosity
 POTA.                  00 000 000 000:  Potassium contribution from spectral gamma ray
 THOR.PPM               00 000 000 000:  Thorium contribution from spectral gamma ray
 URAN.PPM               00 000 000 000:  Uranium contribution from spectral gamma ray
~A DEPTH        CGR    DT    GR   GR-LWD   ILD-LWD   ILM-LWD    NPHI    POTA    THOR    URAN
# ...
 3249.6252    16.1603  -999.2500    26.7908    26.3456   594.5260   571.4199     0.0815     0.0054     2.8593     1.0222 
 3249.7776    20.5174  -999.2500    26.5070    27.5959   616.0187   592.9476     0.0776     0.0056     3.6185     0.6641 
 3249.9300    21.3490  -999.2500    26.4688    26.4707   555.4768   552.8402     0.0773     0.0052     3.8741     0.6230 
 3250.0824    18.8243  -999.2500    26.5222    28.5604   583.5366   543.4041     0.0790     0.0043     3.5179     0.9123 
 3250.2348    16.3179  -999.2500    26.5485    27.1315   516.9871   539.8575     0.0828     0.0037     3.3075     1.0697 
 3250.3872    19.6949  -999.2500    26.4848    27.3102   531.8336   551.1310     0.0840     0.0042     3.8548     0.7818 
 3250.5396    22.2708  -999.2500    25.9910    25.4526   526.8967   529.8544     0.0829     0.0051     4.5049     0.3383 
 3250.6920    24.7834  -999.2500    25.6519    25.4526   532.1310   528.5787     0.0803     0.0055     4.7460     0.1467 
 3250.8444    23.1916  -999.2500    24.8594    24.8899   544.6407   548.2268     0.0751     0.0048     4.3158     0.3277 
 3250.9968    17.8632  -999.2500    23.6577    24.3273   557.1505   567.8749     0.0721     0.0040     3.5557     0.6279 
 3251.1492    16.0104  -999.2500    22.9801    24.5774   557.1733   530.9305     0.0718     0.0035     2.9043     0.8714 
 3251.3016    13.5518  -999.2500    22.2313    24.5059   549.3004   509.3676     0.0732     0.0037     2.1306     1.0475 
 3251.4540    11.8084  -999.2500    21.7469    22.8984   529.8612   497.2622     0.0773     0.0042     1.5595     1.1459 
 3251.6064    11.0029  -999.2500    21.8018    21.1122   523.9018   524.1895     0.0816     0.0050     1.4549     1.0815 
 3251.7588    14.9404  -999.2500    21.9660    20.5228   509.1022   493.4965     0.0853     0.0059     2.1122     0.6993 
 3251.9112    18.4374  -999.2500    22.3135    22.5947   464.1142   446.0778     0.0909     0.0064     3.0523     0.2808 
 3252.0636    21.8879  -999.2500    22.5972    24.1308   468.2238   427.9579     0.0944     0.0063     3.5406     0.1406 
 3252.2160    20.4273  -999.2500    23.0013    25.2739   403.7437   379.1878     0.0878     0.0055     3.2231     0.4468 
 3252.3684    15.1381  -999.2500    23.4198    26.8279   433.5054   423.0005     0.0767     0.0045     2.3402     0.9961 
 3252.5208    12.3141  -999.2500    23.1095    27.7924   434.7970   407.5150     0.0713     0.0039     2.0443     1.1668 
 3252.6732    15.3701  -999.2500    22.2150    27.2387   403.5831   394.3808     0.0708     0.0041     2.8054     0.7353 
 3252.8256    18.2581  -999.2500    21.3072    25.6848   386.4537   384.0634     0.0717     0.0045     3.4759     0.3055 
 3252.9780    18.8330  -999.2500    20.8463    23.4878   408.1233   379.2285     0.0727     0.0050     3.4138     0.2085 
 3253.1304    18.5114  -999.2500    20.5390    22.8984   446.7629   408.2905     0.0737     0.0050     3.1715     0.2679 
 3253.2828    17.4483  -999.2500    19.9358    21.2908   452.6170   439.0352     0.0759     0.0047     2.9887     0.3116 
 3253.4352    16.7248  -999.2500    19.3018    20.4514   443.6116   417.2811     0.0784     0.0045     3.0641     0.2553 
 3253.5876    17.8780  -999.2500    19.3208    19.5047   439.9887   425.4293     0.0800     0.0039     3.4980     0.1672 
 3253.7400    18.9728  -999.2500    20.7594    18.0297   414.4594   420.8386     0.0805     0.0037     4.1444     0.1176 
 3253.8924    21.7264  -999.2500    22.1840    17.0964   444.8305   450.4283     0.0788     0.0036     4.5308     0.1235 
 3254.0448    21.0343  -999.2500    22.4006    16.7675   463.6902   459.3103     0.0794     0.0042     4.3690     0.1256 
 3254.1972    21.6972  -999.2500    22.5686    16.4386   482.5500   468.1923     0.0817     0.0049     4.1182     0.1269 
 3254.3496    21.3359  -999.2500    22.2209    17.7849   473.2451   448.7764     0.0818     0.0053     3.8810     0.1258 
 3254.5020    20.6091  -999.2500    21.3498    19.1656   458.9677   441.5020     0.0834     0.0053     3.6540     0.1225 
 3254.6544    19.6107  -999.2500    20.7267    20.5999   450.5915   440.4423     0.0873     0.0053     3.4591     0.1181 
 3254.8068    19.4865  -999.2500    20.6660    20.6878   388.8929   358.8015     0.0903     0.0062     3.1015     0.1130 
 3254.9592    19.5090  -999.2500    19.9990    20.4813   363.4494   342.8875     0.0918     0.0076     2.3852     0.1074 
 3255.1116    18.4045  -999.2500    19.9906    19.8311   391.3893   374.2018     0.0912     0.0080     2.2295     0.1081 
 3255.2640    19.8611  -999.2500    21.7847    18.9361   434.6676   400.9575     0.0898     0.0069     2.7404     0.2825 
 3255.4164    18.5473  -999.2500    23.5223    19.4677   460.4804   418.9551     0.0909     0.0052     3.1328     0.5817 
 3255.5688    19.9837  -999.2500    24.7094    20.3130   427.5229   414.6923     0.0900     0.0043     4.2262     0.4235 
 3255.7212    24.8132  -999.2500    27.2931    22.1068   382.6429   378.0323     0.0855     0.0042     5.7310     0.1404 
 3255.8736    29.0753  -999.2500    30.0355    21.9576   520.1299   497.9444     0.0827     0.0042     6.4733     0.1444 
 3256.0260    28.8656  -999.2500    28.6739    22.0647   552.7409   524.5444     0.0817     0.0043     6.0801     0.1399 
 3256.1784    24.9385  -999.2500    25.4422    20.9135   516.3010   507.3150     0.0834     0.0043     5.1769     0.1323 
 3256.3308    22.4465  -999.2500    22.3429    18.7449   504.8093   482.7984     0.0828     0.0044     4.1647     0.1752 
 3256.4832    17.5459  -999.2500    20.4411    17.8690   571.8867   531.0363     0.0805     0.0042     3.2412     0.3582 
 3256.6356    15.4009  -999.2500    20.5227    17.7428   589.2672   575.4458     0.0801     0.0040     2.7506     0.5940 
 3256.7880    14.4033  -999.2500    21.1339    19.7546   590.3110   604.5729     0.0770     0.0040     2.6540     0.6813 
 3256.9404    15.6583  -999.2500    22.1100    20.4239   676.3549   673.8436     0.0723     0.0043     2.5914     0.7668 
 3257.0928    15.1595  -999.2500    22.9066    20.3340   672.7670   671.0214     0.0676     0.0042     2.5559     0.9011 
 3257.2452    14.5653  -999.2500    22.8861    20.2442   669.1791   668.1992     0.0657     0.0033     2.7090     0.9793 
 3257.3976    14.3231  -999.2500    22.0781    20.7261   744.5071   729.4487     0.0673     0.0027     3.1767     0.7841 
 3257.5500    18.2029  -999.2500    23.0078    21.7128   674.5834   711.4734     0.0690     0.0032     4.3968     0.3370 
 3257.7024    23.5026  -999.2500    27.4118    22.0724   694.0205   663.2366     0.0709     0.0041     5.7868     0.1314 
 3257.8548    29.1790  -999.2500    29.6423    21.7817   647.4005   659.2875     0.0729     0.0044     6.3105     0.1366 
 3258.0072    27.2367  -999.2500    26.0779    21.7320   579.4938   700.5466     0.0732     0.0033     5.6810     0.1684 
 3258.1596    19.5225  -999.2500    23.2572    22.3707   677.5974   686.2545     0.0724     0.0014     4.6365     0.5564 
 3258.3120    14.8317  -999.2500    23.5816    22.4013   752.1098   808.3777     0.0728     0.0004     3.8385     1.0643 
 3258.4644    13.3762  -999.2500    23.2112    21.1468   739.6776   773.6501     0.0743     0.0003     3.8333     1.0250 
 3258.6168    15.7799  -999.2500    22.5602    20.3436   716.7963   691.0139     0.0752     0.0014     4.3452     0.5952 
 3258.7692    21.0090  -999.2500    23.6966    19.9344   823.1522   691.5153     0.0747     0.0036     4.6588     0.2419 
 3258.9216    23.4352  -999.2500    24.6955    21.3533   647.7980   643.9097     0.0740     0.0056     4.3282     0.1760 
 3259.0740    21.9991  -999.2500    25.0943    22.8144   702.6741   705.2841     0.0739     0.0063     3.6064     0.4080 
 3259.2264    20.1495  -999.2500    26.0021    23.0209   720.4793   704.6478     0.0736     0.0057     3.3447     0.6960 
 3259.3788    19.0545  -999.2500    26.9456    23.1433   712.9011   715.4442     0.0747     0.0045     3.5503     0.9109 
 3259.5312    18.1261  -999.2500    27.9499    24.4016   714.9241   715.6623     0.0792     0.0036     3.9081     1.0138 
