~Version Information
 VERS.                  2.0:   CWLS log ASCII Standard -VERSION 2.0
 WRAP.                   NO:   One line per depth step
~Well Information Block
#MNEM.UNIT       Data Type    Information
#---------     -----------    ---------------------------
 STRT.M               755.1420:
 STOP.M              3753.3071:
 STEP.M                 0.1524:
 NULL.               -999.2500:
 UWI .                    1068:  UWI
 API .                    1068:  UWI
 WELL.                    1068:  COMMON WELL NAME
 COMP.                 UNKNOWN:  WELL OPERATOR
 FLD .                 UNKNOWN:  FIELD
 LIC .                 UNKNOWN:  AUTHORIZATION NO
 LOC .                 UNKNOWN:  BASIN
 CTRY.                 UNKNOWN:  COUNTRY
 STAT.                 UNKNOWN:  STATE
 CNTY.                 UNKNOWN:  COUNTY
 PROV.                 UNKNOWN:  STATE
 SRVC.                 UNKNOWN:  COMPANY
 DATE.                 UNKNOWN:  LOG RUN DATE
 LONG.                -92.0291:  LONGITUDE
 LATI.                 19.4295:  LATITUDE
 XCOORD.           601925.3750:  X COORDINATE
 YCOORD.          2148512.5000:  Y COORDINATE
 ELEV.M                 0.0000:  ELEVATION
~Parameter Information Block
#MNEM.UNIT       Value        Description
#---------     -----------    ---------------------------
~Curve Information Block
#MNEM.UNIT                 API CODE     Curve Description
#---------               -----------    ---------------------------
 DEPTH.M                00 000 000 000:  Index Curve
 CGR .GAPI              00 000 000 000:  Gamma ray; Uranium-free
 DT  .US/F              00 000 000 000:  Acoustic wave travel time
 GR  .GAPI              00 000 000 000:  Gamma ray; total
 GR-LWD.GAPI            00 000 000 000:  
 ILD-LWD.OHMM           00 000 000 000:  
 ILM-LWD.OHMM           00 000 000 000:  
 NPHI.V/V               00 000 000 000:  Neutron porosity
 POTA.                  00 000 000 000:  Potassium contribution from spectral gamma ray
 THOR.PPM               00 000 000 000:  Thorium contribution from spectral gamma ray
 URAN.PPM               00 000 000 000:  Uranium contribution from spectral gamma ray
~A DEPTH        CGR    DT    GR   GR-LWD   ILD-LWD   ILM-LWD    NPHI    POTA    THOR    URAN
# ...
 1931.9748  -999.2500   121.4114    63.0545    74.7526     1.1648     1.1213  -999.2500  -999.2500  -999.2500  -999.2500 
 1932.1272  -999.2500   120.8346    61.2316    75.4844     1.1138     1.0964  -999.2500  -999.2500  -999.2500  -999.2500 
 1932.2796  -999.2500   120.6869    66.1494    76.5781     1.0798     1.0798  -999.2500  -999.2500  -999.2500  -999.2500 
 1932.4320  -999.2500   120.6194    70.4675    77.3985     1.0709     1.0565  -999.2500  -999.2500  -999.2500  -999.2500 
 1932.5844  -999.2500   120.3885    70.4774    77.6719     1.0679     1.0487  -999.2500  -999.2500  -999.2500  -999.2500 
 1932.7368  -999.2500   120.1215    70.6456    77.6719     1.0470     0.9943  -999.2500  -999.2500  -999.2500  -999.2500 
 1932.8892  -999.2500   120.0907    76.8127    77.3073     1.0440     0.9865  -999.2500  -999.2500  -999.2500  -999.2500 
 1933.0416  -999.2500   120.4849    79.9461    74.3906     1.0169     0.9865  -999.2500  -999.2500  -999.2500  -999.2500 
 1933.1940  -999.2500   121.0355    75.1941    74.3906     1.0055     0.9865  -999.2500  -999.2500  -999.2500  -999.2500 
 1933.3464  -999.2500   121.1825    67.9335    74.3906     0.9941     0.9865  -999.2500  -999.2500  -999.2500  -999.2500 
 1933.4988  -999.2500   120.8025    64.4070    74.3906     0.9865     0.9865  -999.2500  -999.2500  -999.2500  -999.2500 
 1933.6512  -999.2500   120.1563    69.2423    74.3906     0.9865     0.9865  -999.2500  -999.2500  -999.2500  -999.2500 
 1933.8036  -999.2500   119.4751    70.4110    74.3906     0.9865     1.0044  -999.2500  -999.2500  -999.2500  -999.2500 
 1933.9560  -999.2500   118.7371    67.4763    74.3906     0.9865     1.0223  -999.2500  -999.2500  -999.2500  -999.2500 
 1934.1084  -999.2500   118.1202    66.7754    73.3281     1.0456     1.0814  -999.2500  -999.2500  -999.2500  -999.2500 
 1934.2608  -999.2500   117.8434    64.9153    72.2656     1.1047     1.1047  -999.2500  -999.2500  -999.2500  -999.2500 
 1934.4132  -999.2500   117.8013    64.8641    70.6719     1.0860     1.0860  -999.2500  -999.2500  -999.2500  -999.2500 
 1934.5656  -999.2500   117.7359    64.3778    70.1406     1.0798     1.0798  -999.2500  -999.2500  -999.2500  -999.2500 
 1934.7180  -999.2500   117.4791    63.0079    71.9863     1.1089     1.0798  -999.2500  -999.2500  -999.2500  -999.2500 
 1934.8704  -999.2500   117.3023    62.5135    72.2500     1.1130     1.0798  -999.2500  -999.2500  -999.2500  -999.2500 
 1935.0228  -999.2500   117.7363    62.7870    69.4583     1.1172     1.0798  -999.2500  -999.2500  -999.2500  -999.2500 
 1935.1752  -999.2500   118.7838    63.9418    69.4687     1.1078     1.0798  -999.2500  -999.2500  -999.2500  -999.2500 
 1935.3276  -999.2500   119.6048    68.4366    69.4791     1.0984     1.0798  -999.2500  -999.2500  -999.2500  -999.2500 
 1935.4800  -999.2500   119.7269    69.2737    70.8958     1.0922     1.0798  -999.2500  -999.2500  -999.2500  -999.2500 
 1935.6324  -999.2500   119.6344    67.4478    75.1459     1.0642     1.0619  -999.2500  -999.2500  -999.2500  -999.2500 
 1935.7848  -999.2500   119.9653    70.9122    76.5625     1.0487     1.0559  -999.2500  -999.2500  -999.2500  -999.2500 
 1935.9372  -999.2500   121.0255    74.8474    77.6641     0.9865     1.0321  -999.2500  -999.2500  -999.2500  -999.2500 
 1936.0896  -999.2500   122.3732    73.8287    78.2148     0.9865     1.0169  -999.2500  -999.2500  -999.2500  -999.2500 
 1936.2420  -999.2500   123.1932    74.0080    78.7656     0.9865     1.0017  -999.2500  -999.2500  -999.2500  -999.2500 
 1936.3944  -999.2500   123.3524    76.3377    79.5156     0.9865     0.9941  -999.2500  -999.2500  -999.2500  -999.2500 
 1936.5468  -999.2500   123.0220    76.6775    80.2656     0.9865     0.9865  -999.2500  -999.2500  -999.2500  -999.2500 
 1936.6992  -999.2500   122.4800    78.9738    82.5156     0.9941     1.0093  -999.2500  -999.2500  -999.2500  -999.2500 
 1936.8516  -999.2500   121.9458    79.2402    83.2656     1.0017     1.0169  -999.2500  -999.2500  -999.2500  -999.2500 
 1937.0040  -999.2500   121.6203    76.1880    79.9141     1.0245     1.0209  -999.2500  -999.2500  -999.2500  -999.2500 
 1937.1564  -999.2500   121.5305    68.9573    78.7969     1.0321     1.0098  -999.2500  -999.2500  -999.2500  -999.2500 
 1937.3088  -999.2500   121.4828    65.1516    76.2005     0.9667     0.9765  -999.2500  -999.2500  -999.2500  -999.2500 
 1937.4612  -999.2500   121.2948    67.7932    75.8385     0.9449     0.9653  -999.2500  -999.2500  -999.2500  -999.2500 
 1937.6136  -999.2500   120.7843    67.3632    74.7526     0.9232     0.9503  -999.2500  -999.2500  -999.2500  -999.2500 
 1937.7660  -999.2500   119.9195    65.4036    74.3906     0.9449     0.9575  -999.2500  -999.2500  -999.2500  -999.2500 
 1937.9184  -999.2500   119.0602    64.1383    70.2031     1.0321     0.9865  -999.2500  -999.2500  -999.2500  -999.2500 
 1938.0708  -999.2500   118.5384    63.6976    68.1094     1.0695     1.0342  -999.2500  -999.2500  -999.2500  -999.2500 
 1938.2232  -999.2500   118.4001    65.8921    66.0156     1.1070     1.0819  -999.2500  -999.2500  -999.2500  -999.2500 
 1938.3756  -999.2500   118.4121    64.4004    67.6094     1.1257     1.1058  -999.2500  -999.2500  -999.2500  -999.2500 
 1938.5280  -999.2500   118.2037    63.3484    69.2031     1.1444     1.1296  -999.2500  -999.2500  -999.2500  -999.2500 
 1938.6804  -999.2500   117.7855    65.3420    73.9844     1.1818     1.1296  -999.2500  -999.2500  -999.2500  -999.2500 
 1938.8328  -999.2500   117.6529    65.8759    75.5781     1.1818     1.1296  -999.2500  -999.2500  -999.2500  -999.2500 
 1938.9852  -999.2500   118.0766    66.5906    78.0365     1.1818     1.1296  -999.2500  -999.2500  -999.2500  -999.2500 
 1939.1376  -999.2500   118.7696    69.8019    77.3073     1.1818     1.1296  -999.2500  -999.2500  -999.2500  -999.2500 
 1939.2900  -999.2500   119.3508    70.6601    75.1198     1.1435     1.1109  -999.2500  -999.2500  -999.2500  -999.2500 
 1939.4424  -999.2500   119.9716    70.4281    74.3906     1.1308     1.1047  -999.2500  -999.2500  -999.2500  -999.2500 
 1939.5948  -999.2500   120.7504    73.7996    76.2136     1.0989     1.0891  -999.2500  -999.2500  -999.2500  -999.2500 
 1939.7472  -999.2500   121.2158    78.0853    76.5781     1.0926     1.0860  -999.2500  -999.2500  -999.2500  -999.2500 
 1939.8996  -999.2500   121.2133    79.5678    78.7656     1.0639     1.0559  -999.2500  -999.2500  -999.2500  -999.2500 
 1940.0520  -999.2500   121.2453    77.8233    79.1380     1.0559     1.0440  -999.2500  -999.2500  -999.2500  -999.2500 
 1940.2044  -999.2500   121.6554    75.5631    79.5104     1.0480     1.0321  -999.2500  -999.2500  -999.2500  -999.2500 
 1940.3568  -999.2500   122.0559    72.8928    80.6276     1.0401     1.0500  -999.2500  -999.2500  -999.2500  -999.2500 
 1940.5092  -999.2500   121.9351    70.6218    81.0000     1.0480     1.0559  -999.2500  -999.2500  -999.2500  -999.2500 
 1940.6616  -999.2500   121.2926    71.3948    78.5215     1.0719     1.0738  -999.2500  -999.2500  -999.2500  -999.2500 
 1940.8140  -999.2500   120.5921    70.9975    77.6953     1.0798     1.0798  -999.2500  -999.2500  -999.2500  -999.2500 
 1940.9664  -999.2500   119.9221    70.3539    75.2168     1.0984     1.1047  -999.2500  -999.2500  -999.2500  -999.2500 
 1941.1188  -999.2500   119.0606    69.4733    74.3906     1.1047     1.1130  -999.2500  -999.2500  -999.2500  -999.2500 
 1941.2712  -999.2500   118.0211    68.2124    73.3203     1.1234     1.1362  -999.2500  -999.2500  -999.2500  -999.2500 
 1941.4236  -999.2500   117.2140    61.8504    72.9635     1.1296     1.1427  -999.2500  -999.2500  -999.2500  -999.2500 
 1941.5760  -999.2500   116.8065    59.7733    73.7084     1.1557     1.1623  -999.2500  -999.2500  -999.2500  -999.2500 
 1941.7284  -999.2500   116.4865    61.6931    75.1667     1.1644     1.1688  -999.2500  -999.2500  -999.2500  -999.2500 
 1941.8808  -999.2500   116.0937    63.8325    81.0000     1.1818     1.1818  -999.2500  -999.2500  -999.2500  -999.2500 
