~Version Information
 VERS.                  2.0:   CWLS log ASCII Standard -VERSION 2.0
 WRAP.                   NO:   One line per depth step
~Well Information Block
#MNEM.UNIT       Data Type    Information
#---------     -----------    ---------------------------
 STRT.M               755.1420:
 STOP.M              3753.3071:
 STEP.M                 0.1524:
 NULL.               -999.2500:
 UWI .                    1068:  UWI
 API .                    1068:  UWI
 WELL.                    1068:  COMMON WELL NAME
 COMP.                 UNKNOWN:  WELL OPERATOR
 FLD .                 UNKNOWN:  FIELD
 LIC .                 UNKNOWN:  AUTHORIZATION NO
 LOC .                 UNKNOWN:  BASIN
 CTRY.                 UNKNOWN:  COUNTRY
 STAT.                 UNKNOWN:  STATE
 CNTY.                 UNKNOWN:  COUNTY
 PROV.                 UNKNOWN:  STATE
 SRVC.                 UNKNOWN:  COMPANY
 DATE.                 UNKNOWN:  LOG RUN DATE
 LONG.                -92.0291:  LONGITUDE
 LATI.                 19.4295:  LATITUDE
 XCOORD.           601925.3750:  X COORDINATE
 YCOORD.          2148512.5000:  Y COORDINATE
 ELEV.M                 0.0000:  ELEVATION
~Parameter Information Block
#MNEM.UNIT       Value        Description
#---------     -----------    ---------------------------
~Curve Information Block
#MNEM.UNIT                 API CODE     Curve Description
#---------               -----------    ---------------------------
 DEPTH.M                00 000 000 000:  Index Curve
 CGR .GAPI              00 000 000 000:  Gamma ray; Uranium-free
 DT  .US/F              00 000 000 000:  Acoustic wave travel time
 GR  .GAPI              00 000 000 000:  Gamma ray; total
 GR-LWD.GAPI            00 000 000 000:  
 ILD-LWD.OHMM           00 000 000 000:  
 ILM-LWD.OHMM           00 000 000 000:  
 NPHI.V/V               00 000 000 000:  Neutron porosity
 POTA.                  00 000 000 000:  Potassium contribution from spectral gamma ray
 THOR.PPM               00 000 000 000:  Thorium contribution from spectral gamma ray
 URAN.PPM               00 000 000 000:  Uranium contribution from spectral gamma ray
~A DEPTH        CGR    DT    GR   GR-LWD   ILD-LWD   ILM-LWD    NPHI    POTA    THOR    URAN
# ...
 3008.2236    22.7559  -999.2500    40.4154    42.7993    80.6880    78.4497     0.1344     0.0073     3.6979     1.9153 
 3008.3760    23.8774  -999.2500    39.4619    43.0519    80.6880    78.4497     0.1338     0.0068     4.1449     1.7147 
 3008.5284    23.9288  -999.2500    38.9979    43.2388    70.5583    67.9465     0.1456     0.0059     4.4366     1.6786 
 3008.6808    24.5232  -999.2500    39.3697    45.1286    64.7155    62.9140     0.1669     0.0054     4.8625     1.6399 
 3008.8332    26.0165  -999.2500    40.5494    42.7280    62.5491    60.5419     0.1933     0.0051     5.5584     1.5396 
 3008.9856    28.7537  -999.2500    41.5292    40.1524    56.2098    54.6728     0.2160     0.0053     5.9920     1.4468 
 3009.1380    28.6311  -999.2500    41.4323    38.2662    53.6010    52.2309     0.2249     0.0058     5.7931     1.4320 
 3009.2904    27.1792  -999.2500    39.9391    38.4555    48.7785    47.6920     0.2221     0.0067     5.0314     1.4324 
 3009.4428    26.0609  -999.2500    37.8913    39.4951    43.4738    42.5648     0.2138     0.0076     4.1881     1.3934 
 3009.5952    22.6117  -999.2500    36.8373    39.4236    41.8696    40.9146     0.2007     0.0076     3.2258     1.6582 
 3009.7476    18.1459  -999.2500    37.3221    39.0164    41.2827    40.2166     0.1911     0.0065     2.4066     2.2005 
 3009.9000    14.1026  -999.2500    38.9329    41.3384    40.3624    39.1575     0.1964     0.0052     2.1432     2.6866 
 3010.0524    13.9932  -999.2500    40.5893    44.6177    40.9584    40.0023     0.2056     0.0046     2.2754     2.9091 
 3010.2048    15.2942  -999.2500    41.7034    47.8721    41.6774    41.0278     0.2098     0.0050     2.5667     2.8502 
 3010.3572    18.3920  -999.2500    41.9495    46.0395    43.1985    42.5239     0.2121     0.0064     2.8441     2.5487 
 3010.5096    21.2061  -999.2500    41.4676    42.9352    44.3116    44.1439     0.2096     0.0079     2.9737     2.2103 
 3010.6620    22.7778  -999.2500    40.5672    39.7701    45.0896    45.0198     0.2080     0.0085     3.4744     1.8214 
 3010.8144    26.7906  -999.2500    39.6976    42.5780    46.9288    46.7296     0.2102     0.0086     4.5550     1.3038 
 3010.9668    30.9535  -999.2500    39.2922    43.0066    41.2789    39.7138     0.2214     0.0086     5.3355     0.9476 
 3011.1192    31.7640  -999.2500    39.3441    46.7397    41.2789    39.7138     0.2432     0.0092     5.2878     0.8656 
 3011.2716    29.6500  -999.2500    39.7431    45.9288    74.1682    75.7554     0.2288     0.0095     4.6126     1.1297 
 3011.4240    27.3775  -999.2500    40.1907    43.5889    80.9651    83.0679     0.1706     0.0088     3.9402     1.5652 
 3011.5764    23.9696  -999.2500    40.4905    42.5994    83.4804    88.8265     0.1231     0.0079     3.6052     1.8635 
 3011.7288    23.1370  -999.2500    40.5051    39.2629    85.3106    90.1592     0.1003     0.0071     3.6639     1.9644 
 3011.8812    23.5173  -999.2500    40.0234    39.2379    93.6450    99.8793     0.0949     0.0070     3.9856     1.8007 
 3012.0336    25.2577  -999.2500    39.4007    41.5420    97.5381   101.6041     0.0960     0.0074     4.3746     1.5177 
 3012.1860    27.6459  -999.2500    39.1131    44.4106   101.9912   106.5090     0.0943     0.0079     4.6893     1.2836 
 3012.3384    28.8195  -999.2500    39.8267    44.5677   108.0001   109.6793     0.0934     0.0081     4.7284     1.3176 
 3012.4908    26.3955  -999.2500    41.4232    46.5575   111.2332   111.4893     0.0954     0.0071     4.5941     1.7140 
 3012.6432    23.8811  -999.2500    42.9176    48.5580   114.4795   113.8469     0.0977     0.0057     4.3055     2.2029 
 3012.7956    20.4225  -999.2500    43.7785    50.1155   121.9642   119.6109     0.0996     0.0048     4.0645     2.5414 
 3012.9480    20.6881  -999.2500    44.4333    46.5682   121.7132   119.8357     0.1005     0.0048     3.9633     2.6467 
 3013.1004    20.8194  -999.2500    45.8976    46.0288   123.0925   120.0939     0.0989     0.0047     3.9922     2.8132 
 3013.2528    20.0589  -999.2500    48.3226    43.1960   134.2130   130.3102     0.0948     0.0035     4.1812     3.2015 
 3013.4052    18.7092  -999.2500    50.6217    39.7309   143.3752   138.9656     0.0933     0.0022     4.4569     3.5401 
 3013.5576    19.0793  -999.2500    51.0641    39.2557   142.9713   139.8774     0.0953     0.0021     4.6868     3.5145 
 3013.7100    20.2037  -999.2500    49.2550    42.9674   151.1347   145.5899     0.0998     0.0033     4.6060     3.1611 
 3013.8624    22.8562  -999.2500    46.2351    42.9316   152.6201   152.4712     0.1102     0.0052     4.4674     2.5846 
 3014.0148    24.5198  -999.2500    43.6628    45.4001   156.7494   154.6003     0.1200     0.0072     4.2179     2.0873 
 3014.1672    25.5593  -999.2500    42.0885    47.1827   162.6391   161.7780     0.1178     0.0085     3.7988     1.8728 
 3014.3196    24.3105  -999.2500    41.3984    46.6397   164.4306   161.9433     0.1028     0.0081     3.3687     2.0299 
 3014.4720    19.7298  -999.2500    41.2496    46.8326   159.1270   155.1902     0.0889     0.0063     3.0730     2.4138 
 3014.6244    17.8976  -999.2500    41.6300    47.4113   159.9604   158.2509     0.0873     0.0049     3.1965     2.6292 
 3014.7768    20.0547  -999.2500    42.5510    47.0255   188.7077   177.1302     0.0906     0.0052     3.8719     2.4078 
 3014.9292    24.8138  -999.2500    43.5357    47.4256   207.5289   191.5199     0.0926     0.0068     5.0399     1.8098 
 3015.0816    30.6385  -999.2500    44.2421    46.5075   227.9402   211.3335     0.0975     0.0078     5.7553     1.4481 
 3015.2340    31.3150  -999.2500    44.5955    45.5537   244.0661   232.2587     0.1059     0.0078     5.7004     1.5136 
 3015.3864    29.3535  -999.2500    45.0312    46.3789   257.9698   247.3868     0.1160     0.0072     5.2571     1.8281 
 3015.5388    26.5161  -999.2500    45.4604    45.8430   209.3423   203.6022     0.1278     0.0066     4.6949     2.2001 
 3015.6912    23.1904  -999.2500    45.6264    46.9112   160.7148   159.8176     0.1428     0.0054     4.1625     2.6080 
 3015.8436    19.3815  -999.2500    45.2052    50.7049   165.9069   157.4110     0.1440     0.0043     3.6549     2.9361 
 3015.9960    16.5986  -999.2500    44.3103    47.4041   191.0749   179.5302     0.1251     0.0036     3.3600     3.0562 
 3016.1484    15.7815  -999.2500    43.1350    45.4608   191.0749   179.5302     0.1090     0.0037     3.1180     2.9979 
 3016.3008    16.5389  -999.2500    42.5068    44.4534   155.1890   152.4556     0.0999     0.0040     2.9478     2.9505 
 3016.4532    15.3161  -999.2500    42.8530    45.6001   155.1890   152.4556     0.0925     0.0040     2.7888     3.0470 
 3016.6056    15.5378  -999.2500    44.4977    46.7468   205.9657   192.1127     0.0858     0.0034     3.1133     3.2016 
 3016.7580    16.4161  -999.2500    48.0447    58.9426   238.0126   229.3586     0.0815     0.0021     3.9385     3.4709 
 3016.9104    18.1889  -999.2500    54.1012    69.5023   250.3983   246.7091     0.0795     0.0022     4.7340     3.8239 
 3017.0628    22.8247  -999.2500    61.9923    77.5364   261.4502   255.0312     0.0768     0.0043     5.0237     4.2611 
 3017.2152    26.3096  -999.2500    68.6548    73.2532   264.5984   258.3170     0.0764     0.0078     4.7648     4.5657 
 3017.3676    29.4942  -999.2500    70.7940    59.8214   236.0653   233.3275     0.0804     0.0100     4.2611     4.6480 
 3017.5200    27.9046  -999.2500    67.8394    54.7130   223.0329   214.6093     0.0876     0.0099     3.7686     4.5424 
 3017.6724    24.2563  -999.2500    62.1602    52.2803   233.5010   229.0116     0.0993     0.0076     3.6162     4.3167 
 3017.8248    20.5665  -999.2500    56.3258    40.1738   217.6473   199.9873     0.1211     0.0045     3.5036     4.1933 
 3017.9772    15.3151  -999.2500    51.3873    34.5367   239.3068   222.8614     0.1455     0.0022     3.3863     4.0610 
 3018.1296    13.6724  -999.2500    46.5550    38.3805   246.1930   226.7536     0.1581     0.0016     3.5925     3.5158 
