~Version Information
 VERS.                  2.0:   CWLS log ASCII Standard -VERSION 2.0
 WRAP.                   NO:   One line per depth step
~Well Information Block
#MNEM.UNIT       Data Type    Information
#---------     -----------    ---------------------------
 STRT.M               755.1420:
 STOP.M              3753.3071:
 STEP.M                 0.1524:
 NULL.               -999.2500:
 UWI .                    1068:  UWI
 API .                    1068:  UWI
 WELL.                    1068:  COMMON WELL NAME
 COMP.                 UNKNOWN:  WELL OPERATOR
 FLD .                 UNKNOWN:  FIELD
 LIC .                 UNKNOWN:  AUTHORIZATION NO
 LOC .                 UNKNOWN:  BASIN
 CTRY.                 UNKNOWN:  COUNTRY
 STAT.                 UNKNOWN:  STATE
 CNTY.                 UNKNOWN:  COUNTY
 PROV.                 UNKNOWN:  STATE
 SRVC.                 UNKNOWN:  COMPANY
 DATE.                 UNKNOWN:  LOG RUN DATE
 LONG.                -92.0291:  LONGITUDE
 LATI.                 19.4295:  LATITUDE
 XCOORD.           601925.3750:  X COORDINATE
 YCOORD.          2148512.5000:  Y COORDINATE
 ELEV.M                 0.0000:  ELEVATION
~Parameter Information Block
#MNEM.UNIT       Value        Description
#---------     -----------    ---------------------------
~Curve Information Block
#MNEM.UNIT                 API CODE     Curve Description
#---------               -----------    ---------------------------
 DEPTH.M                00 000 000 000:  Index Curve
 CGR .GAPI              00 000 000 000:  Gamma ray; Uranium-free
 DT  .US/F              00 000 000 000:  Acoustic wave travel time
 GR  .GAPI              00 000 000 000:  Gamma ray; total
 GR-LWD.GAPI            00 000 000 000:  
 ILD-LWD.OHMM           00 000 000 000:  
 ILM-LWD.OHMM           00 000 000 000:  
 NPHI.V/V               00 000 000 000:  Neutron porosity
 POTA.                  00 000 000 000:  Potassium contribution from spectral gamma ray
 THOR.PPM               00 000 000 000:  Thorium contribution from spectral gamma ray
 URAN.PPM               00 000 000 000:  Uranium contribution from spectral gamma ray
~A DEPTH        CGR    DT    GR   GR-LWD   ILD-LWD   ILM-LWD    NPHI    POTA    THOR    URAN
# ...
 2294.0772  -999.2500   111.1804    56.7042    62.0156     1.2064     1.1683  -999.2500  -999.2500  -999.2500  -999.2500 
 2294.2296  -999.2500   104.9296    59.2344    62.0156     1.1628     1.1343  -999.2500  -999.2500  -999.2500  -999.2500 
 2294.3820  -999.2500   102.8959    61.0769    62.0156     1.1192     1.1002  -999.2500  -999.2500  -999.2500  -999.2500 
 2294.5344  -999.2500   105.3490    56.0228    62.0156     1.0321     1.0321  -999.2500  -999.2500  -999.2500  -999.2500 
 2294.6868  -999.2500   108.9037    52.3105    62.0156     1.0809     1.0639  -999.2500  -999.2500  -999.2500  -999.2500 
 2294.8392  -999.2500   109.5067    53.5237    64.8073     1.0931     1.0719  -999.2500  -999.2500  -999.2500  -999.2500 
 2294.9916  -999.2500   106.5222    52.3695    67.5990     1.1053     1.0798  -999.2500  -999.2500  -999.2500  -999.2500 
 2295.1440  -999.2500   102.4553    53.0952    73.1823     1.1296     1.1138  -999.2500  -999.2500  -999.2500  -999.2500 
 2295.2964  -999.2500   100.2077    54.5709    75.1979     1.1818     1.1818  -999.2500  -999.2500  -999.2500  -999.2500 
 2295.4488  -999.2500   100.7565    55.7269    73.4140     1.2004     1.2004  -999.2500  -999.2500  -999.2500  -999.2500 
 2295.6012  -999.2500   102.2590    54.5618    71.6302     1.2190     1.2190  -999.2500  -999.2500  -999.2500  -999.2500 
 2295.7536  -999.2500   103.3099    51.8821    68.0625     1.2563     1.2563  -999.2500  -999.2500  -999.2500  -999.2500 
 2295.9060  -999.2500   103.7344    48.7345    64.0000     1.3788     1.3873  -999.2500  -999.2500  -999.2500  -999.2500 
 2296.0584  -999.2500   104.1272    46.8794    62.6875     1.4642     1.4811  -999.2500  -999.2500  -999.2500  -999.2500 
 2296.2108  -999.2500   105.1507    44.1005    62.0312     1.5069     1.4702  -999.2500  -999.2500  -999.2500  -999.2500 
 2296.3632  -999.2500   107.0068    44.6195    61.3750     1.5495     1.4593  -999.2500  -999.2500  -999.2500  -999.2500 
 2296.5156  -999.2500   108.8306    48.8222    60.0625     1.5267     1.4375  -999.2500  -999.2500  -999.2500  -999.2500 
 2296.6680  -999.2500   109.6815    49.4405    57.5208     1.4811     1.4157  -999.2500  -999.2500  -999.2500  -999.2500 
 2296.8204  -999.2500   109.9238    48.0846    56.8854     1.4982     1.4157  -999.2500  -999.2500  -999.2500  -999.2500 
 2296.9728  -999.2500   110.6464    47.6348    56.2500     1.5153     1.4157  -999.2500  -999.2500  -999.2500  -999.2500 
 2297.1252  -999.2500   112.0840    52.1598    58.1563     1.5495     1.4157  -999.2500  -999.2500  -999.2500  -999.2500 
 2297.2776  -999.2500   113.2667    57.5185    56.3750     1.5972     1.5049  -999.2500  -999.2500  -999.2500  -999.2500 
 2297.4300  -999.2500   113.1924    57.1205    54.5312     1.6091     1.5272  -999.2500  -999.2500  -999.2500  -999.2500 
 2297.5824  -999.2500   112.0205    54.5421    52.6875     1.6211     1.5495  -999.2500  -999.2500  -999.2500  -999.2500 
 2297.7348  -999.2500   110.7381    54.1737    49.0000     1.5853     1.5153  -999.2500  -999.2500  -999.2500  -999.2500 
 2297.8872  -999.2500   110.2745    53.8836    57.6771     1.4841     1.4385  -999.2500  -999.2500  -999.2500  -999.2500 
 2298.0396  -999.2500   110.8469    50.3340    62.0156     1.4187     1.3959  -999.2500  -999.2500  -999.2500  -999.2500 
 2298.1920  -999.2500   111.5541    47.5483    61.6901     1.3859     1.3745  -999.2500  -999.2500  -999.2500  -999.2500 
 2298.3444  -999.2500   111.2507    49.2181    61.3646     1.3532     1.3532  -999.2500  -999.2500  -999.2500  -999.2500 
 2298.4968  -999.2500   109.9365    53.7799    60.7135     1.3741     1.3532  -999.2500  -999.2500  -999.2500  -999.2500 
 2298.6492  -999.2500   108.4723    54.6979    60.0625     1.4157     1.3532  -999.2500  -999.2500  -999.2500  -999.2500 
 2298.8016  -999.2500   107.8152    54.7672    60.0625     1.4053     1.3433  -999.2500  -999.2500  -999.2500  -999.2500 
 2298.9540  -999.2500   108.2914    52.1340    60.0625     1.3949     1.3333  -999.2500  -999.2500  -999.2500  -999.2500 
 2299.1064  -999.2500   109.2589    51.1186    60.0625     1.3741     1.3134  -999.2500  -999.2500  -999.2500  -999.2500 
 2299.2588  -999.2500   110.3305    53.3561    60.0625     1.3532     1.2649  -999.2500  -999.2500  -999.2500  -999.2500 
 2299.4112  -999.2500   111.1457    52.4341    60.0625     1.3532     1.2506  -999.2500  -999.2500  -999.2500  -999.2500 
 2299.5636  -999.2500   111.2574    53.5715    60.0625     1.3532     1.2364  -999.2500  -999.2500  -999.2500  -999.2500 
 2299.7160  -999.2500   110.5549    58.4976    60.0625     1.3333     1.2364  -999.2500  -999.2500  -999.2500  -999.2500 
 2299.8684  -999.2500   109.2807    57.2205    58.7917     1.2935     1.2364  -999.2500  -999.2500  -999.2500  -999.2500 
 2300.0208  -999.2500   108.1467    53.3514    57.5208     1.3134     1.2554  -999.2500  -999.2500  -999.2500  -999.2500 
 2300.1732  -999.2500   107.8148    51.3579    56.8854     1.3233     1.2650  -999.2500  -999.2500  -999.2500  -999.2500 
 2300.3256  -999.2500   108.2351    51.3009    56.2500     1.3333     1.2745  -999.2500  -999.2500  -999.2500  -999.2500 
 2300.4780  -999.2500   108.5121    51.3271    57.1953     1.3532     1.2935  -999.2500  -999.2500  -999.2500  -999.2500 
 2300.6304  -999.2500   107.9409    52.6523    58.1406     1.3949     1.3333  -999.2500  -999.2500  -999.2500  -999.2500 
 2300.7828  -999.2500   106.9867    53.6383    58.1406     1.4053     1.3433  -999.2500  -999.2500  -999.2500  -999.2500 
 2300.9352  -999.2500   106.4593    52.3298    58.1406     1.4157     1.3532  -999.2500  -999.2500  -999.2500  -999.2500 
 2301.0876  -999.2500   106.5816    53.4109    58.1406     1.2988     1.2414  -999.2500  -999.2500  -999.2500  -999.2500 
 2301.2400  -999.2500   107.6006    54.7640    63.3906     1.1644     1.0971  -999.2500  -999.2500  -999.2500  -999.2500 
 2301.3924  -999.2500   109.7295    53.7452    64.7031     1.1557     1.0809  -999.2500  -999.2500  -999.2500  -999.2500 
 2301.5448  -999.2500   113.6248    53.3968    66.0156     1.1470     1.0646  -999.2500  -999.2500  -999.2500  -999.2500 
 2301.6972  -999.2500   120.0096    52.6638    63.3906     1.1296     1.0321  -999.2500  -999.2500  -999.2500  -999.2500 
 2301.8496  -999.2500   127.0573    52.0163    58.1406     1.2787     1.2064  -999.2500  -999.2500  -999.2500  -999.2500 
 2302.0020  -999.2500   130.5156    47.4830    56.2813     1.3532     1.2935  -999.2500  -999.2500  -999.2500  -999.2500 
 2302.1544  -999.2500   128.8913    46.9380    55.3516     1.4389     1.3575  -999.2500  -999.2500  -999.2500  -999.2500 
 2302.3068  -999.2500   122.7373    48.1731    54.4219     1.5246     1.4215  -999.2500  -999.2500  -999.2500  -999.2500 
 2302.4592  -999.2500   114.6948    47.2662    52.5625     1.6959     1.5495  -999.2500  -999.2500  -999.2500  -999.2500 
 2302.6116  -999.2500   110.9550    50.5643    64.0313     1.5983     1.4811  -999.2500  -999.2500  -999.2500  -999.2500 
 2302.7640  -999.2500   110.7265    52.9037    63.0391     1.5739     1.4498  -999.2500  -999.2500  -999.2500  -999.2500 
 2302.9164  -999.2500   110.6480    54.6290    62.0469     1.5495     1.4186  -999.2500  -999.2500  -999.2500  -999.2500 
 2303.0688  -999.2500   110.6136    55.1988    60.0625     1.4514     1.3560  -999.2500  -999.2500  -999.2500  -999.2500 
 2303.2212  -999.2500   110.6780    53.7348    56.2500     1.2621     1.2064  -999.2500  -999.2500  -999.2500  -999.2500 
 2303.3736  -999.2500   111.0155    50.7926    57.2031     1.2165     1.1628  -999.2500  -999.2500  -999.2500  -999.2500 
 2303.5260  -999.2500   111.9456    51.4608    58.1563     1.1709     1.1192  -999.2500  -999.2500  -999.2500  -999.2500 
 2303.6784  -999.2500   113.7290    52.9855    60.0625     1.0798     1.0321  -999.2500  -999.2500  -999.2500  -999.2500 
 2303.8308  -999.2500   116.9217    54.1348    60.0625     1.0971     1.0487  -999.2500  -999.2500  -999.2500  -999.2500 
 2303.9832  -999.2500   121.0399    55.8152    60.0625     1.0646     1.0176  -999.2500  -999.2500  -999.2500  -999.2500 
