~Version Information
 VERS.                  2.0:   CWLS log ASCII Standard -VERSION 2.0
 WRAP.                   NO:   One line per depth step
~Well Information Block
#MNEM.UNIT       Data Type    Information
#---------     -----------    ---------------------------
 STRT.M               755.1420:
 STOP.M              3753.3071:
 STEP.M                 0.1524:
 NULL.               -999.2500:
 UWI .                    1068:  UWI
 API .                    1068:  UWI
 WELL.                    1068:  COMMON WELL NAME
 COMP.                 UNKNOWN:  WELL OPERATOR
 FLD .                 UNKNOWN:  FIELD
 LIC .                 UNKNOWN:  AUTHORIZATION NO
 LOC .                 UNKNOWN:  BASIN
 CTRY.                 UNKNOWN:  COUNTRY
 STAT.                 UNKNOWN:  STATE
 CNTY.                 UNKNOWN:  COUNTY
 PROV.                 UNKNOWN:  STATE
 SRVC.                 UNKNOWN:  COMPANY
 DATE.                 UNKNOWN:  LOG RUN DATE
 LONG.                -92.0291:  LONGITUDE
 LATI.                 19.4295:  LATITUDE
 XCOORD.           601925.3750:  X COORDINATE
 YCOORD.          2148512.5000:  Y COORDINATE
 ELEV.M                 0.0000:  ELEVATION
~Parameter Information Block
#MNEM.UNIT       Value        Description
#---------     -----------    ---------------------------
~Curve Information Block
#MNEM.UNIT                 API CODE     Curve Description
#---------               -----------    ---------------------------
 DEPTH.M                00 000 000 000:  Index Curve
 CGR .GAPI              00 000 000 000:  Gamma ray; Uranium-free
 DT  .US/F              00 000 000 000:  Acoustic wave travel time
 GR  .GAPI              00 000 000 000:  Gamma ray; total
 GR-LWD.GAPI            00 000 000 000:  
 ILD-LWD.OHMM           00 000 000 000:  
 ILM-LWD.OHMM           00 000 000 000:  
 NPHI.V/V               00 000 000 000:  Neutron porosity
 POTA.                  00 000 000 000:  Potassium contribution from spectral gamma ray
 THOR.PPM               00 000 000 000:  Thorium contribution from spectral gamma ray
 URAN.PPM               00 000 000 000:  Uranium contribution from spectral gamma ray
~A DEPTH        CGR    DT    GR   GR-LWD   ILD-LWD   ILM-LWD    NPHI    POTA    THOR    URAN
# ...
 2173.3764  -999.2500   106.1058    65.4768    76.5781     1.3034     1.2935  -999.2500  -999.2500  -999.2500  -999.2500 
 2173.5288  -999.2500   106.1619    68.8939    77.3073     1.2935     1.2935  -999.2500  -999.2500  -999.2500  -999.2500 
 2173.6812  -999.2500   106.2796    69.4765    78.7656     1.2935     1.2935  -999.2500  -999.2500  -999.2500  -999.2500 
 2173.8336  -999.2500   106.2759    66.4909    72.2500     1.2935     1.3234  -999.2500  -999.2500  -999.2500  -999.2500 
 2173.9860  -999.2500   106.1801    67.2501    73.8789     1.2935     1.3383  -999.2500  -999.2500  -999.2500  -999.2500 
 2174.1384  -999.2500   105.9601    71.5252    75.5078     1.2935     1.3532  -999.2500  -999.2500  -999.2500  -999.2500 
 2174.2908  -999.2500   105.4649    73.1032    78.7656     1.3546     1.3532  -999.2500  -999.2500  -999.2500  -999.2500 
 2174.4432  -999.2500   104.3166    71.2344    71.6302     1.4375     1.3959  -999.2500  -999.2500  -999.2500  -999.2500 
 2174.5956  -999.2500   102.3579    69.6564    69.8464     1.4484     1.4172  -999.2500  -999.2500  -999.2500  -999.2500 
 2174.7480  -999.2500    99.8434    65.4522    68.0625     1.4593     1.4385  -999.2500  -999.2500  -999.2500  -999.2500 
 2174.9004  -999.2500    97.5534    63.1819    69.1016     1.4811     1.4811  -999.2500  -999.2500  -999.2500  -999.2500 
 2175.0528  -999.2500    95.5027    68.2095    68.0781     1.5495     1.4811  -999.2500  -999.2500  -999.2500  -999.2500 
 2175.2052  -999.2500    93.3912    71.0248    66.0156     1.5983     1.5527  -999.2500  -999.2500  -999.2500  -999.2500 
 2175.3576  -999.2500    91.8174    68.7885    65.0235     1.6227     1.5885  -999.2500  -999.2500  -999.2500  -999.2500 
 2175.5100  -999.2500    91.2029    65.3521    64.0313     1.6471     1.6243  -999.2500  -999.2500  -999.2500  -999.2500 
 2175.6624  -999.2500    91.5614    61.0247    62.0469     1.6959     1.6959  -999.2500  -999.2500  -999.2500  -999.2500 
 2175.8148  -999.2500    92.8108    56.3402    57.2266     1.9419     2.0316  -999.2500  -999.2500  -999.2500  -999.2500 
 2175.9672  -999.2500    95.3926    57.0522    55.8086     1.9643     2.0550  -999.2500  -999.2500  -999.2500  -999.2500 
 2176.1196  -999.2500    98.7328    59.5589    54.3906     1.9868     2.0785  -999.2500  -999.2500  -999.2500  -999.2500 
 2176.2720  -999.2500   101.3531    59.2087    58.2656     2.0316     2.1255  -999.2500  -999.2500  -999.2500  -999.2500 
 2176.4244  -999.2500   102.4242    59.5026    66.0156     1.7102     1.7892  -999.2500  -999.2500  -999.2500  -999.2500 
 2176.5768  -999.2500   102.5345    61.2465    64.5274     1.6298     1.7051  -999.2500  -999.2500  -999.2500  -999.2500 
 2176.7292  -999.2500   102.5115    61.2129    63.0391     1.5495     1.6211  -999.2500  -999.2500  -999.2500  -999.2500 
 2176.8816  -999.2500   102.6506    57.7233    60.0625     1.5495     1.5972  -999.2500  -999.2500  -999.2500  -999.2500 
 2177.0340  -999.2500   102.9821    57.4947    58.1406     1.5495     1.5495  -999.2500  -999.2500  -999.2500  -999.2500 
 2177.1864  -999.2500   103.3796    60.8233    59.4323     1.5853     1.5495  -999.2500  -999.2500  -999.2500  -999.2500 
 2177.3388  -999.2500   103.6858    62.2316    60.0781     1.6032     1.5495  -999.2500  -999.2500  -999.2500  -999.2500 
 2177.4912  -999.2500   103.8865    64.0788    60.7240     1.6211     1.5495  -999.2500  -999.2500  -999.2500  -999.2500 
 2177.6436  -999.2500   104.0511    64.7104    62.0156     1.5853     1.5153  -999.2500  -999.2500  -999.2500  -999.2500 
 2177.7960  -999.2500   104.2256    64.8987    64.0000     1.5495     1.4811  -999.2500  -999.2500  -999.2500  -999.2500 
 2177.9484  -999.2500   104.4300    65.9615    64.5039     1.5495     1.4811  -999.2500  -999.2500  -999.2500  -999.2500 
 2178.1008  -999.2500   104.7164    69.1400    65.0078     1.5495     1.4811  -999.2500  -999.2500  -999.2500  -999.2500 
 2178.2532  -999.2500   105.1534    71.3569    66.0156     1.5495     1.4811  -999.2500  -999.2500  -999.2500  -999.2500 
 2178.4056  -999.2500   105.6168    72.7204    67.3802     1.5495     1.4811  -999.2500  -999.2500  -999.2500  -999.2500 
 2178.5580  -999.2500   105.8407    72.1292    67.7214     1.5495     1.4982  -999.2500  -999.2500  -999.2500  -999.2500 
 2178.7104  -999.2500   105.6987    70.3859    68.0625     1.5495     1.5153  -999.2500  -999.2500  -999.2500  -999.2500 
 2178.8628  -999.2500   105.3559    72.3186    70.8958     1.5495     1.5495  -999.2500  -999.2500  -999.2500  -999.2500 
 2179.0152  -999.2500   105.2027    76.2154    76.5625     1.6471     1.5972  -999.2500  -999.2500  -999.2500  -999.2500 
 2179.1676  -999.2500   105.3450    73.9275    78.7813     1.6959     1.6211  -999.2500  -999.2500  -999.2500  -999.2500 
 2179.3200  -999.2500   105.6396    73.4654    79.8907     1.6959     1.6211  -999.2500  -999.2500  -999.2500  -999.2500 
 2179.4724  -999.2500   106.1350    79.7212    81.0000     1.6959     1.6211  -999.2500  -999.2500  -999.2500  -999.2500 
 2179.6248  -999.2500   106.8664    83.4556    81.0000     1.6959     1.6211  -999.2500  -999.2500  -999.2500  -999.2500 
 2179.7772  -999.2500   107.5981    84.7446    81.0000     1.6959     1.6211  -999.2500  -999.2500  -999.2500  -999.2500 
 2179.9296  -999.2500   107.9981    81.7579    78.7656     1.5972     1.5267  -999.2500  -999.2500  -999.2500  -999.2500 
 2180.0820  -999.2500   108.0245    79.1186    79.1380     1.5853     1.5153  -999.2500  -999.2500  -999.2500  -999.2500 
 2180.2344  -999.2500   107.8523    81.0054    79.5104     1.5734     1.5039  -999.2500  -999.2500  -999.2500  -999.2500 
 2180.3868  -999.2500   107.6451    80.5738    80.2552     1.5495     1.4811  -999.2500  -999.2500  -999.2500  -999.2500 
 2180.5392  -999.2500   107.3550    72.3843    77.6953     1.4811     1.4157  -999.2500  -999.2500  -999.2500  -999.2500 
 2180.6916  -999.2500   106.8746    61.8276    76.0430     1.4811     1.4157  -999.2500  -999.2500  -999.2500  -999.2500 
 2180.8440  -999.2500   106.1671    60.4138    74.3906     1.4811     1.4157  -999.2500  -999.2500  -999.2500  -999.2500 
 2180.9964  -999.2500   105.3758    62.2699    76.5938     1.4811     1.4157  -999.2500  -999.2500  -999.2500  -999.2500 
 2181.1488  -999.2500   104.6845    60.2863    81.0000     1.4484     1.4157  -999.2500  -999.2500  -999.2500  -999.2500 
 2181.3012  -999.2500   104.1744    62.8660    78.7813     1.4157     1.4157  -999.2500  -999.2500  -999.2500  -999.2500 
 2181.4536  -999.2500   103.8127    65.8632    77.6719     1.4157     1.4053  -999.2500  -999.2500  -999.2500  -999.2500 
 2181.6060  -999.2500   103.4267    65.6135    76.5625     1.4157     1.3949  -999.2500  -999.2500  -999.2500  -999.2500 
 2181.7584  -999.2500   102.9616    65.1868    75.8385     1.4157     1.3741  -999.2500  -999.2500  -999.2500  -999.2500 
 2181.9108  -999.2500   102.6036    64.8274    74.3906     1.4157     1.3532  -999.2500  -999.2500  -999.2500  -999.2500 
 2182.0632  -999.2500   102.6210    62.7916    74.3906     1.4157     1.3532  -999.2500  -999.2500  -999.2500  -999.2500 
 2182.2156  -999.2500   102.9516    60.9360    74.3906     1.4157     1.3532  -999.2500  -999.2500  -999.2500  -999.2500 
 2182.3680  -999.2500   103.2927    59.2138    74.3906     1.4157     1.3741  -999.2500  -999.2500  -999.2500  -999.2500 
 2182.5204  -999.2500   103.3707    54.7749    62.0156     1.4157     1.4157  -999.2500  -999.2500  -999.2500  -999.2500 
 2182.6728  -999.2500   103.1702    51.9499    61.0547     1.4157     1.4157  -999.2500  -999.2500  -999.2500  -999.2500 
 2182.8252  -999.2500   102.8646    55.2159    60.0938     1.4157     1.4157  -999.2500  -999.2500  -999.2500  -999.2500 
 2182.9776  -999.2500   102.6319    58.3439    58.1719     1.3949     1.4157  -999.2500  -999.2500  -999.2500  -999.2500 
 2183.1300  -999.2500   102.6148    59.8669    60.1250     1.3532     1.4157  -999.2500  -999.2500  -999.2500  -999.2500 
 2183.2824  -999.2500   102.8024    63.2945    64.0000     1.3845     1.4157  -999.2500  -999.2500  -999.2500  -999.2500 
