~Version Information
 VERS.                  2.0:   CWLS log ASCII Standard -VERSION 2.0
 WRAP.                   NO:   One line per depth step
~Well Information Block
#MNEM.UNIT       Data Type    Information
#---------     -----------    ---------------------------
 STRT.M               755.1420:
 STOP.M              3753.3071:
 STEP.M                 0.1524:
 NULL.               -999.2500:
 UWI .                    1068:  UWI
 API .                    1068:  UWI
 WELL.                    1068:  COMMON WELL NAME
 COMP.                 UNKNOWN:  WELL OPERATOR
 FLD .                 UNKNOWN:  FIELD
 LIC .                 UNKNOWN:  AUTHORIZATION NO
 LOC .                 UNKNOWN:  BASIN
 CTRY.                 UNKNOWN:  COUNTRY
 STAT.                 UNKNOWN:  STATE
 CNTY.                 UNKNOWN:  COUNTY
 PROV.                 UNKNOWN:  STATE
 SRVC.                 UNKNOWN:  COMPANY
 DATE.                 UNKNOWN:  LOG RUN DATE
 LONG.                -92.0291:  LONGITUDE
 LATI.                 19.4295:  LATITUDE
 XCOORD.           601925.3750:  X COORDINATE
 YCOORD.          2148512.5000:  Y COORDINATE
 ELEV.M                 0.0000:  ELEVATION
~Parameter Information Block
#MNEM.UNIT       Value        Description
#---------     -----------    ---------------------------
~Curve Information Block
#MNEM.UNIT                 API CODE     Curve Description
#---------               -----------    ---------------------------
 DEPTH.M                00 000 000 000:  Index Curve
 CGR .GAPI              00 000 000 000:  Gamma ray; Uranium-free
 DT  .US/F              00 000 000 000:  Acoustic wave travel time
 GR  .GAPI              00 000 000 000:  Gamma ray; total
 GR-LWD.GAPI            00 000 000 000:  
 ILD-LWD.OHMM           00 000 000 000:  
 ILM-LWD.OHMM           00 000 000 000:  
 NPHI.V/V               00 000 000 000:  Neutron porosity
 POTA.                  00 000 000 000:  Potassium contribution from spectral gamma ray
 THOR.PPM               00 000 000 000:  Thorium contribution from spectral gamma ray
 URAN.PPM               00 000 000 000:  Uranium contribution from spectral gamma ray
~A DEPTH        CGR    DT    GR   GR-LWD   ILD-LWD   ILM-LWD    NPHI    POTA    THOR    URAN
# ...
 3128.9244    16.8235  -999.2500    46.7433    48.2438   333.6414   315.4816     0.1469     0.0054     2.6011     3.3415 
 3129.0768    17.6516  -999.2500    47.8346    49.6905   314.5495   297.5923     0.1545     0.0063     2.5560     3.3371 
 3129.2292    19.3964  -999.2500    49.7243    51.9590   319.1018   289.1518     0.1535     0.0072     2.8034     3.3172 
 3129.3816    21.7089  -999.2500    50.8007    49.2797   344.4744   341.4511     0.1455     0.0074     3.1770     3.2524 
 3129.5340    22.0635  -999.2500    49.5778    44.6894   341.7932   316.0984     0.1415     0.0068     3.1845     3.2135 
 3129.6864    17.5910  -999.2500    46.2304    39.2773   340.5256   312.7534     0.1474     0.0056     2.7446     3.2068 
 3129.8388    15.4876  -999.2500    42.3190    37.7948   334.3692   312.9448     0.1495     0.0047     2.5795     2.9659 
 3129.9912    16.5887  -999.2500    39.8000    40.2419   314.4926   300.4086     0.1493     0.0045     2.9251     2.5747 
 3130.1436    17.9139  -999.2500    39.2985    44.5822   314.4926   300.4086     0.1495     0.0050     2.9801     2.4257 
 3130.2960    16.5557  -999.2500    40.5491    49.5119   326.6967   321.1951     0.1467     0.0054     2.5133     2.6876 
 3130.4484    15.3738  -999.2500    42.2278    50.5658   337.8124   329.7360     0.1442     0.0056     2.2111     2.9631 
 3130.6008    15.6292  -999.2500    43.3846    49.2619   340.8077   334.0459     0.1414     0.0056     2.3185     3.0557 
 3130.7532    16.0875  -999.2500    43.6986    48.0116   332.5080   334.3166     0.1367     0.0051     2.4680     3.1055 
 3130.9056    15.2092  -999.2500    43.1938    46.7613   340.3993   333.1483     0.1273     0.0045     2.2488     3.2397 
 3131.0580    11.9831  -999.2500    42.4346    45.9754   347.8278   347.7367     0.1149     0.0041     1.8359     3.3763 
 3131.2104    11.5659  -999.2500    42.2439    44.5465   359.8759   347.4883     0.0991     0.0042     1.7910     3.3404 
 3131.3628    14.6245  -999.2500    43.2570    45.5646   357.0993   344.3452     0.0864     0.0050     2.5392     3.0413 
 3131.5152    19.4620  -999.2500    44.9984    46.8149   363.0305   352.2289     0.0824     0.0055     3.7756     2.6717 
 3131.6676    22.8514  -999.2500    46.3564    47.9401   364.3333   344.5829     0.0820     0.0053     4.1221     2.7244 
 3131.8200    19.2808  -999.2500    46.9967    52.3519   382.7384   358.4554     0.0826     0.0042     3.2820     3.2940 
 3131.9724    12.4735  -999.2500    47.8083    57.4246   357.2012   353.6666     0.0841     0.0033     2.4327     3.8606 
 3132.1248    12.1129  -999.2500    49.4371    60.1038   368.6225   361.5502     0.0852     0.0030     2.2227     4.1642 
 3132.2772    12.6581  -999.2500    51.2850    60.0323   380.9550   362.5712     0.0831     0.0033     2.4505     4.2364 
 3132.4296    14.1414  -999.2500    52.1606    58.0140   383.7843   368.7278     0.0794     0.0031     2.4115     4.3875 
 3132.5820     9.9525  -999.2500    51.9459    56.8887   346.8743   347.2317     0.0783     0.0016     2.1900     4.6758 
 3132.7344     8.3151  -999.2500    51.8476    53.1557   365.1796   362.8331     0.0816     0.0007     2.0544     4.8556 
 3132.8868     9.3433  -999.2500    51.4992    50.9944   355.9393   359.8905     0.0869     0.0007     2.6908     4.5618 
 3133.0392    15.5430  -999.2500    50.7679    50.5836   351.9083   348.3080     0.0918     0.0026     4.0866     3.6386 
 3133.1916    25.9318  -999.2500    50.5588    50.2800   352.6823   337.8332     0.0952     0.0059     4.9771     2.7564 
 3133.3440    29.6163  -999.2500    50.3488    50.4765   347.0468   357.3014     0.0986     0.0081     4.9001     2.4165 
 3133.4964    25.7068  -999.2500    50.1468    52.4412   334.5959   311.8703     0.1059     0.0079     4.1429     2.7333 
 3133.6488    21.9148  -999.2500    50.0368    50.1014   296.0748   282.5239     0.1157     0.0060     3.6215     3.2106 
 3133.8012    19.6854  -999.2500    49.2383    46.5291   307.7980   288.8310     0.1258     0.0048     3.5646     3.3388 
 3133.9536    19.4450  -999.2500    47.6993    46.9399   330.6087   310.8920     0.1305     0.0047     3.8283     3.0682 
 3134.1060    21.5117  -999.2500    45.7302    48.5653   333.9767   315.3700     0.1285     0.0058     3.8540     2.6724 
 3134.2584    22.3037  -999.2500    44.0605    47.0828   333.9767   315.3700     0.1250     0.0070     3.7783     2.3363 
 3134.4108    24.4400  -999.2500    43.3562    47.0292   337.6555   321.1113     0.1220     0.0075     4.1897     2.0056 
 3134.5632    26.2257  -999.2500    43.0336    47.0828   340.7399   340.6198     0.1233     0.0069     4.5341     1.9447 
 3134.7156    24.2191  -999.2500    42.6685    48.0294   340.7399   340.6198     0.1277     0.0053     4.5474     2.1529 
 3134.8680    19.8905  -999.2500    42.0488    47.9044   344.4706   316.7029     0.1344     0.0042     3.8491     2.5271 
 3135.0204    16.5629  -999.2500    41.7626    46.8863   329.2206   318.1140     0.1392     0.0042     2.9846     2.8226 
 3135.1728    16.3152  -999.2500    42.0248    45.9932   327.2724   314.2727     0.1377     0.0043     3.0239     2.8264 
 3135.3252    17.2858  -999.2500    41.7718    43.6712   332.0496   307.2411     0.1325     0.0036     3.5715     2.6929 
 3135.4776    17.9639  -999.2500    39.9389    40.0454   334.0668   318.5313     0.1291     0.0032     3.8270     2.4441 
 3135.6300    17.6816  -999.2500    37.0005    37.4197   353.4261   329.6793     0.1292     0.0041     3.3824     2.1545 
 3135.7824    17.9157  -999.2500    35.0204    37.2947   322.0981   306.1247     0.1288     0.0058     2.6941     1.9368 
 3135.9348    17.8659  -999.2500    35.6541    43.0640   344.3379   328.4228     0.1244     0.0069     2.1914     2.0265 
 3136.0872    16.9006  -999.2500    38.7525    47.5829   343.7278   316.2936     0.1139     0.0062     1.9684     2.5777 
 3136.2396    13.1428  -999.2500    42.5709    50.1014   348.2529   331.1281     0.1023     0.0036     1.9424     3.4183 
 3136.3920     7.5073  -999.2500    45.7678    49.9763   350.4315   336.3472     0.0957     0.0013     1.8095     4.1846 
 3136.5444     7.0109  -999.2500    47.5525    46.4755   343.3277   316.5959     0.0919     0.0005     2.0373     4.4163 
 3136.6968    10.7275  -999.2500    46.5527    43.0104   327.4766   310.5543     0.0878     0.0005     2.9716     3.9379 
 3136.8492    14.5863  -999.2500    43.9536    40.4562   328.9679   317.7396     0.0841     0.0005     4.1978     3.1672 
 3137.0016    17.6072  -999.2500    41.8454    41.3493   321.2299   303.9868     0.0796     0.0012     4.4028     2.7386 
 3137.1540    15.5159  -999.2500    40.2742    46.1719   314.8754   298.7203     0.0753     0.0024     3.3513     2.7966 
 3137.3064    13.5056  -999.2500    38.7670    49.6191   251.2829   228.7631     0.0758     0.0039     2.3872     2.7606 
 3137.4588    15.7236  -999.2500    37.6058    50.5658   262.3592   242.2213     0.0813     0.0053     2.6548     2.3144 
 3137.6112    19.1737  -999.2500    37.6434    49.4941   271.3163   250.8353     0.0878     0.0056     3.2550     2.0412 
 3137.7636    18.5698  -999.2500    39.4571    48.1902   272.1542   248.9720     0.0961     0.0047     3.3130     2.3620 
 3137.9160    16.3926  -999.2500    42.5244    49.7977   269.7986   252.0458     0.1037     0.0030     3.0918     3.0525 
 3138.0684    13.2469  -999.2500    45.0940    49.5119   256.2370   239.6749     0.1090     0.0024     2.8740     3.5203 
 3138.2208    14.9752  -999.2500    46.3124    49.2797   272.8645   249.3777     0.1179     0.0039     3.1767     3.3002 
 3138.3732    22.5161  -999.2500    46.6923    52.1376   286.7582   265.9558     0.1255     0.0071     3.8848     2.5641 
 3138.5256    28.4162  -999.2500    47.1715    55.8706   308.8383   286.6602     0.1157     0.0103     4.4166     1.9158 
 3138.6780    33.4548  -999.2500    47.4255    56.2814   311.3228   291.4271     0.0987     0.0124     4.7727     1.4706 
 3138.8304    35.8843  -999.2500    47.3262    55.6206   316.1742   281.2725     0.0995     0.0125     4.9344     1.3889 
