~Version Information
 VERS.                  2.0:   CWLS log ASCII Standard -VERSION 2.0
 WRAP.                   NO:   One line per depth step
~Well Information Block
#MNEM.UNIT       Data Type    Information
#---------     -----------    ---------------------------
 STRT.M               755.1420:
 STOP.M              3753.3071:
 STEP.M                 0.1524:
 NULL.               -999.2500:
 UWI .                    1068:  UWI
 API .                    1068:  UWI
 WELL.                    1068:  COMMON WELL NAME
 COMP.                 UNKNOWN:  WELL OPERATOR
 FLD .                 UNKNOWN:  FIELD
 LIC .                 UNKNOWN:  AUTHORIZATION NO
 LOC .                 UNKNOWN:  BASIN
 CTRY.                 UNKNOWN:  COUNTRY
 STAT.                 UNKNOWN:  STATE
 CNTY.                 UNKNOWN:  COUNTY
 PROV.                 UNKNOWN:  STATE
 SRVC.                 UNKNOWN:  COMPANY
 DATE.                 UNKNOWN:  LOG RUN DATE
 LONG.                -92.0291:  LONGITUDE
 LATI.                 19.4295:  LATITUDE
 XCOORD.           601925.3750:  X COORDINATE
 YCOORD.          2148512.5000:  Y COORDINATE
 ELEV.M                 0.0000:  ELEVATION
~Parameter Information Block
#MNEM.UNIT       Value        Description
#---------     -----------    ---------------------------
~Curve Information Block
#MNEM.UNIT                 API CODE     Curve Description
#---------               -----------    ---------------------------
 DEPTH.M                00 000 000 000:  Index Curve
 CGR .GAPI              00 000 000 000:  Gamma ray; Uranium-free
 DT  .US/F              00 000 000 000:  Acoustic wave travel time
 GR  .GAPI              00 000 000 000:  Gamma ray; total
 GR-LWD.GAPI            00 000 000 000:  
 ILD-LWD.OHMM           00 000 000 000:  
 ILM-LWD.OHMM           00 000 000 000:  
 NPHI.V/V               00 000 000 000:  Neutron porosity
 POTA.                  00 000 000 000:  Potassium contribution from spectral gamma ray
 THOR.PPM               00 000 000 000:  Thorium contribution from spectral gamma ray
 URAN.PPM               00 000 000 000:  Uranium contribution from spectral gamma ray
~A DEPTH        CGR    DT    GR   GR-LWD   ILD-LWD   ILM-LWD    NPHI    POTA    THOR    URAN
# ...
 2414.7780  -999.2500   105.3951    52.7060    57.5104     1.1182     1.1818  -999.2500  -999.2500  -999.2500  -999.2500 
 2414.9304  -999.2500   104.8717    49.4750    57.1953     1.2058     1.1648  -999.2500  -999.2500  -999.2500  -999.2500 
 2415.0828  -999.2500   103.9966    48.4827    56.8802     1.2935     1.1478  -999.2500  -999.2500  -999.2500  -999.2500 
 2415.2352  -999.2500   103.0216    51.1835    56.2500     1.1866     1.1138  -999.2500  -999.2500  -999.2500  -999.2500 
 2415.3876  -999.2500   102.1262    54.1185    57.6679     1.1053     1.1053  -999.2500  -999.2500  -999.2500  -999.2500 
 2415.5400  -999.2500   101.5759    53.8010    57.9043     1.1180     1.1180  -999.2500  -999.2500  -999.2500  -999.2500 
 2415.6924  -999.2500   101.5504    54.1511    58.1406     1.1308     1.1308  -999.2500  -999.2500  -999.2500  -999.2500 
 2415.8448  -999.2500   102.0906    55.3917    56.8906     1.1818     1.1818  -999.2500  -999.2500  -999.2500  -999.2500 
 2415.9972  -999.2500   102.9786    56.7029    54.3906     1.2563     1.2182  -999.2500  -999.2500  -999.2500  -999.2500 
 2416.1496  -999.2500   104.1812    58.3757    54.0859     1.2749     1.2273  -999.2500  -999.2500  -999.2500  -999.2500 
 2416.3020  -999.2500   105.3791    63.7072    53.7813     1.2935     1.2364  -999.2500  -999.2500  -999.2500  -999.2500 
 2416.4544  -999.2500   105.8669    59.6923    53.1719     1.3342     1.2753  -999.2500  -999.2500  -999.2500  -999.2500 
 2416.6068  -999.2500   105.1258    49.7009    54.4063     1.4157     1.3532  -999.2500  -999.2500  -999.2500  -999.2500 
 2416.7592  -999.2500   102.5858    50.5480    56.2500     1.3949     1.3234  -999.2500  -999.2500  -999.2500  -999.2500 
 2416.9116  -999.2500    98.9870    53.8792    58.2188     1.3845     1.3084  -999.2500  -999.2500  -999.2500  -999.2500 
 2417.0640  -999.2500    95.6337    52.7468    60.1875     1.3741     1.2935  -999.2500  -999.2500  -999.2500  -999.2500 
 2417.2164  -999.2500    93.6599    50.9925    64.1250     1.3532     1.2064  -999.2500  -999.2500  -999.2500  -999.2500 
 2417.3688  -999.2500    93.1372    52.1853    64.7552     1.0321     1.0321  -999.2500  -999.2500  -999.2500  -999.2500 
 2417.5212  -999.2500    93.5338    52.1960    63.1016     1.0570     1.0483  -999.2500  -999.2500  -999.2500  -999.2500 
 2417.6736  -999.2500    96.2207    50.2909    61.4479     1.0820     1.0646  -999.2500  -999.2500  -999.2500  -999.2500 
 2417.8260  -999.2500   102.8142    51.3437    58.1406     1.1319     1.0971  -999.2500  -999.2500  -999.2500  -999.2500 
 2417.9784  -999.2500   109.3329    52.4475    58.1406     1.2988     1.2414  -999.2500  -999.2500  -999.2500  -999.2500 
 2418.1308  -999.2500   111.5453    52.2458    58.1406     1.3572     1.2973  -999.2500  -999.2500  -999.2500  -999.2500 
 2418.2832  -999.2500   112.0023    53.4220    58.1406     1.4157     1.3532  -999.2500  -999.2500  -999.2500  -999.2500 
 2418.4356  -999.2500   112.4577    53.7417    58.1406     1.3750     1.3333  -999.2500  -999.2500  -999.2500  -999.2500 
 2418.5880  -999.2500   112.4457    49.7422    49.7552     1.2935     1.2935  -999.2500  -999.2500  -999.2500  -999.2500 
 2418.7404  -999.2500   111.9177    48.6511    45.5625     1.3234     1.2935  -999.2500  -999.2500  -999.2500  -999.2500 
 2418.8928  -999.2500   110.7191    52.0892    47.0339     1.3383     1.2935  -999.2500  -999.2500  -999.2500  -999.2500 
 2419.0452  -999.2500   108.7616    53.6296    48.5052     1.3532     1.2935  -999.2500  -999.2500  -999.2500  -999.2500 
 2419.1976  -999.2500   107.0191    52.8246    51.4479     1.3234     1.2935  -999.2500  -999.2500  -999.2500  -999.2500 
 2419.3500  -999.2500   106.2517    51.8486    55.0104     1.2935     1.2649  -999.2500  -999.2500  -999.2500  -999.2500 
 2419.5024  -999.2500   105.9988    49.4921    55.3203     1.2935     1.2506  -999.2500  -999.2500  -999.2500  -999.2500 
 2419.6548  -999.2500   106.1972    50.5854    55.6302     1.2935     1.2364  -999.2500  -999.2500  -999.2500  -999.2500 
 2419.8072  -999.2500   107.8632    55.8741    56.2500     1.3234     1.2649  -999.2500  -999.2500  -999.2500  -999.2500 
 2419.9596  -999.2500   111.6032    55.7196    49.1250     1.3532     1.3134  -999.2500  -999.2500  -999.2500  -999.2500 
 2420.1120  -999.2500   114.1778    52.0622    47.3438     1.3532     1.3233  -999.2500  -999.2500  -999.2500  -999.2500 
 2420.2644  -999.2500   114.0255    52.5768    45.5625     1.3532     1.3333  -999.2500  -999.2500  -999.2500  -999.2500 
 2420.4168  -999.2500   113.4779    53.8703    50.9063     1.3532     1.3532  -999.2500  -999.2500  -999.2500  -999.2500 
 2420.5692  -999.2500   113.2926    54.4302    58.1719     1.3134     1.2753  -999.2500  -999.2500  -999.2500  -999.2500 
 2420.7216  -999.2500   112.6899    54.1780    60.0938     1.2935     1.2364  -999.2500  -999.2500  -999.2500  -999.2500 
 2420.8740  -999.2500   111.2588    51.2528    61.0547     1.2935     1.2506  -999.2500  -999.2500  -999.2500  -999.2500 
 2421.0264  -999.2500   109.3650    50.7582    62.0156     1.2935     1.2649  -999.2500  -999.2500  -999.2500  -999.2500 
 2421.1788  -999.2500   107.2577    52.9724    53.7891     1.2935     1.2935  -999.2500  -999.2500  -999.2500  -999.2500 
 2421.3312  -999.2500   105.0262    51.5240    49.7552     1.1818     1.1818  -999.2500  -999.2500  -999.2500  -999.2500 
 2421.4836  -999.2500   103.5698    49.0689    51.8515     1.1909     1.1818  -999.2500  -999.2500  -999.2500  -999.2500 
 2421.6360  -999.2500   103.8587    49.1780    53.9479     1.2000     1.1818  -999.2500  -999.2500  -999.2500  -999.2500 
 2421.7884  -999.2500   105.0996    49.5061    58.1406     1.2182     1.1818  -999.2500  -999.2500  -999.2500  -999.2500 
 2421.9408  -999.2500   106.1234    49.7171    58.1406     1.2182     1.1644  -999.2500  -999.2500  -999.2500  -999.2500 
 2422.0932  -999.2500   106.5881    51.4393    58.1406     1.2000     1.1470  -999.2500  -999.2500  -999.2500  -999.2500 
 2422.2456  -999.2500   106.6333    51.9561    57.8255     1.1909     1.1383  -999.2500  -999.2500  -999.2500  -999.2500 
 2422.3980  -999.2500   106.6341    50.3388    57.5104     1.1818     1.1296  -999.2500  -999.2500  -999.2500  -999.2500 
 2422.5504  -999.2500   105.9689    50.7460    56.8802     1.2390     1.1843  -999.2500  -999.2500  -999.2500  -999.2500 
 2422.7028  -999.2500   104.0141    51.8014    60.1250     1.3532     1.2935  -999.2500  -999.2500  -999.2500  -999.2500 
 2422.8552  -999.2500   102.2994    53.2018    62.0625     1.3159     1.2525  -999.2500  -999.2500  -999.2500  -999.2500 
 2423.0076  -999.2500   103.1131    54.8108    64.0000     1.2787     1.2116  -999.2500  -999.2500  -999.2500  -999.2500 
 2423.1600  -999.2500   105.8622    52.2087    60.7969     1.2042     1.1296  -999.2500  -999.2500  -999.2500  -999.2500 
 2423.3124  -999.2500   107.4126    44.1689    54.3906     1.1296     1.1047  -999.2500  -999.2500  -999.2500  -999.2500 
 2423.4648  -999.2500   107.1775    42.6466    54.0859     1.1296     1.0984  -999.2500  -999.2500  -999.2500  -999.2500 
 2423.6172  -999.2500   106.9906    45.2131    53.7813     1.1296     1.0922  -999.2500  -999.2500  -999.2500  -999.2500 
 2423.7696  -999.2500   107.4959    47.2477    53.1719     1.1296     1.0798  -999.2500  -999.2500  -999.2500  -999.2500 
 2423.9220  -999.2500   107.9044    48.8914    55.0625     1.0646     1.0321  -999.2500  -999.2500  -999.2500  -999.2500 
 2424.0744  -999.2500   107.7068    50.9363    56.3125     1.0483     1.0245  -999.2500  -999.2500  -999.2500  -999.2500 
 2424.2268  -999.2500   107.1012    53.2508    57.5625     1.0321     1.0169  -999.2500  -999.2500  -999.2500  -999.2500 
 2424.3792  -999.2500   106.4998    53.2730    58.8125     1.0321     1.0093  -999.2500  -999.2500  -999.2500  -999.2500 
 2424.5316  -999.2500   106.2855    51.2165    60.0625     1.0321     1.0017  -999.2500  -999.2500  -999.2500  -999.2500 
 2424.6840  -999.2500   106.4339    50.6568    57.5625     1.0321     0.9865  -999.2500  -999.2500  -999.2500  -999.2500 
