~Version Information
 VERS.                  2.0:   CWLS log ASCII Standard -VERSION 2.0
 WRAP.                   NO:   One line per depth step
~Well Information Block
#MNEM.UNIT       Data Type    Information
#---------     -----------    ---------------------------
 STRT.M               755.1420:
 STOP.M              3753.3071:
 STEP.M                 0.1524:
 NULL.               -999.2500:
 UWI .                    1068:  UWI
 API .                    1068:  UWI
 WELL.                    1068:  COMMON WELL NAME
 COMP.                 UNKNOWN:  WELL OPERATOR
 FLD .                 UNKNOWN:  FIELD
 LIC .                 UNKNOWN:  AUTHORIZATION NO
 LOC .                 UNKNOWN:  BASIN
 CTRY.                 UNKNOWN:  COUNTRY
 STAT.                 UNKNOWN:  STATE
 CNTY.                 UNKNOWN:  COUNTY
 PROV.                 UNKNOWN:  STATE
 SRVC.                 UNKNOWN:  COMPANY
 DATE.                 UNKNOWN:  LOG RUN DATE
 LONG.                -92.0291:  LONGITUDE
 LATI.                 19.4295:  LATITUDE
 XCOORD.           601925.3750:  X COORDINATE
 YCOORD.          2148512.5000:  Y COORDINATE
 ELEV.M                 0.0000:  ELEVATION
~Parameter Information Block
#MNEM.UNIT       Value        Description
#---------     -----------    ---------------------------
~Curve Information Block
#MNEM.UNIT                 API CODE     Curve Description
#---------               -----------    ---------------------------
 DEPTH.M                00 000 000 000:  Index Curve
 CGR .GAPI              00 000 000 000:  Gamma ray; Uranium-free
 DT  .US/F              00 000 000 000:  Acoustic wave travel time
 GR  .GAPI              00 000 000 000:  Gamma ray; total
 GR-LWD.GAPI            00 000 000 000:  
 ILD-LWD.OHMM           00 000 000 000:  
 ILM-LWD.OHMM           00 000 000 000:  
 NPHI.V/V               00 000 000 000:  Neutron porosity
 POTA.                  00 000 000 000:  Potassium contribution from spectral gamma ray
 THOR.PPM               00 000 000 000:  Thorium contribution from spectral gamma ray
 URAN.PPM               00 000 000 000:  Uranium contribution from spectral gamma ray
~A DEPTH        CGR    DT    GR   GR-LWD   ILD-LWD   ILM-LWD    NPHI    POTA    THOR    URAN
# ...
 3370.3260    21.2646  -999.2500    25.9096    29.2782   183.5365   171.0109     0.0518     0.0032     4.6714     0.5565 
 3370.4784    19.1284  -999.2500    27.1116    31.4085   181.8213   169.1881     0.0568     0.0037     3.9191     0.9124 
 3370.6308    17.0023  -999.2500    29.4784    32.0625   184.7689   162.5449     0.0659     0.0038     3.0598     1.4932 
 3370.7832    14.7145  -999.2500    31.0414    25.1742   257.6928   245.2972     0.0766     0.0032     2.8104     1.8535 
 3370.9356    14.0574  -999.2500    30.6467    23.3059   273.8425   260.7514     0.0829     0.0028     2.9094     1.8234 
 3371.0880    16.4241  -999.2500    28.0874    21.4375   289.9921   276.2057     0.0830     0.0040     3.1386     1.2638 
 3371.2404    19.8228  -999.2500    24.8940    19.8885   301.1364   285.1052     0.0818     0.0060     3.4715     0.4655 
 3371.3928    21.8885  -999.2500    24.0048    22.3783   380.5138   367.9723     0.0816     0.0074     3.5412     0.1239 
 3371.5452    23.2750  -999.2500    23.4817    22.9769   390.5184   377.8372     0.0818     0.0073     3.4641     0.1226 
 3371.6976    19.5389  -999.2500    23.1667    23.5755   400.5231   387.7022     0.0798     0.0058     3.4592     0.3174 
 3371.8500    18.9141  -999.2500    25.4012    25.3425   378.5757   364.3206     0.0770     0.0044     3.3811     0.8194 
 3372.0024    16.7282  -999.2500    28.2994    28.1766   299.0629   291.9468     0.0760     0.0040     3.1693     1.2821 
 3372.1548    18.1266  -999.2500    30.9036    31.3473   282.0636   262.4913     0.0783     0.0047     3.3578     1.3797 
 3372.3072    20.4695  -999.2500    32.7627    32.5578   266.7707   246.5804     0.0854     0.0057     3.9943     1.1854 
 3372.4596    24.4978  -999.2500    33.8201    33.7683   251.4778   230.6696     0.0930     0.0059     4.5772     1.0544 
 3372.6120    24.0728  -999.2500    34.5015    36.2085   244.7934   233.6072     0.1000     0.0047     4.4510     1.3640 
 3372.7644    19.4973  -999.2500    35.3793    34.9999   238.3034   231.0386     0.1070     0.0034     3.9157     1.8838 
 3372.9168    17.2321  -999.2500    37.9779    38.0406   235.2527   225.1017     0.1158     0.0032     3.7050     2.2748 
 3373.0692    20.0695  -999.2500    44.9253    41.0812   232.2021   219.1649     0.1287     0.0047     4.0961     2.6622 
 3373.2216    24.8435  -999.2500    58.0825    56.9881   202.8370   201.2133     0.1364     0.0067     4.6990     3.5854 
 3373.3740    28.7835  -999.2500    75.0539    99.8516   206.5376   194.7729     0.1414     0.0087     4.9134     5.0732 
 3373.5264    31.7465  -999.2500    90.0186   105.6555   200.1614   192.0390     0.1466     0.0113     4.9969     6.2978 
 3373.6788    37.2610  -999.2500    97.7854   111.4595   193.7852   189.3051     0.1514     0.0141     5.1720     6.6602 
 3373.8312    40.6145  -999.2500    96.3104   106.4721   178.4761   176.9525     0.1546     0.0160     5.3371     6.1281 
 3373.9836    41.2773  -999.2500    86.9914    60.5642   163.4874   148.9474     0.1558     0.0156     5.2789     5.1861 
 3374.1360    37.3440  -999.2500    73.1567    45.5178   170.2540   158.7985     0.1566     0.0130     4.9777     4.1643 
 3374.2884    31.8506  -999.2500    59.8835    46.0877   170.6189   156.9638     0.1502     0.0103     4.7399     3.2029 
 3374.4408    28.8816  -999.2500    51.4610    46.6576   170.9838   155.1291     0.1377     0.0088     4.6816     2.5227 
 3374.5932    29.0360  -999.2500    48.2530    48.8950   168.0506   151.0986     0.1274     0.0090     4.6328     2.1433 
 3374.7456    30.0350  -999.2500    47.8085    45.6746   164.2262   150.6085     0.1275     0.0102     4.6300     1.9125 
 3374.8980    31.8995  -999.2500    48.4636    46.9789   161.8739   149.9088     0.1382     0.0108     4.7612     1.8529 
 3375.0504    31.9301  -999.2500    50.0231    48.2831   159.5217   149.2092     0.1517     0.0106     4.8346     2.0205 
 3375.2028    31.7127  -999.2500    51.6842    54.7621   127.3992   120.9580     0.1596     0.0105     4.7946     2.2444 
 3375.3552    31.9443  -999.2500    51.5513    55.0605   118.6686   110.5357     0.1564     0.0109     4.8919     2.1239 
 3375.5076    33.5879  -999.2500    48.5215    51.5456   112.7927   105.8767     0.1467     0.0108     5.1936     1.6805 
 3375.6600    32.8387  -999.2500    43.3774    48.0307   106.9168   101.2178     0.1405     0.0095     5.3819     1.2300 
 3375.8124    30.9325  -999.2500    38.0508    37.6504   101.7733    93.5265     0.1462     0.0080     5.1793     0.9526 
 3375.9648    26.9830  -999.2500    33.7399    26.0998   102.5422    83.6349     0.1642     0.0074     4.6438     0.7799 
 3376.1172    25.7644  -999.2500    31.4543    30.7086   103.4024    83.6175     0.1848     0.0078     4.1348     0.6640 
 3376.2696    25.8964  -999.2500    31.9640    34.0954   103.3414    84.9869     0.1924     0.0085     4.0691     0.6362 
 3376.4220    27.3478  -999.2500    35.1508    37.4821   103.2804    86.3563     0.1916     0.0089     4.2157     0.8823 
 3376.5744    27.0141  -999.2500    40.1052    42.9017   106.9817    89.6932     0.1854     0.0085     4.2126     1.4943 
 3376.7268    25.8761  -999.2500    46.0560    54.5594   116.0485    95.5183     0.1788     0.0079     4.0230     2.3327 
 3376.8792    24.7690  -999.2500    52.0291    57.1200   117.5380    96.9541     0.1790     0.0080     4.0539     2.9601 
 3377.0316    27.5369  -999.2500    56.1179    59.6807   119.0275    98.3899     0.1764     0.0093     4.5395     3.0145 
 3377.1840    32.8633  -999.2500    56.2438    57.6765   122.3298   104.5474     0.1727     0.0109     5.0666     2.5740 
 3377.3364    35.1113  -999.2500    52.2419    44.9862   147.7659   128.8512     0.1630     0.0117     5.1182     1.9970 
 3377.4888    33.3889  -999.2500    46.3566    42.0966   151.8231   135.1889     0.1490     0.0109     4.8840     1.5460 
 3377.6412    30.7395  -999.2500    40.8195    39.2071   155.8803   141.5266     0.1357     0.0094     4.7891     1.2078 
 3377.7936    28.2624  -999.2500    36.5909    32.0816   164.4478   150.3540     0.1191     0.0081     4.8641     0.9054 
 3377.9460    28.0964  -999.2500    33.4575    27.2013   173.0395   159.7251     0.1052     0.0077     4.8258     0.6398 
 3378.0984    26.0577  -999.2500    31.5225    25.1551   185.9790   178.1583     0.0990     0.0071     4.5013     0.6468 
 3378.2508    23.1754  -999.2500    30.6218    25.7383   197.4790   183.0760     0.0944     0.0055     3.8760     1.0427 
 3378.4032    18.0047  -999.2500    30.4334    26.3216   208.9791   187.9937     0.0912     0.0036     3.6705     1.3877 
 3378.5556    18.7078  -999.2500    30.6926    25.7709   190.4065   180.8581     0.0884     0.0032     4.2677     1.2407 
 3378.7080    21.6669  -999.2500    31.2367    29.1710   184.7290   169.5305     0.0869     0.0049     4.9318     0.7871 
 3378.8604    28.0214  -999.2500    32.5183    29.8766   177.8506   166.3297     0.0902     0.0077     5.2288     0.3675 
 3379.0128    31.6727  -999.2500    34.5786    30.5823   170.9723   163.1290     0.0964     0.0105     5.1348     0.1947 
 3379.1652    34.3139  -999.2500    36.2132    32.4756   161.8303   147.4629     0.1016     0.0121     4.6287     0.3312 
 3379.3176    31.7574  -999.2500    36.1750    31.1599   140.8712   132.1015     0.0986     0.0123     3.9753     0.5568 
 3379.4700    29.6233  -999.2500    35.0235    31.1427   144.6837   134.6956     0.0896     0.0114     3.6179     0.7019 
 3379.6224    26.2363  -999.2500    33.6471    31.1255   148.4962   137.2897     0.0819     0.0098     3.2396     0.9527 
 3379.7748    21.7931  -999.2500    32.6276    29.8480   146.6425   134.4271     0.0843     0.0082     3.0459     1.1536 
 3379.9272    21.6810  -999.2500    31.5761    26.0080   139.9092   127.0964     0.0979     0.0073     3.5460     0.9822 
 3380.0796    23.9722  -999.2500    29.9932    25.3348   144.5267   127.1088     0.1183     0.0066     4.3505     0.6099 
 3380.2320    25.1086  -999.2500    28.2870    25.1856   135.6295   120.2413     0.1370     0.0057     4.8226     0.3723 
