~Version Information
 VERS.                  2.0:   CWLS log ASCII Standard -VERSION 2.0
 WRAP.                   NO:   One line per depth step
~Well Information Block
#MNEM.UNIT       Data Type    Information
#---------     -----------    ---------------------------
 STRT.M               755.1420:
 STOP.M              3753.3071:
 STEP.M                 0.1524:
 NULL.               -999.2500:
 UWI .                    1068:  UWI
 API .                    1068:  UWI
 WELL.                    1068:  COMMON WELL NAME
 COMP.                 UNKNOWN:  WELL OPERATOR
 FLD .                 UNKNOWN:  FIELD
 LIC .                 UNKNOWN:  AUTHORIZATION NO
 LOC .                 UNKNOWN:  BASIN
 CTRY.                 UNKNOWN:  COUNTRY
 STAT.                 UNKNOWN:  STATE
 CNTY.                 UNKNOWN:  COUNTY
 PROV.                 UNKNOWN:  STATE
 SRVC.                 UNKNOWN:  COMPANY
 DATE.                 UNKNOWN:  LOG RUN DATE
 LONG.                -92.0291:  LONGITUDE
 LATI.                 19.4295:  LATITUDE
 XCOORD.           601925.3750:  X COORDINATE
 YCOORD.          2148512.5000:  Y COORDINATE
 ELEV.M                 0.0000:  ELEVATION
~Parameter Information Block
#MNEM.UNIT       Value        Description
#---------     -----------    ---------------------------
~Curve Information Block
#MNEM.UNIT                 API CODE     Curve Description
#---------               -----------    ---------------------------
 DEPTH.M                00 000 000 000:  Index Curve
 CGR .GAPI              00 000 000 000:  Gamma ray; Uranium-free
 DT  .US/F              00 000 000 000:  Acoustic wave travel time
 GR  .GAPI              00 000 000 000:  Gamma ray; total
 GR-LWD.GAPI            00 000 000 000:  
 ILD-LWD.OHMM           00 000 000 000:  
 ILM-LWD.OHMM           00 000 000 000:  
 NPHI.V/V               00 000 000 000:  Neutron porosity
 POTA.                  00 000 000 000:  Potassium contribution from spectral gamma ray
 THOR.PPM               00 000 000 000:  Thorium contribution from spectral gamma ray
 URAN.PPM               00 000 000 000:  Uranium contribution from spectral gamma ray
~A DEPTH        CGR    DT    GR   GR-LWD   ILD-LWD   ILM-LWD    NPHI    POTA    THOR    URAN
# ...
 2887.5228    55.7846  -999.2500    57.9636    90.7539     2.2019     2.1902     0.3950     0.0241     6.4092     0.1845 
 2887.6752    59.2222  -999.2500    61.5654    93.0759     2.1926     2.1783     0.3774     0.0256     6.8194     0.1872 
 2887.8276    62.7823  -999.2500    64.8583    94.7549     2.2557     2.2252     0.3683     0.0272     7.1025     0.1866 
 2887.9800    64.1863  -999.2500    65.9198    96.5410     2.2348     2.2022     0.3658     0.0279     7.1768     0.1839 
 2888.1324    64.7600  -999.2500    66.8991    99.9883     2.5017     2.4331     0.3803     0.0283     7.2755     0.1798 
 2888.2848    68.1346  -999.2500    69.9028   103.6677     2.8108     2.7006     0.4062     0.0304     7.3293     0.1720 
 2888.4372    70.5294  -999.2500    71.3860   104.0428     3.5599     3.3952     0.4088     0.0324     6.9606     0.1658 
 2888.5896    68.3535  -999.2500    70.4542   104.1679     3.7469     3.6787     0.3986     0.0323     6.7623     0.1699 
 2888.7420    68.2546  -999.2500    69.5257   104.1679     3.3396     3.3796     0.4067     0.0300     7.3684     0.1818 
 2888.8944    68.6840  -999.2500    69.9500   103.9714     3.3396     3.3796     0.4168     0.0276     8.4175     0.1935 
 2889.0468    69.8396  -999.2500    70.9683   100.3277     3.1440     3.1852     0.4199     0.0267     9.0418     0.2000 
 2889.1992    68.7632  -999.2500    70.2995    92.6651     3.0975     3.0879     0.4268     0.0274     8.5456     0.1974 
 2889.3516    67.1625  -999.2500    68.2207    85.8956     2.9993     2.9509     0.4216     0.0286     7.5199     0.1905 
 2889.5040    64.5446  -999.2500    64.0104    81.4303     2.9588     2.8425     0.4186     0.0286     6.3503     0.1821 
 2889.6564    58.6980  -999.2500    59.7674    79.9299     2.7975     2.7361     0.4217     0.0281     5.3761     0.1755 
 2889.8088    56.3048  -999.2500    57.5396    80.1621     2.7626     2.7426     0.4142     0.0275     4.9735     0.1723 
 2889.9612    55.8171  -999.2500    57.5173    82.5555     2.8413     2.8167     0.4162     0.0271     5.1374     0.1737 
 2890.1136    56.2112  -999.2500    57.5442    85.1812     2.9178     2.8768     0.4168     0.0260     5.5668     0.1766 
 2890.2660    55.4296  -999.2500    57.1991    86.9673     2.9178     2.8768     0.4060     0.0243     6.1355     0.1817 
 2890.4184    55.6914  -999.2500    57.6493    84.9490     3.0249     2.9707     0.3870     0.0228     6.8263     0.1868 
 2890.5708    56.8473  -999.2500    59.3936    79.7691     3.3508     3.2683     0.3709     0.0227     7.3651     0.1886 
 2890.7232    59.4141  -999.2500    61.5883    71.8565     3.5974     3.5308     0.3670     0.0238     7.5576     0.1891 
 2890.8756    60.1914  -999.2500    61.5893    65.6050     3.9194     3.8683     0.3800     0.0245     7.2691     0.1852 
 2891.0280    58.9913  -999.2500    59.5002    63.7653     4.1068     4.1031     0.3894     0.0245     6.7021     0.1805 
 2891.1804    54.7757  -999.2500    56.2577    65.8372     3.6106     3.6587     0.3831     0.0236     6.1559     0.1763 
 2891.3328    52.3361  -999.2500    53.5642    68.2128     3.3394     3.3839     0.3782     0.0224     5.7563     0.2182 
 2891.4852    49.5399  -999.2500    52.8154    68.5700     3.5250     3.5020     0.3736     0.0219     5.6145     0.2623 
 2891.6376    50.8624  -999.2500    54.2183    66.8553     3.9692     3.8456     0.3660     0.0228     5.7807     0.2162 
 2891.7900    56.6615  -999.2500    58.4185    64.3011     4.3022     4.1408     0.3576     0.0249     6.2624     0.1699 
 2891.9424    59.8455  -999.2500    60.6239    60.4788     4.6447     4.5156     0.3567     0.0259     6.5068     0.1698 
 2892.0948    58.7551  -999.2500    59.8398    55.4061     5.2853     5.1618     0.3723     0.0249     6.6750     0.1728 
 2892.2472    57.4778  -999.2500    58.2251    51.2266     5.6201     5.5084     0.3923     0.0229     6.9759     0.1780 
 2892.3996    56.1575  -999.2500    58.5404    47.7793     5.6201     5.5084     0.4096     0.0214     7.6334     0.1846 
 2892.5520    57.9233  -999.2500    58.8740    49.2082     5.2063     5.2468     0.4309     0.0211     7.8368     0.1869 
 2892.7044    55.7029  -999.2500    55.5000    53.9772     4.3993     4.5284     0.4429     0.0211     6.8972     0.1820 
 2892.8568    49.3464  -999.2500    51.1340    62.4793     4.1037     4.1434     0.4396     0.0206     5.1272     0.4699 
 2893.0092    41.2709  -999.2500    49.2987    66.8910     4.2191     4.1412     0.4231     0.0187     3.4075     1.2471 
 2893.1616    32.6080  -999.2500    49.9317    66.2302     5.0970     4.9929     0.4065     0.0157     2.9444     1.9660 
 2893.3140    30.1389  -999.2500    50.0613    62.3721     5.4715     5.3804     0.3830     0.0121     3.5988     2.2751 
 2893.4664    28.5571  -999.2500    49.9881    59.9251     5.7382     5.7077     0.3637     0.0090     4.4147     2.4410 
 2893.6188    27.3430  -999.2500    49.9218    59.2106     5.7382     5.7077     0.3635     0.0068     5.1242     2.4904 
 2893.7712    29.0627  -999.2500    49.5051    59.6214     5.9787     5.9693     0.3622     0.0064     5.6521     2.2876 
 2893.9236    30.3757  -999.2500    48.6458    58.3711     6.0310     6.0899     0.3572     0.0076     5.6843     1.9909 
 2894.0760    32.3310  -999.2500    47.6690    57.1208     6.0310     6.0899     0.3606     0.0101     5.3537     1.6349 
 2894.2284    34.9648  -999.2500    47.1015    54.5131     5.9380     6.0641     0.3747     0.0129     5.0095     1.2598 
 2894.3808    36.6954  -999.2500    47.1585    53.7450     5.8459     6.0160     0.3901     0.0147     4.5217     1.1801 
 2894.5332    35.9759  -999.2500    47.3321    52.9770     5.8459     6.0160     0.3953     0.0154     4.1560     1.2382 
 2894.6856    36.0764  -999.2500    47.3211    53.3342     5.8042     5.9448     0.3970     0.0152     4.2200     1.2454 
 2894.8380    35.7531  -999.2500    46.9519    53.8701     5.8143     5.8900     0.4116     0.0145     4.3904     1.2474 
 2894.9904    35.5723  -999.2500    46.7142    56.0670     5.8261     5.8573     0.4098     0.0134     4.6614     1.2932 
 2895.1428    34.0008  -999.2500    46.7869    58.4426     5.8723     5.8268     0.3972     0.0121     4.6190     1.5147 
 2895.2952    32.2393  -999.2500    47.3517    59.8715     5.8809     5.8195     0.3963     0.0115     4.6814     1.6372 
 2895.4476    33.6383  -999.2500    48.6413    61.3004     5.9538     5.9233     0.4000     0.0111     4.9747     1.7323 
 2895.6000    32.3008  -999.2500    50.2822    62.7293     6.0513     5.9915     0.3994     0.0101     5.0433     2.0569 
 2895.7524    29.2499  -999.2500    51.5633    62.7293     6.0602     6.0343     0.4000     0.0085     4.6417     2.5946 
 2895.9048    25.6595  -999.2500    52.0122    61.4254     6.0634     6.0157     0.3834     0.0079     4.3804     2.8366 
 2896.0572    27.8318  -999.2500    51.6467    59.4607     6.0551     6.0156     0.3753     0.0088     4.4337     2.6361 
 2896.2096    28.6747  -999.2500    50.8597    59.8179     6.0444     5.9983     0.3902     0.0099     4.4732     2.3597 
 2896.3620    30.4397  -999.2500    49.9473    58.4426     6.0147     5.9748     0.3919     0.0100     4.2897     2.3279 
 2896.5144    26.4592  -999.2500    48.9310    59.7465     5.9808     5.9548     0.3827     0.0080     3.8185     2.6975 
 2896.6668    20.1020  -999.2500    48.2961    62.8365     5.9802     5.9456     0.3840     0.0059     3.1059     3.2393 
 2896.8192    16.5272  -999.2500    48.6439    65.5157     5.9542     5.9409     0.3893     0.0053     2.7224     3.5127 
 2896.9716    20.2462  -999.2500    50.1370    64.6226     5.9949     5.9632     0.3817     0.0066     3.2452     3.2763 
 2897.1240    23.9596  -999.2500    51.7683    60.1573     5.9854     5.9557     0.3853     0.0082     4.0558     2.8929 
 2897.2764    28.0770  -999.2500    52.4782    59.2642     5.9667     5.9445     0.3890     0.0088     4.4769     2.7243 
 2897.4288    27.6266  -999.2500    52.4133    59.9251     5.9858     5.9334     0.3819     0.0087     4.5756     2.6808 
