~Version Information
 VERS.                  2.0:   CWLS log ASCII Standard -VERSION 2.0
 WRAP.                   NO:   One line per depth step
~Well Information Block
#MNEM.UNIT       Data Type    Information
#---------     -----------    ---------------------------
 STRT.M               755.1420:
 STOP.M              3753.3071:
 STEP.M                 0.1524:
 NULL.               -999.2500:
 UWI .                    1068:  UWI
 API .                    1068:  UWI
 WELL.                    1068:  COMMON WELL NAME
 COMP.                 UNKNOWN:  WELL OPERATOR
 FLD .                 UNKNOWN:  FIELD
 LIC .                 UNKNOWN:  AUTHORIZATION NO
 LOC .                 UNKNOWN:  BASIN
 CTRY.                 UNKNOWN:  COUNTRY
 STAT.                 UNKNOWN:  STATE
 CNTY.                 UNKNOWN:  COUNTY
 PROV.                 UNKNOWN:  STATE
 SRVC.                 UNKNOWN:  COMPANY
 DATE.                 UNKNOWN:  LOG RUN DATE
 LONG.                -92.0291:  LONGITUDE
 LATI.                 19.4295:  LATITUDE
 XCOORD.           601925.3750:  X COORDINATE
 YCOORD.          2148512.5000:  Y COORDINATE
 ELEV.M                 0.0000:  ELEVATION
~Parameter Information Block
#MNEM.UNIT       Value        Description
#---------     -----------    ---------------------------
~Curve Information Block
#MNEM.UNIT                 API CODE     Curve Description
#---------               -----------    ---------------------------
 DEPTH.M                00 000 000 000:  Index Curve
 CGR .GAPI              00 000 000 000:  Gamma ray; Uranium-free
 DT  .US/F              00 000 000 000:  Acoustic wave travel time
 GR  .GAPI              00 000 000 000:  Gamma ray; total
 GR-LWD.GAPI            00 000 000 000:  
 ILD-LWD.OHMM           00 000 000 000:  
 ILM-LWD.OHMM           00 000 000 000:  
 NPHI.V/V               00 000 000 000:  Neutron porosity
 POTA.                  00 000 000 000:  Potassium contribution from spectral gamma ray
 THOR.PPM               00 000 000 000:  Thorium contribution from spectral gamma ray
 URAN.PPM               00 000 000 000:  Uranium contribution from spectral gamma ray
~A DEPTH        CGR    DT    GR   GR-LWD   ILD-LWD   ILM-LWD    NPHI    POTA    THOR    URAN
# ...
 2776.8804    30.8994    70.0389    32.6012    36.0000     2.6637     2.5461     0.2955     0.0062     6.4384     0.1509 
 2777.0328    33.8329    71.0140    36.4555    38.3203     2.6637     2.5461     0.2938     0.0067     7.2954     0.1550 
 2777.1852    37.4222    71.9130    38.6732    47.2656     2.6637     2.5461     0.3077     0.0087     7.0986     0.1545 
 2777.3376    37.4428    75.4325    38.5927    48.1328     2.6637     2.5461     0.3249     0.0107     6.3113     0.1519 
 2777.4900    36.0134    81.7463    36.6827    48.5664     2.4950     2.3849     0.3400     0.0118     5.3503     0.1473 
 2777.6424    33.6017    85.8788    34.2386    49.0000     2.3263     2.2236     0.3410     0.0121     4.5647     0.1397 
 2777.7948    30.9918    87.5913    32.7736    42.2500     2.3263     2.2236     0.3327     0.0117     4.3047     0.1356 
 2777.9472    31.1406    88.9727    32.8597    56.2500     2.2236     2.1255     0.3274     0.0112     4.5211     0.1382 
 2778.0996    30.9579    89.5210    32.3956    51.7578     2.2493     2.1500     0.3253     0.0110     4.4588     0.1377 
 2778.2520    29.4919    88.6266    30.0944    47.2656     2.2750     2.1745     0.3324     0.0112     3.7408     0.1298 
 2778.4044    27.8142    86.4019    29.8520    50.7656     2.3263     2.2236     0.3428     0.0115     3.5873     0.1260 
 2778.5568    31.4185    82.7486    33.0477    43.8906     2.1255     2.1255     0.3534     0.0113     4.5674     0.1317 
 2778.7092    34.4653    79.4688    37.6293    46.4453     2.1746     2.1746     0.3510     0.0111     5.9143     0.1408 
 2778.8616    38.5351    78.0134    39.1807    49.0000     2.2236     2.2236     0.3368     0.0111     6.3418     0.1449 
 2779.0140    36.9251    77.9250    37.9871    43.8906     2.1255     2.1255     0.3222     0.0109     6.0630     0.1462 
 2779.1664    36.2334    79.0909    37.6522    45.5625     2.2236     2.2236     0.3083     0.0107     6.0480     0.1477 
 2779.3188    36.7337    81.3426    38.7272    49.8828     2.4337     2.3263     0.3062     0.0106     6.3718     0.1488 
 2779.4712    37.9888    84.0874    38.5319    50.3242     2.4337     2.3263     0.3111     0.0107     6.2973     0.1476 
 2779.6236    34.4810    86.0879    34.1014    50.7656     2.4337     2.3263     0.3093     0.0102     5.2596     0.1394 
 2779.7760    28.6006    86.5792    29.2677    49.0000     2.4899     2.4899     0.3025     0.0097     4.1052     0.1308 
 2779.9284    26.2366    85.8632    27.4722    49.0000     2.5461     2.5461     0.2934     0.0096     3.6659     0.1300 
 2780.0808    27.4463    84.6794    29.3435    48.5664     2.6049     2.5461     0.2809     0.0098     4.0975     0.1352 
 2780.2332    30.1045    82.9948    31.3959    48.1328     2.6637     2.5461     0.2831     0.0106     4.3647     0.1355 
 2780.3856    29.0126    79.7452    29.5766    44.0313     2.5461     2.4337     0.2930     0.0115     3.5138     0.1273 
 2780.5380    25.9733    75.2094    27.0992    40.3047     2.5902     2.4337     0.2983     0.0121     2.5925     0.1198 
 2780.6904    27.5486    71.8667    28.7768    39.6836     2.5975     2.4337     0.3002     0.0121     3.0500     0.1239 
 2780.8428    30.7797    70.9056    32.8443    39.0625     2.6049     2.4337     0.3042     0.0116     4.3800     0.1347 
 2780.9952    34.6359    71.3011    35.4101    43.8906     2.6637     2.4337     0.3250     0.0107     5.4255     0.1408 
 2781.1476    35.0666    72.4597    36.6939    47.2656     1.9737     1.9597     0.3315     0.0103     5.9408     0.1437 
 2781.3000    36.6727    73.7676    37.6078    47.2656     2.3263     2.2236     0.3157     0.0102     6.2307     0.1472 
 2781.4524    36.3943    75.2752    38.1703    47.2656     2.3263     2.2750     0.2977     0.0104     6.3158     0.1516 
 2781.6048    36.9167    77.1332    38.1353    47.2656     2.3263     2.3263     0.2896     0.0111     6.0275     0.1529 
 2781.7572    36.2382    79.4310    37.0465    45.6250     2.3531     2.3263     0.2952     0.0121     5.3253     0.1474 
 2781.9096    34.3174    81.4184    33.3343    49.0000     2.3263     2.3263     0.2952     0.0124     4.1769     0.1366 
 2782.0620    28.5438    81.7884    30.0146    47.7226     2.4362     2.4362     0.2930     0.0118     3.5073     0.1299 
 2782.2144    28.6145    80.7826    30.4393    46.4453     2.5461     2.5461     0.2971     0.0113     3.8356     0.1309 
 2782.3668    32.2511    80.1899    34.1427    46.4141     2.6637     2.5461     0.2928     0.0114     4.7998     0.1359 
 2782.5192    35.7026    81.8293    36.9960    45.7754     2.7098     2.5902     0.2830     0.0117     5.5207     0.1385 
 2782.6716    34.8659    84.3660    36.1810    45.6689     2.7175     2.5975     0.2757     0.0114     5.3869     0.1361 
 2782.8240    33.8171    84.8375    34.5300    45.5625     2.7252     2.6049     0.2679     0.0112     5.0017     0.1340 
 2782.9764    33.8577    83.3623    34.8044    49.0000     2.7868     2.6637     0.2644     0.0112     5.0838     0.1379 
 2783.1288    34.7554    81.2772    36.2408    42.2656     2.6665     2.6102     0.2672     0.0112     5.4626     0.1451 
 2783.2812    35.9991    79.6109    36.9954    40.6406     2.5461     2.4337     0.2783     0.0109     5.8036     0.1509 
 2783.4336    35.4434    79.2046    36.5639    40.6406     2.4899     2.3800     0.2977     0.0105     5.8458     0.1505 
 2783.5860    33.6026    79.5310    35.1266    40.6406     2.4337     2.3263     0.3130     0.0101     5.5737     0.1457 
 2783.7384    32.4350    79.6931    32.9762    49.9140     1.8152     1.8581     0.3120     0.0096     5.1713     0.1423 
 2783.8908    29.5809    79.4045    30.2761    52.5625     1.7743     1.7743     0.3109     0.0094     4.4873     0.1385 
 2784.0432    27.7717    78.6388    29.9250    49.0625     1.8581     1.8152     0.3015     0.0099     4.1899     0.1360 
 2784.1956    32.3067    77.5304    32.6698    45.5625     1.9419     1.8562     0.2857     0.0110     4.5498     0.1366 
 2784.3480    34.0677    76.5899    35.3308    43.8906     1.9419     2.0316     0.2882     0.0113     5.1843     0.1407 
 2784.5004    34.7774    76.7443    33.9603    43.8906     1.8162     1.9643     0.2981     0.0102     5.2404     0.1430 
 2784.6528    29.4317    79.3472    29.8883    43.8906     1.7952     1.9531     0.2943     0.0088     4.6508     0.1392 
 2784.8052    26.7903    82.8674    28.6306    43.8906     1.7743     1.9419     0.2805     0.0090     4.2189     0.1358 
 2784.9576    29.2156    84.5377    30.6707    45.5625     2.3263     2.3263     0.2761     0.0107     4.1124     0.1343 
 2785.1100    31.2060    84.2100    33.9605    54.1679     3.0626     2.7981     0.2751     0.0126     4.3045     0.1365 
 2785.2624    34.8647    83.2718    36.1654    58.1406     3.3383     3.0501     0.2896     0.0137     4.4577     0.1394 
 2785.4148    35.7029    83.0830    38.2358    59.6054     3.0351     2.5878     0.3301     0.0144     4.7790     0.1436 
 2785.5672    38.6792    83.7964    39.8571    61.0703     2.7319     2.1255     0.3637     0.0146     5.1439     0.1511 
 2785.7196    38.7630    84.2781    40.9044    63.5742     1.3383     1.2675     0.3722     0.0143     5.5223     0.1552 
 2785.8720    41.0066    84.0170    42.0990    61.1328     1.3234     1.1818     0.3654     0.0144     5.8353     0.1559 
 2786.0244    40.6386    83.5791    42.5862    56.2500     1.2935     1.3657     0.3639     0.0145     5.9398     0.1550 
 2786.1768    40.5314    83.3903    42.3516    66.0156     1.6211     1.6211     0.3684     0.0146     5.8519     0.1527 
 2786.3292    39.9412    83.3853    40.9614    62.0781     1.6977     1.6977     0.3631     0.0143     5.5625     0.1512 
 2786.4816    39.1340    83.2643    40.3549    60.1094     1.7360     1.7360     0.3498     0.0145     5.3131     0.1497 
 2786.6340    39.0184    83.0030    40.2424    58.1406     1.7743     1.7743     0.3391     0.0151     5.0365     0.1481 
 2786.7864    38.1501    82.8976    40.1236    56.2500     1.7743     1.8562     0.3362     0.0151     5.0106     0.1489 
