~Version Information
 VERS.                  2.0:   CWLS log ASCII Standard -VERSION 2.0
 WRAP.                   NO:   One line per depth step
~Well Information Block
#MNEM.UNIT       Data Type    Information
#---------     -----------    ---------------------------
 STRT.M               755.1420:
 STOP.M              3753.3071:
 STEP.M                 0.1524:
 NULL.               -999.2500:
 UWI .                    1068:  UWI
 API .                    1068:  UWI
 WELL.                    1068:  COMMON WELL NAME
 COMP.                 UNKNOWN:  WELL OPERATOR
 FLD .                 UNKNOWN:  FIELD
 LIC .                 UNKNOWN:  AUTHORIZATION NO
 LOC .                 UNKNOWN:  BASIN
 CTRY.                 UNKNOWN:  COUNTRY
 STAT.                 UNKNOWN:  STATE
 CNTY.                 UNKNOWN:  COUNTY
 PROV.                 UNKNOWN:  STATE
 SRVC.                 UNKNOWN:  COMPANY
 DATE.                 UNKNOWN:  LOG RUN DATE
 LONG.                -92.0291:  LONGITUDE
 LATI.                 19.4295:  LATITUDE
 XCOORD.           601925.3750:  X COORDINATE
 YCOORD.          2148512.5000:  Y COORDINATE
 ELEV.M                 0.0000:  ELEVATION
~Parameter Information Block
#MNEM.UNIT       Value        Description
#---------     -----------    ---------------------------
~Curve Information Block
#MNEM.UNIT                 API CODE     Curve Description
#---------               -----------    ---------------------------
 DEPTH.M                00 000 000 000:  Index Curve
 CGR .GAPI              00 000 000 000:  Gamma ray; Uranium-free
 DT  .US/F              00 000 000 000:  Acoustic wave travel time
 GR  .GAPI              00 000 000 000:  Gamma ray; total
 GR-LWD.GAPI            00 000 000 000:  
 ILD-LWD.OHMM           00 000 000 000:  
 ILM-LWD.OHMM           00 000 000 000:  
 NPHI.V/V               00 000 000 000:  Neutron porosity
 POTA.                  00 000 000 000:  Potassium contribution from spectral gamma ray
 THOR.PPM               00 000 000 000:  Thorium contribution from spectral gamma ray
 URAN.PPM               00 000 000 000:  Uranium contribution from spectral gamma ray
~A DEPTH        CGR    DT    GR   GR-LWD   ILD-LWD   ILM-LWD    NPHI    POTA    THOR    URAN
# ...
 3732.4284    47.9313  -999.2500    72.4209    56.0141    46.8349    46.5532     0.1124     0.0139     7.5602     2.9311 
 3732.5808    43.2657  -999.2500    71.9382    53.3484    42.7029    42.3891     0.0980     0.0134     7.0247     3.1636 
 3732.7332    43.4865  -999.2500    71.1125    55.6888    39.6970    39.5357     0.0865     0.0143     6.8438     3.0035 
 3732.8856    46.2062  -999.2500    70.1404    59.1766    37.7999    37.6214     0.0813     0.0161     6.9711     2.5602 
 3733.0380    50.0477  -999.2500    69.0022    62.6643    35.9029    35.7071     0.0805     0.0171     7.4360     2.1073 
 3733.1904    50.3690  -999.2500    68.0109    68.5655    34.2191    33.5557     0.0878     0.0163     7.8485     1.9550 
 3733.3428    50.2641  -999.2500    67.3885    63.8463    32.1419    31.9183     0.0952     0.0153     8.1754     1.9094 
 3733.4952    50.9491  -999.2500    67.4258    64.7439    32.0317    31.7172     0.0975     0.0153     8.5988     1.7381 
 3733.6476    54.6531  -999.2500    67.5841    65.6414    31.9214    31.5161     0.0979     0.0168     9.3372     1.2378 
 3733.8000    60.3748  -999.2500    67.5818    72.7178    31.4739    31.0679     0.0980     0.0184     9.9410     0.7513 
 3733.9524    61.8712  -999.2500    67.9523    91.4815    29.7631    29.2843     0.0993     0.0190     9.8037     0.7568 
 3734.1048    60.1746  -999.2500    68.7667    93.3519    29.4235    28.9785     0.1023     0.0181     8.9912     1.3103 
 3734.2572    51.7367  -999.2500    69.8280    95.2223    29.0840    28.6728     0.1088     0.0159     7.9225     2.1944 
 3734.4096    45.8085  -999.2500    70.3656    95.3410    27.9209    27.7150     0.1174     0.0135     6.5318     3.1685 
 3734.5620    36.4237  -999.2500    70.6155    98.3544    27.8215    27.0998     0.1233     0.0122     5.5671     3.7819 
 3734.7144    36.8349  -999.2500    70.9997    93.7904    27.5714    26.6183     0.1277     0.0122     6.0204     3.6436 
 3734.8668    42.6573  -999.2500    71.3122    88.3658    27.6422    26.8381     0.1304     0.0128     7.3981     3.0470 
 3735.0192    47.2088  -999.2500    71.4214    82.9412    27.7129    27.0579     0.1330     0.0130     8.0638     2.7622 
 3735.1716    44.5124  -999.2500    71.2635    72.9919    28.1390    27.1985     0.1347     0.0129     7.5640     2.9532 
 3735.3240    43.3935  -999.2500    70.6933    73.5306    30.4178    29.4549     0.1375     0.0133     6.6430     3.1926 
 3735.4764    41.7620  -999.2500    69.5068    76.0139    30.4965    29.7900     0.1370     0.0144     6.2217     3.0455 
 3735.6288    44.7930  -999.2500    68.2782    78.4973    30.5751    30.1250     0.1332     0.0155     6.9259     2.4571 
 3735.7812    50.1022  -999.2500    67.5801    79.9513    31.3568    30.9679     0.1347     0.0158     8.0770     1.8864 
 3735.9336    53.0226  -999.2500    67.5348    70.6421    34.7073    34.7247     0.1368     0.0155     8.8025     1.6585 
 3736.0860    52.2414  -999.2500    67.9436    66.8612    35.4839    35.5433     0.1386     0.0151     8.9841     1.7018 
 3736.2384    53.3223  -999.2500    68.7469    63.0803    36.2606    36.3618     0.1375     0.0148     9.4223     1.6539 
 3736.3908    56.4164  -999.2500    69.7889    54.3502    37.7693    38.1767     0.1361     0.0153    10.1605     1.3905 
 3736.5432    60.9292  -999.2500    70.4204    46.2477    40.7849    41.6523     0.1359     0.0168    10.7803     0.9885 
 3736.6956    63.2594  -999.2500    70.3967    42.7724    41.4718    42.5013     0.1366     0.0185    10.6222     0.7834 
 3736.8480    63.3121  -999.2500    69.8872    44.6514    41.6586    42.8867     0.1369     0.0192     9.8082     0.9406 
 3737.0004    59.3885  -999.2500    69.8214    46.5303    41.8453    43.2722     0.1366  -999.2500  -999.2500  -999.2500 
 3737.1528  -999.2500  -999.2500  -999.2500    52.6188    41.8568    43.2337     0.1369  -999.2500  -999.2500  -999.2500 
 3737.3052  -999.2500  -999.2500  -999.2500    65.5922    42.8224    44.1671     0.1375  -999.2500  -999.2500  -999.2500 
 3737.4576  -999.2500  -999.2500  -999.2500    63.0155    43.1393    44.3356     0.1367  -999.2500  -999.2500  -999.2500 
 3737.6100  -999.2500  -999.2500  -999.2500    60.4389    43.4561    44.5041     0.1340  -999.2500  -999.2500  -999.2500 
 3737.7624  -999.2500  -999.2500  -999.2500    55.7032    43.7754    44.9115     0.1343  -999.2500  -999.2500  -999.2500 
 3737.9148  -999.2500  -999.2500  -999.2500    48.3494    41.8291    43.3775     0.1354  -999.2500  -999.2500  -999.2500 
 3738.0672  -999.2500  -999.2500  -999.2500    47.7827    43.3675    44.2748     0.1361  -999.2500  -999.2500  -999.2500 
 3738.2196  -999.2500  -999.2500  -999.2500    47.2161    44.9059    45.1722     0.1363  -999.2500  -999.2500  -999.2500 
 3738.3720  -999.2500  -999.2500  -999.2500    48.3630    44.5520    45.1570     0.1371  -999.2500  -999.2500  -999.2500 
 3738.5244  -999.2500  -999.2500  -999.2500    53.5763    44.5501    44.8079     0.1358  -999.2500  -999.2500  -999.2500 
 3738.6768  -999.2500  -999.2500  -999.2500    55.3696    45.5993    45.1904     0.1347  -999.2500  -999.2500  -999.2500 
 3738.8292  -999.2500  -999.2500  -999.2500    54.6895    45.4253    44.8826     0.1346  -999.2500  -999.2500  -999.2500 
 3738.9816  -999.2500  -999.2500  -999.2500    54.0094    45.2512    44.5748     0.1333  -999.2500  -999.2500  -999.2500 
 3739.1340  -999.2500  -999.2500  -999.2500    54.0020    45.9900    44.9318     0.1344  -999.2500  -999.2500  -999.2500 
 3739.2864  -999.2500  -999.2500  -999.2500    49.3881    44.9436    43.3488     0.1360  -999.2500  -999.2500  -999.2500 
 3739.4388  -999.2500  -999.2500  -999.2500    48.7517    44.0802    42.2095     0.1376  -999.2500  -999.2500  -999.2500 
 3739.5912  -999.2500  -999.2500  -999.2500    48.1154    43.2169    41.0703     0.1387  -999.2500  -999.2500  -999.2500 
 3739.7436  -999.2500  -999.2500  -999.2500    49.0105    40.4363    38.6695     0.1391  -999.2500  -999.2500  -999.2500 
 3739.8960  -999.2500  -999.2500  -999.2500    55.5779    33.8178    32.9638     0.1351  -999.2500  -999.2500  -999.2500 
 3740.0484  -999.2500  -999.2500  -999.2500    59.3274    33.3779    32.6083     0.1322  -999.2500  -999.2500  -999.2500 
 3740.2008  -999.2500  -999.2500  -999.2500    63.0768    32.9380    32.2529     0.1335  -999.2500  -999.2500  -999.2500 
 3740.3532  -999.2500  -999.2500  -999.2500    66.0673    30.3133    30.3280     0.1348  -999.2500  -999.2500  -999.2500 
 3740.5056  -999.2500  -999.2500  -999.2500    72.1876    22.5074    22.8327     0.1377  -999.2500  -999.2500  -999.2500 
 3740.6580  -999.2500  -999.2500  -999.2500    70.7078    22.1462    22.1190     0.1365  -999.2500  -999.2500  -999.2500 
 3740.8104  -999.2500  -999.2500  -999.2500    66.8948    23.0131    22.4452     0.1345  -999.2500  -999.2500  -999.2500 
 3740.9628  -999.2500  -999.2500  -999.2500    63.0817    23.8800    22.7714     0.1371  -999.2500  -999.2500  -999.2500 
 3741.1152  -999.2500  -999.2500  -999.2500    55.9626    23.8012    22.4700  -999.2500  -999.2500  -999.2500  -999.2500 
 3741.2676  -999.2500  -999.2500  -999.2500    50.9355    22.1222    21.0743  -999.2500  -999.2500  -999.2500  -999.2500 
 3741.4200  -999.2500  -999.2500  -999.2500    52.6907    21.9928    21.0135  -999.2500  -999.2500  -999.2500  -999.2500 
 3741.5724  -999.2500  -999.2500  -999.2500    54.4458    21.8633    20.9528  -999.2500  -999.2500  -999.2500  -999.2500 
 3741.7248  -999.2500  -999.2500  -999.2500    55.7797    23.1933    21.8184  -999.2500  -999.2500  -999.2500  -999.2500 
 3741.8772  -999.2500  -999.2500  -999.2500    56.8328    24.3960    23.2060  -999.2500  -999.2500  -999.2500  -999.2500 
 3742.0296  -999.2500  -999.2500  -999.2500    55.4547    24.5555    23.4714  -999.2500  -999.2500  -999.2500  -999.2500 
 3742.1820  -999.2500  -999.2500  -999.2500    54.0766    24.7150    23.7368  -999.2500  -999.2500  -999.2500  -999.2500 
 3742.3344  -999.2500  -999.2500  -999.2500    51.6834    26.4341    25.5195  -999.2500  -999.2500  -999.2500  -999.2500 
