~Version Information
 VERS.                  2.0:   CWLS log ASCII Standard -VERSION 2.0
 WRAP.                   NO:   One line per depth step
~Well Information Block
#MNEM.UNIT       Data Type    Information
#---------     -----------    ---------------------------
 STRT.M               755.1420:
 STOP.M              3753.3071:
 STEP.M                 0.1524:
 NULL.               -999.2500:
 UWI .                    1068:  UWI
 API .                    1068:  UWI
 WELL.                    1068:  COMMON WELL NAME
 COMP.                 UNKNOWN:  WELL OPERATOR
 FLD .                 UNKNOWN:  FIELD
 LIC .                 UNKNOWN:  AUTHORIZATION NO
 LOC .                 UNKNOWN:  BASIN
 CTRY.                 UNKNOWN:  COUNTRY
 STAT.                 UNKNOWN:  STATE
 CNTY.                 UNKNOWN:  COUNTY
 PROV.                 UNKNOWN:  STATE
 SRVC.                 UNKNOWN:  COMPANY
 DATE.                 UNKNOWN:  LOG RUN DATE
 LONG.                -92.0291:  LONGITUDE
 LATI.                 19.4295:  LATITUDE
 XCOORD.           601925.3750:  X COORDINATE
 YCOORD.          2148512.5000:  Y COORDINATE
 ELEV.M                 0.0000:  ELEVATION
~Parameter Information Block
#MNEM.UNIT       Value        Description
#---------     -----------    ---------------------------
~Curve Information Block
#MNEM.UNIT                 API CODE     Curve Description
#---------               -----------    ---------------------------
 DEPTH.M                00 000 000 000:  Index Curve
 CGR .GAPI              00 000 000 000:  Gamma ray; Uranium-free
 DT  .US/F              00 000 000 000:  Acoustic wave travel time
 GR  .GAPI              00 000 000 000:  Gamma ray; total
 GR-LWD.GAPI            00 000 000 000:  
 ILD-LWD.OHMM           00 000 000 000:  
 ILM-LWD.OHMM           00 000 000 000:  
 NPHI.V/V               00 000 000 000:  Neutron porosity
 POTA.                  00 000 000 000:  Potassium contribution from spectral gamma ray
 THOR.PPM               00 000 000 000:  Thorium contribution from spectral gamma ray
 URAN.PPM               00 000 000 000:  Uranium contribution from spectral gamma ray
~A DEPTH        CGR    DT    GR   GR-LWD   ILD-LWD   ILM-LWD    NPHI    POTA    THOR    URAN
# ...
 2535.4788  -999.2500    77.6981    27.6246    28.8906     2.9155     2.8511  -999.2500  -999.2500  -999.2500  -999.2500 
 2535.6312  -999.2500    79.3183    23.3334    30.2500     3.1910     2.9155  -999.2500  -999.2500  -999.2500  -999.2500 
 2535.7836  -999.2500    81.5054    19.4129    33.1250     3.1206     2.8512  -999.2500  -999.2500  -999.2500  -999.2500 
 2535.9360  -999.2500    82.3304    16.6827    36.0000     3.0501     2.7868  -999.2500  -999.2500  -999.2500  -999.2500 
 2536.0884  -999.2500    82.8708    15.1617    30.2500     2.3263     2.3263  -999.2500  -999.2500  -999.2500  -999.2500 
 2536.2408  -999.2500    84.2340    16.3496    33.0625     1.9419     1.9419  -999.2500  -999.2500  -999.2500  -999.2500 
 2536.3932  -999.2500    85.7330    17.6886    31.6875     2.0337     2.0337  -999.2500  -999.2500  -999.2500  -999.2500 
 2536.5456  -999.2500    86.6261    18.9052    30.3125     2.1255     2.1255  -999.2500  -999.2500  -999.2500  -999.2500 
 2536.6980  -999.2500    87.3053    17.9751    27.5625     2.2236     2.1255  -999.2500  -999.2500  -999.2500  -999.2500 
 2536.8504  -999.2500    87.9527    16.1304    28.8906     2.4337     2.3263  -999.2500  -999.2500  -999.2500  -999.2500 
 2537.0028  -999.2500    87.7668    15.6052    28.2266     2.5461     2.3263  -999.2500  -999.2500  -999.2500  -999.2500 
 2537.1552  -999.2500    86.0232    17.2141    27.8946     2.5180     2.3263  -999.2500  -999.2500  -999.2500  -999.2500 
 2537.3076  -999.2500    84.0026    18.9022    27.5625     2.4899     2.3263  -999.2500  -999.2500  -999.2500  -999.2500 
 2537.4600  -999.2500    82.6772    17.4739    23.9063     2.4337     2.3263  -999.2500  -999.2500  -999.2500  -999.2500 
 2537.6124  -999.2500    81.6904    15.5040    20.2500     2.1657     2.2578  -999.2500  -999.2500  -999.2500  -999.2500 
 2537.7648  -999.2500    80.8167    15.0637    20.2500     2.0986     2.2407  -999.2500  -999.2500  -999.2500  -999.2500 
 2537.9172  -999.2500    80.4115    16.8841    20.2500     2.0316     2.2236  -999.2500  -999.2500  -999.2500  -999.2500 
 2538.0696  -999.2500    80.8091    17.7176    20.2500     1.8709     1.9989  -999.2500  -999.2500  -999.2500  -999.2500 
 2538.2220  -999.2500    81.8751    17.5976    19.5104     1.5495     1.5495  -999.2500  -999.2500  -999.2500  -999.2500 
 2538.3744  -999.2500    83.2813    16.8661    19.3255     1.6057     1.5861  -999.2500  -999.2500  -999.2500  -999.2500 
 2538.5268  -999.2500    84.3330    15.2342    19.1406     1.6619     1.6227  -999.2500  -999.2500  -999.2500  -999.2500 
 2538.6792  -999.2500    84.5438    13.6799    21.4531     1.7743     1.6959  -999.2500  -999.2500  -999.2500  -999.2500 
 2538.8316  -999.2500    84.2774    14.0123    19.1406     1.7761     1.7351  -999.2500  -999.2500  -999.2500  -999.2500 
 2538.9840  -999.2500    84.2351    14.8987    19.6953     1.6959     1.6959  -999.2500  -999.2500  -999.2500  -999.2500 
 2539.1364  -999.2500    84.4979    16.3754    19.9726     1.7155     1.7155  -999.2500  -999.2500  -999.2500  -999.2500 
 2539.2888  -999.2500    84.5459    17.0517    20.2500     1.7351     1.7351  -999.2500  -999.2500  -999.2500  -999.2500 
 2539.4412  -999.2500    83.9299    15.5857    22.0078     1.7743     1.7743  -999.2500  -999.2500  -999.2500  -999.2500 
 2539.5936  -999.2500    82.9270    14.6050    21.4531     1.8289     1.8562  -999.2500  -999.2500  -999.2500  -999.2500 
 2539.7460  -999.2500    82.3032    14.9512    20.2969     1.8426     1.8705  -999.2500  -999.2500  -999.2500  -999.2500 
 2539.8984  -999.2500    82.3843    15.0870    19.1406     1.8562     1.8848  -999.2500  -999.2500  -999.2500  -999.2500 
 2540.0508  -999.2500    82.4660    15.4455    19.1406     1.8562     1.9134  -999.2500  -999.2500  -999.2500  -999.2500 
 2540.2032  -999.2500    81.6253    15.9968    20.2656     1.9419     1.9419  -999.2500  -999.2500  -999.2500  -999.2500 
 2540.3556  -999.2500    80.0574    15.1594    20.8281     1.9419     1.9419  -999.2500  -999.2500  -999.2500  -999.2500 
 2540.5080  -999.2500    78.9841    14.8983    21.3906     1.9419     1.9419  -999.2500  -999.2500  -999.2500  -999.2500 
 2540.6604  -999.2500    79.0792    15.0707    21.3906     1.8562     1.8562  -999.2500  -999.2500  -999.2500  -999.2500 
 2540.8128  -999.2500    79.8958    14.3764    22.5625     1.9419     1.9419  -999.2500  -999.2500  -999.2500  -999.2500 
 2540.9652  -999.2500    80.5951    14.8976    20.7135     1.9205     1.9205  -999.2500  -999.2500  -999.2500  -999.2500 
 2541.1176  -999.2500    80.2616    14.9987    19.7890     1.9098     1.9098  -999.2500  -999.2500  -999.2500  -999.2500 
 2541.2700  -999.2500    78.9118    14.7356    18.8646     1.8991     1.8991  -999.2500  -999.2500  -999.2500  -999.2500 
 2541.4224  -999.2500    78.8711    14.8128    17.0156     1.8776     1.8776  -999.2500  -999.2500  -999.2500  -999.2500 
 2541.5748  -999.2500    83.2511    14.3022    18.0625     1.8562     1.8562  -999.2500  -999.2500  -999.2500  -999.2500 
 2541.7272  -999.2500    89.6780    13.4383    18.4271     1.8562     1.8562  -999.2500  -999.2500  -999.2500  -999.2500 
 2541.8796  -999.2500    92.3204    12.3122    18.7917     1.8562     1.8562  -999.2500  -999.2500  -999.2500  -999.2500 
 2542.0320  -999.2500    90.7387    13.3911    19.5208     2.0399     2.0399  -999.2500  -999.2500  -999.2500  -999.2500 
 2542.1844  -999.2500    88.4519    15.5992    22.5625     2.2236     2.2236  -999.2500  -999.2500  -999.2500  -999.2500 
 2542.3368  -999.2500    86.8279    14.9807    21.4375     2.2236     2.2236  -999.2500  -999.2500  -999.2500  -999.2500 
 2542.4892  -999.2500    85.0023    13.6510    20.3125     2.2236     2.2236  -999.2500  -999.2500  -999.2500  -999.2500 
 2542.6416  -999.2500    82.1535    14.9302    18.0625     2.0399     2.0828  -999.2500  -999.2500  -999.2500  -999.2500 
 2542.7940  -999.2500    78.7746    16.5602    15.0156     1.9439     1.9868  -999.2500  -999.2500  -999.2500  -999.2500 
 2542.9464  -999.2500    76.3103    16.3158    18.0625     2.0316     2.0316  -999.2500  -999.2500  -999.2500  -999.2500 
 2543.0988  -999.2500    75.7726    15.7671    19.4883     1.9439     1.9439  -999.2500  -999.2500  -999.2500  -999.2500 
 2543.2512  -999.2500    77.6612    15.5597    20.9141     1.8562     1.8562  -999.2500  -999.2500  -999.2500  -999.2500 
 2543.4036  -999.2500    80.8909    15.5309    23.7656     1.5495     1.6211  -999.2500  -999.2500  -999.2500  -999.2500 
 2543.5560  -999.2500    84.3322    15.6164    19.1406     1.5495     1.5734  -999.2500  -999.2500  -999.2500  -999.2500 
 2543.7084  -999.2500    86.8796    14.9357    18.8711     1.5495     1.5615  -999.2500  -999.2500  -999.2500  -999.2500 
 2543.8608  -999.2500    88.3174    14.9154    18.6016     1.5495     1.5495  -999.2500  -999.2500  -999.2500  -999.2500 
 2544.0132  -999.2500    88.8157    14.9033    18.0625     1.5495     1.5853  -999.2500  -999.2500  -999.2500  -999.2500 
 2544.1656  -999.2500    88.0184    14.1891    19.1406     1.6959     1.6585  -999.2500  -999.2500  -999.2500  -999.2500 
 2544.3180  -999.2500    86.1906    15.4967    17.5703     1.7351     1.6772  -999.2500  -999.2500  -999.2500  -999.2500 
 2544.4704  -999.2500    83.6502    16.4778    16.0000     1.7743     1.6959  -999.2500  -999.2500  -999.2500  -999.2500 
 2544.6228  -999.2500    80.9990    17.0281    22.5625     1.7743     1.7743  -999.2500  -999.2500  -999.2500  -999.2500 
 2544.7752  -999.2500    78.9326    16.9196    19.9961     1.6772     1.7547  -999.2500  -999.2500  -999.2500  -999.2500 
 2544.9276  -999.2500    79.4931    15.6779    19.1406     1.6585     1.7351  -999.2500  -999.2500  -999.2500  -999.2500 
 2545.0800  -999.2500    83.6486    14.6228    19.1406     1.6398     1.7155  -999.2500  -999.2500  -999.2500  -999.2500 
 2545.2324  -999.2500    87.0304    13.8124    19.1406     1.6211     1.6959  -999.2500  -999.2500  -999.2500  -999.2500 
 2545.3848  -999.2500    86.2980    12.8333    19.1406     1.6211     1.6585  -999.2500  -999.2500  -999.2500  -999.2500 
