~Version Information
 VERS.                  2.0:   CWLS log ASCII Standard -VERSION 2.0
 WRAP.                   NO:   One line per depth step
~Well Information Block
#MNEM.UNIT       Data Type    Information
#---------     -----------    ---------------------------
 STRT.M               755.1420:
 STOP.M              3753.3071:
 STEP.M                 0.1524:
 NULL.               -999.2500:
 UWI .                    1068:  UWI
 API .                    1068:  UWI
 WELL.                    1068:  COMMON WELL NAME
 COMP.                 UNKNOWN:  WELL OPERATOR
 FLD .                 UNKNOWN:  FIELD
 LIC .                 UNKNOWN:  AUTHORIZATION NO
 LOC .                 UNKNOWN:  BASIN
 CTRY.                 UNKNOWN:  COUNTRY
 STAT.                 UNKNOWN:  STATE
 CNTY.                 UNKNOWN:  COUNTY
 PROV.                 UNKNOWN:  STATE
 SRVC.                 UNKNOWN:  COMPANY
 DATE.                 UNKNOWN:  LOG RUN DATE
 LONG.                -92.0291:  LONGITUDE
 LATI.                 19.4295:  LATITUDE
 XCOORD.           601925.3750:  X COORDINATE
 YCOORD.          2148512.5000:  Y COORDINATE
 ELEV.M                 0.0000:  ELEVATION
~Parameter Information Block
#MNEM.UNIT       Value        Description
#---------     -----------    ---------------------------
~Curve Information Block
#MNEM.UNIT                 API CODE     Curve Description
#---------               -----------    ---------------------------
 DEPTH.M                00 000 000 000:  Index Curve
 CGR .GAPI              00 000 000 000:  Gamma ray; Uranium-free
 DT  .US/F              00 000 000 000:  Acoustic wave travel time
 GR  .GAPI              00 000 000 000:  Gamma ray; total
 GR-LWD.GAPI            00 000 000 000:  
 ILD-LWD.OHMM           00 000 000 000:  
 ILM-LWD.OHMM           00 000 000 000:  
 NPHI.V/V               00 000 000 000:  Neutron porosity
 POTA.                  00 000 000 000:  Potassium contribution from spectral gamma ray
 THOR.PPM               00 000 000 000:  Thorium contribution from spectral gamma ray
 URAN.PPM               00 000 000 000:  Uranium contribution from spectral gamma ray
~A DEPTH        CGR    DT    GR   GR-LWD   ILD-LWD   ILM-LWD    NPHI    POTA    THOR    URAN
# ...
 2052.6756  -999.2500   104.9842    57.9547    70.1563     1.5495     1.4811  -999.2500  -999.2500  -999.2500  -999.2500 
 2052.8280  -999.2500   106.6567    64.2986    72.2500     1.5983     1.5511  -999.2500  -999.2500  -999.2500  -999.2500 
 2052.9804  -999.2500   109.0387    66.6413    71.1953     1.6471     1.6211  -999.2500  -999.2500  -999.2500  -999.2500 
 2053.1328  -999.2500   110.7890    67.4867    70.8438     1.6585     1.5495  -999.2500  -999.2500  -999.2500  -999.2500 
 2053.2852  -999.2500   111.5173    69.2664    71.1954     1.6398     1.5381  -999.2500  -999.2500  -999.2500  -999.2500 
 2053.4376  -999.2500   112.1599    68.4186    71.5469     1.6211     1.5267  -999.2500  -999.2500  -999.2500  -999.2500 
 2053.5900  -999.2500   113.5360    64.5002    72.2500     1.5853     1.5039  -999.2500  -999.2500  -999.2500  -999.2500 
 2053.7424  -999.2500   115.4807    63.1769    72.2500     1.5049     1.4593  -999.2500  -999.2500  -999.2500  -999.2500 
 2053.8948  -999.2500   117.2193    69.7899    72.2500     1.4826     1.4484  -999.2500  -999.2500  -999.2500  -999.2500 
 2054.0472  -999.2500   118.1415    70.5601    72.2500     1.4603     1.4375  -999.2500  -999.2500  -999.2500  -999.2500 
 2054.1996  -999.2500   118.4728    65.7969    81.2500     1.4157     1.4157  -999.2500  -999.2500  -999.2500  -999.2500 
 2054.3520  -999.2500   118.7429    68.9292    87.1667     1.4157     1.4157  -999.2500  -999.2500  -999.2500  -999.2500 
 2054.5044  -999.2500   119.1771    72.9091    85.6250     1.4157     1.4157  -999.2500  -999.2500  -999.2500  -999.2500 
 2054.6568  -999.2500   119.6281    74.2685    84.0833     1.4157     1.4157  -999.2500  -999.2500  -999.2500  -999.2500 
 2054.8092  -999.2500   120.1549    72.8052    81.0000     1.4603     1.4157  -999.2500  -999.2500  -999.2500  -999.2500 
 2054.9616  -999.2500   120.7591    70.4400    78.7969     1.5049     1.4157  -999.2500  -999.2500  -999.2500  -999.2500 
 2055.1140  -999.2500   121.1373    70.4517    74.3906     1.4826     1.3741  -999.2500  -999.2500  -999.2500  -999.2500 
 2055.2664  -999.2500   121.1262    70.7876    77.1836     1.4491     1.3636  -999.2500  -999.2500  -999.2500  -999.2500 
 2055.4188  -999.2500   120.9296    67.6072    79.9766     1.4157     1.3532  -999.2500  -999.2500  -999.2500  -999.2500 
 2055.5712  -999.2500   120.8192    66.2477    85.5625     1.3750     1.2948  -999.2500  -999.2500  -999.2500  -999.2500 
 2055.7236  -999.2500   120.7896    67.4232    84.0313     1.2935     1.2182  -999.2500  -999.2500  -999.2500  -999.2500 
 2055.8760  -999.2500   120.4997    67.8786    83.6485     1.2656     1.2091  -999.2500  -999.2500  -999.2500  -999.2500 
 2056.0284  -999.2500   120.0950    73.1344    83.2656     1.2377     1.2000  -999.2500  -999.2500  -999.2500  -999.2500 
 2056.1808  -999.2500   120.2009    77.2000    84.4141     1.1818     1.1818  -999.2500  -999.2500  -999.2500  -999.2500 
 2056.3332  -999.2500   120.7299    73.3981    84.0417     1.2563     1.2182  -999.2500  -999.2500  -999.2500  -999.2500 
 2056.4856  -999.2500   121.0959    70.4006    82.5208     1.2935     1.2364  -999.2500  -999.2500  -999.2500  -999.2500 
 2056.6380  -999.2500   121.1909    69.0121    81.7604     1.2840     1.2273  -999.2500  -999.2500  -999.2500  -999.2500 
 2056.7904  -999.2500   121.1904    68.1955    81.0000     1.2745     1.2182  -999.2500  -999.2500  -999.2500  -999.2500 
 2056.9428  -999.2500   121.1692    70.1963    83.2969     1.2554     1.2000  -999.2500  -999.2500  -999.2500  -999.2500 
 2057.0952  -999.2500   120.5650    74.1104    87.8906     1.2008     1.1557  -999.2500  -999.2500  -999.2500  -999.2500 
 2057.2476  -999.2500   120.8896    75.5568    88.6823     1.1830     1.1427  -999.2500  -999.2500  -999.2500  -999.2500 
 2057.4000  -999.2500   123.8345    74.4723    89.4740     1.1652     1.1296  -999.2500  -999.2500  -999.2500  -999.2500 
 2057.5524  -999.2500   126.4742    71.9578    91.0573     1.1296     1.1843  -999.2500  -999.2500  -999.2500  -999.2500 
 2057.7048  -999.2500   126.5215    70.5790    90.2813     1.2787     1.2935  -999.2500  -999.2500  -999.2500  -999.2500 
 2057.8572  -999.2500   124.6460    67.9264    89.1016     1.3159     1.2840  -999.2500  -999.2500  -999.2500  -999.2500 
 2058.0096  -999.2500   121.8075    64.2867    87.9219     1.3532     1.2745  -999.2500  -999.2500  -999.2500  -999.2500 
 2058.1620  -999.2500   118.5362    66.5502    85.5625     1.3143     1.2554  -999.2500  -999.2500  -999.2500  -999.2500 
 2058.3144  -999.2500   115.8394    67.0673    85.5625     1.2364     1.3180  -999.2500  -999.2500  -999.2500  -999.2500 
 2058.4668  -999.2500   114.0723    68.1697    83.8633     1.3930     1.3995  -999.2500  -999.2500  -999.2500  -999.2500 
 2058.6192  -999.2500   112.6771    73.5572    83.0137     1.4713     1.4403  -999.2500  -999.2500  -999.2500  -999.2500 
 2058.7716  -999.2500   111.1291    73.8330    82.1641     1.5495     1.4811  -999.2500  -999.2500  -999.2500  -999.2500 
 2058.9240  -999.2500   109.3993    72.5664    80.4648     1.6244     1.5527  -999.2500  -999.2500  -999.2500  -999.2500 
 2059.0764  -999.2500   107.9115    72.3137    76.5781     1.7743     1.6959  -999.2500  -999.2500  -999.2500  -999.2500 
 2059.2288  -999.2500   106.9884    72.3897    75.4844     1.7947     1.6959  -999.2500  -999.2500  -999.2500  -999.2500 
 2059.3812  -999.2500   106.5075    72.1305    74.3906     1.8152     1.6959  -999.2500  -999.2500  -999.2500  -999.2500 
 2059.5336  -999.2500   106.4617    70.4572    73.6771     1.8562     1.6959  -999.2500  -999.2500  -999.2500  -999.2500 
 2059.6860  -999.2500   107.3792    66.7467    72.2500     1.8562     1.6959  -999.2500  -999.2500  -999.2500  -999.2500 
 2059.8384  -999.2500   109.9070    66.4492    70.6914     1.8562     1.6959  -999.2500  -999.2500  -999.2500  -999.2500 
 2059.9908  -999.2500   113.1776    67.7870    69.1328     1.8562     1.6959  -999.2500  -999.2500  -999.2500  -999.2500 
 2060.1432  -999.2500   116.3723    66.3475    66.0156     1.7761     1.6585  -999.2500  -999.2500  -999.2500  -999.2500 
 2060.2956  -999.2500   119.6427    65.4906    72.2500     1.6471     1.5744  -999.2500  -999.2500  -999.2500  -999.2500 
 2060.4480  -999.2500   122.1019    69.0404    72.2500     1.5983     1.5278  -999.2500  -999.2500  -999.2500  -999.2500 
 2060.6004  -999.2500   122.8458    73.8894    72.2500     1.5739     1.5044  -999.2500  -999.2500  -999.2500  -999.2500 
 2060.7528  -999.2500   121.9674    75.0008    72.2500     1.5495     1.4811  -999.2500  -999.2500  -999.2500  -999.2500 
 2060.9052  -999.2500   120.6944    75.1915    72.2500     1.4826     1.4172  -999.2500  -999.2500  -999.2500  -999.2500 
 2061.0576  -999.2500   119.6472    72.9429    75.1250     1.4157     1.3532  -999.2500  -999.2500  -999.2500  -999.2500 
 2061.2100  -999.2500   119.1210    72.1173    75.8438     1.4157     1.3532  -999.2500  -999.2500  -999.2500  -999.2500 
 2061.3624  -999.2500   119.1583    73.7779    76.5625     1.4157     1.3532  -999.2500  -999.2500  -999.2500  -999.2500 
 2061.5148  -999.2500   119.3946    75.9042    76.5625     1.4157     1.3532  -999.2500  -999.2500  -999.2500  -999.2500 
 2061.6672  -999.2500   119.5937    74.1211    77.2969     1.2598     1.2390  -999.2500  -999.2500  -999.2500  -999.2500 
 2061.8196  -999.2500   119.7303    71.1684    77.6641     1.2208     1.2104  -999.2500  -999.2500  -999.2500  -999.2500 
 2061.9720  -999.2500   119.7369    75.1467    78.0313     1.1818     1.1818  -999.2500  -999.2500  -999.2500  -999.2500 
 2062.1244  -999.2500   119.4226    76.4464    78.7656     1.2000     1.1818  -999.2500  -999.2500  -999.2500  -999.2500 
 2062.2768  -999.2500   118.7466    69.1173    81.7656     1.2364     1.1818  -999.2500  -999.2500  -999.2500  -999.2500 
 2062.4292  -999.2500   117.8668    66.1530    83.2656     1.1842     1.1478  -999.2500  -999.2500  -999.2500  -999.2500 
 2062.5816  -999.2500   116.9713    70.2882    81.7865     1.1581     1.1308  -999.2500  -999.2500  -999.2500  -999.2500 
