~Version Information
 VERS.                  2.0:   CWLS log ASCII Standard -VERSION 2.0
 WRAP.                   NO:   One line per depth step
~Well Information Block
#MNEM.UNIT       Data Type    Information
#---------     -----------    ---------------------------
 STRT.M               755.1420:
 STOP.M              3753.3071:
 STEP.M                 0.1524:
 NULL.               -999.2500:
 UWI .                    1068:  UWI
 API .                    1068:  UWI
 WELL.                    1068:  COMMON WELL NAME
 COMP.                 UNKNOWN:  WELL OPERATOR
 FLD .                 UNKNOWN:  FIELD
 LIC .                 UNKNOWN:  AUTHORIZATION NO
 LOC .                 UNKNOWN:  BASIN
 CTRY.                 UNKNOWN:  COUNTRY
 STAT.                 UNKNOWN:  STATE
 CNTY.                 UNKNOWN:  COUNTY
 PROV.                 UNKNOWN:  STATE
 SRVC.                 UNKNOWN:  COMPANY
 DATE.                 UNKNOWN:  LOG RUN DATE
 LONG.                -92.0291:  LONGITUDE
 LATI.                 19.4295:  LATITUDE
 XCOORD.           601925.3750:  X COORDINATE
 YCOORD.          2148512.5000:  Y COORDINATE
 ELEV.M                 0.0000:  ELEVATION
~Parameter Information Block
#MNEM.UNIT       Value        Description
#---------     -----------    ---------------------------
~Curve Information Block
#MNEM.UNIT                 API CODE     Curve Description
#---------               -----------    ---------------------------
 DEPTH.M                00 000 000 000:  Index Curve
 CGR .GAPI              00 000 000 000:  Gamma ray; Uranium-free
 DT  .US/F              00 000 000 000:  Acoustic wave travel time
 GR  .GAPI              00 000 000 000:  Gamma ray; total
 GR-LWD.GAPI            00 000 000 000:  
 ILD-LWD.OHMM           00 000 000 000:  
 ILM-LWD.OHMM           00 000 000 000:  
 NPHI.V/V               00 000 000 000:  Neutron porosity
 POTA.                  00 000 000 000:  Potassium contribution from spectral gamma ray
 THOR.PPM               00 000 000 000:  Thorium contribution from spectral gamma ray
 URAN.PPM               00 000 000 000:  Uranium contribution from spectral gamma ray
~A DEPTH        CGR    DT    GR   GR-LWD   ILD-LWD   ILM-LWD    NPHI    POTA    THOR    URAN
# ...
 3611.7276    94.8454  -999.2500   153.5391   117.2233    93.0482    96.2700     0.4349     0.0472     8.6268     6.3606 
 3611.8800    95.3110  -999.2500   157.8195   126.7813   106.0520   113.6884     0.4249     0.0491     6.9507     7.1995 
 3612.0324    83.6938  -999.2500   146.8760   148.0045   129.5900   132.7254     0.3459     0.0434     5.2219     7.5550 
 3612.1848    67.4496  -999.2500   129.9903   126.4256    85.7976    86.8683     0.2676     0.0332     5.3506     7.2005 
 3612.3372    58.0466  -999.2500   118.3344   105.1946    97.6165   101.6272     0.2319     0.0238     6.6337     6.8675 
 3612.4896    53.4697  -999.2500   114.0181   124.1766   112.9175   119.4469     0.2214     0.0185     7.4740     6.8822 
 3612.6420    48.4842  -999.2500   108.2650   110.2318   134.5836   135.7931     0.2170     0.0161     6.6897     6.9217 
 3612.7944    36.1016  -999.2500    93.0125    73.7594   162.5143   162.6678     0.1984     0.0140     4.7938     6.2965 
 3612.9468    28.6161  -999.2500    70.5270    30.8136   174.2437   175.8730     0.1679     0.0115     3.0455     4.8728 
 3613.0992    20.1003  -999.2500    49.4221    24.8758   181.0885   180.8764     0.1479     0.0093     2.2996     3.1616 
 3613.2516    20.6546  -999.2500    35.4555    31.4505   185.3004   187.2588     0.1446     0.0087     2.4140     1.6496 
 3613.4040    21.6106  -999.2500    29.0266    31.4046   190.7588   191.8501     0.1488     0.0090     2.7672     0.7479 
 3613.5564    24.3886  -999.2500    28.1547    32.4220   196.9037   201.2243     0.1564     0.0090     3.6462     0.3077 
 3613.7088    27.8558  -999.2500    29.6588    24.6731   202.0076   207.4671     0.1609     0.0084     4.7265     0.1363 
 3613.8612    30.0088  -999.2500    32.2960    25.0728   213.5045   215.9429     0.1594     0.0079     5.6656     0.1417 
 3614.0136    32.9062  -999.2500    34.1935    25.4725   225.0013   224.4187     0.1524     0.0079     6.1962     0.1448 
 3614.1660    32.0923  -999.2500    33.1181    24.6961   238.6054   237.7670     0.1417     0.0078     5.9522     0.1442 
 3614.3184    29.9020  -999.2500    31.3986    24.7573   262.6399   256.1262     0.1345     0.0071     5.2564     0.3282 
 3614.4708    23.5452  -999.2500    30.7271    23.5601   275.2613   274.9076     0.1371     0.0059     4.2224     0.8524 
 3614.6232    19.2972  -999.2500    30.7907    24.8223   290.4590   284.5947     0.1400     0.0049     3.3130     1.3708 
 3614.7756    16.4607  -999.2500    30.7660    25.0976   290.3697   293.6662     0.1353     0.0046     3.0443     1.5268 
 3614.9280    17.7295  -999.2500    30.0252    25.3730   290.2803   302.7377     0.1226     0.0050     3.4337     1.2119 
 3615.0804    23.0580  -999.2500    29.0990    24.7917   290.0689   294.1343     0.1076     0.0061     4.4640     0.5281 
 3615.2328    28.8600  -999.2500    31.4052    21.6631   277.1388   270.2701     0.1000     0.0068     5.8561     0.1378 
 3615.3852    31.3683  -999.2500    32.6622    18.4197   289.6770   294.2587     0.1029     0.0060     6.5473     0.1421 
 3615.5376    29.0425  -999.2500    29.3357    20.0223   281.7642   280.0912     0.1108     0.0041     6.1247     0.2277 
 3615.6900    22.7103  -999.2500    27.8710    21.4948   282.5759   283.4997     0.1159     0.0032     5.2580     0.5386 
 3615.8424    21.8885  -999.2500    28.8088    22.9673   283.3877   286.9082     0.1190     0.0041     4.6579     0.7413 
 3615.9948    24.0351  -999.2500    29.5028    25.8855   269.7457   279.0792     0.1161     0.0055     4.6092     0.6111 
 3616.1472    25.6329  -999.2500    29.7511    26.7499   264.4144   251.1282     0.1112     0.0062     4.9190     0.4087 
 3616.2996    28.0445  -999.2500    30.2184    26.7767   268.0471   257.6834     0.1081     0.0066     5.3662     0.2244 
 3616.4520    30.1561  -999.2500    31.8217    27.2280   200.3106   189.5038     0.1045     0.0073     5.7760     0.1387 
 3616.6044    31.5870  -999.2500    31.8686    26.9029   199.0303   189.1591     0.1023     0.0078     5.5705     0.1383 
 3616.7568    28.2404  -999.2500    29.7167    26.5778   197.7501   188.8144     0.1018     0.0078     4.6538     0.2705 
 3616.9092    24.7015  -999.2500    28.6077    26.1953   205.8593   194.8925     0.1008     0.0072     3.8031     0.5802 
 3617.0616    21.0020  -999.2500    28.7697    25.8549   209.9831   204.5515     0.0974     0.0063     3.4479     0.8718 
 3617.2140    20.4241  -999.2500    29.4455    26.7958   228.2643   213.7547     0.0941     0.0058     3.7258     0.9109 
 3617.3664    23.2299  -999.2500    30.6018    28.1306   225.7938   217.7695     0.0928     0.0060     4.3572     0.7558 
 3617.5188    25.9091  -999.2500    31.8318    29.4348   227.1146   219.1008     0.0926     0.0070     4.8970     0.5263 
 3617.6712    28.8250  -999.2500    33.3913    30.7391   228.4354   220.4321     0.0959     0.0078     4.8712     0.5826 
 3617.8236    27.2063  -999.2500    36.8956    32.2537   237.8384   226.3769     0.1012     0.0077     4.6272     1.0905 
 3617.9760    26.7684  -999.2500    43.6903    33.3896   229.3856   215.5081     0.1092     0.0077     4.4272     1.9198 
 3618.1284    26.1523  -999.2500    53.1480    38.4038   246.1464   237.4824     0.1209     0.0086     4.2315     2.9103 
 3618.2808    29.0650  -999.2500    61.9516    47.5372   237.0646   236.2211     0.1366     0.0104     4.2507     3.6107 
 3618.4332    31.3567  -999.2500    66.1936    52.9530   230.3694   221.7296     0.1508     0.0122     4.3025     3.7751 
 3618.5856    34.6551  -999.2500    64.2757    58.3688   223.6742   207.2381     0.1495     0.0136     4.3756     3.3194 
 3618.7380    34.8841  -999.2500    58.2139    55.3472   216.2448   209.7861     0.1376     0.0137     4.1788     2.7050 
 3618.8904    30.4408  -999.2500    52.0006    45.3150   229.3732   228.9388     0.1288     0.0120     3.7802     2.4355 
 3619.0428    26.7783  -999.2500    48.4351    48.1051   235.2287   230.7148     0.1243     0.0098     3.5872     2.4679 
 3619.1952    24.9371  -999.2500    48.1433    50.8953   241.0842   232.4908     0.1221     0.0082     3.7810     2.5981 
 3619.3476    25.1026  -999.2500    50.0580    52.5437   217.9036   206.4455     0.1205     0.0082     3.8869     2.7692 
 3619.5000    26.3095  -999.2500    52.0508    39.4518   213.1826   192.4770     0.1146     0.0091     3.7710     2.8889 
 3619.6524    27.0870  -999.2500    51.1443    38.9890   217.1868   193.0098     0.1035     0.0096     3.9512     2.6376 
 3619.8048    28.2773  -999.2500    45.8696    38.5262   221.1909   193.5425     0.0877     0.0095     4.4307     1.8934 
 3619.9572    29.4923  -999.2500    37.9228    39.3638   239.6970   206.6679     0.0718     0.0088     4.9687     0.9047 
 3620.1096    29.8900  -999.2500    31.4563    52.6508   244.9700   214.5387     0.0642     0.0081     5.0277     0.2649 
 3620.2620    28.5246  -999.2500    30.2997    56.0434   283.6455   242.6692     0.0639     0.0078     5.1881     0.1317 
 3620.4144    30.6524  -999.2500    32.9585    52.3545   290.4938   251.7488     0.0657     0.0077     5.9653     0.1318 
 3620.5668    34.1326  -999.2500    35.1874    48.6655   297.3421   260.8285     0.0712     0.0078     6.5806     0.1337 
 3620.7192    33.5010  -999.2500    32.9788    39.3447   302.3953   274.8121     0.0809     0.0073     6.1214     0.1340 
 3620.8716    27.2598  -999.2500    28.8826    23.7552   314.4405   290.8940     0.0899     0.0062     5.1280     0.2411 
 3621.0240    24.0694  -999.2500    28.6661    20.4851   308.3415   289.3069     0.1003     0.0048     4.5295     0.6617 
 3621.1764    22.1004  -999.2500    30.8090    17.2150   302.2425   287.7198     0.1166     0.0043     4.7500     0.8982 
 3621.3288    24.9720  -999.2500    32.6549    18.7563   303.6135   293.8827     0.1300     0.0048     5.4604     0.7483 
 3621.4812    28.0254  -999.2500    33.6792    24.2524   389.5636   379.6464     0.1325     0.0056     5.8107     0.5885 
 3621.6336    28.8997  -999.2500    33.5179    24.0229   392.7222   387.7305     0.1292     0.0059     5.4221     0.6911 
