~Version Information
 VERS.                  2.0:   CWLS log ASCII Standard -VERSION 2.0
 WRAP.                   NO:   One line per depth step
~Well Information Block
#MNEM.UNIT       Data Type    Information
#---------     -----------    ---------------------------
 STRT.M               755.1420:
 STOP.M              3753.3071:
 STEP.M                 0.1524:
 NULL.               -999.2500:
 UWI .                    1068:  UWI
 API .                    1068:  UWI
 WELL.                    1068:  COMMON WELL NAME
 COMP.                 UNKNOWN:  WELL OPERATOR
 FLD .                 UNKNOWN:  FIELD
 LIC .                 UNKNOWN:  AUTHORIZATION NO
 LOC .                 UNKNOWN:  BASIN
 CTRY.                 UNKNOWN:  COUNTRY
 STAT.                 UNKNOWN:  STATE
 CNTY.                 UNKNOWN:  COUNTY
 PROV.                 UNKNOWN:  STATE
 SRVC.                 UNKNOWN:  COMPANY
 DATE.                 UNKNOWN:  LOG RUN DATE
 LONG.                -92.0291:  LONGITUDE
 LATI.                 19.4295:  LATITUDE
 XCOORD.           601925.3750:  X COORDINATE
 YCOORD.          2148512.5000:  Y COORDINATE
 ELEV.M                 0.0000:  ELEVATION
~Parameter Information Block
#MNEM.UNIT       Value        Description
#---------     -----------    ---------------------------
~Curve Information Block
#MNEM.UNIT                 API CODE     Curve Description
#---------               -----------    ---------------------------
 DEPTH.M                00 000 000 000:  Index Curve
 CGR .GAPI              00 000 000 000:  Gamma ray; Uranium-free
 DT  .US/F              00 000 000 000:  Acoustic wave travel time
 GR  .GAPI              00 000 000 000:  Gamma ray; total
 GR-LWD.GAPI            00 000 000 000:  
 ILD-LWD.OHMM           00 000 000 000:  
 ILM-LWD.OHMM           00 000 000 000:  
 NPHI.V/V               00 000 000 000:  Neutron porosity
 POTA.                  00 000 000 000:  Potassium contribution from spectral gamma ray
 THOR.PPM               00 000 000 000:  Thorium contribution from spectral gamma ray
 URAN.PPM               00 000 000 000:  Uranium contribution from spectral gamma ray
~A DEPTH        CGR    DT    GR   GR-LWD   ILD-LWD   ILM-LWD    NPHI    POTA    THOR    URAN
# ...
 2656.1796  -999.2500    82.3546    57.4430    74.3906     1.8391     1.7906  -999.2500  -999.2500  -999.2500  -999.2500 
 2656.3320  -999.2500    82.9505    58.9886    66.2656     1.9823     2.0316  -999.2500  -999.2500  -999.2500  -999.2500 
 2656.4844  -999.2500    83.3760    61.2637    58.1406     2.1255     1.9419  -999.2500  -999.2500  -999.2500  -999.2500 
 2656.6368  -999.2500    83.4751    61.3805    57.1953     2.3049     2.0701  -999.2500  -999.2500  -999.2500  -999.2500 
 2656.7892  -999.2500    83.3942    57.1497    56.2500     2.4843     2.1982  -999.2500  -999.2500  -999.2500  -999.2500 
 2656.9416  -999.2500    84.4198    55.4432    57.1953     2.6637     2.3263  -999.2500  -999.2500  -999.2500  -999.2500 
 2657.0940  -999.2500    89.5426    59.5397    58.1406     6.7307     5.2809  -999.2500  -999.2500  -999.2500  -999.2500 
 2657.2464  -999.2500    97.3348    67.2156    59.1016    10.7978     8.2354  -999.2500  -999.2500  -999.2500  -999.2500 
 2657.3988  -999.2500   101.1302    75.0429    54.5313    13.9294    17.7427  -999.2500  -999.2500  -999.2500  -999.2500 
 2657.5512  -999.2500   101.0340    72.3417    49.0000    15.4952    12.3087  -999.2500  -999.2500  -999.2500  -999.2500 
 2657.7036  -999.2500   100.9383    67.7158    52.6250     6.5712     6.8747  -999.2500  -999.2500  -999.2500  -999.2500 
 2657.8560  -999.2500   100.9654    66.2757    56.2500     5.4741     5.5292  -999.2500  -999.2500  -999.2500  -999.2500 
 2658.0084  -999.2500   101.0404    64.2826    56.2500     4.3770     4.1838  -999.2500  -999.2500  -999.2500  -999.2500 
 2658.1608  -999.2500   101.1755    64.6480    59.5052     4.1880     3.7611  -999.2500  -999.2500  -999.2500  -999.2500 
 2658.3132  -999.2500   101.4063    64.2710    62.7604     3.9991     3.3383  -999.2500  -999.2500  -999.2500  -999.2500 
 2658.4656  -999.2500   101.5629    63.1670    66.0156     3.5246     3.0010  -999.2500  -999.2500  -999.2500  -999.2500 
 2658.6180  -999.2500   101.3816    63.3528    69.1328     3.0501     2.6637  -999.2500  -999.2500  -999.2500  -999.2500 
 2658.7704  -999.2500   100.8142    64.8353    72.2500     2.7981     2.4437  -999.2500  -999.2500  -999.2500  -999.2500 
 2658.9228  -999.2500   100.0596    69.9447    70.1563     2.5461     2.2236  -999.2500  -999.2500  -999.2500  -999.2500 
 2659.0752  -999.2500    99.2879    75.4023    68.0625     2.2889     2.0828  -999.2500  -999.2500  -999.2500  -999.2500 
 2659.2276  -999.2500    98.6936    71.7982    72.3125     2.0316     1.9419  -999.2500  -999.2500  -999.2500  -999.2500 
 2659.3800  -999.2500    98.3792    66.1157    76.5625     1.9439     1.8581  -999.2500  -999.2500  -999.2500  -999.2500 
 2659.5324  -999.2500    98.1840    65.7562    72.2500     1.8562     1.7743  -999.2500  -999.2500  -999.2500  -999.2500 
 2659.6848  -999.2500    97.8806    65.9148    72.2500     1.8161     1.7351  -999.2500  -999.2500  -999.2500  -999.2500 
 2659.8372  -999.2500    97.6438    67.6532    72.2500     1.7761     1.6959  -999.2500  -999.2500  -999.2500  -999.2500 
 2659.9896  -999.2500    97.8549    70.4886    72.2500     1.6959     1.6959  -999.2500  -999.2500  -999.2500  -999.2500 
 2660.1420  -999.2500    98.4248    71.2149    72.2500     1.6959     1.6959  -999.2500  -999.2500  -999.2500  -999.2500 
 2660.2944  -999.2500    98.6952    72.6208    72.2500     1.6959     1.6585  -999.2500  -999.2500  -999.2500  -999.2500 
 2660.4468  -999.2500    98.3224    74.6494    74.4063     1.6959     1.6211  -999.2500  -999.2500  -999.2500  -999.2500 
 2660.5992  -999.2500    97.8667    72.3367    76.5625     1.8189     1.6977  -999.2500  -999.2500  -999.2500  -999.2500 
 2660.7516  -999.2500    98.7041    68.0998    75.4766     1.9419     1.7743  -999.2500  -999.2500  -999.2500  -999.2500 
 2660.9040  -999.2500   101.3061    68.9775    74.3906     1.9419     1.7743  -999.2500  -999.2500  -999.2500  -999.2500 
 2661.0564  -999.2500   104.2990    72.4125    68.0625     1.9419     1.8152  -999.2500  -999.2500  -999.2500  -999.2500 
 2661.2088  -999.2500   106.0339    71.2165    69.1016     1.9419     1.8562  -999.2500  -999.2500  -999.2500  -999.2500 
 2661.3612  -999.2500   106.7885    68.4803    70.1406     1.9419     1.7761  -999.2500  -999.2500  -999.2500  -999.2500 
 2661.5136  -999.2500   107.2115    66.3028    74.4531     1.7743     1.6959  -999.2500  -999.2500  -999.2500  -999.2500 
 2661.6660  -999.2500   107.2077    67.3176    78.7656     1.6977     1.6227  -999.2500  -999.2500  -999.2500  -999.2500 
 2661.8184  -999.2500   106.7721    66.7923    79.8828     1.6211     1.5495  -999.2500  -999.2500  -999.2500  -999.2500 
 2661.9708  -999.2500   105.6401    65.2462    81.0000     1.6585     1.5495  -999.2500  -999.2500  -999.2500  -999.2500 
 2662.1232  -999.2500   103.8640    63.9539    74.3906     1.6959     1.5495  -999.2500  -999.2500  -999.2500  -999.2500 
 2662.2756  -999.2500   100.8155    62.9466    74.3906     1.7351     1.5853  -999.2500  -999.2500  -999.2500  -999.2500 
 2662.4280  -999.2500    94.7236    64.7340    74.3906     1.7743     1.6211  -999.2500  -999.2500  -999.2500  -999.2500 
 2662.5804  -999.2500    89.0872    66.5597    74.3906     1.8152     1.6977  -999.2500  -999.2500  -999.2500  -999.2500 
 2662.7328  -999.2500    89.2785    67.5981    74.3906     1.8562     1.7743  -999.2500  -999.2500  -999.2500  -999.2500 
 2662.8852  -999.2500    92.7786    68.5096    74.3906     1.8562     1.7743  -999.2500  -999.2500  -999.2500  -999.2500 
 2663.0376  -999.2500    96.5878    67.8800    74.3906     2.0316     1.8562  -999.2500  -999.2500  -999.2500  -999.2500 
 2663.1900  -999.2500    99.8705    67.4684    74.3906     2.3263     2.0316  -999.2500  -999.2500  -999.2500  -999.2500 
 2663.3424  -999.2500   100.6943    66.7664    68.0625     2.3800     2.0785  -999.2500  -999.2500  -999.2500  -999.2500 
 2663.4948  -999.2500    98.6311    64.8725    73.4141     2.4337     2.1255  -999.2500  -999.2500  -999.2500  -999.2500 
 2663.6472  -999.2500    94.6299    63.4475    78.7656     2.1450     1.9908  -999.2500  -999.2500  -999.2500  -999.2500 
 2663.7996  -999.2500    90.9290    63.9880    76.5781     1.8562     1.8562  -999.2500  -999.2500  -999.2500  -999.2500 
 2663.9520  -999.2500    88.6909    65.1343    74.3906     1.9908     1.9439  -999.2500  -999.2500  -999.2500  -999.2500 
 2664.1044  -999.2500    87.5170    62.0840    76.5625     2.1255     2.0316  -999.2500  -999.2500  -999.2500  -999.2500 
 2664.2568  -999.2500    87.2520    61.7372    78.7969     2.0785     1.9419  -999.2500  -999.2500  -999.2500  -999.2500 
 2664.4092  -999.2500    87.5799    63.9771    81.0313     2.0316     1.8111  -999.2500  -999.2500  -999.2500  -999.2500 
 2664.5616  -999.2500    88.6675    63.7050    83.2656     1.7906     1.6803  -999.2500  -999.2500  -999.2500  -999.2500 
 2664.7140  -999.2500    90.0455    61.0589    79.9141     1.5495     1.5495  -999.2500  -999.2500  -999.2500  -999.2500 
 2664.8664  -999.2500    90.8323    60.8618    76.5625     1.6803     1.6227  -999.2500  -999.2500  -999.2500  -999.2500 
 2665.0188  -999.2500    93.4412    63.8353    75.4766     1.8111     1.6959  -999.2500  -999.2500  -999.2500  -999.2500 
 2665.1712  -999.2500    99.9447    65.3698    72.2656     1.9868     1.9419  -999.2500  -999.2500  -999.2500  -999.2500 
 2665.3236  -999.2500   104.6076    67.1723    70.1406     2.0316     1.9419  -999.2500  -999.2500  -999.2500  -999.2500 
 2665.4760  -999.2500   104.2865    68.8403    71.1953     2.0785     1.9419  -999.2500  -999.2500  -999.2500  -999.2500 
 2665.6284  -999.2500   102.2879    66.8289    72.2500     2.1255     1.9419  -999.2500  -999.2500  -999.2500  -999.2500 
 2665.7808  -999.2500   101.3742    64.4460    70.1563     2.1255     1.9419  -999.2500  -999.2500  -999.2500  -999.2500 
 2665.9332  -999.2500   103.9866    64.8494    69.1094     2.1255     1.9419  -999.2500  -999.2500  -999.2500  -999.2500 
 2666.0856  -999.2500   108.0319    65.0126    68.0625     2.1255     1.9419  -999.2500  -999.2500  -999.2500  -999.2500 
