~Version Information
 VERS.                  2.0:   CWLS log ASCII Standard -VERSION 2.0
 WRAP.                   NO:   One line per depth step
~Well Information Block
#MNEM.UNIT       Data Type    Information
#---------     -----------    ---------------------------
 STRT.M               755.1420:
 STOP.M              3753.3071:
 STEP.M                 0.1524:
 NULL.               -999.2500:
 UWI .                    1068:  UWI
 API .                    1068:  UWI
 WELL.                    1068:  COMMON WELL NAME
 COMP.                 UNKNOWN:  WELL OPERATOR
 FLD .                 UNKNOWN:  FIELD
 LIC .                 UNKNOWN:  AUTHORIZATION NO
 LOC .                 UNKNOWN:  BASIN
 CTRY.                 UNKNOWN:  COUNTRY
 STAT.                 UNKNOWN:  STATE
 CNTY.                 UNKNOWN:  COUNTY
 PROV.                 UNKNOWN:  STATE
 SRVC.                 UNKNOWN:  COMPANY
 DATE.                 UNKNOWN:  LOG RUN DATE
 LONG.                -92.0291:  LONGITUDE
 LATI.                 19.4295:  LATITUDE
 XCOORD.           601925.3750:  X COORDINATE
 YCOORD.          2148512.5000:  Y COORDINATE
 ELEV.M                 0.0000:  ELEVATION
~Parameter Information Block
#MNEM.UNIT       Value        Description
#---------     -----------    ---------------------------
~Curve Information Block
#MNEM.UNIT                 API CODE     Curve Description
#---------               -----------    ---------------------------
 DEPTH.M                00 000 000 000:  Index Curve
 CGR .GAPI              00 000 000 000:  Gamma ray; Uranium-free
 DT  .US/F              00 000 000 000:  Acoustic wave travel time
 GR  .GAPI              00 000 000 000:  Gamma ray; total
 GR-LWD.GAPI            00 000 000 000:  
 ILD-LWD.OHMM           00 000 000 000:  
 ILM-LWD.OHMM           00 000 000 000:  
 NPHI.V/V               00 000 000 000:  Neutron porosity
 POTA.                  00 000 000 000:  Potassium contribution from spectral gamma ray
 THOR.PPM               00 000 000 000:  Thorium contribution from spectral gamma ray
 URAN.PPM               00 000 000 000:  Uranium contribution from spectral gamma ray
~A DEPTH        CGR    DT    GR   GR-LWD   ILD-LWD   ILM-LWD    NPHI    POTA    THOR    URAN
# ...
 3491.0268    47.1778  -999.2500    47.7760    48.4054     6.3459     5.7248     0.1592     0.0212     4.7080     0.1644 
 3491.1792    46.2576  -999.2500    48.7666    51.1936     7.0628     6.2043     0.1555     0.0205     5.2472     0.1664 
 3491.3316    50.6691  -999.2500    53.1504    43.0011     9.0219     7.7886     0.1629     0.0206     6.4559     0.1699 
 3491.4840    51.4504  -999.2500    51.3095    34.1431     8.6155     8.9259     0.1645     0.0191     6.5860     0.1641 
 3491.6364    43.5696  -999.2500    41.2574    22.5849    21.1169    21.5485     0.1489     0.0147     5.1944     0.2632 
 3491.7888    26.6194  -999.2500    31.6663    22.2980    25.5441    28.1934     0.1222     0.0094     3.7357     0.5986 
 3491.9412    20.2250  -999.2500    26.6625    21.2959    29.4202    33.5831     0.1029     0.0055     3.3311     0.8086 
 3492.0936    19.1126  -999.2500    23.7973    20.1562    35.6631    43.7958     0.0984     0.0041     3.7979     0.5239 
 3492.2460    21.3511  -999.2500    23.7355    19.1426    57.5714    81.1235     0.1041     0.0042     4.5724     0.1933 
 3492.3984    24.7677  -999.2500    26.3035    19.1732    72.6314   101.3026     0.1162     0.0052     5.0795     0.1275 
 3492.5508    26.4949  -999.2500    27.3314    19.4218    82.9007   111.0830     0.1296     0.0063     4.9104     0.1258 
 3492.7032    25.4512  -999.2500    25.4229    19.4065    99.3112   129.9494     0.1392     0.0068     4.1807     0.1208 
 3492.8556    22.1509  -999.2500    21.7870    18.0258   189.1129   222.4957     0.1443     0.0063     3.4114     0.1129 
 3493.0080    18.2455  -999.2500    18.3889    17.3488   243.1544   288.1334     0.1484     0.0054     2.8370     0.1052 
 3493.1604    16.2489  -999.2500    17.4917    15.6698   285.0020   318.6013     0.1529     0.0051     2.6640     0.1008 
 3493.3128    16.9657  -999.2500    18.6568    15.2720   330.5688   371.4632     0.1508     0.0056     2.8044     0.1011 
 3493.4652    19.3791  -999.2500    20.9441    14.2279   367.5061   413.1700     0.1425     0.0061     3.2522     0.1066 
 3493.6176    21.1550  -999.2500    22.1364    14.3962   412.7093   445.5135     0.1338     0.0059     3.6792     0.1113 
 3493.7700    21.9383  -999.2500    22.6322    13.5777   550.3239   589.5729     0.1297     0.0050     4.1438     0.1149 
 3493.9224    21.5612  -999.2500    21.9601    13.4056   575.8463   613.6884     0.1299     0.0039     4.4087     0.1165 
 3494.0748    19.1448  -999.2500    19.7884    12.4303   779.6339   735.2484     0.1285     0.0029     4.1904     0.1145 
 3494.2272    17.4232  -999.2500    17.8298    12.6980   751.7139   747.3773     0.1270     0.0022     3.8912     0.1118 
 3494.3796    16.7442  -999.2500    17.6743    12.9657   723.7939   759.5062     0.1299     0.0022     3.8647     0.1108 
 3494.5320    17.7339  -999.2500    19.2202    12.5680   755.8599   763.8820     0.1310     0.0029     4.0131     0.1128 
 3494.6844    18.2582  -999.2500    18.8160    12.9275   769.2523   756.2363     0.1249     0.0037     3.5754     0.1115 
 3494.8368    16.0964  -999.2500    16.9940    13.3864   902.6494   946.8730     0.1231     0.0040     2.5638     0.2667 
 3494.9892    13.5203  -999.2500    16.3883    14.3847   884.1033   874.4874     0.1308     0.0037     2.2984     0.3498 
 3495.1416    14.1609  -999.2500    16.0402    15.0655   997.8998  1038.0105     0.1361     0.0034     2.6307     0.2255 
 3495.2940    15.1095  -999.2500    16.3182    14.3885  1094.4127  1194.8259     0.1378     0.0035     2.8897     0.1392 
 3495.4464    16.2943  -999.2500    16.6231    13.8454  1024.0116  1032.2565     0.1421     0.0036     3.0396     0.1017 
 3495.5988    13.9905  -999.2500    15.3046    13.1149   969.1938  1040.6365     0.1504     0.0034     2.6881     0.1220 
 3495.7512    12.3370  -999.2500    14.2188    13.2143  1013.6292  1103.8071     0.1581     0.0033     2.0458     0.2716 
 3495.9036    10.5064  -999.2500    14.1115    12.6980  1139.8313  1135.6664     0.1606     0.0036     1.8078     0.2919 
 3496.0560    13.6469  -999.2500    15.7892    12.4800  1228.5336  1098.9429     0.1625     0.0044     2.3549     0.1393 
 3496.2084    16.7595  -999.2500    18.7093    11.5850  1232.6023  1118.4486     0.1622     0.0048     3.1728     0.1001 
 3496.3608    18.2675  -999.2500    18.4493    10.6939  1011.7672  1088.2174     0.1597     0.0043     3.2631     0.1033 
 3496.5132    15.6829  -999.2500    16.2329    10.3955  1132.7625  1144.2170     0.1585     0.0035     2.8605     0.1415 
 3496.6656    15.2146  -999.2500    16.4983    11.0954  1143.7307  1113.2695     0.1608     0.0033     2.9996     0.1440 
 3496.8180    16.9665  -999.2500    18.8734    12.2543  1029.9448  1023.5377     0.1675     0.0038     3.5485     0.1105 
 3496.9704    20.2631  -999.2500    21.5920    12.3308  1167.7219  1034.0778     0.1734     0.0041     4.2150     0.1174 
 3497.1228    21.5944  -999.2500    22.4830    11.7571   898.2071   946.1644     0.1746     0.0038     4.5544     0.1195 
 3497.2752    20.5765  -999.2500    21.6090    12.3155   870.6332   897.5510     0.1749     0.0036     4.4132     0.1161 
 3497.4276    20.0449  -999.2500    20.7179    14.3694   940.8351   903.8793     0.1701     0.0036     4.1366     0.1134 
 3497.5800    19.6970  -999.2500    20.5586    15.7004   826.6471   777.4742     0.1612     0.0038     4.0197     0.1133 
 3497.7324    19.7894  -999.2500    20.6317    15.3562   699.6086   646.4141     0.1568     0.0038     4.0561     0.1143 
 3497.8848    18.8067  -999.2500    20.2398    13.9907   716.5325   671.5364     0.1526     0.0039     3.9036     0.1144 
 3498.0372    19.0316  -999.2500    20.1761    13.8014   668.2507   643.4539     0.1416     0.0043     3.7263     0.1147 
 3498.1896    21.0152  -999.2500    22.2082    13.6121   619.9690   615.3713     0.1280     0.0050     4.0039     0.1177 
 3498.3420    23.8540  -999.2500    25.6268    13.2296   582.7379   542.3104     0.1182     0.0055     4.7927     0.1231 
 3498.4944    25.5863  -999.2500    26.8696    13.4782   515.9446   485.8568     0.1109     0.0050     5.3057     0.1259 
 3498.6468    24.5426  -999.2500    25.1414    14.0596   470.0062   461.1120     0.1049     0.0043     5.0953     0.1251 
 3498.7992    21.2910  -999.2500    22.4306    15.3944   431.8936   405.2286     0.1089     0.0041     4.4074     0.1207 
 3498.9516    20.3786  -999.2500    21.5085    15.2644   355.8896   337.1940     0.1227     0.0050     3.8254     0.1149 
 3499.1040    20.9271  -999.2500    22.4079    14.4803   329.8977   318.2496     0.1394     0.0057     3.8002     0.1141 
 3499.2564    22.5728  -999.2500    23.8092    13.7115   258.5090   242.7761     0.1582     0.0058     4.1699     0.1181 
 3499.4088    23.5417  -999.2500    24.2811    13.8186   231.0625   212.0657     0.1693     0.0053     4.4804     0.1239 
 3499.5612    22.6444  -999.2500    23.5570    15.2950   210.4572   191.4266     0.1676     0.0047     4.5061     0.1282 
 3499.7136    21.8446  -999.2500    23.2718    16.3009   183.3606   164.8522     0.1615     0.0044     4.2551     0.2322 
 3499.8660    19.7663  -999.2500    24.1357    18.7678   176.8834   158.1281     0.1585     0.0045     3.5669     0.5798 
 3500.0184    17.4636  -999.2500    25.1942    20.5463   165.2843   145.2435     0.1621     0.0051     2.8575     0.8847 
 3500.1708    17.0385  -999.2500    25.6530    22.7952   157.4152   140.5003     0.1692     0.0056     2.6293     0.9446 
 3500.3232    18.4022  -999.2500    26.3662    24.0229   153.3812   136.9582     0.1750     0.0061     3.1206     0.7639 
 3500.4756    22.7373  -999.2500    27.2192    24.3021   157.4883   138.5409     0.1750     0.0066     3.9447     0.4505 
 3500.6280    25.3735  -999.2500    28.8697    23.3995   159.5374   144.3893     0.1628     0.0075     4.6358     0.2276 
 3500.7804    28.2863  -999.2500    29.5004    21.8276   171.6517   149.7541     0.1395     0.0081     4.8176     0.1348 
 3500.9328    27.4289  -999.2500    28.0125    20.6304   163.9118   149.4905     0.1214     0.0079     4.4763     0.1322 
