#------------------------------------------------------------------------------
#
#   Created by  : [OpenWorks] Log Export Utility (LEXP)
#   Created on  : 2016-05-11 12:13:37
#   Project     : CANT971
#   User        : R5K
#   Interpreter : PEP
#
#------------------------------------------------------------------------------
~VERSION INFORMATION
VERS. 2.0 : CWLS Log ASCII Standard - version 2.0
WRAP.  NO : One line per depth step
~WELL INFORMATION
#MNEMONIC   .UNIT                                           VALUE :DESCRIPTION
#------------------------------------------------------------------------------
STRT        .M                                           118.7200 :START DEPTH
STOP        .M                                          3137.9165 :STOP DEPTH
STEP        .M                                             0.1524 :STEP
NULL        .                                           -999.2500 :NULL VALUE
COMP        .                                   PEMEX EXPL & PROD :COMPANY
WELL        .                                                1069 :WELL
FLD         .                                           CANTARELL :FIELD
LOC         .                                             UNKNOWN :LOCATION
CNTY        .                                      CD. DEL CARMEN :COUNTY
STAT        .                                            CAMPECHE :STATE
CTRY        .                                              MEXICO :COUNTRY
SRVC        .                                             UNKNOWN :SERVICE COMPANY
DATE        .                                             UNKNOWN :LOG DATE
UWI         .                                          3060000507 :UNIQUE WELL ID
XCOORD      .                                       601393.732000 :SURFACE X
YCOORD      .                                      2149879.230000 :SURFACE Y
LAT         .                                           19.441893 :LATITUDE
LON         .                                          -92.034110 :LONGITUDE
ELEV        .M                                            28.0000 :SURFACE ELEV
ELEV_TYPE   .                                                  KB :ELEV TYPE
~CURVE INFORMATION
#MNEMONIC.UNIT        API CODE       : CURVE DESCRIPTION
#------------------------------------------------------------------------------
DEPTH    .M                          : Measured Depth
CALI     .inches      UNKNOWN        : CALI:registros:rC:NONE:v0 (auto-composite)
DRHO     .g/cm3       UNKNOWN        : DRHO:registros:rC:NONE:v0 (auto-composite)
DT       .us/ft       UNKNOWN        : DT:registros:rC:NONE:v0 (auto-composite)
GR       .API         UNKNOWN        : GR:registros:rC:NONE:v0 (auto-composite)
ILD      .ohm.m       UNKNOWN        : ILD:registros:rC:NONE:v0 (auto-composite)
ILM      .ohm.m       UNKNOWN        : ILM:registros:rC:NONE:v0 (auto-composite)
LLD      .ohm.m       UNKNOWN        : LLD:registros:rC:NONE:v0 (auto-composite)
LLS      .ohm.m       UNKNOWN        : LLS:registros:rC:NONE:v0 (auto-composite)
MSFL     .ohm.m       UNKNOWN        : MSFL:registros:rC:NONE:v0 (auto-composite)
NPHI     .v/v_decimal UNKNOWN        : NPHI:registros:rC:NONE:v0 (auto-composite)
PEF      .b/elec      UNKNOWN        : PEF:registros:rC:NONE:v0 (auto-composite)
RHOB     .g/cm3       UNKNOWN        : RHOB:registros:rC:NONE:v0 (auto-composite)
SP       .mV          UNKNOWN        : SP:registros:rC:NONE:v0 (auto-composite)
~A     DEPTH         CALI         DRHO           DT           GR          ILD          ILM          LLD          LLS         MSFL         NPHI          PEF         RHOB           SP
# ...
   3055.7727       8.7835       0.0185      54.3113      18.4052    -999.2500    -999.2500      32.4326      33.0015      56.4053       0.0957       3.6430       2.6975    -999.2500
   3055.9253       8.7810       0.0190      54.4460      19.1220    -999.2500    -999.2500      31.8080      32.0980      61.8950       0.0957       3.6770       2.7100    -999.2500
   3056.0776       8.7745       0.0205      54.4076      21.4010    -999.2500    -999.2500      31.3129      31.5418      58.5482       0.0958       3.8253       2.7230    -999.2500
   3056.2300       8.7680       0.0220      54.3690      23.6920    -999.2500    -999.2500      30.8200      30.9880      55.2160       0.0959       3.9740       2.7360    -999.2500
   3056.3823       8.7630       0.0315      53.9060      27.8827    -999.2500    -999.2500      30.0669      30.2409      45.5847       0.0960       3.8646       2.7450    -999.2500
   3056.5349       8.7580       0.0410      53.4420      32.0960    -999.2500    -999.2500      29.3170      29.4970      35.9940       0.0960       3.7550       2.7540    -999.2500
   3056.6873       8.7585       0.0385      51.6631      37.0488    -999.2500    -999.2500      27.1496      27.2509      38.1730       0.0960       3.7850       2.7775    -999.2500
   3056.8396       8.7590       0.0360      49.8800      42.0290    -999.2500    -999.2500      24.9910      25.0140      40.3430       0.0959       3.8150       2.8010    -999.2500
   3056.9919       8.7865       0.0445      53.8741      51.3382    -999.2500    -999.2500      19.6599      19.7881      30.5080       0.0956       3.7416       2.7850    -999.2500
   3057.1443       8.8140       0.0530      57.8780      60.7000    -999.2500    -999.2500      14.3500      14.5830      20.7120       0.0948       3.6680       2.7690    -999.2500
   3057.2969       9.0174       0.0815      78.1381      74.4009    -999.2500    -999.2500      10.1521      10.4773      12.6335       0.0928       3.1587       2.6695    -999.2500
   3057.4492       9.2210       0.1100      98.4500      88.1810    -999.2500    -999.2500       5.9770       6.3940       4.5990       0.0895       2.6490       2.5700    -999.2500
   3057.6016       9.7227       0.1690      92.8635     103.6294    -999.2500    -999.2500       4.9377       5.2876       3.7613       0.0842       2.6490       2.4041    -999.2500
   3057.7539      10.2250       0.2280      87.2620     119.1690    -999.2500    -999.2500       3.9040       4.1870       2.9280       0.0798       2.6490       2.2380    -999.2500
   3057.9065      10.0871       0.2265      87.6295     118.4272    -999.2500    -999.2500       3.8238       4.0817       2.6062       0.0795       2.6220       2.2535    -999.2500
   3058.0588       9.9490       0.2250      87.9980     117.6810    -999.2500    -999.2500       3.7440       3.9770       2.2860       0.0828       2.5950       2.2690    -999.2500
   3058.2112       9.0396       0.2130      93.4540     115.4010    -999.2500    -999.2500       3.6212       3.8757       2.3076       0.0903       2.4741       2.2245    -999.2500
   3058.3635       8.1290       0.2010      98.9260     113.1070    -999.2500    -999.2500       3.4990       3.7750       2.3290       0.1013       2.3530       2.1800    -999.2500
   3058.5161       6.5052       0.1470      96.8362     113.5380    -999.2500    -999.2500       3.3150       3.6111       2.4463       0.1163       2.1796       1.9122    -999.2500
   3058.6685       4.8790       0.0930      94.7400     113.9710    -999.2500    -999.2500       3.1320       3.4480       2.5630       0.1307       2.0060       1.6440    -999.2500
   3058.8208       4.1346       0.0965      86.3234     115.4869    -999.2500    -999.2500       3.1831       3.4861       2.5119       0.1399       2.0180       1.6510    -999.2500
   3058.9731       3.3890       0.1000      77.8800     117.0100    -999.2500    -999.2500       3.2340       3.5240       2.4610       0.1454       2.0300       1.6580    -999.2500
   3059.1255       3.3890       0.1160      79.5068     119.9343    -999.2500    -999.2500       3.5016       3.7039       2.3487       0.1471       2.2238       1.7224    -999.2500
   3059.2781       3.3890       0.1320      81.1390     122.8730    -999.2500    -999.2500       3.7680       3.8830       2.2370       0.1471       2.4180       1.7870    -999.2500
   3059.4304       3.3890       0.1790      86.0291     122.3209    -999.2500    -999.2500       3.6843       3.7602       2.1027       0.1471       2.3521       1.9499    -999.2500
   3059.5828       3.3890       0.2260      90.9360     121.7660    -999.2500    -999.2500       3.6010       3.6380       1.9690       0.1471       2.2860       2.1130    -999.2500
   3059.7351       3.3890       0.2185      85.0510     118.9672    -999.2500    -999.2500       3.3670       3.3023       1.9986       0.1471       2.0872       2.0625    -999.2500
   3059.8877       3.3890       0.2110      79.1450     116.1540    -999.2500    -999.2500       3.1340       2.9680       2.0280       0.1471       1.8880       2.0120    -999.2500
   3060.0400       3.3890       0.1820      77.4990     111.6395    -999.2500    -999.2500       3.3089       3.1349       2.3001       0.1471       1.6617       1.8532    -999.2500
   3060.1924       3.3890       0.1530      75.8470     107.1010    -999.2500    -999.2500       3.4830       3.3010       2.5710       0.1471       1.4350       1.6940    -999.2500
   3060.3447       3.3890       0.1115      75.9484     103.5501    -999.2500    -999.2500       4.1579       3.9323       4.4855       0.1471       1.4355       1.5387    -999.2500
   3060.4973       3.3890       0.0700      76.0500      99.9800    -999.2500    -999.2500       4.8300       4.5610       6.3920       0.1466       1.4360       1.3830    -999.2500
   3060.6497       3.3595       0.0395      80.3295     101.1398    -999.2500    -999.2500       5.6351       5.3772       6.0603       0.1446       1.4235       1.3026    -999.2500
   3060.8020       3.3300       0.0090      84.6190     102.3060    -999.2500    -999.2500       6.4370       6.1900       5.7300       0.1304       1.4110       1.2220    -999.2500
   3060.9543       2.7098       0.1294      83.0999     104.5392    -999.2500    -999.2500       5.7652       5.6159       4.9284       0.0875       1.1483       1.5856    -999.2500
   3061.1067       2.0880       0.2500      81.5770     106.7850    -999.2500    -999.2500       5.0960       5.0440       4.1300    -999.2500       0.8850       1.9500    -999.2500
   3061.2593    -999.2500    -999.2500      76.0666     107.5518    -999.2500    -999.2500       5.1065       5.0500       3.5775    -999.2500    -999.2500    -999.2500    -999.2500
   3061.4116    -999.2500    -999.2500      70.5420     108.3230    -999.2500    -999.2500       5.1170       5.0560       3.0280    -999.2500    -999.2500    -999.2500    -999.2500
   3061.5640    -999.2500    -999.2500      71.0518     109.7149    -999.2500    -999.2500       5.2544       5.1412       3.3117    -999.2500    -999.2500    -999.2500    -999.2500
   3061.7163    -999.2500    -999.2500      71.5630     111.1150    -999.2500    -999.2500       5.3910       5.2260       3.5940    -999.2500    -999.2500    -999.2500    -999.2500
   3061.8689    -999.2500    -999.2500      74.6102     111.9864    -999.2500    -999.2500       5.2451       5.1017       3.4406    -999.2500    -999.2500    -999.2500    -999.2500
   3062.0212    -999.2500    -999.2500      77.6660     112.8630    -999.2500    -999.2500       5.1000       4.9780       3.2880    -999.2500    -999.2500    -999.2500    -999.2500
   3062.1736    -999.2500    -999.2500      86.8059     113.9895    -999.2500    -999.2500       4.6744       4.6000       2.8770    -999.2500    -999.2500    -999.2500    -999.2500
   3062.3259    -999.2500    -999.2500      95.9730     115.1230    -999.2500    -999.2500       4.2510       4.2240       2.4680    -999.2500    -999.2500    -999.2500    -999.2500
