#------------------------------------------------------------------------------
#
#   Created by  : [OpenWorks] Log Export Utility (LEXP)
#   Created on  : 2016-05-11 12:13:37
#   Project     : CANT971
#   User        : R5K
#   Interpreter : PEP
#
#------------------------------------------------------------------------------
~VERSION INFORMATION
VERS. 2.0 : CWLS Log ASCII Standard - version 2.0
WRAP.  NO : One line per depth step
~WELL INFORMATION
#MNEMONIC   .UNIT                                           VALUE :DESCRIPTION
#------------------------------------------------------------------------------
STRT        .M                                           118.7200 :START DEPTH
STOP        .M                                          3137.9165 :STOP DEPTH
STEP        .M                                             0.1524 :STEP
NULL        .                                           -999.2500 :NULL VALUE
COMP        .                                   PEMEX EXPL & PROD :COMPANY
WELL        .                                                1069 :WELL
FLD         .                                           CANTARELL :FIELD
LOC         .                                             UNKNOWN :LOCATION
CNTY        .                                      CD. DEL CARMEN :COUNTY
STAT        .                                            CAMPECHE :STATE
CTRY        .                                              MEXICO :COUNTRY
SRVC        .                                             UNKNOWN :SERVICE COMPANY
DATE        .                                             UNKNOWN :LOG DATE
UWI         .                                          3060000507 :UNIQUE WELL ID
XCOORD      .                                       601393.732000 :SURFACE X
YCOORD      .                                      2149879.230000 :SURFACE Y
LAT         .                                           19.441893 :LATITUDE
LON         .                                          -92.034110 :LONGITUDE
ELEV        .M                                            28.0000 :SURFACE ELEV
ELEV_TYPE   .                                                  KB :ELEV TYPE
~CURVE INFORMATION
#MNEMONIC.UNIT        API CODE       : CURVE DESCRIPTION
#------------------------------------------------------------------------------
DEPTH    .M                          : Measured Depth
CALI     .inches      UNKNOWN        : CALI:registros:rC:NONE:v0 (auto-composite)
DRHO     .g/cm3       UNKNOWN        : DRHO:registros:rC:NONE:v0 (auto-composite)
DT       .us/ft       UNKNOWN        : DT:registros:rC:NONE:v0 (auto-composite)
GR       .API         UNKNOWN        : GR:registros:rC:NONE:v0 (auto-composite)
ILD      .ohm.m       UNKNOWN        : ILD:registros:rC:NONE:v0 (auto-composite)
ILM      .ohm.m       UNKNOWN        : ILM:registros:rC:NONE:v0 (auto-composite)
LLD      .ohm.m       UNKNOWN        : LLD:registros:rC:NONE:v0 (auto-composite)
LLS      .ohm.m       UNKNOWN        : LLS:registros:rC:NONE:v0 (auto-composite)
MSFL     .ohm.m       UNKNOWN        : MSFL:registros:rC:NONE:v0 (auto-composite)
NPHI     .v/v_decimal UNKNOWN        : NPHI:registros:rC:NONE:v0 (auto-composite)
PEF      .b/elec      UNKNOWN        : PEF:registros:rC:NONE:v0 (auto-composite)
RHOB     .g/cm3       UNKNOWN        : RHOB:registros:rC:NONE:v0 (auto-composite)
SP       .mV          UNKNOWN        : SP:registros:rC:NONE:v0 (auto-composite)
~A     DEPTH         CALI         DRHO           DT           GR          ILD          ILM          LLD          LLS         MSFL         NPHI          PEF         RHOB           SP
# ...
   2277.9231      16.2525      -0.0035      57.2647       8.0658    -999.2500    -999.2500     275.9529      72.8959      52.7479       0.1048       3.3565       2.5860    -999.2500
   2278.0757      16.2180       0.0010      57.5710       8.1740    -999.2500    -999.2500     303.5930      74.9120      54.1000       0.1019       3.3500       2.6050    -999.2500
   2278.2280      16.0655       0.0010      58.4586       8.7794    -999.2500    -999.2500     301.5762      79.7276      68.5872       0.1017       3.3140       2.6230    -999.2500
   2278.3804      15.9130       0.0010      59.3480       9.3870    -999.2500    -999.2500     299.5620      84.5370      83.0560       0.1020       3.2780       2.6410    -999.2500
   2278.5327      15.7815      -0.0015      59.1062      10.2130    -999.2500    -999.2500     286.2324      83.2848      79.8131       0.1017       3.2000       2.6380    -999.2500
   2278.6853      15.6500      -0.0040      58.8640      11.0420    -999.2500    -999.2500     272.9180      82.0340      76.5740       0.1001       3.1220       2.6350    -999.2500
   2278.8376      15.7430      -0.0040      58.0364      10.9542    -999.2500    -999.2500     248.1243      77.2876      66.9541       0.0960       3.3359       2.6245    -999.2500
   2278.9900      15.8360      -0.0040      57.2070      10.8660    -999.2500    -999.2500     223.3560      72.5460      57.3440       0.0931       3.5500       2.6140    -999.2500
   2279.1423      15.8280      -0.0025      56.4049      10.4663    -999.2500    -999.2500     208.9886      69.8493      54.9824       0.0960       3.5455       2.6085    -999.2500
   2279.2949      15.8200      -0.0010      55.6010      10.0650    -999.2500    -999.2500     194.6340      67.1550      52.6230       0.0999       3.5410       2.6030    -999.2500
   2279.4473      15.7785       0.0035      55.8292       9.4283    -999.2500    -999.2500     185.4055      64.8781      42.1960       0.1009       3.4525       2.6095    -999.2500
   2279.5996      15.7370       0.0080      56.0580       8.7890    -999.2500    -999.2500     176.1840      62.6030      31.7770       0.1004       3.3640       2.6160    -999.2500
   2279.7520      15.6565       0.0075      57.1880       8.8249    -999.2500    -999.2500     153.4317      55.1366      89.6737       0.0988       3.3750       2.6140    -999.2500
   2279.9043      15.5760       0.0070      58.3210       8.8610    -999.2500    -999.2500     130.6940      47.6750     147.5330       0.0950       3.3860       2.6120    -999.2500
   2280.0569      15.5780       0.0055      60.2249       9.6069    -999.2500    -999.2500     126.7215      47.7245     120.6830       0.0862       3.5669       2.6160    -999.2500
   2280.2092      15.5800       0.0040      62.1340      10.3560    -999.2500    -999.2500     122.7510      47.7740      93.8470       0.0780       3.7480       2.6200    -999.2500
   2280.3616      15.5885       0.0025      61.8139      10.3266    -999.2500    -999.2500     119.5989      46.8103      97.0986       0.0763       3.6745       2.6420    -999.2500
   2280.5139      15.5970       0.0010      61.4930      10.2970    -999.2500    -999.2500     116.4480      45.8470     100.3490       0.0781       3.6010       2.6640    -999.2500
   2280.6665      15.6185      -0.0025      58.9167      10.0980    -999.2500    -999.2500     117.3659      46.1353      93.1122       0.0829       3.6345       2.6630    -999.2500
   2280.8188      15.6400      -0.0060      56.3370       9.8980    -999.2500    -999.2500     118.2820      46.4230      85.8890       0.0869       3.6680       2.6620    -999.2500
   2280.9712      15.6985      -0.0040      58.0747       9.1017    -999.2500    -999.2500     123.3669      47.9423      59.5766       0.0857       3.6590       2.6580    -999.2500
   2281.1235      15.7570      -0.0020      59.8150       8.3030    -999.2500    -999.2500     128.4430      49.4590      33.3100       0.0793       3.6500       2.6540    -999.2500
   2281.2761      15.8100       0.0045      59.7805       8.5496    -999.2500    -999.2500     135.5522      52.0326      46.3025       0.0638       3.5900       2.6425    -999.2500
   2281.4285      15.8630       0.0110      59.7460       8.7970    -999.2500    -999.2500     142.6500      54.6020      59.2740       0.0507       3.5300       2.6310    -999.2500
   2281.5808      15.9390       0.0255      57.4899       9.8767    -999.2500    -999.2500     140.0480      54.2753      57.1734       0.0532       3.4176       2.5955    -999.2500
   2281.7332      16.0150       0.0400      55.2300      10.9600    -999.2500    -999.2500     137.4500      53.9490      55.0760       0.0782       3.3050       2.5600    -999.2500
   2281.8855      16.1085       0.0335      56.8980      12.8602    -999.2500    -999.2500     116.2350      48.2611      44.3026       0.1482       3.2625       2.4981    -999.2500
   2282.0381      16.2020       0.0270      58.5690      14.7670    -999.2500    -999.2500      95.0490      42.5810      33.5440       0.2148       3.2200       2.4360    -999.2500
   2282.1904      16.4385       0.0295      72.3425      21.0797    -999.2500    -999.2500      53.1070      25.4394      20.0811       0.2279       3.1800       2.4375    -999.2500
   2282.3428      16.6750       0.0320      86.1430      27.4150    -999.2500    -999.2500      11.2170       8.3190       6.6350       0.2120       3.1400       2.4390    -999.2500
   2282.4951      16.6575       0.0415      84.5472      27.1350    -999.2500    -999.2500      11.2385       8.3715       8.0893       0.1717       3.0625       2.4625    -999.2500
   2282.6477      16.6400       0.0510      82.9480      26.8540    -999.2500    -999.2500      11.2600       8.4240       9.5420       0.1336       2.9850       2.4860    -999.2500
   2282.8000      16.5500       0.0685      76.6115      24.2450    -999.2500    -999.2500      12.3360       9.2699       7.8337       0.1252       2.8970       2.5905    -999.2500
   2282.9524      16.4600       0.0860      70.2610      21.6260    -999.2500    -999.2500      13.4110      10.1150       6.1270       0.1331       2.8090       2.6950    -999.2500
   2283.1047      16.5090       0.0820      64.0343      21.6325    -999.2500    -999.2500      21.9422      14.4794      15.6911       0.1544       2.4736       2.6605    -999.2500
   2283.2571      16.5580       0.0780      57.7930      21.6390    -999.2500    -999.2500      30.4660      18.8400      25.2470       0.1939       2.1380       2.6260    -999.2500
   2283.4097      16.9708       0.0635      59.6992      22.1884    -999.2500    -999.2500      29.5066      18.0287      24.8063       0.2678       2.3149       2.4956    -999.2500
   2283.5620      17.3840       0.0490      61.6100      22.7400    -999.2500    -999.2500      28.5480      17.2180      24.3660       0.3360       2.4920       2.3650    -999.2500
   2283.7144      17.3710       0.0395      73.5121      24.6495    -999.2500    -999.2500      21.8439      14.4642      19.6726       0.3546       2.4485       2.2421    -999.2500
   2283.8667      17.3580       0.0300      85.4450      26.5670    -999.2500    -999.2500      15.1440      11.7120      14.9820       0.3665       2.4050       2.1190    -999.2500
   2284.0193      17.1386       0.0090      85.1549      27.9944    -999.2500    -999.2500      15.5321       9.9216       8.6900       0.4098       2.2501       1.7337    -999.2500
   2284.1716      16.9190      -0.0120      84.8640      29.4280    -999.2500    -999.2500      15.9200       8.1320       2.4010       0.4529       2.0950       1.3480    -999.2500
   2284.3240      16.9700      -0.0105      86.8676      32.8738    -999.2500    -999.2500      15.1514       7.5829       1.3148       0.4647       2.3279       1.3940    -999.2500
   2284.4763      17.0210      -0.0090      88.8770      36.3350    -999.2500    -999.2500      14.3830       7.0340       0.2290       0.4599       2.5610       1.4400    -999.2500
