#------------------------------------------------------------------------------
#
#   Created by  : [OpenWorks] Log Export Utility (LEXP)
#   Created on  : 2016-05-11 12:13:37
#   Project     : CANT971
#   User        : R5K
#   Interpreter : PEP
#
#------------------------------------------------------------------------------
~VERSION INFORMATION
VERS. 2.0 : CWLS Log ASCII Standard - version 2.0
WRAP.  NO : One line per depth step
~WELL INFORMATION
#MNEMONIC   .UNIT                                           VALUE :DESCRIPTION
#------------------------------------------------------------------------------
STRT        .M                                           118.7200 :START DEPTH
STOP        .M                                          3137.9165 :STOP DEPTH
STEP        .M                                             0.1524 :STEP
NULL        .                                           -999.2500 :NULL VALUE
COMP        .                                   PEMEX EXPL & PROD :COMPANY
WELL        .                                                1069 :WELL
FLD         .                                           CANTARELL :FIELD
LOC         .                                             UNKNOWN :LOCATION
CNTY        .                                      CD. DEL CARMEN :COUNTY
STAT        .                                            CAMPECHE :STATE
CTRY        .                                              MEXICO :COUNTRY
SRVC        .                                             UNKNOWN :SERVICE COMPANY
DATE        .                                             UNKNOWN :LOG DATE
UWI         .                                          3060000507 :UNIQUE WELL ID
XCOORD      .                                       601393.732000 :SURFACE X
YCOORD      .                                      2149879.230000 :SURFACE Y
LAT         .                                           19.441893 :LATITUDE
LON         .                                          -92.034110 :LONGITUDE
ELEV        .M                                            28.0000 :SURFACE ELEV
ELEV_TYPE   .                                                  KB :ELEV TYPE
~CURVE INFORMATION
#MNEMONIC.UNIT        API CODE       : CURVE DESCRIPTION
#------------------------------------------------------------------------------
DEPTH    .M                          : Measured Depth
CALI     .inches      UNKNOWN        : CALI:registros:rC:NONE:v0 (auto-composite)
DRHO     .g/cm3       UNKNOWN        : DRHO:registros:rC:NONE:v0 (auto-composite)
DT       .us/ft       UNKNOWN        : DT:registros:rC:NONE:v0 (auto-composite)
GR       .API         UNKNOWN        : GR:registros:rC:NONE:v0 (auto-composite)
ILD      .ohm.m       UNKNOWN        : ILD:registros:rC:NONE:v0 (auto-composite)
ILM      .ohm.m       UNKNOWN        : ILM:registros:rC:NONE:v0 (auto-composite)
LLD      .ohm.m       UNKNOWN        : LLD:registros:rC:NONE:v0 (auto-composite)
LLS      .ohm.m       UNKNOWN        : LLS:registros:rC:NONE:v0 (auto-composite)
MSFL     .ohm.m       UNKNOWN        : MSFL:registros:rC:NONE:v0 (auto-composite)
NPHI     .v/v_decimal UNKNOWN        : NPHI:registros:rC:NONE:v0 (auto-composite)
PEF      .b/elec      UNKNOWN        : PEF:registros:rC:NONE:v0 (auto-composite)
RHOB     .g/cm3       UNKNOWN        : RHOB:registros:rC:NONE:v0 (auto-composite)
SP       .mV          UNKNOWN        : SP:registros:rC:NONE:v0 (auto-composite)
~A     DEPTH         CALI         DRHO           DT           GR          ILD          ILM          LLD          LLS         MSFL         NPHI          PEF         RHOB           SP
# ...
   1493.3680      17.0620      -0.0050     133.0681      36.6077       1.6166       1.5944    -999.2500    -999.2500    -999.2500       0.4840      15.2075       2.1705     -13.6135
   1493.5204      17.0100      -0.0060     142.0000      37.4930       1.5740       1.5120    -999.2500    -999.2500    -999.2500       0.4819      15.1530       2.1680     -13.8770
   1493.6729      16.9344      -0.0130     140.7754      38.6642       1.4732       1.4354    -999.2500    -999.2500    -999.2500       0.4765      13.9844       2.1310     -13.8760
   1493.8252      16.8590      -0.0200     139.5490      39.8390       1.3720       1.3590    -999.2500    -999.2500    -999.2500       0.4712      12.8160       2.0940     -13.8750
   1493.9777      16.8590      -0.0195     139.5525      40.6223       1.3725       1.3610    -999.2500    -999.2500    -999.2500       0.4714      12.8355       2.0950     -13.8430
   1494.1300      16.8590      -0.0190     139.5560      41.4080       1.3730       1.3630    -999.2500    -999.2500    -999.2500       0.4727      12.8550       2.0960     -13.8110
   1494.2823      16.8590      -0.0190     139.8537      42.3204       1.3865       1.3870    -999.2500    -999.2500    -999.2500       0.4804      13.1790       2.0955     -13.6140
   1494.4348      16.8590      -0.0190     140.1520      43.2350       1.4000       1.4110    -999.2500    -999.2500    -999.2500       0.4883      13.5030       2.0950     -13.4170
   1494.5872      16.8590      -0.0180     140.1120      45.7202       1.4450       1.4530    -999.2500    -999.2500    -999.2500       0.4922      15.1778       2.0825     -13.0295
   1494.7396      16.8590      -0.0170     140.0720      48.2100       1.4900       1.4950    -999.2500    -999.2500    -999.2500       0.4962      16.8530       2.0700     -12.6420
   1494.8920      16.8570      -0.0145     139.5580      48.0556       1.5380       1.5325    -999.2500    -999.2500    -999.2500       0.5052      16.7755       2.0700     -12.7530
   1495.0444      16.8550      -0.0120     139.0430      47.9010       1.5860       1.5700    -999.2500    -999.2500    -999.2500       0.5138      16.6980       2.0700     -12.8640
   1495.1968      16.8260      -0.0105     137.0546      45.0634       1.6369       1.6190    -999.2500    -999.2500    -999.2500       0.5135      15.3408       2.0725     -12.8595
   1495.3492      16.7970      -0.0090     135.0620      42.2200       1.6880       1.6680    -999.2500    -999.2500    -999.2500       0.5115      13.9830       2.0750     -12.8550
   1495.5016      16.7995      -0.0095     135.0850      43.2039       1.6870       1.6660    -999.2500    -999.2500    -999.2500       0.4990      14.0365       2.0870     -12.8655
   1495.6541      16.8020      -0.0100     135.1080      44.1900       1.6860       1.6640    -999.2500    -999.2500    -999.2500       0.4850      14.0900       2.0990     -12.8760
   1495.8064      16.8365      -0.0100     135.4804      44.1580       1.6725       1.6410    -999.2500    -999.2500    -999.2500       0.4650      14.7922       2.0990     -13.0035
   1495.9587      16.8710      -0.0100     135.8530      44.1260       1.6590       1.6180    -999.2500    -999.2500    -999.2500       0.4459      15.4950       2.0990     -13.1310
   1496.1112      16.8695      -0.0095     137.2814      43.7365       1.6240       1.5735    -999.2500    -999.2500    -999.2500       0.4450      15.4475       2.0975     -13.2969
   1496.2635      16.8680      -0.0090     138.7110      43.3460       1.5890       1.5290    -999.2500    -999.2500    -999.2500       0.4463      15.4000       2.0960     -13.4630
   1496.4160      16.8505      -0.0075     139.5996      42.2259       1.5221       1.4739    -999.2500    -999.2500    -999.2500       0.4588      14.8458       2.0965     -13.7928
   1496.5684      16.8330      -0.0060     140.4890      41.1030       1.4550       1.4190    -999.2500    -999.2500    -999.2500       0.4712      14.2910       2.0970     -14.1230
   1496.7208      16.7890      -0.0060     141.1956      41.2143       1.3701       1.3429    -999.2500    -999.2500    -999.2500       0.4714      14.9764       2.1050     -14.4819
   1496.8732      16.7450      -0.0060     141.9030      41.3260       1.2850       1.2670    -999.2500    -999.2500    -999.2500       0.4703      15.6620       2.1130     -14.8410
   1497.0256      16.6615      -0.0075     142.3947      42.4799       1.2351       1.2124    -999.2500    -999.2500    -999.2500       0.4622      15.6480       2.1125     -15.1105
   1497.1780      16.5780      -0.0090     142.8870      43.6370       1.1850       1.1580    -999.2500    -999.2500    -999.2500       0.4542      15.6340       2.1120     -15.3800
   1497.3304      16.5800      -0.0120     144.2985      44.1732       1.1540       1.1335    -999.2500    -999.2500    -999.2500       0.4539      15.0809       2.1105     -15.3765
   1497.4828      16.5820      -0.0150     145.7120      44.7110       1.1230       1.1090    -999.2500    -999.2500    -999.2500       0.4543      14.5280       2.1090     -15.3730
   1497.6353      16.6045      -0.0150     145.6990      48.0164       1.1245       1.1110    -999.2500    -999.2500    -999.2500       0.4570      14.5380       2.1070     -15.3085
   1497.7876      16.6270      -0.0150     145.6860      51.3320       1.1260       1.1130    -999.2500    -999.2500    -999.2500       0.4599      14.5480       2.1050     -15.2440
   1497.9399      16.6605      -0.0135     145.4457      48.9393       1.1460       1.1355    -999.2500    -999.2500    -999.2500       0.4629      14.6840       2.1050     -14.9460
   1498.0924      16.6940      -0.0120     145.2050      46.5390       1.1660       1.1580    -999.2500    -999.2500    -999.2500       0.4665      14.8200       2.1050     -14.6480
   1498.2448      16.7065      -0.0065     143.9971      46.6608       1.1945       1.1925    -999.2500    -999.2500    -999.2500       0.4778      15.2475       2.1075     -14.1725
   1498.3972      16.7190      -0.0010     142.7870      46.7830       1.2230       1.2270    -999.2500    -999.2500    -999.2500       0.4890      15.6750       2.1100     -13.6970
   1498.5496      16.7225      -0.0010     141.7355      46.6072       1.2715       1.2705    -999.2500    -999.2500    -999.2500       0.4889      15.9870       2.1170     -13.7000
   1498.7020      16.7260      -0.0010     140.6820      46.4310       1.3200       1.3140    -999.2500    -999.2500    -999.2500       0.4874      16.2990       2.1240     -13.7030
   1498.8544      16.7490      -0.0010     140.2255      42.5484       1.3475       1.3415    -999.2500    -999.2500    -999.2500       0.4752      16.7969       2.1240     -13.7610
   1499.0068      16.7720      -0.0010     139.7680      38.6580       1.3750       1.3690    -999.2500    -999.2500    -999.2500       0.4631      17.2950       2.1240     -13.8190
   1499.1592      16.7455      -0.0030     137.8365      42.6628       1.3900       1.3870    -999.2500    -999.2500    -999.2500       0.4653      17.2950       2.1140     -13.8155
   1499.3116      16.7190      -0.0050     135.9010      46.6760       1.4050       1.4050    -999.2500    -999.2500    -999.2500       0.4683      17.2950       2.1040     -13.8120
   1499.4640      16.7190      -0.0070     134.0738      46.5092       1.4589       1.4565    -999.2500    -999.2500    -999.2500       0.4682      17.2730       2.1045     -13.7045
   1499.6165      16.7190      -0.0090     132.2440      46.3420       1.5130       1.5080    -999.2500    -999.2500    -999.2500       0.4677      17.2510       2.1050     -13.5970
   1499.7688      16.7165      -0.0090     127.3878      43.0788       1.5055       1.5070    -999.2500    -999.2500    -999.2500       0.4636      17.0376       2.1105     -13.6065
   1499.9211      16.7140      -0.0090     122.5280      39.8080       1.4980       1.5060    -999.2500    -999.2500    -999.2500       0.4597      16.8240       2.1160     -13.6160
