#------------------------------------------------------------------------------
#
#   Created by  : [OpenWorks] Log Export Utility (LEXP)
#   Created on  : 2016-05-11 12:13:37
#   Project     : CANT971
#   User        : R5K
#   Interpreter : PEP
#
#------------------------------------------------------------------------------
~VERSION INFORMATION
VERS. 2.0 : CWLS Log ASCII Standard - version 2.0
WRAP.  NO : One line per depth step
~WELL INFORMATION
#MNEMONIC   .UNIT                                           VALUE :DESCRIPTION
#------------------------------------------------------------------------------
STRT        .M                                           118.7200 :START DEPTH
STOP        .M                                          3137.9165 :STOP DEPTH
STEP        .M                                             0.1524 :STEP
NULL        .                                           -999.2500 :NULL VALUE
COMP        .                                   PEMEX EXPL & PROD :COMPANY
WELL        .                                                1069 :WELL
FLD         .                                           CANTARELL :FIELD
LOC         .                                             UNKNOWN :LOCATION
CNTY        .                                      CD. DEL CARMEN :COUNTY
STAT        .                                            CAMPECHE :STATE
CTRY        .                                              MEXICO :COUNTRY
SRVC        .                                             UNKNOWN :SERVICE COMPANY
DATE        .                                             UNKNOWN :LOG DATE
UWI         .                                          3060000507 :UNIQUE WELL ID
XCOORD      .                                       601393.732000 :SURFACE X
YCOORD      .                                      2149879.230000 :SURFACE Y
LAT         .                                           19.441893 :LATITUDE
LON         .                                          -92.034110 :LONGITUDE
ELEV        .M                                            28.0000 :SURFACE ELEV
ELEV_TYPE   .                                                  KB :ELEV TYPE
~CURVE INFORMATION
#MNEMONIC.UNIT        API CODE       : CURVE DESCRIPTION
#------------------------------------------------------------------------------
DEPTH    .M                          : Measured Depth
CALI     .inches      UNKNOWN        : CALI:registros:rC:NONE:v0 (auto-composite)
DRHO     .g/cm3       UNKNOWN        : DRHO:registros:rC:NONE:v0 (auto-composite)
DT       .us/ft       UNKNOWN        : DT:registros:rC:NONE:v0 (auto-composite)
GR       .API         UNKNOWN        : GR:registros:rC:NONE:v0 (auto-composite)
ILD      .ohm.m       UNKNOWN        : ILD:registros:rC:NONE:v0 (auto-composite)
ILM      .ohm.m       UNKNOWN        : ILM:registros:rC:NONE:v0 (auto-composite)
LLD      .ohm.m       UNKNOWN        : LLD:registros:rC:NONE:v0 (auto-composite)
LLS      .ohm.m       UNKNOWN        : LLS:registros:rC:NONE:v0 (auto-composite)
MSFL     .ohm.m       UNKNOWN        : MSFL:registros:rC:NONE:v0 (auto-composite)
NPHI     .v/v_decimal UNKNOWN        : NPHI:registros:rC:NONE:v0 (auto-composite)
PEF      .b/elec      UNKNOWN        : PEF:registros:rC:NONE:v0 (auto-composite)
RHOB     .g/cm3       UNKNOWN        : RHOB:registros:rC:NONE:v0 (auto-composite)
SP       .mV          UNKNOWN        : SP:registros:rC:NONE:v0 (auto-composite)
~A     DEPTH         CALI         DRHO           DT           GR          ILD          ILM          LLD          LLS         MSFL         NPHI          PEF         RHOB           SP
# ...
   1104.4432      17.5700       0.0060     127.6904      32.3686       1.2240       1.2060    -999.2500    -999.2500    -999.2500       0.4914      11.7799       2.1630     -44.1520
   1104.5956      17.5700       0.0060     128.6200      30.5540       1.2360       1.2080    -999.2500    -999.2500    -999.2500       0.4958      11.4120       2.1590     -44.0780
   1104.7480      17.5830       0.0040     130.2679      31.0871       1.2355       1.2135    -999.2500    -999.2500    -999.2500       0.4923      11.0085       2.1570     -43.9095
   1104.9004      17.5960       0.0020     131.9180      31.6210       1.2350       1.2190    -999.2500    -999.2500    -999.2500       0.4842      10.6050       2.1550     -43.7410
   1105.0529      17.6931      -0.0015     131.4309      32.5028       1.2285       1.2180    -999.2500    -999.2500    -999.2500       0.4683       9.9320       2.1505     -43.7685
   1105.2052      17.7900      -0.0050     130.9430      33.3860       1.2220       1.2170    -999.2500    -999.2500    -999.2500       0.4546       9.2590       2.1460     -43.7960
   1105.3575      17.7465      -0.0045     129.3013      33.7472       1.2230       1.2135    -999.2500    -999.2500    -999.2500       0.4563       9.4045       2.1470     -43.8430
   1105.5100      17.7030      -0.0040     127.6570      34.1090       1.2240       1.2100    -999.2500    -999.2500    -999.2500       0.4635       9.5500       2.1480     -43.8900
   1105.6624      17.7030      -0.0020     128.3786      33.8547       1.2260       1.2150    -999.2500    -999.2500    -999.2500       0.4737      11.0864       2.1540     -43.9300
   1105.8148      17.7030       0.0000     129.1010      33.6000       1.2280       1.2200    -999.2500    -999.2500    -999.2500       0.4832      12.6230       2.1600     -43.9700
   1105.9672      17.6710       0.0025     128.8260      32.8847       1.2310       1.2185    -999.2500    -999.2500    -999.2500       0.4876      12.3585       2.1530     -44.0585
   1106.1196      17.6390       0.0050     128.5510      32.1680       1.2340       1.2170    -999.2500    -999.2500    -999.2500       0.4902      12.0940       2.1460     -44.1470
   1106.2720      17.6460       0.0080     127.2258      31.5566       1.2440       1.2250    -999.2500    -999.2500    -999.2500       0.4919      11.3856       2.1490     -44.0965
   1106.4244      17.6530       0.0110     125.9000      30.9440       1.2540       1.2330    -999.2500    -999.2500    -999.2500       0.4919      10.6770       2.1520     -44.0460
   1106.5768      17.7130       0.0100     123.7696      30.9909       1.2810       1.2595    -999.2500    -999.2500    -999.2500       0.4870      10.8939       2.1630     -43.9180
   1106.7292      17.7730       0.0090     121.6380      31.0380       1.3080       1.2860    -999.2500    -999.2500    -999.2500       0.4798      11.1110       2.1740     -43.7900
   1106.8816      17.7630       0.0095     119.9211      30.9071       1.3524       1.3331    -999.2500    -999.2500    -999.2500       0.4701      11.7993       2.1930     -43.6410
   1107.0341      17.7530       0.0100     118.2030      30.7760       1.3970       1.3800    -999.2500    -999.2500    -999.2500       0.4606      12.4880       2.2120     -43.4920
   1107.1864      17.7019       0.0095     119.2156      30.9838       1.3965       1.3750    -999.2500    -999.2500    -999.2500       0.4540      13.3240       2.2350     -43.3720
   1107.3387      17.6510       0.0090     120.2290      31.1920       1.3960       1.3700    -999.2500    -999.2500    -999.2500       0.4507      14.1600       2.2580     -43.2520
   1107.4912      17.5624       0.0080     124.5645      31.0017       1.3860       1.3510    -999.2500    -999.2500    -999.2500       0.4555      13.8839       2.2450     -43.1740
   1107.6436      17.4740       0.0070     128.9040      30.8110       1.3760       1.3320    -999.2500    -999.2500    -999.2500       0.4648      13.6080       2.2320     -43.0960
   1107.7960      17.4845       0.0040     128.5767      30.2630       1.3525       1.3090    -999.2500    -999.2500    -999.2500       0.4808      12.6122       2.1995     -43.1055
   1107.9484      17.4950       0.0010     128.2490      29.7140       1.3290       1.2860    -999.2500    -999.2500    -999.2500       0.4954      11.6170       2.1670     -43.1150
   1108.1008      17.5240      -0.0020     128.6727      29.7400       1.3050       1.2730    -999.2500    -999.2500    -999.2500       0.4986      11.8616       2.1450     -43.1470
   1108.2532      17.5530      -0.0050     129.0970      29.7660       1.2810       1.2600    -999.2500    -999.2500    -999.2500       0.4984      12.1060       2.1230     -43.1790
   1108.4056      17.5320      -0.0045     131.3980      29.9649       1.2595       1.2435    -999.2500    -999.2500    -999.2500       0.4981      11.7774       2.1235     -43.1490
   1108.5580      17.5110      -0.0040     133.7020      30.1640       1.2380       1.2270    -999.2500    -999.2500    -999.2500       0.4963      11.4490       2.1240     -43.1190
   1108.7104      17.5270      -0.0045     133.5306      30.6072       1.2235       1.2100    -999.2500    -999.2500    -999.2500       0.4897      10.9365       2.1240     -43.0535
   1108.8628      17.5430      -0.0050     133.3590      31.0510       1.2090       1.1930    -999.2500    -999.2500    -999.2500       0.4843      10.4240       2.1240     -42.9880
   1109.0153      17.5830      -0.0045     132.8149      30.5614       1.1965       1.1800    -999.2500    -999.2500    -999.2500       0.4871      11.0095       2.1345     -42.8805
   1109.1676      17.6230      -0.0040     132.2700      30.0710       1.1840       1.1670    -999.2500    -999.2500    -999.2500       0.4932      11.5950       2.1450     -42.7730
   1109.3199      17.6545      -0.0040     131.5671      30.2234       1.1855       1.1675    -999.2500    -999.2500    -999.2500       0.5013      11.5545       2.1445     -42.7735
   1109.4724      17.6860      -0.0040     130.8630      30.3760       1.1870       1.1680    -999.2500    -999.2500    -999.2500       0.5078      11.5140       2.1440     -42.7740
   1109.6248      17.6840      -0.0045     130.3468      30.3745       1.1840       1.1710    -999.2500    -999.2500    -999.2500       0.5073      11.8040       2.1425     -42.5080
   1109.7772      17.6820      -0.0050     129.8300      30.3730       1.1810       1.1740    -999.2500    -999.2500    -999.2500       0.5034      12.0940       2.1410     -42.2420
   1109.9296      17.6745      -0.0060     129.6355      30.2211       1.1840       1.1790    -999.2500    -999.2500    -999.2500       0.4960      12.0835       2.1375     -42.2805
   1110.0820      17.6670      -0.0070     129.4410      30.0690       1.1870       1.1840    -999.2500    -999.2500    -999.2500       0.4873      12.0730       2.1340     -42.3190
   1110.2344      17.6760      -0.0060     129.1750      29.2938       1.1950       1.1900    -999.2500    -999.2500    -999.2500       0.4780      12.1335       2.1370     -42.4495
   1110.3868      17.6850      -0.0050     128.9090      28.5170       1.2030       1.1960    -999.2500    -999.2500    -999.2500       0.4736      12.1940       2.1400     -42.5800
   1110.5392      17.6490      -0.0010     128.4886      29.8585       1.2030       1.1955    -999.2500    -999.2500    -999.2500       0.4849      12.9578       2.1535     -42.5710
   1110.6917      17.6130       0.0030     128.0680      31.2030       1.2030       1.1950    -999.2500    -999.2500    -999.2500       0.4977      13.7220       2.1670     -42.5620
   1110.8440      17.6140       0.0025     129.2381      30.3879       1.1990       1.1865    -999.2500    -999.2500    -999.2500       0.4992      13.3311       2.1650     -42.4310
   1110.9965      17.6150       0.0020     130.4090      29.5710       1.1950       1.1780    -999.2500    -999.2500    -999.2500       0.4967      12.9400       2.1630     -42.3000
