#------------------------------------------------------------------------------
#
#   Created by  : [OpenWorks] Log Export Utility (LEXP)
#   Created on  : 2016-05-11 12:13:37
#   Project     : CANT971
#   User        : R5K
#   Interpreter : PEP
#
#------------------------------------------------------------------------------
~VERSION INFORMATION
VERS. 2.0 : CWLS Log ASCII Standard - version 2.0
WRAP.  NO : One line per depth step
~WELL INFORMATION
#MNEMONIC   .UNIT                                           VALUE :DESCRIPTION
#------------------------------------------------------------------------------
STRT        .M                                           118.7200 :START DEPTH
STOP        .M                                          3137.9165 :STOP DEPTH
STEP        .M                                             0.1524 :STEP
NULL        .                                           -999.2500 :NULL VALUE
COMP        .                                   PEMEX EXPL & PROD :COMPANY
WELL        .                                                1069 :WELL
FLD         .                                           CANTARELL :FIELD
LOC         .                                             UNKNOWN :LOCATION
CNTY        .                                      CD. DEL CARMEN :COUNTY
STAT        .                                            CAMPECHE :STATE
CTRY        .                                              MEXICO :COUNTRY
SRVC        .                                             UNKNOWN :SERVICE COMPANY
DATE        .                                             UNKNOWN :LOG DATE
UWI         .                                          3060000507 :UNIQUE WELL ID
XCOORD      .                                       601393.732000 :SURFACE X
YCOORD      .                                      2149879.230000 :SURFACE Y
LAT         .                                           19.441893 :LATITUDE
LON         .                                          -92.034110 :LONGITUDE
ELEV        .M                                            28.0000 :SURFACE ELEV
ELEV_TYPE   .                                                  KB :ELEV TYPE
~CURVE INFORMATION
#MNEMONIC.UNIT        API CODE       : CURVE DESCRIPTION
#------------------------------------------------------------------------------
DEPTH    .M                          : Measured Depth
CALI     .inches      UNKNOWN        : CALI:registros:rC:NONE:v0 (auto-composite)
DRHO     .g/cm3       UNKNOWN        : DRHO:registros:rC:NONE:v0 (auto-composite)
DT       .us/ft       UNKNOWN        : DT:registros:rC:NONE:v0 (auto-composite)
GR       .API         UNKNOWN        : GR:registros:rC:NONE:v0 (auto-composite)
ILD      .ohm.m       UNKNOWN        : ILD:registros:rC:NONE:v0 (auto-composite)
ILM      .ohm.m       UNKNOWN        : ILM:registros:rC:NONE:v0 (auto-composite)
LLD      .ohm.m       UNKNOWN        : LLD:registros:rC:NONE:v0 (auto-composite)
LLS      .ohm.m       UNKNOWN        : LLS:registros:rC:NONE:v0 (auto-composite)
MSFL     .ohm.m       UNKNOWN        : MSFL:registros:rC:NONE:v0 (auto-composite)
NPHI     .v/v_decimal UNKNOWN        : NPHI:registros:rC:NONE:v0 (auto-composite)
PEF      .b/elec      UNKNOWN        : PEF:registros:rC:NONE:v0 (auto-composite)
RHOB     .g/cm3       UNKNOWN        : RHOB:registros:rC:NONE:v0 (auto-composite)
SP       .mV          UNKNOWN        : SP:registros:rC:NONE:v0 (auto-composite)
~A     DEPTH         CALI         DRHO           DT           GR          ILD          ILM          LLD          LLS         MSFL         NPHI          PEF         RHOB           SP
# ...
   2666.8479      14.1880      -0.0055      71.9104      69.9367    -999.2500    -999.2500     133.4678      96.7997     262.3274       0.1344       4.1091       2.5570    -999.2500
   2667.0005      14.1880      -0.0050      72.5090      74.1900    -999.2500    -999.2500      91.5480      78.2690     184.7380       0.1316       4.0230       2.5560    -999.2500
   2667.1528      14.1250      -0.0030      68.9575      67.9118    -999.2500    -999.2500     101.4464      86.8190     157.9449       0.0928       4.2608       2.5815    -999.2500
   2667.3052      14.0620      -0.0010      65.3990      61.6010    -999.2500    -999.2500     111.3170      95.3450     131.2270       0.0544       4.4990       2.6070    -999.2500
   2667.4575      14.0585      -0.0045      64.1229      56.0428    -999.2500    -999.2500     173.2025     129.8908     238.6010       0.0673       4.5719       2.6080    -999.2500
   2667.6101      14.0550      -0.0080      62.8440      50.4550    -999.2500    -999.2500     234.9220     164.3440     345.6870       0.0825       4.6450       2.6090    -999.2500
   2667.7625      14.0550      -0.0095      66.5388      60.4877    -999.2500    -999.2500     180.0418     138.3152     565.8213       0.1091       4.4291       2.5900    -999.2500
   2667.9148      14.0550      -0.0110      70.2420      70.5590    -999.2500    -999.2500     125.3020     112.3530     785.3920       0.1353       4.2130       2.5710    -999.2500
   2668.0671      14.0550      -0.0095      71.2967      74.8041    -999.2500    -999.2500      99.1071      93.5912     443.2359       0.1349       4.2845       2.5630    -999.2500
   2668.2195      14.0550      -0.0080      72.3540      79.0660    -999.2500    -999.2500      72.9760      74.8750     101.9120       0.1342       4.3560       2.5550    -999.2500
   2668.3721      14.0550      -0.0095      73.7852      81.2999    -999.2500    -999.2500      73.0356      75.5668     130.1521       0.1555       4.1631       2.5325    -999.2500
   2668.5244      14.0550      -0.0110      75.2200      83.5430    -999.2500    -999.2500      73.0950      76.2570     158.3270       0.1768       3.9700       2.5100    -999.2500
   2668.6768      14.0515      -0.0110      77.6094      90.0013    -999.2500    -999.2500      73.8944      77.0078     161.2862       0.1805       3.8955       2.4915    -999.2500
   2668.8291      14.0480      -0.0110      80.0050      96.4870    -999.2500    -999.2500      74.6920      77.7570     164.2390       0.1832       3.8210       2.4730    -999.2500
   2668.9817      14.0510      -0.0060      79.1916      93.6232    -999.2500    -999.2500      73.3581      76.3445     191.2913       0.1695       3.8435       2.4915    -999.2500
   2669.1340      14.0540      -0.0010      78.3760      90.7470    -999.2500    -999.2500      72.0270      74.9350     218.2880       0.1550       3.8660       2.5100    -999.2500
   2669.2864      14.0545      -0.0020      75.9510      85.6385    -999.2500    -999.2500      77.0188      79.6684     188.0887       0.1311       4.1263       2.5200    -999.2500
   2669.4387      14.0550      -0.0030      73.5190      80.5070    -999.2500    -999.2500      81.9930      84.3850     157.9960       0.1077       4.3870       2.5300    -999.2500
   2669.5913      14.0510      -0.0015      72.0287      72.5618    -999.2500    -999.2500      88.0603      90.1238     200.5579       0.1155       4.5989       2.5365    -999.2500
   2669.7437      14.0470       0.0000      70.5340      64.5800    -999.2500    -999.2500      94.1070      95.8430     242.9750       0.1243       4.8110       2.5430    -999.2500
   2669.8960      14.0305      -0.0010      72.8594      65.6400    -999.2500    -999.2500      83.0729      86.0810     322.5896       0.1438       4.5862       2.5175    -999.2500
   2670.0483      14.0140      -0.0020      75.1920      66.7050    -999.2500    -999.2500      72.0750      76.3510     401.9430       0.1631       4.3610       2.4920    -999.2500
   2670.2007      14.0225      -0.0010      76.2687      75.0771    -999.2500    -999.2500      79.0014      80.5051     296.6600       0.1564       4.3990       2.4915    -999.2500
   2670.3533      14.0310       0.0000      77.3490      83.4900    -999.2500    -999.2500      85.9060      84.6460     191.7090       0.1490       4.4370       2.4910    -999.2500
   2670.5056      14.0420      -0.0010      75.6404      88.5279    -999.2500    -999.2500     121.7974     108.9343     353.1631       0.1396       4.4695       2.5030    -999.2500
   2670.6580      14.0530      -0.0020      73.9260      93.5910    -999.2500    -999.2500     157.5800     133.1490     514.1280       0.1304       4.5020       2.5150    -999.2500
   2670.8103      14.0340      -0.0030      73.4150      94.6508    -999.2500    -999.2500     137.9896     119.4852     416.0862       0.1352       4.3701       2.5275    -999.2500
   2670.9629      14.0150      -0.0040      72.9030      95.7160    -999.2500    -999.2500     118.4560     105.8610     318.3290       0.1403       4.2380       2.5400    -999.2500
   2671.1152      13.9880      -0.0030      73.0169      88.1598    -999.2500    -999.2500     102.3596      94.9018     211.9006       0.1501       4.2750       2.5555    -999.2500
   2671.2676      13.9610      -0.0020      73.1310      80.5640    -999.2500    -999.2500      86.3080      83.9730     105.7680       0.1598       4.3120       2.5710    -999.2500
   2671.4199      13.9375      -0.0025      73.1849      77.8029    -999.2500    -999.2500      95.8562      90.2428     123.0449       0.1530       4.3110       2.5505    -999.2500
   2671.5725      13.9140      -0.0030      73.2390      75.0270    -999.2500    -999.2500     105.3790      96.4960     140.2760       0.1456       4.3100       2.5300    -999.2500
   2671.7249      13.9140      -0.0025      71.6213      70.9125    -999.2500    -999.2500     113.3040     100.8956     193.3366       0.1183       4.4679       2.5420    -999.2500
   2671.8772      13.9140      -0.0020      70.0000      66.7820    -999.2500    -999.2500     121.2090     105.2840     246.2630       0.0911       4.6260       2.5540    -999.2500
   2672.0295      13.9140      -0.0035      68.6966      61.3344    -999.2500    -999.2500     139.8724     116.4874     216.0793       0.0940       4.5425       2.5670    -999.2500
   2672.1819      13.9140      -0.0050      67.3900      55.8650    -999.2500    -999.2500     158.4910     127.6640     185.9680       0.0972       4.4590       2.5800    -999.2500
   2672.3345      13.9140      -0.0035      68.1391      60.3562    -999.2500    -999.2500     157.6581     125.7113     184.1449       0.1115       4.5340       2.5650    -999.2500
   2672.4868      13.9140      -0.0020      68.8900      64.8660    -999.2500    -999.2500     156.8270     123.7630     182.3260       0.1259       4.6090       2.5500    -999.2500
   2672.6392      13.9140      -0.0020      69.7249      64.6066    -999.2500    -999.2500     164.8927     126.0284     269.5548       0.1315       4.6085       2.5355    -999.2500
   2672.7915      13.9140      -0.0020      70.5620      64.3460    -999.2500    -999.2500     172.9410     128.2890     356.5960       0.1371       4.6080       2.5210    -999.2500
   2672.9441      13.9140      -0.0045      75.4088      64.3924    -999.2500    -999.2500     172.9065     128.2735     356.3703       0.1663       4.3167       2.4870    -999.2500
   2673.0964      13.9140      -0.0070      80.2690      64.4390    -999.2500    -999.2500     172.8720     128.2580     356.1450       0.1958       4.0250       2.4530    -999.2500
   2673.2488      13.9140      -0.0085      80.2640      71.6627    -999.2500    -999.2500     167.5742     125.8423     278.9053       0.1959       4.0255       2.4530    -999.2500
   2673.4011      13.9140      -0.0100      80.2590      78.9190    -999.2500    -999.2500     162.2950     123.4350     201.9360       0.1958       4.0260       2.4530    -999.2500
