#------------------------------------------------------------------------------
#
#   Created by  : [OpenWorks] Log Export Utility (LEXP)
#   Created on  : 2016-05-11 12:13:37
#   Project     : CANT971
#   User        : R5K
#   Interpreter : PEP
#
#------------------------------------------------------------------------------
~VERSION INFORMATION
VERS. 2.0 : CWLS Log ASCII Standard - version 2.0
WRAP.  NO : One line per depth step
~WELL INFORMATION
#MNEMONIC   .UNIT                                           VALUE :DESCRIPTION
#------------------------------------------------------------------------------
STRT        .M                                           118.7200 :START DEPTH
STOP        .M                                          3137.9165 :STOP DEPTH
STEP        .M                                             0.1524 :STEP
NULL        .                                           -999.2500 :NULL VALUE
COMP        .                                   PEMEX EXPL & PROD :COMPANY
WELL        .                                                1069 :WELL
FLD         .                                           CANTARELL :FIELD
LOC         .                                             UNKNOWN :LOCATION
CNTY        .                                      CD. DEL CARMEN :COUNTY
STAT        .                                            CAMPECHE :STATE
CTRY        .                                              MEXICO :COUNTRY
SRVC        .                                             UNKNOWN :SERVICE COMPANY
DATE        .                                             UNKNOWN :LOG DATE
UWI         .                                          3060000507 :UNIQUE WELL ID
XCOORD      .                                       601393.732000 :SURFACE X
YCOORD      .                                      2149879.230000 :SURFACE Y
LAT         .                                           19.441893 :LATITUDE
LON         .                                          -92.034110 :LONGITUDE
ELEV        .M                                            28.0000 :SURFACE ELEV
ELEV_TYPE   .                                                  KB :ELEV TYPE
~CURVE INFORMATION
#MNEMONIC.UNIT        API CODE       : CURVE DESCRIPTION
#------------------------------------------------------------------------------
DEPTH    .M                          : Measured Depth
CALI     .inches      UNKNOWN        : CALI:registros:rC:NONE:v0 (auto-composite)
DRHO     .g/cm3       UNKNOWN        : DRHO:registros:rC:NONE:v0 (auto-composite)
DT       .us/ft       UNKNOWN        : DT:registros:rC:NONE:v0 (auto-composite)
GR       .API         UNKNOWN        : GR:registros:rC:NONE:v0 (auto-composite)
ILD      .ohm.m       UNKNOWN        : ILD:registros:rC:NONE:v0 (auto-composite)
ILM      .ohm.m       UNKNOWN        : ILM:registros:rC:NONE:v0 (auto-composite)
LLD      .ohm.m       UNKNOWN        : LLD:registros:rC:NONE:v0 (auto-composite)
LLS      .ohm.m       UNKNOWN        : LLS:registros:rC:NONE:v0 (auto-composite)
MSFL     .ohm.m       UNKNOWN        : MSFL:registros:rC:NONE:v0 (auto-composite)
NPHI     .v/v_decimal UNKNOWN        : NPHI:registros:rC:NONE:v0 (auto-composite)
PEF      .b/elec      UNKNOWN        : PEF:registros:rC:NONE:v0 (auto-composite)
RHOB     .g/cm3       UNKNOWN        : RHOB:registros:rC:NONE:v0 (auto-composite)
SP       .mV          UNKNOWN        : SP:registros:rC:NONE:v0 (auto-composite)
~A     DEPTH         CALI         DRHO           DT           GR          ILD          ILM          LLD          LLS         MSFL         NPHI          PEF         RHOB           SP
# ...
   1298.9056      17.6935      -0.0055     126.5923      40.9559       1.1375       1.1265    -999.2500    -999.2500    -999.2500       0.4768      18.1354       2.1420     -35.2575
   1299.0580      17.6920      -0.0040     126.1400      38.6190       1.1350       1.1260    -999.2500    -999.2500    -999.2500       0.4652      17.6890       2.1430     -35.1870
   1299.2104      17.6695      -0.0035     126.4168      36.5964       1.1230       1.1205    -999.2500    -999.2500    -999.2500       0.4711      18.6246       2.1465     -35.1350
   1299.3628      17.6470      -0.0030     126.6940      34.5710       1.1110       1.1150    -999.2500    -999.2500    -999.2500       0.4779      19.5600       2.1500     -35.0830
   1299.5153      17.5504      -0.0010     127.8931      34.9247       1.0955       1.0970    -999.2500    -999.2500    -999.2500       0.4784      19.5535       2.1480     -35.0490
   1299.6676      17.4540       0.0010     129.0940      35.2790       1.0800       1.0790    -999.2500    -999.2500    -999.2500       0.4781      19.5470       2.1460     -35.0150
   1299.8199      17.4765       0.0025     130.1671      39.4290       1.0690       1.0660    -999.2500    -999.2500    -999.2500       0.4755      19.3425       2.1385     -34.9360
   1299.9724      17.4990       0.0040     131.2420      43.5860       1.0580       1.0530    -999.2500    -999.2500    -999.2500       0.4732      19.1380       2.1310     -34.8570
   1300.1248      17.4865       0.0055     132.5234      43.5246       1.0440       1.0420    -999.2500    -999.2500    -999.2500       0.4747      19.2865       2.1245     -34.7090
   1300.2772      17.4740       0.0070     133.8070      43.4630       1.0300       1.0310    -999.2500    -999.2500    -999.2500       0.4776      19.4350       2.1180     -34.5610
   1300.4296      17.4190       0.0090     133.7581      42.9905       1.0150       1.0195    -999.2500    -999.2500    -999.2500       0.4906      20.0324       2.1125     -34.1731
   1300.5820      17.3640       0.0110     133.7090      42.5170       1.0000       1.0080    -999.2500    -999.2500    -999.2500       0.5028      20.6300       2.1070     -33.7850
   1300.7344      17.3045       0.0140     132.1750      43.1414       0.9930       1.0055    -999.2500    -999.2500    -999.2500       0.4952      21.2189       2.1105     -33.9380
   1300.8868      17.2450       0.0170     130.6390      43.7670       0.9860       1.0030    -999.2500    -999.2500    -999.2500       0.4866      21.8080       2.1140     -34.0910
   1301.0392      17.1985       0.0150     130.7840      43.3165       0.9805       1.0005    -999.2500    -999.2500    -999.2500       0.4859      22.4363       2.1140     -34.0685
   1301.1917      17.1520       0.0130     130.9290      42.8650       0.9750       0.9980    -999.2500    -999.2500    -999.2500       0.4860      23.0650       2.1140     -34.0460
   1301.3440      17.1195       0.0130     131.5898      41.1954       0.9695       0.9875    -999.2500    -999.2500    -999.2500       0.4868      23.7448       2.1120     -33.9320
   1301.4965      17.0870       0.0130     132.2510      39.5220       0.9640       0.9770    -999.2500    -999.2500    -999.2500       0.4881      24.4250       2.1100     -33.8180
   1301.6488      17.0270       0.0130     133.0332      40.0324       0.9520       0.9665    -999.2500    -999.2500    -999.2500       0.4930      24.2221       2.1055     -33.5001
   1301.8011      16.9670       0.0130     133.8160      40.5440       0.9400       0.9560    -999.2500    -999.2500    -999.2500       0.4977      24.0190       2.1010     -33.1820
   1301.9536      16.8970       0.0125     134.2298      38.8447       0.9280       0.9515    -999.2500    -999.2500    -999.2500       0.4966      23.2681       2.0910     -33.2025
   1302.1060      16.8270       0.0120     134.6440      37.1410       0.9160       0.9470    -999.2500    -999.2500    -999.2500       0.4944      22.5170       2.0810     -33.2230
   1302.2584      16.8325       0.0100     134.7994      37.2798       0.9160       0.9440    -999.2500    -999.2500    -999.2500       0.4878      22.0714       2.0815     -33.5075
   1302.4108      16.8380       0.0080     134.9550      37.4190       0.9160       0.9410    -999.2500    -999.2500    -999.2500       0.4817      21.6260       2.0820     -33.7920
   1302.5632      16.8570       0.0055     135.5866      38.4061       0.9180       0.9425    -999.2500    -999.2500    -999.2500       0.4846      20.6678       2.0835     -33.7120
   1302.7156      16.8760       0.0030     136.2190      39.3960       0.9200       0.9440    -999.2500    -999.2500    -999.2500       0.4876      19.7100       2.0850     -33.6320
   1302.8680      16.8900       0.0030     135.8562      41.5922       0.9265       0.9490    -999.2500    -999.2500    -999.2500       0.4828      19.8850       2.0860     -33.6555
   1303.0204      16.9040       0.0030     135.4930      43.7930       0.9330       0.9540    -999.2500    -999.2500    -999.2500       0.4776      20.0600       2.0870     -33.6790
   1303.1729      16.9340       0.0035     134.0445      42.8002       0.9430       0.9625    -999.2500    -999.2500    -999.2500       0.4774      20.8191       2.0895     -33.7520
   1303.3252      16.9640       0.0040     132.5940      41.8060       0.9530       0.9710    -999.2500    -999.2500    -999.2500       0.4780      21.5780       2.0920     -33.8250
   1303.4777      16.9785       0.0035     130.9233      42.0173       0.9675       0.9840    -999.2500    -999.2500    -999.2500       0.4815      22.2790       2.0915     -33.8430
   1303.6300      16.9930       0.0030     129.2500      42.2290       0.9820       0.9970    -999.2500    -999.2500    -999.2500       0.4848      22.9800       2.0910     -33.8610
   1303.7823      17.0360       0.0035     129.8905      42.0427       0.9960       1.0085    -999.2500    -999.2500    -999.2500       0.4835      23.8910       2.0940     -33.8925
   1303.9348      17.0790       0.0040     130.5320      41.8560       1.0100       1.0200    -999.2500    -999.2500    -999.2500       0.4826      24.8020       2.0970     -33.9240
   1304.0872      17.0690       0.0055     130.2767      40.3634       1.0275       1.0295    -999.2500    -999.2500    -999.2500       0.4901      24.6135       2.1070     -34.0005
   1304.2396      17.0590       0.0070     130.0210      38.8680       1.0450       1.0390    -999.2500    -999.2500    -999.2500       0.4978      24.4250       2.1170     -34.0770
   1304.3920      17.0245       0.0100     127.3595      38.9354       1.0670       1.0590    -999.2500    -999.2500    -999.2500       0.4980      23.4532       2.1205     -34.0435
   1304.5444      16.9900       0.0130     124.6950      39.0030       1.0890       1.0790    -999.2500    -999.2500    -999.2500       0.4972      22.4810       2.1240     -34.0100
   1304.6968      16.9665       0.0130     124.8360      39.7063       1.1100       1.0975    -999.2500    -999.2500    -999.2500       0.4947      20.8739       2.1265     -33.8575
   1304.8492      16.9430       0.0130     124.9770      40.4110       1.1310       1.1160    -999.2500    -999.2500    -999.2500       0.4919      19.2660       2.1290     -33.7050
   1305.0016      16.9100       0.0105     125.6033      40.0139       1.1475       1.1350    -999.2500    -999.2500    -999.2500       0.4882      19.4814       2.1315     -33.4971
   1305.1541      16.8770       0.0080     126.2300      39.6160       1.1640       1.1540    -999.2500    -999.2500    -999.2500       0.4846      19.6970       2.1340     -33.2890
   1305.3064      16.8985       0.0090     125.6427      38.3430       1.1615       1.1535    -999.2500    -999.2500    -999.2500       0.4817      20.3198       2.1355     -33.0681
   1305.4587      16.9200       0.0100     125.0550      37.0670       1.1590       1.1530    -999.2500    -999.2500    -999.2500       0.4790      20.9430       2.1370     -32.8470
