#------------------------------------------------------------------------------
#
#   Created by  : [OpenWorks] Log Export Utility (LEXP)
#   Created on  : 2016-05-11 12:13:37
#   Project     : CANT971
#   User        : R5K
#   Interpreter : PEP
#
#------------------------------------------------------------------------------
~VERSION INFORMATION
VERS. 2.0 : CWLS Log ASCII Standard - version 2.0
WRAP.  NO : One line per depth step
~WELL INFORMATION
#MNEMONIC   .UNIT                                           VALUE :DESCRIPTION
#------------------------------------------------------------------------------
STRT        .M                                           118.7200 :START DEPTH
STOP        .M                                          3137.9165 :STOP DEPTH
STEP        .M                                             0.1524 :STEP
NULL        .                                           -999.2500 :NULL VALUE
COMP        .                                   PEMEX EXPL & PROD :COMPANY
WELL        .                                                1069 :WELL
FLD         .                                           CANTARELL :FIELD
LOC         .                                             UNKNOWN :LOCATION
CNTY        .                                      CD. DEL CARMEN :COUNTY
STAT        .                                            CAMPECHE :STATE
CTRY        .                                              MEXICO :COUNTRY
SRVC        .                                             UNKNOWN :SERVICE COMPANY
DATE        .                                             UNKNOWN :LOG DATE
UWI         .                                          3060000507 :UNIQUE WELL ID
XCOORD      .                                       601393.732000 :SURFACE X
YCOORD      .                                      2149879.230000 :SURFACE Y
LAT         .                                           19.441893 :LATITUDE
LON         .                                          -92.034110 :LONGITUDE
ELEV        .M                                            28.0000 :SURFACE ELEV
ELEV_TYPE   .                                                  KB :ELEV TYPE
~CURVE INFORMATION
#MNEMONIC.UNIT        API CODE       : CURVE DESCRIPTION
#------------------------------------------------------------------------------
DEPTH    .M                          : Measured Depth
CALI     .inches      UNKNOWN        : CALI:registros:rC:NONE:v0 (auto-composite)
DRHO     .g/cm3       UNKNOWN        : DRHO:registros:rC:NONE:v0 (auto-composite)
DT       .us/ft       UNKNOWN        : DT:registros:rC:NONE:v0 (auto-composite)
GR       .API         UNKNOWN        : GR:registros:rC:NONE:v0 (auto-composite)
ILD      .ohm.m       UNKNOWN        : ILD:registros:rC:NONE:v0 (auto-composite)
ILM      .ohm.m       UNKNOWN        : ILM:registros:rC:NONE:v0 (auto-composite)
LLD      .ohm.m       UNKNOWN        : LLD:registros:rC:NONE:v0 (auto-composite)
LLS      .ohm.m       UNKNOWN        : LLS:registros:rC:NONE:v0 (auto-composite)
MSFL     .ohm.m       UNKNOWN        : MSFL:registros:rC:NONE:v0 (auto-composite)
NPHI     .v/v_decimal UNKNOWN        : NPHI:registros:rC:NONE:v0 (auto-composite)
PEF      .b/elec      UNKNOWN        : PEF:registros:rC:NONE:v0 (auto-composite)
RHOB     .g/cm3       UNKNOWN        : RHOB:registros:rC:NONE:v0 (auto-composite)
SP       .mV          UNKNOWN        : SP:registros:rC:NONE:v0 (auto-composite)
~A     DEPTH         CALI         DRHO           DT           GR          ILD          ILM          LLD          LLS         MSFL         NPHI          PEF         RHOB           SP
# ...
    715.5184      20.3010       0.0345     112.0808      26.0397       1.7415       1.6954    -999.2500    -999.2500    -999.2500       0.4876      16.2198       2.2440     -71.1166
    715.6708      20.2790       0.0460     112.9350      25.6870       1.7070       1.6620    -999.2500    -999.2500    -999.2500       0.5056      17.8940       2.2620     -70.7560
    715.8232      20.3356       0.0415     117.2539      24.4418       1.6665       1.6059    -999.2500    -999.2500    -999.2500       0.5093      24.1869       2.2355     -70.7675
    715.9756      20.3920       0.0370     121.5750      23.1950       1.6260       1.5500    -999.2500    -999.2500    -999.2500       0.5031      30.4780       2.2090     -70.7790
    716.1280      20.6523       0.0270     124.9464      23.7632       1.6055       1.5074    -999.2500    -999.2500    -999.2500       0.4910      36.4265       2.1515     -70.7930
    716.2804      20.9120       0.0170     128.3200      24.3320       1.5850       1.4650    -999.2500    -999.2500    -999.2500       0.4847      42.3740       2.0940     -70.8070
    716.4328      21.2714       0.0015     122.1144      25.5750       1.5775       1.4961    -999.2500    -999.2500    -999.2500       0.4963      40.2225       2.0170     -70.6025
    716.5852      21.6300      -0.0140     115.9040      26.8190       1.5700       1.5270    -999.2500    -999.2500    -999.2500       0.5085      38.0710       1.9400     -70.3980
    716.7376      21.3867      -0.0100     116.7716      27.7711       1.5725       1.5270    -999.2500    -999.2500    -999.2500       0.5037      32.0116       2.0040     -70.1835
    716.8900      21.1440      -0.0060     117.6400      28.7240       1.5750       1.5270    -999.2500    -999.2500    -999.2500       0.4922      25.9540       2.0680     -69.9690
    717.0424      20.8247      -0.0020     120.5966      27.3192       1.5955       1.5230    -999.2500    -999.2500    -999.2500       0.4841      26.1351       2.0585     -70.0405
    717.1948      20.5060       0.0020     123.5550      25.9130       1.6160       1.5190    -999.2500    -999.2500    -999.2500       0.4833      26.3160       2.0490     -70.1120
    717.3472      20.5726       0.0060     120.3751      25.9625       1.6150       1.5225    -999.2500    -999.2500    -999.2500       0.4947      26.9436       2.0420     -70.1860
    717.4996      20.6390       0.0100     117.1940      26.0120       1.6140       1.5260    -999.2500    -999.2500    -999.2500       0.5075      27.5710       2.0350     -70.2600
    717.6520      20.6670       0.0100     117.3810      26.5517       1.6195       1.5350    -999.2500    -999.2500    -999.2500       0.5110      29.3148       2.0220     -70.4075
    717.8044      20.6950       0.0100     117.5680      27.0920       1.6250       1.5440    -999.2500    -999.2500    -999.2500       0.5087      31.0580       2.0090     -70.5550
    717.9568      20.6650       0.0075     119.7164      26.7273       1.6350       1.5565    -999.2500    -999.2500    -999.2500       0.5040      33.5988       2.0015     -70.8560
    718.1092      20.6350       0.0050     121.8660      26.3620       1.6450       1.5690    -999.2500    -999.2500    -999.2500       0.4942      36.1390       1.9940     -71.1570
    718.2616      20.5404      -0.0000     120.8289      25.4100       1.6440       1.5895    -999.2500    -999.2500    -999.2500       0.4762      37.5005       1.9890     -71.5165
    718.4140      20.4460      -0.0050     119.7910      24.4570       1.6430       1.6100    -999.2500    -999.2500    -999.2500       0.4606      38.8620       1.9840     -71.8760
    718.5664      20.3033      -0.0095     116.7988      24.9478       1.6430       1.6265    -999.2500    -999.2500    -999.2500       0.4581      36.4121       2.0115     -72.0695
    718.7188      20.1610      -0.0140     113.8040      25.4390       1.6430       1.6430    -999.2500    -999.2500    -999.2500       0.4598      33.9630       2.0390     -72.2630
    718.8712      20.0999      -0.0090     116.8346      25.9732       1.6480       1.6300    -999.2500    -999.2500    -999.2500       0.4576      38.7750       2.0890     -72.1970
    719.0236      20.0390      -0.0040     119.8670      26.5080       1.6530       1.6170    -999.2500    -999.2500    -999.2500       0.4521      43.5840       2.1390     -72.1310
    719.1760      20.0695      -0.0100     118.7597      27.1282       1.6610       1.6315    -999.2500    -999.2500    -999.2500       0.4438      42.3697       2.1160     -71.9720
    719.3284      20.1000      -0.0160     117.6520      27.7490       1.6690       1.6460    -999.2500    -999.2500    -999.2500       0.4368      41.1560       2.0930     -71.8130
    719.4808      19.9468      -0.0115     112.8265      27.5116       1.6540       1.6565    -999.2500    -999.2500    -999.2500       0.4351      36.6462       2.1175     -71.9320
    719.6332      19.7940      -0.0070     107.9990      27.2740       1.6390       1.6670    -999.2500    -999.2500    -999.2500       0.4350      32.1380       2.1420     -72.0510
    719.7856      19.7254      -0.0015     110.4463      27.3604       1.6450       1.6525    -999.2500    -999.2500    -999.2500       0.4330      28.9931       2.1730     -72.2305
    719.9380      19.6570       0.0040     112.8950      27.4470       1.6510       1.6380    -999.2500    -999.2500    -999.2500       0.4316      25.8490       2.2040     -72.4100
    720.0904      19.6585       0.0010     114.9593      27.9477       1.6605       1.6445    -999.2500    -999.2500    -999.2500       0.4336      26.8706       2.1865     -72.4990
    720.2428      19.6600      -0.0020     117.0250      28.4490       1.6700       1.6510    -999.2500    -999.2500    -999.2500       0.4374      27.8920       2.1690     -72.5880
    720.3952      19.5619      -0.0015     113.0056      28.0602       1.6560       1.6630    -999.2500    -999.2500    -999.2500       0.4415      27.6600       2.1715     -72.5750
    720.5476      19.4640      -0.0010     108.9830      27.6710       1.6420       1.6750    -999.2500    -999.2500    -999.2500       0.4441      27.4280       2.1740     -72.5620
    720.7000      19.3509       0.0040     110.3654      27.0198       1.6325       1.6515    -999.2500    -999.2500    -999.2500       0.4429      27.1435       2.1905     -72.7140
    720.8524      19.2380       0.0090     111.7490      26.3680       1.6230       1.6280    -999.2500    -999.2500    -999.2500       0.4435      26.8590       2.2070     -72.8660
    721.0048      19.3401       0.0125     117.4981      27.2645       1.6605       1.6290    -999.2500    -999.2500    -999.2500       0.4512      29.5337       2.1965     -73.3799
    721.1572      19.4420       0.0160     123.2510      28.1620       1.6980       1.6300    -999.2500    -999.2500    -999.2500       0.4626      32.2070       2.1860     -73.8940
    721.3096      19.6618       0.0075     117.4561      27.5793       1.7745       1.7147    -999.2500    -999.2500    -999.2500       0.4748      38.7514       2.1185     -73.8855
    721.4620      19.8810      -0.0010     111.6590      26.9960       1.8510       1.7990    -999.2500    -999.2500    -999.2500       0.4816      45.2930       2.0510     -73.8770
    721.6144      19.7784      -0.0175      96.9832      26.4469       1.9110       1.9382    -999.2500    -999.2500    -999.2500       0.4764      35.9516       2.0575     -73.7955
    721.7668      19.6760      -0.0340      82.3000      25.8970       1.9710       2.0770    -999.2500    -999.2500    -999.2500       0.4537      26.6130       2.0640     -73.7140
    721.9192      19.5674      -0.0220      84.7777      25.1279       2.0540       2.1286    -999.2500    -999.2500    -999.2500       0.4054      19.7134       2.1785     -73.9115
    722.0716      19.4590      -0.0100      87.2570      24.3580       2.1370       2.1800    -999.2500    -999.2500    -999.2500       0.3515      12.8150       2.2930     -74.1090
