#------------------------------------------------------------------------------
#
#   Created by  : [OpenWorks] Log Export Utility (LEXP)
#   Created on  : 2016-05-11 12:13:37
#   Project     : CANT971
#   User        : R5K
#   Interpreter : PEP
#
#------------------------------------------------------------------------------
~VERSION INFORMATION
VERS. 2.0 : CWLS Log ASCII Standard - version 2.0
WRAP.  NO : One line per depth step
~WELL INFORMATION
#MNEMONIC   .UNIT                                           VALUE :DESCRIPTION
#------------------------------------------------------------------------------
STRT        .M                                           118.7200 :START DEPTH
STOP        .M                                          3137.9165 :STOP DEPTH
STEP        .M                                             0.1524 :STEP
NULL        .                                           -999.2500 :NULL VALUE
COMP        .                                   PEMEX EXPL & PROD :COMPANY
WELL        .                                                1069 :WELL
FLD         .                                           CANTARELL :FIELD
LOC         .                                             UNKNOWN :LOCATION
CNTY        .                                      CD. DEL CARMEN :COUNTY
STAT        .                                            CAMPECHE :STATE
CTRY        .                                              MEXICO :COUNTRY
SRVC        .                                             UNKNOWN :SERVICE COMPANY
DATE        .                                             UNKNOWN :LOG DATE
UWI         .                                          3060000507 :UNIQUE WELL ID
XCOORD      .                                       601393.732000 :SURFACE X
YCOORD      .                                      2149879.230000 :SURFACE Y
LAT         .                                           19.441893 :LATITUDE
LON         .                                          -92.034110 :LONGITUDE
ELEV        .M                                            28.0000 :SURFACE ELEV
ELEV_TYPE   .                                                  KB :ELEV TYPE
~CURVE INFORMATION
#MNEMONIC.UNIT        API CODE       : CURVE DESCRIPTION
#------------------------------------------------------------------------------
DEPTH    .M                          : Measured Depth
CALI     .inches      UNKNOWN        : CALI:registros:rC:NONE:v0 (auto-composite)
DRHO     .g/cm3       UNKNOWN        : DRHO:registros:rC:NONE:v0 (auto-composite)
DT       .us/ft       UNKNOWN        : DT:registros:rC:NONE:v0 (auto-composite)
GR       .API         UNKNOWN        : GR:registros:rC:NONE:v0 (auto-composite)
ILD      .ohm.m       UNKNOWN        : ILD:registros:rC:NONE:v0 (auto-composite)
ILM      .ohm.m       UNKNOWN        : ILM:registros:rC:NONE:v0 (auto-composite)
LLD      .ohm.m       UNKNOWN        : LLD:registros:rC:NONE:v0 (auto-composite)
LLS      .ohm.m       UNKNOWN        : LLS:registros:rC:NONE:v0 (auto-composite)
MSFL     .ohm.m       UNKNOWN        : MSFL:registros:rC:NONE:v0 (auto-composite)
NPHI     .v/v_decimal UNKNOWN        : NPHI:registros:rC:NONE:v0 (auto-composite)
PEF      .b/elec      UNKNOWN        : PEF:registros:rC:NONE:v0 (auto-composite)
RHOB     .g/cm3       UNKNOWN        : RHOB:registros:rC:NONE:v0 (auto-composite)
SP       .mV          UNKNOWN        : SP:registros:rC:NONE:v0 (auto-composite)
~A     DEPTH         CALI         DRHO           DT           GR          ILD          ILM          LLD          LLS         MSFL         NPHI          PEF         RHOB           SP
# ...
    909.9808      19.2959       0.0045      98.6868      23.0717       2.4310       2.3470    -999.2500    -999.2500    -999.2500       0.4000       9.0551       2.3950     -54.3685
    910.1332      19.2350       0.0040      99.1290      21.8950       2.4560       2.3470    -999.2500    -999.2500    -999.2500       0.3881       9.3790       2.3930     -54.1810
    910.2856      19.1885       0.0030      98.9990      22.1238       2.4400       2.3385    -999.2500    -999.2500    -999.2500       0.3843       9.3600       2.3900     -54.2030
    910.4380      19.1420       0.0020      98.8690      22.3530       2.4240       2.3300    -999.2500    -999.2500    -999.2500       0.3875       9.3410       2.3870     -54.2250
    910.5904      19.1490       0.0030      99.0654      22.6858       2.3930       2.3035    -999.2500    -999.2500    -999.2500       0.3974       9.5260       2.3840     -54.2900
    910.7428      19.1560       0.0040      99.2620      23.0190       2.3620       2.2770    -999.2500    -999.2500    -999.2500       0.4056       9.7110       2.3810     -54.3550
    910.8952      19.1695       0.0060      99.5649      23.9298       2.3470       2.2399    -999.2500    -999.2500    -999.2500       0.4036      10.7245       2.3720     -54.4215
    911.0476      19.1830       0.0080      99.8680      24.8420       2.3320       2.2030    -999.2500    -999.2500    -999.2500       0.3985      11.7380       2.3630     -54.4880
    911.2000      19.1990       0.0075      98.7580      23.9088       2.3285       2.2355    -999.2500    -999.2500    -999.2500       0.3970      12.4535       2.3445     -54.5940
    911.3524      19.2150       0.0070      97.6470      22.9740       2.3250       2.2680    -999.2500    -999.2500    -999.2500       0.3970      13.1690       2.3260     -54.7000
    911.5048      19.1674       0.0050      97.9129      21.6380       2.3075       2.2505    -999.2500    -999.2500    -999.2500       0.3969      11.4464       2.3420     -54.6530
    911.6572      19.1200       0.0030      98.1790      20.3000       2.2900       2.2330    -999.2500    -999.2500    -999.2500       0.3961       9.7240       2.3580     -54.6060
    911.8096      19.1360       0.0050      99.2586      20.9491       2.2775       2.1744    -999.2500    -999.2500    -999.2500       0.3938      10.7522       2.3810     -54.6105
    911.9620      19.1520       0.0070     100.3390      21.5990       2.2650       2.1160    -999.2500    -999.2500    -999.2500       0.3927      11.7800       2.4040     -54.6150
    912.1144      19.3227       0.0055     101.2708      23.0346       2.2715       2.1450    -999.2500    -999.2500    -999.2500       0.3956      15.2915       2.3755     -54.6620
    912.2668      19.4930       0.0040     102.2030      24.4720       2.2780       2.1740    -999.2500    -999.2500    -999.2500       0.3991      18.8020       2.3470     -54.7090
    912.4192      19.3704       0.0070     101.7237      23.7830       2.2620       2.1710    -999.2500    -999.2500    -999.2500       0.3997      17.1749       2.3230     -54.5715
    912.5716      19.2480       0.0100     101.2440      23.0930       2.2460       2.1680    -999.2500    -999.2500    -999.2500       0.3969      15.5480       2.2990     -54.4340
    912.7240      19.2635       0.0130     100.7837      23.5931       2.2220       2.1540    -999.2500    -999.2500    -999.2500       0.3898      13.7180       2.3285     -54.2950
    912.8764      19.2790       0.0160     100.3230      24.0940       2.1980       2.1400    -999.2500    -999.2500    -999.2500       0.3842      11.8880       2.3580     -54.1560
    913.0288      19.2585       0.0145     101.2011      25.2445       2.1850       2.1064    -999.2500    -999.2500    -999.2500       0.3859      11.2985       2.3555     -54.2050
    913.1812      19.2380       0.0130     102.0800      26.3970       2.1720       2.0730    -999.2500    -999.2500    -999.2500       0.3955      10.7090       2.3530     -54.2540
    913.3336      19.2130       0.0110     103.6617      27.7425       2.1690       2.0264    -999.2500    -999.2500    -999.2500       0.4141      10.7380       2.3400     -54.3525
    913.4860      19.1880       0.0090     105.2450      29.0900       2.1660       1.9800    -999.2500    -999.2500    -999.2500       0.4294      10.7670       2.3270     -54.4510
    913.6384      19.3837       0.0070     105.9436      28.4354       2.1695       1.9940    -999.2500    -999.2500    -999.2500       0.4288      10.0843       2.3030     -54.4095
    913.7908      19.5790       0.0050     106.6430      27.7800       2.1730       2.0080    -999.2500    -999.2500    -999.2500       0.4211       9.4020       2.2790     -54.3680
    913.9432      19.4599       0.0060     105.5740      26.3064       2.1820       2.0481    -999.2500    -999.2500    -999.2500       0.4142       9.9931       2.3000     -54.3840
    914.0956      19.3410       0.0070     104.5040      24.8310       2.1910       2.0880    -999.2500    -999.2500    -999.2500       0.4087      10.5840       2.3210     -54.4000
    914.2480      19.2204       0.0065     102.3896      23.4010       2.2160       2.1316    -999.2500    -999.2500    -999.2500       0.4052      11.6826       2.3435     -54.3460
    914.4004      19.1000       0.0060     100.2740      21.9690       2.2410       2.1750    -999.2500    -999.2500    -999.2500       0.4020      12.7810       2.3660     -54.2920
    914.5528      19.0585       0.0050     101.8010      22.2093       2.3050       2.1660    -999.2500    -999.2500    -999.2500       0.3970      12.6345       2.3615     -54.2165
    914.7052      19.0170       0.0040     103.3290      22.4500       2.3690       2.1570    -999.2500    -999.2500    -999.2500       0.3913      12.4880       2.3570     -54.1410
    914.8576      19.0335       0.0025     103.2475      22.3286       2.3620       2.1630    -999.2500    -999.2500    -999.2500       0.3861      10.8095       2.3370     -54.2075
    915.0100      19.0500       0.0010     103.1660      22.2070       2.3550       2.1690    -999.2500    -999.2500    -999.2500       0.3794       9.1310       2.3170     -54.2740
    915.1624      19.1336       0.0015     103.0246      21.7764       2.3150       2.1475    -999.2500    -999.2500    -999.2500       0.3694       9.3815       2.3360     -54.2515
    915.3148      19.2170       0.0020     102.8830      21.3450       2.2750       2.1260    -999.2500    -999.2500    -999.2500       0.3621       9.6320       2.3550     -54.2290
    915.4672      19.1369       0.0030     103.1953      21.7007       2.2870       2.1290    -999.2500    -999.2500    -999.2500       0.3637      11.8921       2.3475     -54.2075
    915.6196      19.0570       0.0040     103.5080      22.0570       2.2990       2.1320    -999.2500    -999.2500    -999.2500       0.3719      14.1520       2.3400     -54.1860
    915.7720      19.0575       0.0055     102.5744      22.4697       2.2840       2.1370    -999.2500    -999.2500    -999.2500       0.3848      13.8819       2.3255     -54.0990
    915.9244      19.0580       0.0070     101.6400      22.8830       2.2690       2.1420    -999.2500    -999.2500    -999.2500       0.4018      13.6120       2.3110     -54.0120
    916.0768      19.0755       0.0090     102.3033      23.8319       2.2455       2.1084    -999.2500    -999.2500    -999.2500       0.4224      12.9714       2.3320     -54.0255
    916.2292      19.0930       0.0110     102.9670      24.7820       2.2220       2.0750    -999.2500    -999.2500    -999.2500       0.4375      12.3310       2.3530     -54.0390
    916.3816      19.0635       0.0080     104.5945      24.4482       2.1990       2.0434    -999.2500    -999.2500    -999.2500       0.4376      11.6805       2.3305     -54.0755
    916.5340      19.0340       0.0050     106.2230      24.1140       2.1760       2.0120    -999.2500    -999.2500    -999.2500       0.4295      11.0300       2.3080     -54.1120
