#------------------------------------------------------------------------------
#
#   Created by  : [OpenWorks] Log Export Utility (LEXP)
#   Created on  : 2016-05-11 12:13:37
#   Project     : CANT971
#   User        : R5K
#   Interpreter : PEP
#
#------------------------------------------------------------------------------
~VERSION INFORMATION
VERS. 2.0 : CWLS Log ASCII Standard - version 2.0
WRAP.  NO : One line per depth step
~WELL INFORMATION
#MNEMONIC   .UNIT                                           VALUE :DESCRIPTION
#------------------------------------------------------------------------------
STRT        .M                                           118.7200 :START DEPTH
STOP        .M                                          3137.9165 :STOP DEPTH
STEP        .M                                             0.1524 :STEP
NULL        .                                           -999.2500 :NULL VALUE
COMP        .                                   PEMEX EXPL & PROD :COMPANY
WELL        .                                                1069 :WELL
FLD         .                                           CANTARELL :FIELD
LOC         .                                             UNKNOWN :LOCATION
CNTY        .                                      CD. DEL CARMEN :COUNTY
STAT        .                                            CAMPECHE :STATE
CTRY        .                                              MEXICO :COUNTRY
SRVC        .                                             UNKNOWN :SERVICE COMPANY
DATE        .                                             UNKNOWN :LOG DATE
UWI         .                                          3060000507 :UNIQUE WELL ID
XCOORD      .                                       601393.732000 :SURFACE X
YCOORD      .                                      2149879.230000 :SURFACE Y
LAT         .                                           19.441893 :LATITUDE
LON         .                                          -92.034110 :LONGITUDE
ELEV        .M                                            28.0000 :SURFACE ELEV
ELEV_TYPE   .                                                  KB :ELEV TYPE
~CURVE INFORMATION
#MNEMONIC.UNIT        API CODE       : CURVE DESCRIPTION
#------------------------------------------------------------------------------
DEPTH    .M                          : Measured Depth
CALI     .inches      UNKNOWN        : CALI:registros:rC:NONE:v0 (auto-composite)
DRHO     .g/cm3       UNKNOWN        : DRHO:registros:rC:NONE:v0 (auto-composite)
DT       .us/ft       UNKNOWN        : DT:registros:rC:NONE:v0 (auto-composite)
GR       .API         UNKNOWN        : GR:registros:rC:NONE:v0 (auto-composite)
ILD      .ohm.m       UNKNOWN        : ILD:registros:rC:NONE:v0 (auto-composite)
ILM      .ohm.m       UNKNOWN        : ILM:registros:rC:NONE:v0 (auto-composite)
LLD      .ohm.m       UNKNOWN        : LLD:registros:rC:NONE:v0 (auto-composite)
LLS      .ohm.m       UNKNOWN        : LLS:registros:rC:NONE:v0 (auto-composite)
MSFL     .ohm.m       UNKNOWN        : MSFL:registros:rC:NONE:v0 (auto-composite)
NPHI     .v/v_decimal UNKNOWN        : NPHI:registros:rC:NONE:v0 (auto-composite)
PEF      .b/elec      UNKNOWN        : PEF:registros:rC:NONE:v0 (auto-composite)
RHOB     .g/cm3       UNKNOWN        : RHOB:registros:rC:NONE:v0 (auto-composite)
SP       .mV          UNKNOWN        : SP:registros:rC:NONE:v0 (auto-composite)
~A     DEPTH         CALI         DRHO           DT           GR          ILD          ILM          LLD          LLS         MSFL         NPHI          PEF         RHOB           SP
# ...
    132.1312      16.0000       0.0021     196.9940      28.9395       0.9205       1.0355    -999.2500    -999.2500    -999.2500       0.4643       3.2910       1.9016    -218.2500
    132.2836      16.0000       0.0027     197.0210      29.3750       0.9350       1.0450    -999.2500    -999.2500    -999.2500       0.4483       3.2520       1.9039    -218.7500
    132.4360      15.7812       0.0024     197.1015      29.6685       0.9610       1.0305    -999.2500    -999.2500    -999.2500       0.4282       3.3027       1.9087    -218.2500
    132.5884      15.7422       0.0000     197.1820      29.9620       0.9870       1.0160    -999.2500    -999.2500    -999.2500       0.4207       3.5469       1.9121    -219.2500
    132.7408      15.2109      -0.0011     197.2345      29.8210       0.9905       1.0265    -999.2500    -999.2500    -999.2500       0.4162       3.7246       1.9373    -219.7500
    132.8932      14.6953      -0.0015     197.2870      29.6800       0.9940       1.0370    -999.2500    -999.2500    -999.2500       0.4196       3.8145       1.9780    -220.3750
    133.0456      14.6250       0.0013     197.2650      28.9685       0.9790       1.0330    -999.2500    -999.2500    -999.2500       0.4071       3.9258       2.0437    -221.8750
    133.1980      14.7656       0.0043     197.2430      28.2570       0.9640       1.0290    -999.2500    -999.2500    -999.2500       0.4333       3.9062       2.1064    -222.3750
    133.3504      15.2344       0.0110     197.1425      26.8795       0.9430       1.0340    -999.2500    -999.2500    -999.2500       0.5071       4.2656       2.1776    -223.8750
    133.5028      15.8906       0.0429     197.0420      25.5020       0.9220       1.0390    -999.2500    -999.2500    -999.2500       0.5007       3.7754       2.2533    -224.8750
    133.6552      16.7500       0.0793     196.9850      23.0640       0.9360       1.0275    -999.2500    -999.2500    -999.2500       0.4969       3.3516       2.2404    -226.0000
    133.8076      19.2812       0.1107     196.9280      20.6260       0.9500       1.0160    -999.2500    -999.2500    -999.2500       0.4609       2.6016       2.1716    -226.5000
    133.9600      22.2812       0.1365     196.9790      20.0460       0.9250       1.0115    -999.2500    -999.2500    -999.2500       0.4962       2.3164       2.1088    -226.5000
    134.1124      22.5000       0.1087     197.0300      19.4660       0.9000       1.0070    -999.2500    -999.2500    -999.2500       0.5371       2.0312       1.8604    -227.0000
    134.2648      22.4844       0.0818     197.0595      19.9960       0.9290       1.0130    -999.2500    -999.2500    -999.2500       0.5245       1.9277       1.6711    -227.5000
    134.4172      22.5156       0.0387     197.0890      20.5260       0.9580       1.0190    -999.2500    -999.2500    -999.2500       0.5223       1.9150       1.4831    -228.0000
    134.5696      22.5781       0.0035     197.1335      21.3630       0.9390       1.0461    -999.2500    -999.2500    -999.2500       0.4973       2.1445       1.4336    -228.5000
    134.7220      22.5156      -0.0167     197.1780      22.2000       0.9200       1.0730    -999.2500    -999.2500    -999.2500       0.4747       2.6445       1.4863    -227.5000
    134.8744      22.5156      -0.0142     197.3390      22.5340       0.9515       1.0710    -999.2500    -999.2500    -999.2500       0.4561       3.6602       1.6539    -226.5000
    135.0268      22.3906      -0.0101     197.5000      22.8680       0.9830       1.0690    -999.2500    -999.2500    -999.2500       0.4608       4.1133       1.8466    -225.0000
    135.1792      21.7812      -0.0025     197.4220      23.4560       0.9435       1.0419    -999.2500    -999.2500    -999.2500       0.4419       4.1094       1.9258    -223.6250
    135.3316      21.5469      -0.0003     197.3440      24.0440       0.9040       1.0150    -999.2500    -999.2500    -999.2500       0.4276       3.8086       1.9228    -221.6250
    135.4840      21.2344      -0.0013     197.4145      24.9955       0.9120       1.0531    -999.2500    -999.2500    -999.2500       0.3887       3.7012       1.9121    -220.1250
    135.6364      20.7344       0.0009     197.4850      25.9470       0.9200       1.0910    -999.2500    -999.2500    -999.2500       0.3809       3.7207       1.9215    -218.1250
    135.7888      19.9375       0.0141     197.5350      25.7095       0.9440       1.0770    -999.2500    -999.2500    -999.2500       0.3764       3.9082       1.9463    -216.1250
    135.9412      19.3438       0.0490     197.5850      25.4720       0.9680       1.0630    -999.2500    -999.2500    -999.2500       0.3807       3.9180       2.0336    -213.6250
    136.0936      17.0625       0.0992     197.7200      25.2040       0.9480       1.0414    -999.2500    -999.2500    -999.2500       0.3972       3.5176       2.1461    -211.6250
    136.2460      16.3750       0.1317     197.8550      24.9360       0.9280       1.0200    -999.2500    -999.2500    -999.2500       0.4070       3.2012       2.2143    -209.1250
    136.3984      15.6797       0.1417     197.8715      25.8385       0.9320       1.0596    -999.2500    -999.2500    -999.2500       0.4480       3.1035       2.1513    -207.6250
    136.5508      14.9531       0.1187     197.8880      26.7410       0.9360       1.0990    -999.2500    -999.2500    -999.2500       0.4645       3.3262       2.1077    -205.6250
    136.7032      15.1406       0.0973     197.8740      28.2839       0.9315       1.0519    -999.2500    -999.2500    -999.2500       0.4638       3.7656       2.1043    -204.1250
    136.8556      15.1797       0.0908     197.8600      29.8270       0.9270       1.0050    -999.2500    -999.2500    -999.2500       0.4477       3.9590       2.1799    -202.1250
    137.0080      15.1797       0.0985     197.9525      28.2945       0.9550       1.0311    -999.2500    -999.2500    -999.2500       0.4404       3.8809       2.1949    -199.6250
    137.1604      15.2031       0.0778     198.0450      26.7620       0.9830       1.0570    -999.2500    -999.2500    -999.2500       0.4278       3.7793       2.1149    -197.6250
    137.3128      14.8516       0.0765     198.0020      25.4450       0.9870       0.9853    -999.2500    -999.2500    -999.2500       0.4168       3.8242       2.1118    -194.6250
    137.4652      14.5625       0.0798     197.9590      24.1280       0.9910       0.9140    -999.2500    -999.2500    -999.2500       0.4133       3.7832       2.1438    -191.6250
    137.6176      14.6016       0.0957     197.9120      24.7230       0.9930       0.8884    -999.2500    -999.2500    -999.2500       0.4452       3.6680       2.2046    -187.6250
    137.7700      14.4609       0.0713     197.8650      25.3180       0.9950       0.8630    -999.2500    -999.2500    -999.2500       0.4389       3.4805       2.1165    -182.6250
    137.9224      14.4453       0.0442     197.6595      27.3595       0.9795       0.8269    -999.2500    -999.2500    -999.2500       0.4589       3.5977       2.0688    -177.6250
    138.0748      14.6406       0.0443     197.4540      29.4010       0.9640       0.7910    -999.2500    -999.2500    -999.2500       0.4346       3.9180       2.1031    -171.1250
    138.2272      14.2266       0.0537     196.8765      31.0000       0.9350       0.7719    -999.2500    -999.2500    -999.2500       0.4476       4.1172       2.2007    -165.1250
    138.3796      14.1953       0.0282     196.2990      32.5990       0.9060       0.7530    -999.2500    -999.2500    -999.2500       0.4627       3.9531       2.1951    -158.2500
    138.5320      14.1875       0.0107     193.2626      33.4290       0.9215       0.7239    -999.2500    -999.2500    -999.2500       0.4966       3.7012       2.1491    -151.2500
    138.6844      14.1953       0.0120     190.2260      34.2590       0.9370       0.6950    -999.2500    -999.2500    -999.2500       0.5616       3.5996       2.1209    -143.7500
