#------------------------------------------------------------------------------
#
#   Created by  : [OpenWorks] Log Export Utility (LEXP)
#   Created on  : 2016-05-11 12:13:37
#   Project     : CANT971
#   User        : R5K
#   Interpreter : PEP
#
#------------------------------------------------------------------------------
~VERSION INFORMATION
VERS. 2.0 : CWLS Log ASCII Standard - version 2.0
WRAP.  NO : One line per depth step
~WELL INFORMATION
#MNEMONIC   .UNIT                                           VALUE :DESCRIPTION
#------------------------------------------------------------------------------
STRT        .M                                           118.7200 :START DEPTH
STOP        .M                                          3137.9165 :STOP DEPTH
STEP        .M                                             0.1524 :STEP
NULL        .                                           -999.2500 :NULL VALUE
COMP        .                                   PEMEX EXPL & PROD :COMPANY
WELL        .                                                1069 :WELL
FLD         .                                           CANTARELL :FIELD
LOC         .                                             UNKNOWN :LOCATION
CNTY        .                                      CD. DEL CARMEN :COUNTY
STAT        .                                            CAMPECHE :STATE
CTRY        .                                              MEXICO :COUNTRY
SRVC        .                                             UNKNOWN :SERVICE COMPANY
DATE        .                                             UNKNOWN :LOG DATE
UWI         .                                          3060000507 :UNIQUE WELL ID
XCOORD      .                                       601393.732000 :SURFACE X
YCOORD      .                                      2149879.230000 :SURFACE Y
LAT         .                                           19.441893 :LATITUDE
LON         .                                          -92.034110 :LONGITUDE
ELEV        .M                                            28.0000 :SURFACE ELEV
ELEV_TYPE   .                                                  KB :ELEV TYPE
~CURVE INFORMATION
#MNEMONIC.UNIT        API CODE       : CURVE DESCRIPTION
#------------------------------------------------------------------------------
DEPTH    .M                          : Measured Depth
CALI     .inches      UNKNOWN        : CALI:registros:rC:NONE:v0 (auto-composite)
DRHO     .g/cm3       UNKNOWN        : DRHO:registros:rC:NONE:v0 (auto-composite)
DT       .us/ft       UNKNOWN        : DT:registros:rC:NONE:v0 (auto-composite)
GR       .API         UNKNOWN        : GR:registros:rC:NONE:v0 (auto-composite)
ILD      .ohm.m       UNKNOWN        : ILD:registros:rC:NONE:v0 (auto-composite)
ILM      .ohm.m       UNKNOWN        : ILM:registros:rC:NONE:v0 (auto-composite)
LLD      .ohm.m       UNKNOWN        : LLD:registros:rC:NONE:v0 (auto-composite)
LLS      .ohm.m       UNKNOWN        : LLS:registros:rC:NONE:v0 (auto-composite)
MSFL     .ohm.m       UNKNOWN        : MSFL:registros:rC:NONE:v0 (auto-composite)
NPHI     .v/v_decimal UNKNOWN        : NPHI:registros:rC:NONE:v0 (auto-composite)
PEF      .b/elec      UNKNOWN        : PEF:registros:rC:NONE:v0 (auto-composite)
RHOB     .g/cm3       UNKNOWN        : RHOB:registros:rC:NONE:v0 (auto-composite)
SP       .mV          UNKNOWN        : SP:registros:rC:NONE:v0 (auto-composite)
~A     DEPTH         CALI         DRHO           DT           GR          ILD          ILM          LLD          LLS         MSFL         NPHI          PEF         RHOB           SP
# ...
   2861.3103      14.7698      -0.0030      56.9740      41.2683    -999.2500    -999.2500       5.7445       4.7749       1.0839       0.4868       2.8407       2.2633    -999.2500
   2861.4629      13.9160       0.0170      56.9520      40.9510    -999.2500    -999.2500       6.4180       5.3810       1.4750       0.4893       3.2080       2.4530    -999.2500
   2861.6152      13.8975       0.0165      56.9625      38.1758    -999.2500    -999.2500       7.5164       6.3401       2.9863       0.4841       3.0891       2.4455    -999.2500
   2861.7676      13.8790       0.0160      56.9730      35.3860    -999.2500    -999.2500       8.6100       7.2950       4.4910       0.4795       2.9700       2.4380    -999.2500
   2861.9199      13.8191       0.0140      57.1173      31.6356    -999.2500    -999.2500       8.8515       7.4799       5.3904       0.4852       3.0194       2.4790    -999.2500
   2862.0725      13.7590       0.0120      57.2620      27.8650    -999.2500    -999.2500       9.0920       7.6640       6.2860       0.4912       3.0690       2.5200    -999.2500
   2862.2249      13.6735       0.0075      57.6940      26.4040    -999.2500    -999.2500      10.3436       8.6230       8.8508       0.4887       3.1969       2.6309    -999.2500
   2862.3772      13.5880       0.0030      58.1270      24.9350    -999.2500    -999.2500      11.5900       9.5780      11.4050       0.4838       3.3250       2.7420    -999.2500
   2862.5295      13.5450      -0.0045      58.0885      25.1275    -999.2500    -999.2500      14.6957      12.0109      18.5092       0.4772       3.2686       2.7325    -999.2500
   2862.6819      13.5020      -0.0120      58.0500      25.3210    -999.2500    -999.2500      17.7890      14.4340      25.5850       0.4719       3.2120       2.7230    -999.2500
   2862.8345      13.4600      -0.0090      57.5941      27.3378    -999.2500    -999.2500      20.7107      16.5977      35.7337       0.4738       3.1145       2.7020    -999.2500
   2862.9868      13.4180      -0.0060      57.1370      29.3630    -999.2500    -999.2500      23.6210      18.7530      45.8430       0.4783       3.0170       2.6810    -999.2500
   2863.1392      13.2746       0.0065      58.2630      32.9349    -999.2500    -999.2500      26.3787      20.6325      45.7644       0.4865       3.0625       2.6580    -999.2500
   2863.2915      13.1310       0.0190      59.3920      36.5220    -999.2500    -999.2500      29.1260      22.5050      45.6860       0.4935       3.1080       2.6350    -999.2500
   2863.4441      12.9291       0.0400      56.3652      39.8761    -999.2500    -999.2500      32.0954      24.6714      79.2102       0.4907       3.3194       2.5980    -999.2500
   2863.5964      12.7270       0.0610      53.3300      43.2450    -999.2500    -999.2500      35.0540      26.8300     112.6130       0.4843       3.5310       2.5610    -999.2500
   2863.7488      12.6111       0.0875      48.0002      45.4839    -999.2500    -999.2500      36.1479      27.7541     229.4109       0.4714       3.5125       2.5630    -999.2500
   2863.9011      12.4950       0.1140      42.6550      47.7330    -999.2500    -999.2500      37.2380      28.6750     345.8000       0.4634       3.4940       2.5650    -999.2500
   2864.0537      12.4620       0.1110      45.9879      44.7474    -999.2500    -999.2500      37.4223      28.8248     365.5468       0.4839       3.4435       2.5605    -999.2500
   2864.2061      12.4290       0.1080      49.3310      41.7480    -999.2500    -999.2500      37.6060      28.9740     385.2270       0.5048       3.3930       2.5560    -999.2500
   2864.3584      12.4175       0.0980      53.4295      41.7744    -999.2500    -999.2500      37.7873      29.0561     467.0895       0.4985       3.4250       2.5455    -999.2500
   2864.5107      12.4060       0.0880      57.5410      41.8010    -999.2500    -999.2500      37.9680      29.1380     548.6860       0.4838       3.4570       2.5350    -999.2500
   2864.6631      12.4065       0.0725      59.8327      42.5696    -999.2500    -999.2500      39.6506      32.9535     482.3960       0.4577       3.4450       2.5200    -999.2500
   2864.8157      12.4070       0.0570      62.1320      43.3420    -999.2500    -999.2500      41.3280      36.7570     416.3130       0.4339       3.4330       2.5050    -999.2500
   2864.9680      12.4080       0.0580      62.0047      46.3011    -999.2500    -999.2500      46.5869      51.9478     216.6345       0.4328       3.4080       2.5060    -999.2500
   2865.1204      12.4090       0.0590      61.8770      49.2750    -999.2500    -999.2500      51.8300      67.0930      17.5550       0.4381       3.3830       2.5070    -999.2500
   2865.2727      12.4075       0.0620      62.0523      53.6024    -999.2500    -999.2500      56.1847      82.8818       8.9873       0.4505       3.3590       2.5155    -999.2500
   2865.4253      12.4060       0.0650      62.2280      57.9520    -999.2500    -999.2500      60.5200      98.6000       0.4580       0.4651       3.3350       2.5240    -999.2500
   2865.5776      12.4065       0.0650      60.9183      63.3652    -999.2500    -999.2500      57.0981      67.5401       0.9746       0.4829       3.3130       2.5230    -999.2500
   2865.7300      12.4070       0.0650      59.6060      68.8070    -999.2500    -999.2500      53.6910      36.6150       1.4890       0.4987       3.2910       2.5220    -999.2500
   2865.8823      12.4315       0.0610      64.2225      68.8000    -999.2500    -999.2500      36.5062      23.3485       3.8289       0.5014       3.2700       2.5140    -999.2500
   2866.0349      12.4560       0.0570      68.8490      68.7930    -999.2500    -999.2500      19.3940      10.1380       6.1590       0.5013       3.2490       2.5060    -999.2500
   2866.1873      12.4315       0.0610      83.2878      70.6798    -999.2500    -999.2500      12.4743       8.2857       5.1073       0.5014       3.2250       2.5135    -999.2500
   2866.3396      12.4070       0.0650      97.7600      72.5770    -999.2500    -999.2500       5.5830       6.4410       4.0600       0.5014       3.2010       2.5210    -999.2500
   2866.4919      12.4105       0.0575     111.7744      79.7881    -999.2500    -999.2500       4.7443       4.8378       3.1838       0.5015       3.1450       2.5125    -999.2500
   2866.6443      12.4140       0.0500     125.8230      87.0400    -999.2500    -999.2500       3.9090       3.2410       2.3110       0.5015       3.0890       2.5040    -999.2500
   2866.7969      12.4100       0.0510     121.3767      85.4738    -999.2500    -999.2500       4.9690       3.5401       2.1612       0.5015       3.0335       2.5050    -999.2500
   2866.9492      12.4060       0.0520     116.9190      83.9010    -999.2500    -999.2500       6.0250       3.8380       2.0120       0.5015       2.9780       2.5060    -999.2500
   2867.1016      12.4070       0.0545     101.8223      79.0295    -999.2500    -999.2500      11.7361       5.8327       4.4330       0.5015       2.9980       2.5100    -999.2500
   2867.2539      12.4080       0.0570      86.6850      74.1370    -999.2500    -999.2500      17.4260       7.8200       6.8450       0.5015       3.0180       2.5140    -999.2500
   2867.4065      12.4130       0.0600      68.6488      67.5196    -999.2500    -999.2500      52.2250      14.8326      29.5112       0.5015       3.0115       2.5185    -999.2500
   2867.5588      12.4180       0.0630      50.5620      60.8730    -999.2500    -999.2500      86.8990      21.8200      52.0960       0.5014       3.0050       2.5230    -999.2500
   2867.7112      12.4175       0.0670      50.8960      55.8873    -999.2500    -999.2500      86.6816      31.5283      98.8666       0.5014       3.0070       2.5220    -999.2500
   2867.8635      12.4170       0.0710      51.2310      50.8790    -999.2500    -999.2500      86.4650      41.2030     145.4750       0.5014       3.0090       2.5210    -999.2500
