#------------------------------------------------------------------------------
#
#   Created by  : [OpenWorks] Log Export Utility (LEXP)
#   Created on  : 2016-05-11 12:13:37
#   Project     : CANT971
#   User        : R5K
#   Interpreter : PEP
#
#------------------------------------------------------------------------------
~VERSION INFORMATION
VERS. 2.0 : CWLS Log ASCII Standard - version 2.0
WRAP.  NO : One line per depth step
~WELL INFORMATION
#MNEMONIC   .UNIT                                           VALUE :DESCRIPTION
#------------------------------------------------------------------------------
STRT        .M                                           118.7200 :START DEPTH
STOP        .M                                          3137.9165 :STOP DEPTH
STEP        .M                                             0.1524 :STEP
NULL        .                                           -999.2500 :NULL VALUE
COMP        .                                   PEMEX EXPL & PROD :COMPANY
WELL        .                                                1069 :WELL
FLD         .                                           CANTARELL :FIELD
LOC         .                                             UNKNOWN :LOCATION
CNTY        .                                      CD. DEL CARMEN :COUNTY
STAT        .                                            CAMPECHE :STATE
CTRY        .                                              MEXICO :COUNTRY
SRVC        .                                             UNKNOWN :SERVICE COMPANY
DATE        .                                             UNKNOWN :LOG DATE
UWI         .                                          3060000507 :UNIQUE WELL ID
XCOORD      .                                       601393.732000 :SURFACE X
YCOORD      .                                      2149879.230000 :SURFACE Y
LAT         .                                           19.441893 :LATITUDE
LON         .                                          -92.034110 :LONGITUDE
ELEV        .M                                            28.0000 :SURFACE ELEV
ELEV_TYPE   .                                                  KB :ELEV TYPE
~CURVE INFORMATION
#MNEMONIC.UNIT        API CODE       : CURVE DESCRIPTION
#------------------------------------------------------------------------------
DEPTH    .M                          : Measured Depth
CALI     .inches      UNKNOWN        : CALI:registros:rC:NONE:v0 (auto-composite)
DRHO     .g/cm3       UNKNOWN        : DRHO:registros:rC:NONE:v0 (auto-composite)
DT       .us/ft       UNKNOWN        : DT:registros:rC:NONE:v0 (auto-composite)
GR       .API         UNKNOWN        : GR:registros:rC:NONE:v0 (auto-composite)
ILD      .ohm.m       UNKNOWN        : ILD:registros:rC:NONE:v0 (auto-composite)
ILM      .ohm.m       UNKNOWN        : ILM:registros:rC:NONE:v0 (auto-composite)
LLD      .ohm.m       UNKNOWN        : LLD:registros:rC:NONE:v0 (auto-composite)
LLS      .ohm.m       UNKNOWN        : LLS:registros:rC:NONE:v0 (auto-composite)
MSFL     .ohm.m       UNKNOWN        : MSFL:registros:rC:NONE:v0 (auto-composite)
NPHI     .v/v_decimal UNKNOWN        : NPHI:registros:rC:NONE:v0 (auto-composite)
PEF      .b/elec      UNKNOWN        : PEF:registros:rC:NONE:v0 (auto-composite)
RHOB     .g/cm3       UNKNOWN        : RHOB:registros:rC:NONE:v0 (auto-composite)
SP       .mV          UNKNOWN        : SP:registros:rC:NONE:v0 (auto-composite)
~A     DEPTH         CALI         DRHO           DT           GR          ILD          ILM          LLD          LLS         MSFL         NPHI          PEF         RHOB           SP
# ...
   1888.9984      21.4859      -0.0090     114.1872      28.2638       1.1850       1.1130    -999.2500    -999.2500    -999.2500       0.4495      42.3373       1.9695     184.9060
   1889.1508      21.0470      -0.0260     122.5620      27.2110       1.1590       1.0640    -999.2500    -999.2500    -999.2500       0.4449      39.6560       1.8760     184.8120
   1889.3032      20.5039      -0.0055     120.6475      30.7413       1.1530       1.0745    -999.2500    -999.2500    -999.2500       0.4418      35.2404       1.9949     185.0934
   1889.4556      19.9610       0.0150     118.7310      34.2810       1.1470       1.0850    -999.2500    -999.2500    -999.2500       0.4362      30.8200       2.1140     185.3750
   1889.6080      21.0747       0.0285     111.6198      33.7328       1.1705       1.1205    -999.2500    -999.2500    -999.2500       0.4234      30.2568       2.1375     185.3435
   1889.7604      22.1880       0.0420     104.5000      33.1830       1.1940       1.1560    -999.2500    -999.2500    -999.2500       0.4095      29.6930       2.1610     185.3120
   1889.9128      22.1630       0.0410     104.7403      31.0386       1.2364       1.1895    -999.2500    -999.2500    -999.2500       0.4002      24.3935       2.2265     185.3280
   1890.0652      22.1380       0.0400     104.9810      28.8880       1.2790       1.2230    -999.2500    -999.2500    -999.2500       0.3934      19.0870       2.2920     185.3440
   1890.2177      21.8780       0.0315     107.1334      28.4641       1.3269       1.2585    -999.2500    -999.2500    -999.2500       0.3878      18.2098       2.2920     185.4875
   1890.3700      21.6180       0.0230     109.2890      28.0390       1.3750       1.2940    -999.2500    -999.2500    -999.2500       0.3809      17.3320       2.2920     185.6310
   1890.5225      21.1840       0.0160     109.4883      27.7230       1.4005       1.3085    -999.2500    -999.2500    -999.2500       0.3697      16.8320       2.2915     185.6595
   1890.6748      20.7500       0.0090     109.6880      27.4060       1.4260       1.3230    -999.2500    -999.2500    -999.2500       0.3611      16.3320       2.2910     185.6880
   1890.8271      20.5535       0.0075     109.9688      26.6572       1.4490       1.3460    -999.2500    -999.2500    -999.2500       0.3627      13.0742       2.3015     185.5315
   1890.9796      20.3570       0.0060     110.2500      25.9060       1.4720       1.3690    -999.2500    -999.2500    -999.2500       0.3736       9.8160       2.3120     185.3750
   1891.1320      19.9830       0.0035     107.2632      27.3585       1.4550       1.3890    -999.2500    -999.2500    -999.2500       0.3951      13.5261       2.2580     185.4375
   1891.2844      19.6090       0.0010     104.2710      28.8160       1.4380       1.4090    -999.2500    -999.2500    -999.2500       0.4229      17.2370       2.2040     185.5000
   1891.4368      20.3979      -0.0010     102.6061      29.2392       1.4066       1.3590    -999.2500    -999.2500    -999.2500       0.4539      21.4773       2.1065     185.3125
   1891.5892      21.1870      -0.0030     100.9380      29.6640       1.3750       1.3090    -999.2500    -999.2500    -999.2500       0.4756      25.7190       2.0090     185.1250
   1891.7416      21.8786       0.0030     108.4922      27.4141       1.3316       1.2410    -999.2500    -999.2500    -999.2500       0.4728      26.8317       2.0690     185.3749
   1891.8940      22.5700       0.0090     116.0620      25.1560       1.2880       1.1730    -999.2500    -999.2500    -999.2500       0.4602      27.9450       2.1290     185.6250
   1892.0464      22.5105       0.0090     109.1636      27.0858       1.2256       1.1440    -999.2500    -999.2500    -999.2500       0.4501      36.3920       2.1275     185.4686
   1892.1989      22.4510       0.0090     102.2500      29.0230       1.1630       1.1150    -999.2500    -999.2500    -999.2500       0.4442      44.8440       2.1260     185.3120
   1892.3512      22.1934      -0.0010     110.8026      28.9561       1.1685       1.1160    -999.2500    -999.2500    -999.2500       0.4456      43.9408       2.0025     185.6374
   1892.5037      21.9360      -0.0110     119.3750      28.8890       1.1740       1.1170    -999.2500    -999.2500    -999.2500       0.4486      43.0370       1.8790     185.9630
   1892.6560      21.6214      -0.0105     119.1658      28.2296       1.2314       1.1350    -999.2500    -999.2500    -999.2500       0.4479      34.3172       1.8905     186.0974
   1892.8083      21.3070      -0.0100     118.9560      27.5680       1.2890       1.1530    -999.2500    -999.2500    -999.2500       0.4407      25.5900       1.9020     186.2320
   1892.9608      20.6418      -0.0065     116.8239      26.8789       1.3604       1.2460    -999.2500    -999.2500    -999.2500       0.4223      17.9902       2.0189     186.4599
   1893.1132      19.9770      -0.0030     114.6880      26.1880       1.4320       1.3390    -999.2500    -999.2500    -999.2500       0.4017      10.3830       2.1360     186.6880
   1893.2656      19.7970       0.0245     105.9113      27.2061       1.4595       1.4055    -999.2500    -999.2500    -999.2500       0.3874      18.6400       2.2030     186.5316
   1893.4180      19.6170       0.0520      97.1250      28.2270       1.4870       1.4720    -999.2500    -999.2500    -999.2500       0.3771      26.9060       2.2700     186.3750
   1893.5704      20.8322       0.0280     102.7780      27.5839       1.5334       1.4630    -999.2500    -999.2500    -999.2500       0.3704      20.0432       2.1935     186.3750
   1893.7228      22.0470       0.0040     108.4380      26.9390       1.5800       1.4540    -999.2500    -999.2500    -999.2500       0.3635      13.1720       2.1170     186.3750
   1893.8752      20.9179       0.0145     107.3447      26.1112       1.5685       1.4510    -999.2500    -999.2500    -999.2500       0.3527      16.2479       2.1530     186.5575
   1894.0276      19.7890       0.0250     106.2500      25.2810       1.5570       1.4480    -999.2500    -999.2500    -999.2500       0.3508      19.3280       2.1890     186.7400
   1894.1801      19.8865       0.0355     107.1868      27.0358       1.4716       1.3815    -999.2500    -999.2500    -999.2500       0.3737      16.4775       2.2480     186.8390
   1894.3324      19.9840       0.0460     108.1250      28.7960       1.3860       1.3150    -999.2500    -999.2500    -999.2500       0.3993      13.6250       2.3070     186.9380
   1894.4847      20.4610       0.0205     106.6577      29.3331       1.3251       1.2760    -999.2500    -999.2500    -999.2500       0.4063      15.6620       2.2275     186.8130
   1894.6372      20.9380      -0.0050     105.1880      29.8720       1.2640       1.2370    -999.2500    -999.2500    -999.2500       0.4090      17.6990       2.1480     186.6880
   1894.7896      20.9155      -0.0045     112.4003      32.2760       1.2241       1.1910    -999.2500    -999.2500    -999.2500       0.4204      17.5580       2.1515     186.8440
   1894.9420      20.8930      -0.0040     119.6250      34.6880       1.1840       1.1450    -999.2500    -999.2500    -999.2500       0.4318      17.4170       2.1550     187.0000
   1895.0944      20.6390      -0.0000     119.5161      34.6571       1.1620       1.1260    -999.2500    -999.2500    -999.2500       0.4345      16.0677       2.1870     186.9890
   1895.2468      20.3850       0.0040     119.4070      34.6260       1.1400       1.1070    -999.2500    -999.2500    -999.2500       0.4314      14.7180       2.2190     186.9780
   1895.3992      19.8021       0.0045     118.2986      34.3136       1.1101       1.0950    -999.2500    -999.2500    -999.2500       0.4235      13.7402       2.2225     186.8640
   1895.5516      19.2190       0.0050     117.1880      34.0000       1.0800       1.0830    -999.2500    -999.2500    -999.2500       0.4187      12.7620       2.2260     186.7500
