#------------------------------------------------------------------------------
#
#   Created by  : [OpenWorks] Log Export Utility (LEXP)
#   Created on  : 2016-05-11 12:13:37
#   Project     : CANT971
#   User        : R5K
#   Interpreter : PEP
#
#------------------------------------------------------------------------------
~VERSION INFORMATION
VERS. 2.0 : CWLS Log ASCII Standard - version 2.0
WRAP.  NO : One line per depth step
~WELL INFORMATION
#MNEMONIC   .UNIT                                           VALUE :DESCRIPTION
#------------------------------------------------------------------------------
STRT        .M                                           118.7200 :START DEPTH
STOP        .M                                          3137.9165 :STOP DEPTH
STEP        .M                                             0.1524 :STEP
NULL        .                                           -999.2500 :NULL VALUE
COMP        .                                   PEMEX EXPL & PROD :COMPANY
WELL        .                                                1069 :WELL
FLD         .                                           CANTARELL :FIELD
LOC         .                                             UNKNOWN :LOCATION
CNTY        .                                      CD. DEL CARMEN :COUNTY
STAT        .                                            CAMPECHE :STATE
CTRY        .                                              MEXICO :COUNTRY
SRVC        .                                             UNKNOWN :SERVICE COMPANY
DATE        .                                             UNKNOWN :LOG DATE
UWI         .                                          3060000507 :UNIQUE WELL ID
XCOORD      .                                       601393.732000 :SURFACE X
YCOORD      .                                      2149879.230000 :SURFACE Y
LAT         .                                           19.441893 :LATITUDE
LON         .                                          -92.034110 :LONGITUDE
ELEV        .M                                            28.0000 :SURFACE ELEV
ELEV_TYPE   .                                                  KB :ELEV TYPE
~CURVE INFORMATION
#MNEMONIC.UNIT        API CODE       : CURVE DESCRIPTION
#------------------------------------------------------------------------------
DEPTH    .M                          : Measured Depth
CALI     .inches      UNKNOWN        : CALI:registros:rC:NONE:v0 (auto-composite)
DRHO     .g/cm3       UNKNOWN        : DRHO:registros:rC:NONE:v0 (auto-composite)
DT       .us/ft       UNKNOWN        : DT:registros:rC:NONE:v0 (auto-composite)
GR       .API         UNKNOWN        : GR:registros:rC:NONE:v0 (auto-composite)
ILD      .ohm.m       UNKNOWN        : ILD:registros:rC:NONE:v0 (auto-composite)
ILM      .ohm.m       UNKNOWN        : ILM:registros:rC:NONE:v0 (auto-composite)
LLD      .ohm.m       UNKNOWN        : LLD:registros:rC:NONE:v0 (auto-composite)
LLS      .ohm.m       UNKNOWN        : LLS:registros:rC:NONE:v0 (auto-composite)
MSFL     .ohm.m       UNKNOWN        : MSFL:registros:rC:NONE:v0 (auto-composite)
NPHI     .v/v_decimal UNKNOWN        : NPHI:registros:rC:NONE:v0 (auto-composite)
PEF      .b/elec      UNKNOWN        : PEF:registros:rC:NONE:v0 (auto-composite)
RHOB     .g/cm3       UNKNOWN        : RHOB:registros:rC:NONE:v0 (auto-composite)
SP       .mV          UNKNOWN        : SP:registros:rC:NONE:v0 (auto-composite)
~A     DEPTH         CALI         DRHO           DT           GR          ILD          ILM          LLD          LLS         MSFL         NPHI          PEF         RHOB           SP
# ...
   2083.4607      20.0964      -0.0125      97.9332      29.4340    -999.2500    -999.2500     112.1633       7.6487      12.3627       0.4034       1.5980       1.3395    -999.2500
   2083.6133      21.2290      -0.0080      97.1530      25.8440    -999.2500    -999.2500      91.7210       5.6590       4.7260       0.4177       1.2760       1.0710    -999.2500
   2083.7656      21.1255      -0.0080      92.5574      21.5720    -999.2500    -999.2500      73.6582       5.8330       2.6518       0.4328       1.3360       1.0725    -999.2500
   2083.9180      21.0220      -0.0080      87.9530      17.2850    -999.2500    -999.2500      55.5900       6.0070       0.5770       0.4468       1.3960       1.0740    -999.2500
   2084.0703      20.3611      -0.0120      88.0424      17.4063    -999.2500    -999.2500      55.9629       6.6124       0.6165       0.4576       1.6285       1.1160    -999.2500
   2084.2229      19.7000      -0.0160      88.1320      17.5280    -999.2500    -999.2500      56.3360       7.2180       0.6560       0.4588       1.8610       1.1580    -999.2500
   2084.3752      18.3639      -0.0125      91.3371      18.6130    -999.2500    -999.2500      59.5066       7.9948       0.7940       0.4436       2.4173       1.3414    -999.2500
   2084.5276      17.0270      -0.0090      94.5490      19.7020    -999.2500    -999.2500      62.6790       8.7720       0.9320       0.3924       2.9740       1.5250    -999.2500
   2084.6799      15.1786       0.0070      93.9267      22.1687    -999.2500    -999.2500      73.4530       9.8125       1.6108       0.2849       4.0361       1.8209    -999.2500
   2084.8325      13.3290       0.0230      93.3030      24.6450    -999.2500    -999.2500      84.2170      10.8520       2.2890       0.1840       5.0990       2.1170    -999.2500
   2084.9849      13.3610       0.0465      89.4327      26.8251    -999.2500    -999.2500     101.5169      12.5697       5.1391       0.1531       4.9371       2.3224    -999.2500
   2085.1372      13.3930       0.0700      85.5530      29.0140    -999.2500    -999.2500     118.8030      14.2860       7.9870       0.1625       4.7750       2.5280    -999.2500
   2085.2896      13.4845       0.0860      78.3551      30.2135    -999.2500    -999.2500     131.0106      15.5629       6.0904       0.1835       4.7830       2.5190    -999.2500
   2085.4419      13.5760       0.1020      71.1390      31.4180    -999.2500    -999.2500     143.2100      16.8390       4.1950       0.2025       4.7910       2.5100    -999.2500
   2085.5945      13.7440       0.1150      66.5711      32.0726    -999.2500    -999.2500     142.3338      16.6264       4.3425       0.2057       4.6975       2.5175    -999.2500
   2085.7468      13.9120       0.1280      61.9910      32.7300    -999.2500    -999.2500     141.4580      16.4140       4.4900       0.1971       4.6040       2.5250    -999.2500
   2085.8992      13.8665       0.1220      60.9160      33.8574    -999.2500    -999.2500     139.3926      16.0499       4.9406       0.1801       4.1548       2.5940    -999.2500
   2086.0515      13.8210       0.1160      59.8380      34.9880    -999.2500    -999.2500     137.3280      15.6860       5.3910       0.1530       3.7050       2.6630    -999.2500
   2086.2041      13.6275       0.0960      59.9604      34.9101    -999.2500    -999.2500     140.3829      15.9580       6.6542       0.1138       3.7640       2.6610    -999.2500
   2086.3564      13.4340       0.0760      60.0830      34.8320    -999.2500    -999.2500     143.4370      16.2300       7.9170       0.0805       3.8230       2.6590    -999.2500
   2086.5088      13.1740       0.0410      61.0388      34.5714    -999.2500    -999.2500     142.6064      16.8286      16.9908       0.0718       4.2022       2.6125    -999.2500
   2086.6611      12.9140       0.0060      61.9960      34.3100    -999.2500    -999.2500     141.7760      17.4270      26.0630       0.0781       4.5820       2.5660    -999.2500
   2086.8137      12.7660       0.0090      65.8295      33.8238    -999.2500    -999.2500     137.0929      17.6080      25.0285       0.0905       4.5146       2.4741    -999.2500
   2086.9661      12.6180       0.0120      69.6690      33.3360    -999.2500    -999.2500     132.4100      17.7890      23.9940       0.1113       4.4470       2.3820    -999.2500
   2087.1184      12.5215       0.0190      69.5326      32.6147    -999.2500    -999.2500     135.1429      18.1655      21.9126       0.1428       4.2465       2.3865    -999.2500
   2087.2708      12.4250       0.0260      69.3960      31.8910    -999.2500    -999.2500     137.8760      18.5420      19.8310       0.1687       4.0460       2.3910    -999.2500
   2087.4231      12.4260       0.0425      68.1391      30.2368    -999.2500    -999.2500     145.4802      19.6699      29.5000       0.1728       3.8480       2.4320    -999.2500
   2087.5757      12.4270       0.0590      66.8800      28.5770    -999.2500    -999.2500     153.0860      20.7980      39.1710       0.1622       3.6500       2.4730    -999.2500
   2087.7280      12.4370       0.0570      64.8175      29.7170    -999.2500    -999.2500     159.8754      22.0913      36.6239       0.1439       3.4855       2.5485    -999.2500
   2087.8804      12.4470       0.0550      62.7510      30.8610    -999.2500    -999.2500     166.6670      23.3850      34.0760       0.1276       3.3210       2.6240    -999.2500
   2088.0327      12.4370       0.0465      62.0777      34.4684    -999.2500    -999.2500     172.2372      25.0426      34.1700       0.1233       3.3305       2.6660    -999.2500
   2088.1853      12.4270       0.0380      61.4030      38.0890    -999.2500    -999.2500     177.8100      26.7010      34.2640       0.1264       3.3400       2.7080    -999.2500
   2088.3376      12.3910       0.0235      61.7931      40.9516    -999.2500    -999.2500     175.9760      26.4291      33.6882       0.1325       3.4510       2.6990    -999.2500
   2088.4900      12.3550       0.0090      62.1840      43.8250    -999.2500    -999.2500     174.1410      26.1570      33.1120       0.1371       3.5620       2.6900    -999.2500
   2088.6423      12.3020       0.0105      64.0978      42.4961    -999.2500    -999.2500     169.0012      26.1615      24.4461       0.1357       3.5320       2.6590    -999.2500
   2088.7949      12.2490       0.0120      66.0160      41.1620    -999.2500    -999.2500     163.8660      26.1660      15.7880       0.1285       3.5020       2.6280    -999.2500
   2088.9473      12.1925       0.0155      65.9041      38.4205    -999.2500    -999.2500     176.0212      27.7831      16.9169       0.1156       3.4100       2.6390    -999.2500
   2089.0996      12.1360       0.0190      65.7920      35.6680    -999.2500    -999.2500     188.1670      29.3990      18.0450       0.1038       3.3180       2.6500    -999.2500
   2089.2520      12.0820       0.0185      65.2602      36.4633    -999.2500    -999.2500     234.8796      34.9568      22.8666       0.1002       3.2300       2.6495    -999.2500
   2089.4043      12.0280       0.0180      64.7270      37.2620    -999.2500    -999.2500     281.5620      40.5110      27.6850       0.1000       3.1420       2.6490    -999.2500
   2089.5569      12.0575       0.0215      63.6050      39.3106    -999.2500    -999.2500     382.1846      47.2347      26.0991       0.0985       3.1045       2.6515    -999.2500
   2089.7092      12.0870       0.0250      62.4800      41.3680    -999.2500    -999.2500     482.7550      53.9550      24.5140       0.0994       3.0670       2.6540    -999.2500
   2089.8616      12.1855       0.0235      63.0028      40.8073    -999.2500    -999.2500     478.3376      52.0996      21.6494       0.1065       3.0165       2.6495    -999.2500
   2090.0139      12.2840       0.0220      63.5270      40.2450    -999.2500    -999.2500     473.9220      50.2450      18.7860       0.1219       2.9660       2.6450    -999.2500
