#------------------------------------------------------------------------------
#
#   Created by  : [OpenWorks] Log Export Utility (LEXP)
#   Created on  : 2016-05-11 12:13:37
#   Project     : CANT971
#   User        : R5K
#   Interpreter : PEP
#
#------------------------------------------------------------------------------
~VERSION INFORMATION
VERS. 2.0 : CWLS Log ASCII Standard - version 2.0
WRAP.  NO : One line per depth step
~WELL INFORMATION
#MNEMONIC   .UNIT                                           VALUE :DESCRIPTION
#------------------------------------------------------------------------------
STRT        .M                                           118.7200 :START DEPTH
STOP        .M                                          3137.9165 :STOP DEPTH
STEP        .M                                             0.1524 :STEP
NULL        .                                           -999.2500 :NULL VALUE
COMP        .                                   PEMEX EXPL & PROD :COMPANY
WELL        .                                                1069 :WELL
FLD         .                                           CANTARELL :FIELD
LOC         .                                             UNKNOWN :LOCATION
CNTY        .                                      CD. DEL CARMEN :COUNTY
STAT        .                                            CAMPECHE :STATE
CTRY        .                                              MEXICO :COUNTRY
SRVC        .                                             UNKNOWN :SERVICE COMPANY
DATE        .                                             UNKNOWN :LOG DATE
UWI         .                                          3060000507 :UNIQUE WELL ID
XCOORD      .                                       601393.732000 :SURFACE X
YCOORD      .                                      2149879.230000 :SURFACE Y
LAT         .                                           19.441893 :LATITUDE
LON         .                                          -92.034110 :LONGITUDE
ELEV        .M                                            28.0000 :SURFACE ELEV
ELEV_TYPE   .                                                  KB :ELEV TYPE
~CURVE INFORMATION
#MNEMONIC.UNIT        API CODE       : CURVE DESCRIPTION
#------------------------------------------------------------------------------
DEPTH    .M                          : Measured Depth
CALI     .inches      UNKNOWN        : CALI:registros:rC:NONE:v0 (auto-composite)
DRHO     .g/cm3       UNKNOWN        : DRHO:registros:rC:NONE:v0 (auto-composite)
DT       .us/ft       UNKNOWN        : DT:registros:rC:NONE:v0 (auto-composite)
GR       .API         UNKNOWN        : GR:registros:rC:NONE:v0 (auto-composite)
ILD      .ohm.m       UNKNOWN        : ILD:registros:rC:NONE:v0 (auto-composite)
ILM      .ohm.m       UNKNOWN        : ILM:registros:rC:NONE:v0 (auto-composite)
LLD      .ohm.m       UNKNOWN        : LLD:registros:rC:NONE:v0 (auto-composite)
LLS      .ohm.m       UNKNOWN        : LLS:registros:rC:NONE:v0 (auto-composite)
MSFL     .ohm.m       UNKNOWN        : MSFL:registros:rC:NONE:v0 (auto-composite)
NPHI     .v/v_decimal UNKNOWN        : NPHI:registros:rC:NONE:v0 (auto-composite)
PEF      .b/elec      UNKNOWN        : PEF:registros:rC:NONE:v0 (auto-composite)
RHOB     .g/cm3       UNKNOWN        : RHOB:registros:rC:NONE:v0 (auto-composite)
SP       .mV          UNKNOWN        : SP:registros:rC:NONE:v0 (auto-composite)
~A     DEPTH         CALI         DRHO           DT           GR          ILD          ILM          LLD          LLS         MSFL         NPHI          PEF         RHOB           SP
# ...
   2472.3855      14.6065       0.0120      59.3865      31.1508    -999.2500    -999.2500      22.5400      14.0176      22.7905       0.1007       3.0685       2.7010    -999.2500
   2472.5381      14.6070       0.0150      59.4410      32.2260    -999.2500    -999.2500      21.1040      13.4010      25.0040       0.1181       3.0910       2.6850    -999.2500
   2472.6904      14.6170       0.0150      61.3891      34.2130    -999.2500    -999.2500      19.4565      12.3874      24.6163       0.1195       3.0790       2.6795    -999.2500
   2472.8428      14.6270       0.0150      63.3410      36.2070    -999.2500    -999.2500      17.8110      11.3750      24.2290       0.1177       3.0670       2.6740    -999.2500
   2472.9951      14.6775       0.0135      63.2251      33.3707    -999.2500    -999.2500      17.8730      11.4095      21.1158       0.1102       3.1030       2.6745    -999.2500
   2473.1477      14.7280       0.0120      63.1090      30.5240    -999.2500    -999.2500      17.9350      11.4440      18.0060       0.1025       3.1390       2.6750    -999.2500
   2473.3000      14.7785       0.0100      60.8065      30.5574    -999.2500    -999.2500      18.7055      11.8620      18.3870       0.0988       3.1255       2.6820    -999.2500
   2473.4524      14.8290       0.0080      58.4990      30.5910    -999.2500    -999.2500      19.4740      12.2790      18.7670       0.0956       3.1120       2.6890    -999.2500
   2473.6047      14.9230       0.0055      58.5055      30.9134    -999.2500    -999.2500      21.7723      13.4514      22.7704       0.0929       3.1130       2.7085    -999.2500
   2473.7571      15.0170       0.0030      58.5120      31.2370    -999.2500    -999.2500      24.0650      14.6210      26.7640       0.0899       3.1140       2.7280    -999.2500
   2473.9097      14.9640       0.0030      59.6666      31.7569    -999.2500    -999.2500      26.5804      15.6842      29.1958       0.0849       3.1275       2.7140    -999.2500
   2474.0620      14.9110       0.0030      60.8240      32.2790    -999.2500    -999.2500      29.0900      16.7450      31.6220       0.0788       3.1410       2.7000    -999.2500
   2474.2144      14.9175       0.0040      60.1768      32.1488    -999.2500    -999.2500      29.0875      16.7295      27.5330       0.0668       3.1810       2.7000    -999.2500
   2474.3667      14.9240       0.0050      59.5280      32.0180    -999.2500    -999.2500      29.0850      16.7140      23.4530       0.0556       3.2210       2.7000    -999.2500
   2474.5193      14.9960       0.0085      59.5385      30.7038    -999.2500    -999.2500      28.8117      16.4642      28.9703       0.0549       3.2980       2.6990    -999.2500
   2474.6716      15.0680       0.0120      59.5490      29.3840    -999.2500    -999.2500      28.5390      16.2150      34.4760       0.0576       3.3750       2.6980    -999.2500
   2474.8240      15.2539       0.0300      59.9015      26.3143    -999.2500    -999.2500      26.2868      15.0819      28.8124       0.0710       4.4318       2.6745    -999.2500
   2474.9763      15.4400       0.0480      60.2550      23.2310    -999.2500    -999.2500      24.0390      13.9510      23.1600       0.0946       5.4900       2.6510    -999.2500
   2475.1289      15.6993       0.0430      64.2421      24.2013    -999.2500    -999.2500      19.3552      11.4257      29.5479       0.1723       5.4320       2.4032    -999.2500
   2475.2812      15.9590       0.0380      68.2410      25.1760    -999.2500    -999.2500      14.6800       8.9050      35.9240       0.2471       5.3740       2.1550    -999.2500
   2475.4336      15.7605       0.0385      68.2340      24.4816    -999.2500    -999.2500      14.7786       8.9485      21.4977       0.2503       4.8514       2.1665    -999.2500
   2475.5859      15.5620       0.0390      68.2270      23.7840    -999.2500    -999.2500      14.8770       8.9920       7.0960       0.2351       4.3280       2.1780    -999.2500
   2475.7383      15.6860       0.0440      67.7164      23.8409    -999.2500    -999.2500      16.1845       9.5815       7.6755       0.1758       3.7020       2.2884    -999.2500
   2475.8909      15.8100       0.0490      67.2050      23.8980    -999.2500    -999.2500      17.4900      10.1700       8.2540       0.1130       3.0750       2.3990    -999.2500
   2476.0432      15.7810       0.0490      63.7825      24.9579    -999.2500    -999.2500      22.9420      12.6818      17.6569       0.0724       2.9731       2.5768    -999.2500
   2476.1956      15.7520       0.0490      60.3540      26.0230    -999.2500    -999.2500      28.3860      15.1900      27.0460       0.0401       2.8710       2.7550    -999.2500
   2476.3479      15.7545       0.0480      60.2806      25.6450    -999.2500    -999.2500      32.2551      16.9547      42.3107       0.0364       2.8730       2.7235    -999.2500
   2476.5005      15.7570       0.0470      60.2070      25.2650    -999.2500    -999.2500      36.1190      18.7170      57.5550       0.0382       2.8750       2.6920    -999.2500
   2476.6528      15.7775       0.0450      59.7859      25.3608    -999.2500    -999.2500      35.7074      18.5307      56.6678       0.0454       2.9000       2.6925    -999.2500
   2476.8052      15.7980       0.0430      59.3640      25.4570    -999.2500    -999.2500      35.2970      18.3450      55.7830       0.0537       2.9250       2.6930    -999.2500
   2476.9575      15.9145       0.0405      59.9114      26.2435    -999.2500    -999.2500      32.1683      16.9256      48.6204       0.0638       3.0025       2.7085    -999.2500
   2477.1101      16.0310       0.0380      60.4600      27.0330    -999.2500    -999.2500      29.0480      15.5100      41.4770       0.0740       3.0800       2.7240    -999.2500
   2477.2625      15.9910       0.0250      60.2677      28.2596    -999.2500    -999.2500      26.1157      14.2389      30.2291       0.0830       3.0925       2.7215    -999.2500
   2477.4148      15.9510       0.0120      60.0750      29.4910    -999.2500    -999.2500      23.1910      12.9710      19.0100       0.0920       3.1050       2.7190    -999.2500
   2477.5671      15.6536       0.0290      61.4873      29.2500    -999.2500    -999.2500      21.6216      12.3693      19.0581       0.1030       3.1400       2.6920    -999.2500
   2477.7195      15.3560       0.0460      62.9030      29.0080    -999.2500    -999.2500      20.0560      11.7690      19.1060       0.1126       3.1750       2.6650    -999.2500
   2477.8721      15.2376       0.0460      58.9574      30.6257    -999.2500    -999.2500      19.2676      11.5452      19.7583       0.1130       3.2615       2.6650    -999.2500
   2478.0244      15.1190       0.0460      55.0020      32.2500    -999.2500    -999.2500      18.4810      11.3220      20.4090       0.1092       3.3480       2.6650    -999.2500
   2478.1768      15.0380       0.0450      55.1268      32.1762    -999.2500    -999.2500      18.6187      11.4131      16.7765       0.0898       3.3290       2.6700    -999.2500
   2478.3291      14.9570       0.0440      55.2520      32.1020    -999.2500    -999.2500      18.7560      11.5040      13.1520       0.0708       3.3100       2.6750    -999.2500
   2478.4817      14.9205       0.0380      56.4693      29.5630    -999.2500    -999.2500      21.0634      12.9860      13.7041       0.0689       3.1361       2.6975    -999.2500
   2478.6340      14.8840       0.0320      57.6900      27.0130    -999.2500    -999.2500      23.3660      14.4650      14.2550       0.0719       2.9620       2.7200    -999.2500
   2478.7864      14.8335       0.0225      62.6159      27.4485    -999.2500    -999.2500      22.5437      14.4039      22.6756       0.0854       3.0200       2.7175    -999.2500
   2478.9387      14.7830       0.0130      67.5560      27.8860    -999.2500    -999.2500      21.7230      14.3430      31.0800       0.0974       3.0780       2.7150    -999.2500
