#------------------------------------------------------------------------------
#
#   Created by  : [OpenWorks] Log Export Utility (LEXP)
#   Created on  : 2016-05-11 12:13:37
#   Project     : CANT971
#   User        : R5K
#   Interpreter : PEP
#
#------------------------------------------------------------------------------
~VERSION INFORMATION
VERS. 2.0 : CWLS Log ASCII Standard - version 2.0
WRAP.  NO : One line per depth step
~WELL INFORMATION
#MNEMONIC   .UNIT                                           VALUE :DESCRIPTION
#------------------------------------------------------------------------------
STRT        .M                                           118.7200 :START DEPTH
STOP        .M                                          3137.9165 :STOP DEPTH
STEP        .M                                             0.1524 :STEP
NULL        .                                           -999.2500 :NULL VALUE
COMP        .                                   PEMEX EXPL & PROD :COMPANY
WELL        .                                                1069 :WELL
FLD         .                                           CANTARELL :FIELD
LOC         .                                             UNKNOWN :LOCATION
CNTY        .                                      CD. DEL CARMEN :COUNTY
STAT        .                                            CAMPECHE :STATE
CTRY        .                                              MEXICO :COUNTRY
SRVC        .                                             UNKNOWN :SERVICE COMPANY
DATE        .                                             UNKNOWN :LOG DATE
UWI         .                                          3060000507 :UNIQUE WELL ID
XCOORD      .                                       601393.732000 :SURFACE X
YCOORD      .                                      2149879.230000 :SURFACE Y
LAT         .                                           19.441893 :LATITUDE
LON         .                                          -92.034110 :LONGITUDE
ELEV        .M                                            28.0000 :SURFACE ELEV
ELEV_TYPE   .                                                  KB :ELEV TYPE
~CURVE INFORMATION
#MNEMONIC.UNIT        API CODE       : CURVE DESCRIPTION
#------------------------------------------------------------------------------
DEPTH    .M                          : Measured Depth
CALI     .inches      UNKNOWN        : CALI:registros:rC:NONE:v0 (auto-composite)
DRHO     .g/cm3       UNKNOWN        : DRHO:registros:rC:NONE:v0 (auto-composite)
DT       .us/ft       UNKNOWN        : DT:registros:rC:NONE:v0 (auto-composite)
GR       .API         UNKNOWN        : GR:registros:rC:NONE:v0 (auto-composite)
ILD      .ohm.m       UNKNOWN        : ILD:registros:rC:NONE:v0 (auto-composite)
ILM      .ohm.m       UNKNOWN        : ILM:registros:rC:NONE:v0 (auto-composite)
LLD      .ohm.m       UNKNOWN        : LLD:registros:rC:NONE:v0 (auto-composite)
LLS      .ohm.m       UNKNOWN        : LLS:registros:rC:NONE:v0 (auto-composite)
MSFL     .ohm.m       UNKNOWN        : MSFL:registros:rC:NONE:v0 (auto-composite)
NPHI     .v/v_decimal UNKNOWN        : NPHI:registros:rC:NONE:v0 (auto-composite)
PEF      .b/elec      UNKNOWN        : PEF:registros:rC:NONE:v0 (auto-composite)
RHOB     .g/cm3       UNKNOWN        : RHOB:registros:rC:NONE:v0 (auto-composite)
SP       .mV          UNKNOWN        : SP:registros:rC:NONE:v0 (auto-composite)
~A     DEPTH         CALI         DRHO           DT           GR          ILD          ILM          LLD          LLS         MSFL         NPHI          PEF         RHOB           SP
# ...
   1694.5360      18.0040      -0.0160     110.5157      37.6503       1.1170       1.2065    -999.2500    -999.2500    -999.2500       0.4098       5.2186       2.3315       3.0616
   1694.6884      17.9390      -0.0180     107.8650      33.8140       1.1350       1.2320    -999.2500    -999.2500    -999.2500       0.4099       4.9200       2.3450       2.9260
   1694.8408      17.9500      -0.0170     109.4417      33.8455       1.1600       1.2185    -999.2500    -999.2500    -999.2500       0.4043       4.8670       2.3235       3.2543
   1694.9932      17.9610      -0.0160     111.0200      33.8770       1.1850       1.2050    -999.2500    -999.2500    -999.2500       0.3967       4.8140       2.3020       3.5830
   1695.1456      17.9405      -0.0150     110.9011      33.4915       1.1820       1.2010    -999.2500    -999.2500    -999.2500       0.3868       5.1193       2.2900       3.4800
   1695.2980      17.9200      -0.0140     110.7820      33.1050       1.1790       1.1970    -999.2500    -999.2500    -999.2500       0.3797       5.4250       2.2780       3.3770
   1695.4504      17.8570      -0.0130     109.8221      31.7729       1.1645       1.2040    -999.2500    -999.2500    -999.2500       0.3859       5.6285       2.2865       3.2825
   1695.6028      17.7940      -0.0120     108.8610      30.4370       1.1500       1.2110    -999.2500    -999.2500    -999.2500       0.3951       5.8320       2.2950       3.1880
   1695.7552      17.7565      -0.0120     106.4672      30.1814       1.1515       1.2185    -999.2500    -999.2500    -999.2500       0.4028       5.6880       2.3120       3.1815
   1695.9076      17.7190      -0.0120     104.0700      29.9250       1.1530       1.2260    -999.2500    -999.2500    -999.2500       0.4083       5.5440       2.3290       3.1750
   1696.0601      17.7110      -0.0115     102.7900      31.2399       1.1550       1.2265    -999.2500    -999.2500    -999.2500       0.4069       5.2185       2.3420       3.2835
   1696.2124      17.7030      -0.0110     101.5080      32.5590       1.1570       1.2270    -999.2500    -999.2500    -999.2500       0.4046       4.8930       2.3550       3.3920
   1696.3647      17.7030      -0.0105     103.7027      34.0895       1.1605       1.2130    -999.2500    -999.2500    -999.2500       0.4065       4.5950       2.3455       3.4300
   1696.5172      17.7030      -0.0100     105.9010      35.6250       1.1640       1.1990    -999.2500    -999.2500    -999.2500       0.4085       4.2970       2.3360       3.4680
   1696.6696      17.7030      -0.0095     107.2773      36.4336       1.1750       1.1975    -999.2500    -999.2500    -999.2500       0.4074       4.3385       2.3295       3.5885
   1696.8220      17.7030      -0.0090     108.6560      37.2450       1.1860       1.1960    -999.2500    -999.2500    -999.2500       0.4060       4.3800       2.3230       3.7090
   1696.9744      17.7030      -0.0090     107.6430      36.4589       1.1930       1.2155    -999.2500    -999.2500    -999.2500       0.4064       4.4085       2.3200       3.5685
   1697.1268      17.7030      -0.0090     106.6280      35.6700       1.2000       1.2350    -999.2500    -999.2500    -999.2500       0.4082       4.4370       2.3170       3.4280
   1697.2792      17.7030      -0.0095     105.7794      34.7104       1.2040       1.2455    -999.2500    -999.2500    -999.2500       0.4132       4.5945       2.3175       3.2260
   1697.4316      17.7030      -0.0100     104.9290      33.7480       1.2080       1.2560    -999.2500    -999.2500    -999.2500       0.4180       4.7520       2.3180       3.0240
   1697.5840      17.7030      -0.0115     105.4739      33.3245       1.2120       1.2535    -999.2500    -999.2500    -999.2500       0.4192       4.8955       2.3185       3.0485
   1697.7365      17.7030      -0.0130     106.0200      32.9000       1.2160       1.2510    -999.2500    -999.2500    -999.2500       0.4187       5.0390       2.3190       3.0730
   1697.8888      17.6970      -0.0140     106.9165      33.1267       1.2180       1.2455    -999.2500    -999.2500    -999.2500       0.4147       4.9750       2.3165       3.1530
   1698.0413      17.6910      -0.0150     107.8150      33.3540       1.2200       1.2400    -999.2500    -999.2500    -999.2500       0.4106       4.9110       2.3140       3.2330
   1698.1936      17.6870      -0.0160     108.4020      34.4042       1.2130       1.2245    -999.2500    -999.2500    -999.2500       0.4099       4.7191       2.3085       3.3185
   1698.3459      17.6830      -0.0170     108.9900      35.4570       1.2060       1.2090    -999.2500    -999.2500    -999.2500       0.4104       4.5270       2.3030       3.4040
   1698.4984      17.6790      -0.0185     108.1319      34.2950       1.1805       1.1955    -999.2500    -999.2500    -999.2500       0.4124       4.4305       2.2960       3.3820
   1698.6508      17.6750      -0.0200     107.2730      33.1300       1.1550       1.1820    -999.2500    -999.2500    -999.2500       0.4137       4.3340       2.2890       3.3600
   1698.8032      17.6680      -0.0195     108.2900      32.8069       1.1365       1.1540    -999.2500    -999.2500    -999.2500       0.4097       4.4240       2.2875       3.4999
   1698.9556      17.6610      -0.0190     109.3080      32.4830       1.1180       1.1260    -999.2500    -999.2500    -999.2500       0.4043       4.5140       2.2860       3.6400
   1699.1080      17.6705      -0.0160     112.1538      34.5950       1.1055       1.1070    -999.2500    -999.2500    -999.2500       0.3980       4.5465       2.2895       3.8750
   1699.2604      17.6800      -0.0130     115.0030      36.7130       1.0930       1.0880    -999.2500    -999.2500    -999.2500       0.3936       4.5790       2.2930       4.1100
   1699.4128      17.6930      -0.0115     114.8876      37.6941       1.0840       1.0905    -999.2500    -999.2500    -999.2500       0.3982       4.5835       2.2870       4.2835
   1699.5652      17.7060      -0.0100     114.7720      38.6780       1.0750       1.0930    -999.2500    -999.2500    -999.2500       0.4056       4.5880       2.2810       4.4570
   1699.7177      17.7060      -0.0110     113.8527      38.7793       1.0700       1.0885    -999.2500    -999.2500    -999.2500       0.4158       4.6185       2.2830       4.3235
   1699.8700      17.7060      -0.0120     112.9320      38.8810       1.0650       1.0840    -999.2500    -999.2500    -999.2500       0.4243       4.6490       2.2850       4.1900
   1700.0225      17.7045      -0.0120     113.8443      39.4696       1.0690       1.0825    -999.2500    -999.2500    -999.2500       0.4226       4.5885       2.2915       4.0450
   1700.1748      17.7030      -0.0120     114.7580      40.0600       1.0730       1.0810    -999.2500    -999.2500    -999.2500       0.4185       4.5280       2.2980       3.9000
   1700.3271      17.7030      -0.0110     116.2357      40.4688       1.0800       1.0795    -999.2500    -999.2500    -999.2500       0.4139       4.6300       2.3030       3.9520
   1700.4796      17.7030      -0.0100     117.7160      40.8790       1.0870       1.0780    -999.2500    -999.2500    -999.2500       0.4107       4.7320       2.3080       4.0040
   1700.6320      17.6890      -0.0090     117.2170      41.4066       1.0870       1.0810    -999.2500    -999.2500    -999.2500       0.4141       5.0710       2.3030       4.1250
   1700.7844      17.6750      -0.0080     116.7170      41.9360       1.0870       1.0840    -999.2500    -999.2500    -999.2500       0.4198       5.4100       2.2980       4.2460
   1700.9368      17.6475      -0.0080     115.7614      41.8746       1.0965       1.0960    -999.2500    -999.2500    -999.2500       0.4294       5.5735       2.2870       4.3970
   1701.0892      17.6200      -0.0080     114.8040      41.8130       1.1060       1.1080    -999.2500    -999.2500    -999.2500       0.4388       5.7370       2.2760       4.5480
