#------------------------------------------------------------------------------
#
#   Created by  : [OpenWorks] Log Export Utility (LEXP)
#   Created on  : 2016-05-11 12:13:37
#   Project     : CANT971
#   User        : R5K
#   Interpreter : PEP
#
#------------------------------------------------------------------------------
~VERSION INFORMATION
VERS. 2.0 : CWLS Log ASCII Standard - version 2.0
WRAP.  NO : One line per depth step
~WELL INFORMATION
#MNEMONIC   .UNIT                                           VALUE :DESCRIPTION
#------------------------------------------------------------------------------
STRT        .M                                           118.7200 :START DEPTH
STOP        .M                                          3137.9165 :STOP DEPTH
STEP        .M                                             0.1524 :STEP
NULL        .                                           -999.2500 :NULL VALUE
COMP        .                                   PEMEX EXPL & PROD :COMPANY
WELL        .                                                1069 :WELL
FLD         .                                           CANTARELL :FIELD
LOC         .                                             UNKNOWN :LOCATION
CNTY        .                                      CD. DEL CARMEN :COUNTY
STAT        .                                            CAMPECHE :STATE
CTRY        .                                              MEXICO :COUNTRY
SRVC        .                                             UNKNOWN :SERVICE COMPANY
DATE        .                                             UNKNOWN :LOG DATE
UWI         .                                          3060000507 :UNIQUE WELL ID
XCOORD      .                                       601393.732000 :SURFACE X
YCOORD      .                                      2149879.230000 :SURFACE Y
LAT         .                                           19.441893 :LATITUDE
LON         .                                          -92.034110 :LONGITUDE
ELEV        .M                                            28.0000 :SURFACE ELEV
ELEV_TYPE   .                                                  KB :ELEV TYPE
~CURVE INFORMATION
#MNEMONIC.UNIT        API CODE       : CURVE DESCRIPTION
#------------------------------------------------------------------------------
DEPTH    .M                          : Measured Depth
CALI     .inches      UNKNOWN        : CALI:registros:rC:NONE:v0 (auto-composite)
DRHO     .g/cm3       UNKNOWN        : DRHO:registros:rC:NONE:v0 (auto-composite)
DT       .us/ft       UNKNOWN        : DT:registros:rC:NONE:v0 (auto-composite)
GR       .API         UNKNOWN        : GR:registros:rC:NONE:v0 (auto-composite)
ILD      .ohm.m       UNKNOWN        : ILD:registros:rC:NONE:v0 (auto-composite)
ILM      .ohm.m       UNKNOWN        : ILM:registros:rC:NONE:v0 (auto-composite)
LLD      .ohm.m       UNKNOWN        : LLD:registros:rC:NONE:v0 (auto-composite)
LLS      .ohm.m       UNKNOWN        : LLS:registros:rC:NONE:v0 (auto-composite)
MSFL     .ohm.m       UNKNOWN        : MSFL:registros:rC:NONE:v0 (auto-composite)
NPHI     .v/v_decimal UNKNOWN        : NPHI:registros:rC:NONE:v0 (auto-composite)
PEF      .b/elec      UNKNOWN        : PEF:registros:rC:NONE:v0 (auto-composite)
RHOB     .g/cm3       UNKNOWN        : RHOB:registros:rC:NONE:v0 (auto-composite)
SP       .mV          UNKNOWN        : SP:registros:rC:NONE:v0 (auto-composite)
~A     DEPTH         CALI         DRHO           DT           GR          ILD          ILM          LLD          LLS         MSFL         NPHI          PEF         RHOB           SP
# ...
    521.0560      13.0938       0.0211     130.0614      46.8021       1.3825       1.4351    -999.2500    -999.2500    -999.2500       0.3354       3.8281       2.1604       3.4980
    521.2084      12.8750       0.0325     125.2740      45.1960       1.4390       1.5010    -999.2500    -999.2500    -999.2500       0.3305       3.8301       2.2095       3.9961
    521.3608      12.7891       0.0440     121.1620      43.4324       1.5070       1.5651    -999.2500    -999.2500    -999.2500       0.3348       4.0273       2.2359       3.4980
    521.5132      12.8828       0.0580     117.0480      41.6680       1.5750       1.6290    -999.2500    -999.2500    -999.2500       0.3445       3.8145       2.2306       3.4980
    521.6656      12.8281       0.0696     115.7879      40.9437       1.6555       1.7027    -999.2500    -999.2500    -999.2500       0.3414       3.8809       2.2240       2.9980
    521.8180      12.8672       0.0624     114.5270      40.2190       1.7360       1.7760    -999.2500    -999.2500    -999.2500       0.3243       4.0664       2.2328       1.9980
    521.9704      12.8594       0.0534     114.7175      39.9916       1.7350       1.7710    -999.2500    -999.2500    -999.2500       0.3294       4.1172       2.2692       0.9990
    522.1228      12.8594       0.0318     114.9080      39.7640       1.7340       1.7660    -999.2500    -999.2500    -999.2500       0.3366       4.1289       2.2780       1.4990
    522.2752      12.9688       0.0132     116.2180      39.8745       1.7275       1.7505    -999.2500    -999.2500    -999.2500       0.3721       3.8574       2.2753       1.4990
    522.4276      12.9453      -0.0009     117.5280      39.9850       1.7210       1.7350    -999.2500    -999.2500    -999.2500       0.3883       3.8262       2.2431       2.9980
    522.5800      13.0312       0.0010     118.8029      39.7616       1.7005       1.7205    -999.2500    -999.2500    -999.2500       0.3999       4.0000       2.2406       3.4980
    522.7324      12.8906       0.0034     120.0780      39.5380       1.6800       1.7060    -999.2500    -999.2500    -999.2500       0.3885       4.0078       2.2382       3.4980
    522.8848      12.8750       0.0093     118.9097      38.8972       1.6425       1.6819    -999.2500    -999.2500    -999.2500       0.3823       3.8945       2.2561       3.9961
    523.0372      12.9844       0.0057     117.7410      38.2560       1.6050       1.6580    -999.2500    -999.2500    -999.2500       0.3672       3.7148       2.2393       3.4980
    523.1896      12.9141       0.0066     120.0620      39.1398       1.5690       1.6149    -999.2500    -999.2500    -999.2500       0.3372       3.8809       2.2302       3.9961
    523.3420      12.8828       0.0095     122.3840      40.0240       1.5330       1.5720    -999.2500    -999.2500    -999.2500       0.3296       3.9824       2.2207       2.9980
    523.4944      12.8750       0.0134     126.5103      41.2117       1.5110       1.5414    -999.2500    -999.2500    -999.2500       0.3397       3.8516       2.2131       2.4980
    523.6468      12.9688       0.0141     130.6390      42.4000       1.4890       1.5110    -999.2500    -999.2500    -999.2500       0.3731       3.6289       2.1900       1.9980
    523.7992      13.0156       0.0183     129.6573      42.2486       1.4695       1.5030    -999.2500    -999.2500    -999.2500       0.3751       3.5645       2.1831       2.4980
    523.9516      12.9531       0.0149     128.6750      42.0970       1.4500       1.4950    -999.2500    -999.2500    -999.2500       0.3775       3.7754       2.1890       3.4980
    524.1040      12.9453       0.0154     127.9817      42.6048       1.4260       1.4835    -999.2500    -999.2500    -999.2500       0.3601       4.0430       2.2141       3.9961
    524.2564      12.8672       0.0116     127.2880      43.1130       1.4020       1.4720    -999.2500    -999.2500    -999.2500       0.3705       4.1211       2.2232       4.9961
    524.4088      12.8984       0.0084     128.8069      43.8107       1.3795       1.4469    -999.2500    -999.2500    -999.2500       0.3579       4.0977       2.2222       4.4961
    524.5612      12.8359       0.0261     130.3260      44.5090       1.3570       1.4220    -999.2500    -999.2500    -999.2500       0.3663       3.8594       2.1973       3.9961
    524.7136      12.9922       0.0437     132.9601      44.8169       1.3390       1.3914    -999.2500    -999.2500    -999.2500       0.3634       3.7891       2.1705       2.9980
    524.8660      13.2031       0.0602     135.5950      45.1250       1.3210       1.3610    -999.2500    -999.2500    -999.2500       0.3842       3.6777       2.1408       2.9980
    525.0184      13.2422       0.0652     136.9932      44.8656       1.3050       1.3319    -999.2500    -999.2500    -999.2500       0.3687       3.6738       2.1550       2.9980
    525.1708      13.2734       0.0772     138.3920      44.6060       1.2890       1.3030    -999.2500    -999.2500    -999.2500       0.3883       3.5098       2.1732       3.4980
    525.3232      13.2891       0.0500     136.8654      43.6527       1.2770       1.3070    -999.2500    -999.2500    -999.2500       0.3658       3.4746       2.1630       4.9961
    525.4756      13.1172       0.0333     135.3380      42.6990       1.2650       1.3110    -999.2500    -999.2500    -999.2500       0.3756       3.4355       2.1655       4.9961
    525.6280      13.0391       0.0280     133.4656      41.1895       1.2590       1.3165    -999.2500    -999.2500    -999.2500       0.3739       3.4961       2.1933       4.9961
    525.7804      13.1172       0.0299     131.5920      39.6790       1.2530       1.3220    -999.2500    -999.2500    -999.2500       0.3599       3.6113       2.2160       4.9961
    525.9328      13.0625       0.0370     132.7103      40.1278       1.2500       1.3145    -999.2500    -999.2500    -999.2500       0.3812       3.6426       2.1980       3.9961
    526.0852      12.9688       0.0403     133.8290      40.5770       1.2470       1.3070    -999.2500    -999.2500    -999.2500       0.3877       3.6895       2.1792       3.4980
    526.2376      13.0703       0.0518     136.8418      41.2972       1.2420       1.2840    -999.2500    -999.2500    -999.2500       0.4142       3.6133       2.1551       2.9980
    526.3900      13.3672       0.0398     139.8550      42.0180       1.2370       1.2610    -999.2500    -999.2500    -999.2500       0.4178       3.5898       2.1249       2.9980
    526.5424      13.2734       0.0385     139.4725      41.3963       1.2295       1.2625    -999.2500    -999.2500    -999.2500       0.4103       3.4961       2.1069       3.4980
    526.6948      13.2734       0.0331     139.0900      40.7740       1.2220       1.2640    -999.2500    -999.2500    -999.2500       0.4265       3.5469       2.1140       3.4980
    526.8472      13.3594       0.0243     137.1743      40.0088       1.2095       1.2655    -999.2500    -999.2500    -999.2500       0.3944       3.6133       2.1354       3.9961
    526.9996      13.1406       0.0139     135.2580      39.2430       1.1970       1.2670    -999.2500    -999.2500    -999.2500       0.3824       3.8184       2.1626       3.9961
    527.1520      13.0859       0.0149     134.1128      39.6569       1.1980       1.2615    -999.2500    -999.2500    -999.2500       0.3671       3.6055       2.1858       4.4961
    527.3044      13.0391       0.0109     132.9670      40.0710       1.1990       1.2560    -999.2500    -999.2500    -999.2500       0.3856       3.8281       2.1988       3.9961
    527.4568      12.9453       0.0056     134.3206      40.7448       1.1980       1.2480    -999.2500    -999.2500    -999.2500       0.4128       3.7812       2.1949       3.4980
    527.6092      13.0781       0.0053     135.6750      41.4190       1.1970       1.2400    -999.2500    -999.2500    -999.2500       0.4189       3.8516       2.1865       2.9980
