#------------------------------------------------------------------------------
#
#   Created by  : [OpenWorks] Log Export Utility (LEXP)
#   Created on  : 2016-05-11 12:13:37
#   Project     : CANT971
#   User        : R5K
#   Interpreter : PEP
#
#------------------------------------------------------------------------------
~VERSION INFORMATION
VERS. 2.0 : CWLS Log ASCII Standard - version 2.0
WRAP.  NO : One line per depth step
~WELL INFORMATION
#MNEMONIC   .UNIT                                           VALUE :DESCRIPTION
#------------------------------------------------------------------------------
STRT        .M                                           118.7200 :START DEPTH
STOP        .M                                          3137.9165 :STOP DEPTH
STEP        .M                                             0.1524 :STEP
NULL        .                                           -999.2500 :NULL VALUE
COMP        .                                   PEMEX EXPL & PROD :COMPANY
WELL        .                                                1069 :WELL
FLD         .                                           CANTARELL :FIELD
LOC         .                                             UNKNOWN :LOCATION
CNTY        .                                      CD. DEL CARMEN :COUNTY
STAT        .                                            CAMPECHE :STATE
CTRY        .                                              MEXICO :COUNTRY
SRVC        .                                             UNKNOWN :SERVICE COMPANY
DATE        .                                             UNKNOWN :LOG DATE
UWI         .                                          3060000507 :UNIQUE WELL ID
XCOORD      .                                       601393.732000 :SURFACE X
YCOORD      .                                      2149879.230000 :SURFACE Y
LAT         .                                           19.441893 :LATITUDE
LON         .                                          -92.034110 :LONGITUDE
ELEV        .M                                            28.0000 :SURFACE ELEV
ELEV_TYPE   .                                                  KB :ELEV TYPE
~CURVE INFORMATION
#MNEMONIC.UNIT        API CODE       : CURVE DESCRIPTION
#------------------------------------------------------------------------------
DEPTH    .M                          : Measured Depth
CALI     .inches      UNKNOWN        : CALI:registros:rC:NONE:v0 (auto-composite)
DRHO     .g/cm3       UNKNOWN        : DRHO:registros:rC:NONE:v0 (auto-composite)
DT       .us/ft       UNKNOWN        : DT:registros:rC:NONE:v0 (auto-composite)
GR       .API         UNKNOWN        : GR:registros:rC:NONE:v0 (auto-composite)
ILD      .ohm.m       UNKNOWN        : ILD:registros:rC:NONE:v0 (auto-composite)
ILM      .ohm.m       UNKNOWN        : ILM:registros:rC:NONE:v0 (auto-composite)
LLD      .ohm.m       UNKNOWN        : LLD:registros:rC:NONE:v0 (auto-composite)
LLS      .ohm.m       UNKNOWN        : LLS:registros:rC:NONE:v0 (auto-composite)
MSFL     .ohm.m       UNKNOWN        : MSFL:registros:rC:NONE:v0 (auto-composite)
NPHI     .v/v_decimal UNKNOWN        : NPHI:registros:rC:NONE:v0 (auto-composite)
PEF      .b/elec      UNKNOWN        : PEF:registros:rC:NONE:v0 (auto-composite)
RHOB     .g/cm3       UNKNOWN        : RHOB:registros:rC:NONE:v0 (auto-composite)
SP       .mV          UNKNOWN        : SP:registros:rC:NONE:v0 (auto-composite)
~A     DEPTH         CALI         DRHO           DT           GR          ILD          ILM          LLD          LLS         MSFL         NPHI          PEF         RHOB           SP
# ...
    326.5936      13.5234       0.0019     174.5876      46.5907       0.8090       0.8385    -999.2500    -999.2500    -999.2500       0.4626       3.5449       1.9554     -17.0000
    326.7460      13.5156       0.0006     174.1620      45.1740       0.8100       0.8400    -999.2500    -999.2500    -999.2500       0.4672       3.5977       1.9570     -17.0000
    326.8984      13.5391      -0.0003     173.8615      46.0898       0.8115       0.8415    -999.2500    -999.2500    -999.2500       0.4462       3.5859       1.9594     -17.0000
    327.0508      13.5156      -0.0031     173.5610      47.0060       0.8130       0.8430    -999.2500    -999.2500    -999.2500       0.4511       3.6367       1.9567     -17.0000
    327.2032      13.5156      -0.0058     173.1875      48.4227       0.8140       0.8435    -999.2500    -999.2500    -999.2500       0.4728       3.6523       1.9506     -17.0000
    327.3556      13.5234      -0.0061     172.8140      49.8400       0.8150       0.8440    -999.2500    -999.2500    -999.2500       0.4532       3.7285       1.9501     -17.0000
    327.5080      13.5703      -0.0064     172.5680      49.0946       0.8155       0.8440    -999.2500    -999.2500    -999.2500       0.4659       3.6797       1.9463     -17.0000
    327.6604      13.7344      -0.0031     172.3220      48.3490       0.8160       0.8440    -999.2500    -999.2500    -999.2500       0.4520       3.6602       1.9463     -17.5000
    327.8128      13.5078       0.0002     171.9940      47.4822       0.8160       0.8445    -999.2500    -999.2500    -999.2500       0.4875       3.7012       1.9495     -17.0000
    327.9652      13.5234      -0.0009     171.6660      46.6150       0.8160       0.8450    -999.2500    -999.2500    -999.2500       0.4939       3.6719       1.9470     -16.5000
    328.1176      13.5156      -0.0011     171.6730      46.2001       0.8170       0.8460    -999.2500    -999.2500    -999.2500       0.4963       3.5801       1.9494     -17.0000
    328.2700      13.5859      -0.0007     171.6800      45.7850       0.8180       0.8470    -999.2500    -999.2500    -999.2500       0.5094       3.5117       1.9513     -17.0000
    328.4224      13.6094      -0.0020     171.9485      46.0640       0.8180       0.8475    -999.2500    -999.2500    -999.2500       0.4789       3.4727       1.9525     -17.0000
    328.5748      13.6719      -0.0014     172.2170      46.3430       0.8180       0.8480    -999.2500    -999.2500    -999.2500       0.4563       3.4082       1.9518     -17.0000
    328.7272      13.7344      -0.0003     172.5765      46.8569       0.8165       0.8470    -999.2500    -999.2500    -999.2500       0.4410       3.3965       1.9514     -17.0000
    328.8796      13.7422       0.0017     172.9360      47.3710       0.8150       0.8460    -999.2500    -999.2500    -999.2500       0.4159       3.3984       1.9564     -17.0000
    329.0320      13.7422       0.0027     173.5240      48.1774       0.8090       0.8410    -999.2500    -999.2500    -999.2500       0.4254       3.4609       1.9576     -16.5000
    329.1844      13.7812       0.0021     174.1120      48.9840       0.8030       0.8360    -999.2500    -999.2500    -999.2500       0.4248       3.3809       1.9543     -17.0000
    329.3368      13.7969       0.0008     174.8639      49.6699       0.7970       0.8290    -999.2500    -999.2500    -999.2500       0.4485       3.3574       1.9435     -16.5000
    329.4892      13.7344       0.0014     175.6160      50.3560       0.7910       0.8220    -999.2500    -999.2500    -999.2500       0.4456       3.3438       1.9335     -17.0000
    329.6416      13.6641       0.0035     176.2414      50.2560       0.7890       0.8155    -999.2500    -999.2500    -999.2500       0.4583       3.3906       1.9208     -16.5000
    329.7940      13.6641       0.0057     176.8670      50.1560       0.7870       0.8090    -999.2500    -999.2500    -999.2500       0.4625       3.3418       1.9021     -16.5000
    329.9464      13.7109       0.0092     177.4190      49.0668       0.7895       0.8135    -999.2500    -999.2500    -999.2500       0.4747       3.2930       1.8916     -16.5000
    330.0988      13.7969       0.0109     177.9710      47.9770       0.7920       0.8180    -999.2500    -999.2500    -999.2500       0.4655       3.3066       1.9034     -16.5000
    330.2512      13.8281       0.0129     177.8865      48.1940       0.7960       0.8280    -999.2500    -999.2500    -999.2500       0.4734       3.2949       1.9258     -16.5000
    330.4036      14.1328       0.0130     177.8020      48.4110       0.8000       0.8380    -999.2500    -999.2500    -999.2500       0.4772       3.3906       1.9474     -16.0000
    330.5560      13.9766       0.0083     177.5630      49.6858       0.8090       0.8465    -999.2500    -999.2500    -999.2500       0.4698       3.3281       1.9470     -16.0000
    330.7084      13.9141       0.0047     177.3240      50.9610       0.8180       0.8550    -999.2500    -999.2500    -999.2500       0.4703       3.3535       1.9394     -16.0000
    330.8608      13.8516       0.0048     176.6650      50.8690       0.8295       0.8630    -999.2500    -999.2500    -999.2500       0.4689       3.2422       1.9324     -16.0000
    331.0132      13.7969       0.0010     176.0060      50.7770       0.8410       0.8710    -999.2500    -999.2500    -999.2500       0.4963       3.3164       1.9181     -15.5000
    331.1656      13.7969       0.0038     174.6536      50.9905       0.8525       0.8820    -999.2500    -999.2500    -999.2500       0.4956       3.4023       1.9279     -15.0000
    331.3180      13.7969       0.0033     173.3010      51.2040       0.8640       0.8930    -999.2500    -999.2500    -999.2500       0.4823       3.3770       1.9318     -15.0000
    331.4704      13.7969       0.0042     171.9972      50.9560       0.8760       0.9060    -999.2500    -999.2500    -999.2500       0.4679       3.1602       1.9471     -15.0000
    331.6228      13.8047       0.0025     170.6930      50.7080       0.8880       0.9190    -999.2500    -999.2500    -999.2500       0.4644       2.9980       1.9522     -14.5000
    331.7752      13.8438       0.0043     169.2727      49.7852       0.9030       0.9360    -999.2500    -999.2500    -999.2500       0.4846       3.0352       1.9611     -15.0000
    331.9276      13.8047       0.0025     167.8520      48.8620       0.9180       0.9530    -999.2500    -999.2500    -999.2500       0.4552       3.1484       1.9631     -15.0000
    332.0800      13.9141       0.0056     165.7862      47.4328       0.9330       0.9695    -999.2500    -999.2500    -999.2500       0.4476       3.1602       1.9669     -15.0000
    332.2324      13.9141       0.0077     163.7200      46.0030       0.9480       0.9860    -999.2500    -999.2500    -999.2500       0.4184       3.1289       1.9837     -16.0000
    332.3848      13.9297       0.0065     161.6273      45.1981       0.9590       0.9965    -999.2500    -999.2500    -999.2500       0.4317       3.1719       2.0086     -16.0000
    332.5372      14.1094       0.0057     159.5340      44.3930       0.9700       1.0070    -999.2500    -999.2500    -999.2500       0.4385       3.1875       2.0299     -17.0000
    332.6896      14.0078       0.0010     158.0617      44.6819       0.9770       1.0115    -999.2500    -999.2500    -999.2500       0.4427       3.2520       2.0269     -17.5000
    332.8420      13.8203      -0.0045     156.5890      44.9710       0.9840       1.0160    -999.2500    -999.2500    -999.2500       0.4304       3.2930       2.0157     -18.0000
    332.9944      13.7031      -0.0070     155.0716      44.4361       0.9915       1.0230    -999.2500    -999.2500    -999.2500       0.4313       3.4199       2.0128     -18.0000
    333.1468      13.7109      -0.0017     153.5540      43.9010       0.9990       1.0300    -999.2500    -999.2500    -999.2500       0.4324       3.4609       2.0294     -17.5000
