#------------------------------------------------------------------------------
#
#   Created by  : [OpenWorks] Log Export Utility (LEXP)
#   Created on  : 2016-05-23 17:52:12
#   Project     : CANT971
#   User        : R5K
#   Interpreter : PEP
#
#------------------------------------------------------------------------------
~VERSION INFORMATION
VERS. 2.0 : CWLS Log ASCII Standard - version 2.0
WRAP.  NO : One line per depth step
~WELL INFORMATION
#MNEMONIC   .UNIT                                           VALUE :DESCRIPTION
#------------------------------------------------------------------------------
STRT        .M                                           472.1350 :START DEPTH
STOP        .M                                          2749.2959 :STOP DEPTH
STEP        .M                                             0.1524 :STEP
NULL        .                                           -999.2500 :NULL VALUE
COMP        .                                   PEMEX EXPL & PROD :COMPANY
WELL        .                                                1082 :WELL
FLD         .                                           CANTARELL :FIELD
LOC         .                                             UNKNOWN :LOCATION
CNTY        .                                      CD. DEL CARMEN :COUNTY
STAT        .                                            CAMPECHE :STATE
CTRY        .                                              MEXICO :COUNTRY
SRVC        .                                             UNKNOWN :SERVICE COMPANY
DATE        .                                             UNKNOWN :LOG DATE
UWI         .                                          3060000508 :UNIQUE WELL ID
XCOORD      .                                       598501.860000 :SURFACE X
YCOORD      .                                      2149269.250000 :SURFACE Y
LAT         .                                           19.436526 :LATITUDE
LON         .                                          -92.061687 :LONGITUDE
ELEV        .M                                            27.6000 :SURFACE ELEV
ELEV_TYPE   .                                                  KB :ELEV TYPE
~CURVE INFORMATION
#MNEMONIC.UNIT        API CODE       : CURVE DESCRIPTION
#------------------------------------------------------------------------------
DEPTH    .M                          : Measured Depth
CALI     .inches      UNKNOWN        : CALI:registros:rC:NONE:v0 (auto-composite)
CGR      .API         UNKNOWN        : CGR:registros:rC:NONE:v0 (auto-composite)
DRHO     .g/cm3       UNKNOWN        : DRHO:registros:rC:NONE:v0 (auto-composite)
DT       .us/ft       UNKNOWN        : DT:registros:rC:NONE:v0 (auto-composite)
GR       .API         UNKNOWN        : GR:registros:rC:NONE:v0 (auto-composite)
ILD      .ohm.m       UNKNOWN        : ILD:registros:rC:NONE:v0 (auto-composite)
LLD      .ohm.m       UNKNOWN        : LLD:registros:rC:NONE:v0 (auto-composite)
LLS      .ohm.m       UNKNOWN        : LLS:registros:rC:NONE:v0 (auto-composite)
MSFL     .ohm.m       UNKNOWN        : MSFL:registros:rC:NONE:v0 (auto-composite)
NPHI     .UNKNOWN     UNKNOWN        : NPHI:registros:rC:NONE:v0 (auto-composite)
PEF      .UNKNOWN     UNKNOWN        : PEF:registros:rC:NONE:v0 (auto-composite)
POTA     .UNKNOWN     UNKNOWN        : POTA:registros:rC:NONE:v0 (auto-composite)
RHOB     .g/cm3       UNKNOWN        : RHOB:registros:rC:NONE:v0 (auto-composite)
SIGM     .UNKNOWN     UNKNOWN        : SIGM:registros:rC:NONE:v0 (auto-composite)
SP       .mV          UNKNOWN        : SP:registros:rC:NONE:v0 (auto-composite)
THOR     .ppm         UNKNOWN        : THOR:registros:rC:NONE:v0 (auto-composite)
URAN     .ppm         UNKNOWN        : URAN:registros:rC:NONE:v0 (auto-composite)
~A     DEPTH         CALI          CGR         DRHO           DT           GR          ILD          LLD          LLS         MSFL         NPHI          PEF         POTA         RHOB         SIGM           SP         THOR         URAN
# ...
   2381.7070       6.3020       0.0000       0.0270       0.0000      35.4000    -999.2500     115.3640     113.6710     264.7090       0.0740       3.5120       0.0000       2.7880    -999.2500     151.4480       0.0000       0.0000
   2381.8594       6.3240       0.0000       0.0240       0.0000      32.1339    -999.2500      94.2628      93.2113     155.5204       0.0785       3.5260       0.0000       2.7795    -999.2500     148.6051       0.0000       0.0000
   2382.0117       6.3460       0.0000       0.0210       0.0000      28.8640    -999.2500      73.3060      72.8590      47.0790       0.0807       3.5400       0.0000       2.7710    -999.2500     145.7590       0.0000       0.0000
   2382.1643       6.3195       0.0000       0.0180       0.0000      31.4289    -999.2500      58.1366      57.9408      63.4645       0.0785       3.4680       0.0000       2.7625    -999.2500     145.0365       0.0000       0.0000
   2382.3167       6.2930       0.0000       0.0150       0.0000      33.9970    -999.2500      43.0690      43.0990      79.7400       0.0759       3.3960       0.0000       2.7540    -999.2500     144.3130       0.0000       0.0000
   2382.4690       6.2990       0.0000       0.0135       0.0000      37.1438    -999.2500      40.0295      39.7241      64.1576       0.0765       3.1395       0.0000       2.7435    -999.2500     143.9383       0.0000       0.0000
   2382.6213       6.3050       0.0000       0.0120       0.0000      40.2950    -999.2500      37.0100      36.3660      48.6780       0.0775       2.8830       0.0000       2.7330    -999.2500     143.5630       0.0000       0.0000
   2382.7739       6.3135       0.0000       0.0135       0.0000      41.9962    -999.2500      41.1950      40.5482      32.1872       0.0770       3.0450       0.0000       2.7390    -999.2500     143.6874       0.0000       0.0000
   2382.9263       6.3220       0.0000       0.0150       0.0000      43.7000    -999.2500      45.3530      44.7100      15.8030       0.0758       3.2070       0.0000       2.7450    -999.2500     143.8120       0.0000       0.0000
   2383.0786       6.3385       0.0000       0.0195       0.0000      44.8121    -999.2500      58.1386      56.3391      63.4030       0.0740       3.2955       0.0000       2.7130    -999.2500     143.8125       0.0000       0.0000
   2383.2310       6.3550       0.0000       0.0240       0.0000      45.9260    -999.2500      70.8430      67.9130     110.7010       0.0745       3.3840       0.0000       2.6810    -999.2500     143.8130       0.0000       0.0000
   2383.3833       6.3325       0.0000       0.0505       0.0000      44.6072    -999.2500      65.5686      63.6441     119.9557       0.0830       3.2425       0.0000       2.6990    -999.2500     143.7506       0.0000       0.0000
   2383.5359       6.3100       0.0000       0.0770       0.0000      43.2860    -999.2500      60.3270      59.3950     129.1530       0.0931       3.1010       0.0000       2.7170    -999.2500     143.6880       0.0000       0.0000
   2383.6882       6.2660       0.0000       0.1060       0.0000      43.8804    -999.2500      57.7095      56.7239      85.1810       0.1005       3.2365       0.0000       2.7425    -999.2500     144.9063       0.0000       0.0000
   2383.8406       6.2220       0.0000       0.1350       0.0000      44.4750    -999.2500      55.1080      54.0690      41.4770       0.1034       3.3720       0.0000       2.7680    -999.2500     146.1250       0.0000       0.0000
   2383.9929       6.2830       0.0000       0.1205       0.0000      41.8586    -999.2500      64.0918      61.8833     130.1505       0.0945       3.3170       0.0000       2.7220    -999.2500     144.5653       0.0000       0.0000
   2384.1455       6.3440       0.0000       0.1060       0.0000      39.2410    -999.2500      73.0220      69.6510     218.2950       0.0823       3.2620       0.0000       2.6760    -999.2500     143.0050       0.0000       0.0000
   2384.2979       6.3795       0.0000       0.0970       0.0000      39.0171    -999.2500      55.8242      53.4677     140.2143       0.0710       3.3185       0.0000       2.7380    -999.2500     141.2850       0.0000       0.0000
   2384.4502       6.4150       0.0000       0.0880       0.0000      38.7930    -999.2500      38.7270      37.3790      62.5900       0.0619       3.3750       0.0000       2.8000    -999.2500     139.5640       0.0000       0.0000
   2384.6025       6.3845       0.0000       0.0625       0.0000      39.6397    -999.2500      29.6847      28.8386      38.0709       0.0585       3.4045       0.0000       2.7825    -999.2500     139.5010       0.0000       0.0000
   2384.7551       6.3540       0.0000       0.0370       0.0000      40.4870    -999.2500      20.6940      20.3470      13.6920       0.0592       3.4340       0.0000       2.7650    -999.2500     139.4380       0.0000       0.0000
   2384.9075       6.4315       0.0000       0.0260       0.0000      49.3295    -999.2500      22.0182      21.2480      11.0967       0.0670       3.4485       0.0000       2.7395    -999.2500     139.2816       0.0000       0.0000
   2385.0598       6.5090       0.0000       0.0150       0.0000      58.1790    -999.2500      23.3350      22.1440       8.5160       0.0763       3.4630       0.0000       2.7140    -999.2500     139.1250       0.0000       0.0000
   2385.2122       6.4355       0.0000       0.0135       0.0000      55.5932    -999.2500      24.6120      23.5518      29.9962       0.0835       3.3925       0.0000       2.7290    -999.2500     140.7493       0.0000       0.0000
   2385.3645       6.3620       0.0000       0.0120       0.0000      53.0050    -999.2500      25.8820      24.9520      51.3590       0.0878       3.3220       0.0000       2.7440    -999.2500     142.3750       0.0000       0.0000
   2385.5171       6.3890       0.0000       0.0220       0.0000      50.8731    -999.2500      23.0153      22.9386      37.3576       0.0850       3.3515       0.0000       2.7370    -999.2500     142.0627       0.0000       0.0000
   2385.6694       6.4160       0.0000       0.0320       0.0000      48.7390    -999.2500      20.1640      20.9360      23.4310       0.0805       3.3810       0.0000       2.7300    -999.2500     141.7500       0.0000       0.0000
   2385.8218       6.4355       0.0000       0.0380       0.0000      53.3168    -999.2500      25.0045      25.6929      30.9381       0.0775       3.3075       0.0000       2.7475    -999.2500     142.3112       0.0000       0.0000
   2385.9741       6.4550       0.0000       0.0440       0.0000      57.9000    -999.2500      29.8120      30.4250      38.3940       0.0776       3.2340       0.0000       2.7650    -999.2500     142.8730       0.0000       0.0000
   2386.1267       6.4260       0.0000       0.0385       0.0000      47.0271    -999.2500      56.7806      55.4006      76.6403       0.0860       3.3850       0.0000       2.7810    -999.2500     143.0929       0.0000       0.0000
   2386.2791       6.3970       0.0000       0.0330       0.0000      36.1400    -999.2500      83.5690      80.2490     114.6310       0.0922       3.5360       0.0000       2.7970    -999.2500     143.3130       0.0000       0.0000
   2386.4314       6.4200       0.0000       0.0235       0.0000      34.2134    -999.2500     106.0332     100.9740      66.1956       0.0835       3.2960       0.0000       2.7605    -999.2500     143.2815       0.0000       0.0000
   2386.5837       6.4430       0.0000       0.0140       0.0000      32.2840    -999.2500     128.3500     121.5960      18.0780       0.0719       3.0560       0.0000       2.7240    -999.2500     143.2500       0.0000       0.0000
   2386.7363       6.5855       0.0000       0.0135       0.0000      32.8251    -999.2500     115.5373     110.8635     133.2063       0.0660       3.1745       0.0000       2.7190    -999.2500     143.4059       0.0000       0.0000
   2386.8887       6.7280       0.0000       0.0130       0.0000      33.3670    -999.2500     102.8070     100.1830     247.5940       0.0639       3.2930       0.0000       2.7140    -999.2500     143.5620       0.0000       0.0000
