#------------------------------------------------------------------------------
#
#   Created by  : [OpenWorks] Log Export Utility (LEXP)
#   Created on  : 2016-05-23 17:52:12
#   Project     : CANT971
#   User        : R5K
#   Interpreter : PEP
#
#------------------------------------------------------------------------------
~VERSION INFORMATION
VERS. 2.0 : CWLS Log ASCII Standard - version 2.0
WRAP.  NO : One line per depth step
~WELL INFORMATION
#MNEMONIC   .UNIT                                           VALUE :DESCRIPTION
#------------------------------------------------------------------------------
STRT        .M                                           472.1350 :START DEPTH
STOP        .M                                          2749.2959 :STOP DEPTH
STEP        .M                                             0.1524 :STEP
NULL        .                                           -999.2500 :NULL VALUE
COMP        .                                   PEMEX EXPL & PROD :COMPANY
WELL        .                                                1082 :WELL
FLD         .                                           CANTARELL :FIELD
LOC         .                                             UNKNOWN :LOCATION
CNTY        .                                      CD. DEL CARMEN :COUNTY
STAT        .                                            CAMPECHE :STATE
CTRY        .                                              MEXICO :COUNTRY
SRVC        .                                             UNKNOWN :SERVICE COMPANY
DATE        .                                             UNKNOWN :LOG DATE
UWI         .                                          3060000508 :UNIQUE WELL ID
XCOORD      .                                       598501.860000 :SURFACE X
YCOORD      .                                      2149269.250000 :SURFACE Y
LAT         .                                           19.436526 :LATITUDE
LON         .                                          -92.061687 :LONGITUDE
ELEV        .M                                            27.6000 :SURFACE ELEV
ELEV_TYPE   .                                                  KB :ELEV TYPE
~CURVE INFORMATION
#MNEMONIC.UNIT        API CODE       : CURVE DESCRIPTION
#------------------------------------------------------------------------------
DEPTH    .M                          : Measured Depth
CALI     .inches      UNKNOWN        : CALI:registros:rC:NONE:v0 (auto-composite)
CGR      .API         UNKNOWN        : CGR:registros:rC:NONE:v0 (auto-composite)
DRHO     .g/cm3       UNKNOWN        : DRHO:registros:rC:NONE:v0 (auto-composite)
DT       .us/ft       UNKNOWN        : DT:registros:rC:NONE:v0 (auto-composite)
GR       .API         UNKNOWN        : GR:registros:rC:NONE:v0 (auto-composite)
ILD      .ohm.m       UNKNOWN        : ILD:registros:rC:NONE:v0 (auto-composite)
LLD      .ohm.m       UNKNOWN        : LLD:registros:rC:NONE:v0 (auto-composite)
LLS      .ohm.m       UNKNOWN        : LLS:registros:rC:NONE:v0 (auto-composite)
MSFL     .ohm.m       UNKNOWN        : MSFL:registros:rC:NONE:v0 (auto-composite)
NPHI     .UNKNOWN     UNKNOWN        : NPHI:registros:rC:NONE:v0 (auto-composite)
PEF      .UNKNOWN     UNKNOWN        : PEF:registros:rC:NONE:v0 (auto-composite)
POTA     .UNKNOWN     UNKNOWN        : POTA:registros:rC:NONE:v0 (auto-composite)
RHOB     .g/cm3       UNKNOWN        : RHOB:registros:rC:NONE:v0 (auto-composite)
SIGM     .UNKNOWN     UNKNOWN        : SIGM:registros:rC:NONE:v0 (auto-composite)
SP       .mV          UNKNOWN        : SP:registros:rC:NONE:v0 (auto-composite)
THOR     .ppm         UNKNOWN        : THOR:registros:rC:NONE:v0 (auto-composite)
URAN     .ppm         UNKNOWN        : URAN:registros:rC:NONE:v0 (auto-composite)
~A     DEPTH         CALI          CGR         DRHO           DT           GR          ILD          LLD          LLS         MSFL         NPHI          PEF         POTA         RHOB         SIGM           SP         THOR         URAN
# ...
   2563.0630       6.1600       0.0000       0.0010       0.0000     111.7270    -999.2500    1681.8970    1866.5811     523.9840       0.1510       4.2880       0.0000       2.4660      21.9437     -61.6840       0.0000       0.0000
   2563.2153       6.1345       0.0000       0.0005       0.0000     110.2499    -999.2500    1323.1270    1486.2156    1114.5425       0.1585       4.3760       0.0000       2.4580      21.5404     -61.9669       0.0000       0.0000
   2563.3679       6.1090       0.0000       0.0000       0.0000     108.7720    -999.2500     967.0130    1108.6660    1700.7290       0.1669       4.4640       0.0000       2.4500      20.1702     -62.2500       0.0000       0.0000
   2563.5203       6.1310       0.0000      -0.0025       0.0000     111.2346    -999.2500     795.0828     916.6322    1000.0501       0.1735       4.0841       0.0000       2.4625      19.5612     -62.1565       0.0000       0.0000
   2563.6726       6.1530       0.0000      -0.0050       0.0000     113.6990    -999.2500     624.4030     725.9950     304.4670       0.1795       3.7040       0.0000       2.4750      19.3175     -62.0630       0.0000       0.0000
   2563.8250       6.1690       0.0000      -0.0030       0.0000     127.7961    -999.2500     508.8487     590.2499     992.0826       0.1695       3.7580       0.0000       2.4925      19.4870     -62.0315       0.0000       0.0000
   2563.9773       6.1850       0.0000      -0.0010       0.0000     141.9050    -999.2500     394.1210     455.4760    1674.7791       0.1585       3.8120       0.0000       2.5100      19.7260     -62.0000       0.0000       0.0000
   2564.1299       6.1390       0.0000       0.0015       0.0000     145.4703    -999.2500     399.8336     463.5328     855.6926       0.1310       3.9040       0.0000       2.5060      19.4649     -62.0940       0.0000       0.0000
   2564.2822       6.0930       0.0000       0.0040       0.0000     149.0390    -999.2500     405.5060     471.5330      42.3590       0.1042       3.9960       0.0000       2.5020      18.1764     -62.1880       0.0000       0.0000
   2564.4346       6.0950       0.0000       0.0050       0.0000     138.3453    -999.2500     584.0463     670.0849     625.3405       0.1110       4.1934       0.0000       2.4975      17.4192     -64.4643       0.0000       0.0000
   2564.5869       6.0970       0.0000       0.0060       0.0000     127.6400    -999.2500     761.3540     867.2660    1204.2970       0.1186       4.3910       0.0000       2.4930      16.6601     -66.7430       0.0000       0.0000
   2564.7395       6.0990       0.0000       0.0055       0.0000     108.2333    -999.2500     638.6103     727.0566     723.0992       0.1140       4.2351       0.0000       2.5155      16.3134     -67.5585       0.0000       0.0000
   2564.8918       6.1010       0.0000       0.0050       0.0000      88.8030    -999.2500     516.6980     587.7970     245.1610       0.1086       4.0790       0.0000       2.5380      15.9075     -68.3750       0.0000       0.0000
   2565.0442       6.0785       0.0000       0.0085       0.0000      71.3157    -999.2500     628.3791     701.9167     824.5182       0.0930       4.2835       0.0000       2.5655      14.3540     -68.2191       0.0000       0.0000
   2565.1965       6.0560       0.0000       0.0120       0.0000      53.8050    -999.2500     739.3170     815.2770    1400.0200       0.0771       4.4880       0.0000       2.5930      13.3171     -68.0630       0.0000       0.0000
   2565.3491       6.0730       0.0000       0.0100       0.0000      59.6008    -999.2500     858.0218     932.9359     854.7391       0.0640       4.8985       0.0000       2.6025      11.7293     -68.5626       0.0000       0.0000
   2565.5015       6.0900       0.0000       0.0080       0.0000      65.4050    -999.2500     975.9520    1049.8270     313.0160       0.0512       5.3090       0.0000       2.6120      11.0365     -69.0630       0.0000       0.0000
   2565.6538       6.0610       0.0000       0.0095       0.0000      67.4239    -999.2500     900.4402     960.5802     487.5504       0.0420       5.1780       0.0000       2.6225      10.3855     -62.0995       0.0000       0.0000
   2565.8062       6.0320       0.0000       0.0110       0.0000      69.4460    -999.2500     825.4120     871.9050     660.9670       0.0332       5.0470       0.0000       2.6330      10.3066     -55.1250       0.0000       0.0000
   2565.9585       6.0345       0.0000       0.0135       0.0000      72.8231    -999.2500    1193.6267    1237.1465     681.1640       0.0280       4.7425       0.0000       2.6430      10.8872     -55.2499       0.0000       0.0000
   2566.1111       6.0370       0.0000       0.0160       0.0000      76.2060    -999.2500    1558.9430    1600.0959     701.2020       0.0232       4.4380       0.0000       2.6530      11.4743     -55.3750       0.0000       0.0000
   2566.2634       6.0245       0.0000       0.0205       0.0000      81.6004    -999.2500    1276.0828    1295.5105     868.1708       0.0225       4.4020       0.0000       2.6295      12.5699     -51.8754       0.0000       0.0000
   2566.4158       6.0120       0.0000       0.0250       0.0000      86.9960    -999.2500     995.4120     992.8000    1033.8470       0.0220       4.3660       0.0000       2.6060      12.9739     -48.3750       0.0000       0.0000
   2566.5681       6.0325       0.0000       0.0305       0.0000      81.4160    -999.2500     904.9176     904.6360     626.7018       0.0225       4.6599       0.0000       2.5950      13.2736     -48.5000       0.0000       0.0000
   2566.7207       6.0530       0.0000       0.0360       0.0000      75.8340    -999.2500     815.1130     817.1440     222.6600       0.0231       4.9540       0.0000       2.5840      13.5706     -48.6250       0.0000       0.0000
   2566.8730       6.0440       0.0000       0.0295       0.0000      74.3969    -999.2500    1255.6060    1232.0020     639.8958       0.0250       4.8690       0.0000       2.5720      14.9834     -48.8439       0.0000       0.0000
   2567.0254       6.0350       0.0000       0.0230       0.0000      72.9590    -999.2500    1692.7990    1643.7520    1054.0060       0.0275       4.7840       0.0000       2.5600      16.3164     -49.0630       0.0000       0.0000
   2567.1777       6.0530       0.0000       0.0165       0.0000      76.5469    -999.2500    2838.7488    2837.6902    1415.8334       0.0395       4.6136       0.0000       2.5405      18.7816     -48.1583       0.0000       0.0000
   2567.3303       6.0710       0.0000       0.0100       0.0000      80.1370    -999.2500    3976.2500    4022.8259    1774.9930       0.0526       4.4430       0.0000       2.5210      19.6991     -47.2530       0.0000       0.0000
   2567.4827       6.0655       0.0000       0.0110       0.0000      80.7658    -999.2500    2598.8960    2604.7510    1238.3086       0.0779       4.3455       0.0000       2.5310      20.2158     -45.6596       0.0000       0.0000
   2567.6350       6.0600       0.0000       0.0120       0.0000      81.3950    -999.2500    1231.5170    1196.9460     705.5110       0.1034       4.2480       0.0000       2.5410      20.4472     -44.0650       0.0000       0.0000
   2567.7874       6.0550       0.0000       0.0095       0.0000     102.1180    -999.2500    1380.8955    1331.1621    1108.2439       0.1194       4.1545       0.0000       2.5295      21.2749     -43.2204       0.0000       0.0000
   2567.9397       6.0500       0.0000       0.0070       0.0000     122.8590    -999.2500    1529.2100    1464.4220    1508.1080       0.1352       4.0610       0.0000       2.5180      22.8427     -42.3750       0.0000       0.0000
   2568.0923       6.0605       0.0000       0.0095       0.0000     129.8570    -999.2500    1913.7932    1836.8662    1345.2892       0.1560       4.1704       0.0000       2.5235      23.8517     -41.8767       0.0000       0.0000
   2568.2446       6.0710       0.0000       0.0120       0.0000     136.8620    -999.2500    2295.6870    2206.7061    1183.6090       0.1761       4.2800       0.0000       2.5290      25.0131     -41.3780       0.0000       0.0000
