#------------------------------------------------------------------------------
#
#   Created by  : [OpenWorks] Log Export Utility (LEXP)
#   Created on  : 2016-05-23 17:52:12
#   Project     : CANT971
#   User        : R5K
#   Interpreter : PEP
#
#------------------------------------------------------------------------------
~VERSION INFORMATION
VERS. 2.0 : CWLS Log ASCII Standard - version 2.0
WRAP.  NO : One line per depth step
~WELL INFORMATION
#MNEMONIC   .UNIT                                           VALUE :DESCRIPTION
#------------------------------------------------------------------------------
STRT        .M                                           472.1350 :START DEPTH
STOP        .M                                          2749.2959 :STOP DEPTH
STEP        .M                                             0.1524 :STEP
NULL        .                                           -999.2500 :NULL VALUE
COMP        .                                   PEMEX EXPL & PROD :COMPANY
WELL        .                                                1082 :WELL
FLD         .                                           CANTARELL :FIELD
LOC         .                                             UNKNOWN :LOCATION
CNTY        .                                      CD. DEL CARMEN :COUNTY
STAT        .                                            CAMPECHE :STATE
CTRY        .                                              MEXICO :COUNTRY
SRVC        .                                             UNKNOWN :SERVICE COMPANY
DATE        .                                             UNKNOWN :LOG DATE
UWI         .                                          3060000508 :UNIQUE WELL ID
XCOORD      .                                       598501.860000 :SURFACE X
YCOORD      .                                      2149269.250000 :SURFACE Y
LAT         .                                           19.436526 :LATITUDE
LON         .                                          -92.061687 :LONGITUDE
ELEV        .M                                            27.6000 :SURFACE ELEV
ELEV_TYPE   .                                                  KB :ELEV TYPE
~CURVE INFORMATION
#MNEMONIC.UNIT        API CODE       : CURVE DESCRIPTION
#------------------------------------------------------------------------------
DEPTH    .M                          : Measured Depth
CALI     .inches      UNKNOWN        : CALI:registros:rC:NONE:v0 (auto-composite)
CGR      .API         UNKNOWN        : CGR:registros:rC:NONE:v0 (auto-composite)
DRHO     .g/cm3       UNKNOWN        : DRHO:registros:rC:NONE:v0 (auto-composite)
DT       .us/ft       UNKNOWN        : DT:registros:rC:NONE:v0 (auto-composite)
GR       .API         UNKNOWN        : GR:registros:rC:NONE:v0 (auto-composite)
ILD      .ohm.m       UNKNOWN        : ILD:registros:rC:NONE:v0 (auto-composite)
LLD      .ohm.m       UNKNOWN        : LLD:registros:rC:NONE:v0 (auto-composite)
LLS      .ohm.m       UNKNOWN        : LLS:registros:rC:NONE:v0 (auto-composite)
MSFL     .ohm.m       UNKNOWN        : MSFL:registros:rC:NONE:v0 (auto-composite)
NPHI     .UNKNOWN     UNKNOWN        : NPHI:registros:rC:NONE:v0 (auto-composite)
PEF      .UNKNOWN     UNKNOWN        : PEF:registros:rC:NONE:v0 (auto-composite)
POTA     .UNKNOWN     UNKNOWN        : POTA:registros:rC:NONE:v0 (auto-composite)
RHOB     .g/cm3       UNKNOWN        : RHOB:registros:rC:NONE:v0 (auto-composite)
SIGM     .UNKNOWN     UNKNOWN        : SIGM:registros:rC:NONE:v0 (auto-composite)
SP       .mV          UNKNOWN        : SP:registros:rC:NONE:v0 (auto-composite)
THOR     .ppm         UNKNOWN        : THOR:registros:rC:NONE:v0 (auto-composite)
URAN     .ppm         UNKNOWN        : URAN:registros:rC:NONE:v0 (auto-composite)
~A     DEPTH         CALI          CGR         DRHO           DT           GR          ILD          LLD          LLS         MSFL         NPHI          PEF         POTA         RHOB         SIGM           SP         THOR         URAN
# ...
   1656.2830      13.4830       3.3610       0.0040    -999.2500      24.4780    -999.2500    3681.6831     150.1760     130.2020       0.0146       3.6670       0.0020       2.7500    -999.2500       2.9650       0.1580       2.9650
   1656.4354      13.5195       2.4624      -0.0035    -999.2500      23.8293    -999.2500    2440.2336     152.1675      71.2065       0.0162       3.6670       0.0020       2.7500    -999.2500       2.8810       0.1580       2.8811
   1656.5878      13.5560       1.5600      -0.0110    -999.2500      23.1800    -999.2500    1201.5190     154.1610      12.3410       0.0178       3.6670       0.0020       2.7500    -999.2500       2.7970       0.1580       2.7970
   1656.7402      13.5560       1.5889      -0.0055    -999.2500      22.3899    -999.2500     968.1951     158.9023      13.6844       0.0195       3.6865       0.0020       2.7480    -999.2500       2.8135       0.1665       2.8135
   1656.8926      13.5560       1.6180       0.0000    -999.2500      21.5990    -999.2500     735.3560     163.6490      15.0250       0.0212       3.7060       0.0020       2.7460    -999.2500       2.8300       0.1750       2.8300
   1657.0450      13.5560       1.8475      -0.0020    -999.2500      22.0402    -999.2500     691.7279     158.3733      12.6282       0.0234       3.9089       0.0020       2.7345    -999.2500       2.9030       0.2209       2.9029
   1657.1974      13.5560       2.0780      -0.0040    -999.2500      22.4820    -999.2500     648.1850     153.0910      10.2360       0.0264       4.1110       0.0020       2.7230    -999.2500       2.9760       0.2670       2.9760
   1657.3499      13.5560       2.6806      -0.0105    -999.2500      24.1135    -999.2500     653.6950     143.8129      13.3123       0.0342       4.0554       0.0020       2.6990    -999.2500       3.1130       0.4607       3.1128
   1657.5022      13.5560       3.2860      -0.0170    -999.2500      25.7460    -999.2500     659.1950     134.5220      16.3830       0.0441       4.0000       0.0020       2.6750    -999.2500       3.2500       0.6550       3.2500
   1657.6547      13.6731       4.1510      -0.0160    -999.2500      28.4701    -999.2500     755.8062     152.6467      34.1366       0.0624       4.2224       0.0025       2.6415    -999.2500       3.4330       0.6196       3.4327
   1657.8070      13.7900       5.0200      -0.0150    -999.2500      31.1940    -999.2500     852.2530     170.7840      51.8600       0.0817       4.4440       0.0030       2.6080    -999.2500       3.6160       0.5840       3.6160
   1657.9594      14.0452       5.7173      -0.0110    -999.2500      30.8770    -999.2500    1270.4326     225.8708      75.5482       0.1000       4.3068       0.0020       2.5735    -999.2500       3.5980       0.5840       3.5980
   1658.1118      14.3000       6.4180      -0.0070    -999.2500      30.5600    -999.2500    1687.9530     280.9590      99.1990       0.1170       4.1700       0.0010       2.5390    -999.2500       3.5800       0.5840       3.5800
   1658.2642      14.3721       6.1980      -0.0025    -999.2500      29.6566    -999.2500    2542.9001     304.1593     121.7819       0.1258       3.8590       0.0010       2.5420    -999.2500       3.5210       0.5875       3.5211
   1658.4166      14.4440       5.9770       0.0020    -999.2500      28.7530    -999.2500    3396.6069     327.3630     144.3320       0.1320       3.5490       0.0010       2.5450    -999.2500       3.4620       0.5910       3.4620
   1658.5690      14.4245       5.3054       0.0050    -999.2500      26.4883    -999.2500    3374.7859     324.9363     138.7453       0.1292       3.3853       0.0010       2.5600    -999.2500       3.3815       0.5655       3.3816
   1658.7214      14.4050       4.6310       0.0080    -999.2500      24.2230    -999.2500    3352.9939     322.5090     133.1660       0.1246       3.2220       0.0010       2.5750    -999.2500       3.3010       0.5400       3.3010
   1658.8738      14.2579       3.4322       0.0125    -999.2500      24.3615    -999.2500    3176.2710     312.1341     112.5061       0.1169       3.2220       0.0010       2.5930    -999.2500       3.3615       0.4791       3.3614
   1659.0262      14.1110       2.2290       0.0170    -999.2500      24.5000    -999.2500    2999.7600     301.7550      91.8710       0.1090       3.2220       0.0010       2.6110    -999.2500       3.4220       0.4180       3.4220
   1659.1786      14.1110       2.8638       0.0115    -999.2500      25.8931    -999.2500    2673.3083     268.4833      70.7382       0.1024       3.3212       0.0025       2.6000    -999.2500       3.5570       1.2851       3.5569
   1659.3311      14.1110       3.5010       0.0060    -999.2500      27.2870    -999.2500    2347.4690     235.1940      49.6450       0.0948       3.4200       0.0040       2.5890    -999.2500       3.6920       2.1540       3.6920
   1659.4834      14.1705       7.1035       0.0060    -999.2500      33.5510    -999.2500    1716.8926     237.7217      40.6786       0.0796       3.7662       0.0030       2.5940    -999.2500       3.7830       2.1490       3.7829
   1659.6359      14.2300      10.7200       0.0060    -999.2500      39.8190    -999.2500    1087.9230     240.2510      31.7350       0.0656       4.1110       0.0020       2.5990    -999.2500       3.8740       2.1440       3.8740
   1659.7882      14.3370       9.2335       0.0060    -999.2500      36.7542    -999.2500    1162.7216     250.4955      33.0451       0.0657       4.0113       0.0040       2.6120    -999.2500       3.8375       2.0561       3.8375
   1659.9406      14.4440       7.7410       0.0060    -999.2500      33.6870    -999.2500    1237.3390     260.7480      34.3520       0.0688       3.9120       0.0060       2.6250    -999.2500       3.8010       1.9680       3.8010
   1660.0930      14.4440       9.5458       0.0070    -999.2500      35.8585    -999.2500    1428.2899     273.5872      57.7884       0.0760       3.6219       0.0055       2.6375    -999.2500       3.6406       1.7023       3.6407
   1660.2454      14.4440      11.3580       0.0080    -999.2500      38.0320    -999.2500    1618.8020     286.4380      81.1710       0.0842       3.3330       0.0050       2.6500    -999.2500       3.4800       1.4360       3.4800
   1660.3978      14.2774      10.5762       0.0095    -999.2500      37.2129    -999.2500    1724.8291     296.8526      66.3594       0.0945       3.3330       0.0035       2.6400    -999.2500       3.2151       1.1039       3.2153
   1660.5502      14.1110       9.7910       0.0110    -999.2500      36.3930    -999.2500    1830.6260     307.2780      51.5800       0.1052       3.3330       0.0020       2.6300    -999.2500       2.9500       0.7710       2.9500
   1660.7026      14.1666       7.9181       0.0165    -999.2500      32.6482    -999.2500    2261.3953     322.7411      55.5836       0.1168       3.3330       0.0015       2.6040    -999.2500       2.5512       0.4110       2.5515
   1660.8550      14.2220       6.0370       0.0220    -999.2500      28.8990    -999.2500    2691.2830     338.2220      59.5790       0.1288       3.3330       0.0010       2.5780    -999.2500       2.1520       0.0500       2.1520
   1661.0074      14.1664       4.5079       0.0200    -999.2500      23.3441    -999.2500    3905.3071     346.5612      71.0315       0.1426       3.3330       0.0010       2.5610    -999.2500       2.1600       0.0740       2.1600
   1661.1598      14.1110       2.9720       0.0180    -999.2500      17.7820    -999.2500    5116.9980     354.9110      82.4620       0.1544       3.3330       0.0010       2.5440    -999.2500       2.1680       0.0980       2.1680
   1661.3123      14.1665       3.2743       0.0120    -999.2500      20.7921    -999.2500    6289.1431     368.6703     106.6247       0.1524       3.3330       0.0015       2.5360    -999.2500       2.2495       0.1399       2.2494
   1661.4646      14.2220       3.5780       0.0060    -999.2500      23.8040    -999.2500    7459.1821     382.4490     130.7440       0.1469       3.3330       0.0020       2.5280    -999.2500       2.3310       0.1820       2.3310
