#------------------------------------------------------------------------------
#
#   Created by  : [OpenWorks] Log Export Utility (LEXP)
#   Created on  : 2016-05-23 17:52:12
#   Project     : CANT971
#   User        : R5K
#   Interpreter : PEP
#
#------------------------------------------------------------------------------
~VERSION INFORMATION
VERS. 2.0 : CWLS Log ASCII Standard - version 2.0
WRAP.  NO : One line per depth step
~WELL INFORMATION
#MNEMONIC   .UNIT                                           VALUE :DESCRIPTION
#------------------------------------------------------------------------------
STRT        .M                                           472.1350 :START DEPTH
STOP        .M                                          2749.2959 :STOP DEPTH
STEP        .M                                             0.1524 :STEP
NULL        .                                           -999.2500 :NULL VALUE
COMP        .                                   PEMEX EXPL & PROD :COMPANY
WELL        .                                                1082 :WELL
FLD         .                                           CANTARELL :FIELD
LOC         .                                             UNKNOWN :LOCATION
CNTY        .                                      CD. DEL CARMEN :COUNTY
STAT        .                                            CAMPECHE :STATE
CTRY        .                                              MEXICO :COUNTRY
SRVC        .                                             UNKNOWN :SERVICE COMPANY
DATE        .                                             UNKNOWN :LOG DATE
UWI         .                                          3060000508 :UNIQUE WELL ID
XCOORD      .                                       598501.860000 :SURFACE X
YCOORD      .                                      2149269.250000 :SURFACE Y
LAT         .                                           19.436526 :LATITUDE
LON         .                                          -92.061687 :LONGITUDE
ELEV        .M                                            27.6000 :SURFACE ELEV
ELEV_TYPE   .                                                  KB :ELEV TYPE
~CURVE INFORMATION
#MNEMONIC.UNIT        API CODE       : CURVE DESCRIPTION
#------------------------------------------------------------------------------
DEPTH    .M                          : Measured Depth
CALI     .inches      UNKNOWN        : CALI:registros:rC:NONE:v0 (auto-composite)
CGR      .API         UNKNOWN        : CGR:registros:rC:NONE:v0 (auto-composite)
DRHO     .g/cm3       UNKNOWN        : DRHO:registros:rC:NONE:v0 (auto-composite)
DT       .us/ft       UNKNOWN        : DT:registros:rC:NONE:v0 (auto-composite)
GR       .API         UNKNOWN        : GR:registros:rC:NONE:v0 (auto-composite)
ILD      .ohm.m       UNKNOWN        : ILD:registros:rC:NONE:v0 (auto-composite)
LLD      .ohm.m       UNKNOWN        : LLD:registros:rC:NONE:v0 (auto-composite)
LLS      .ohm.m       UNKNOWN        : LLS:registros:rC:NONE:v0 (auto-composite)
MSFL     .ohm.m       UNKNOWN        : MSFL:registros:rC:NONE:v0 (auto-composite)
NPHI     .UNKNOWN     UNKNOWN        : NPHI:registros:rC:NONE:v0 (auto-composite)
PEF      .UNKNOWN     UNKNOWN        : PEF:registros:rC:NONE:v0 (auto-composite)
POTA     .UNKNOWN     UNKNOWN        : POTA:registros:rC:NONE:v0 (auto-composite)
RHOB     .g/cm3       UNKNOWN        : RHOB:registros:rC:NONE:v0 (auto-composite)
SIGM     .UNKNOWN     UNKNOWN        : SIGM:registros:rC:NONE:v0 (auto-composite)
SP       .mV          UNKNOWN        : SP:registros:rC:NONE:v0 (auto-composite)
THOR     .ppm         UNKNOWN        : THOR:registros:rC:NONE:v0 (auto-composite)
URAN     .ppm         UNKNOWN        : URAN:registros:rC:NONE:v0 (auto-composite)
~A     DEPTH         CALI          CGR         DRHO           DT           GR          ILD          LLD          LLS         MSFL         NPHI          PEF         POTA         RHOB         SIGM           SP         THOR         URAN
# ...
   1746.9611      13.2220      16.2903       0.0040    -999.2500      32.1835    -999.2500     140.4599      47.5161     109.5168       0.0417       4.2097       0.0055       2.7205    -999.2500       2.0739       3.3821       2.0737
   1747.1134      13.2220      18.3020       0.0000    -999.2500      35.2660    -999.2500     105.5540      35.1630      33.8870       0.0427       4.3420       0.0060       2.7190    -999.2500       2.2960       3.3350       2.2960
   1747.2659      13.1665      19.1518       0.0020    -999.2500      36.1750    -999.2500      78.1653      26.1704      22.6199       0.0493       4.6715       0.0065       2.7025    -999.2500       2.3795       3.5187       2.3794
   1747.4182      13.1110      20.0050       0.0040    -999.2500      37.0840    -999.2500      50.8430      17.1780      11.3800       0.0587       5.0000       0.0070       2.6860    -999.2500       2.4630       3.7030       2.4630
   1747.5706      13.1110      21.9148       0.0125    -999.2500      40.3593    -999.2500      41.3433      15.0286      14.3015       0.0684       4.9614       0.0085       2.6735    -999.2500       2.4765       4.1669       2.4765
   1747.7230      13.1110      23.8310       0.0210    -999.2500      43.6350    -999.2500      31.8730      12.8790      17.2140       0.0781       4.9230       0.0100       2.6610    -999.2500       2.4900       4.6320       2.4900
   1747.8754      13.1110      27.7862       0.0355    -999.2500      50.9787    -999.2500      28.4760      13.9574      28.3495       0.0875       4.7507       0.0110       2.6610    -999.2500       2.7130       4.8143       2.7128
   1748.0278      13.1110      31.7550       0.0500    -999.2500      58.3240    -999.2500      25.0890      15.0360      39.4520       0.0932       4.5790       0.0120       2.6610    -999.2500       2.9360       4.9970       2.9360
   1748.1802      13.1110      30.8761       0.0425    -999.2500      56.1734    -999.2500      29.7827      18.7228      33.6517       0.0920       4.2335       0.0110       2.6570    -999.2500       3.1400       4.4780       3.1398
   1748.3326      13.1110      29.9940       0.0350    -999.2500      54.0220    -999.2500      34.4630      22.4110      27.8680       0.0876       3.8890       0.0100       2.6530    -999.2500       3.3440       3.9580       3.3440
   1748.4850      13.1110      26.0902       0.0205    -999.2500      52.0385    -999.2500      38.9346      25.9167      28.5710       0.0837       4.2230       0.0095       2.6475    -999.2500       3.2490       3.3351       3.2491
   1748.6375      13.1110      22.1720       0.0060    -999.2500      50.0540    -999.2500      43.3940      29.4240      29.2720       0.0873       4.5560       0.0090       2.6420    -999.2500       3.1540       2.7110       3.1540
   1748.7898      13.1110      22.6700       0.0115    -999.2500      46.6250    -999.2500      44.7678      27.9829      33.8770       0.1057       4.3332       0.0100       2.6125    -999.2500       3.0810       2.5247       3.0811
   1748.9423      13.1110      23.1700       0.0170    -999.2500      43.1940    -999.2500      46.1380      26.5410      38.4700       0.1282       4.1110       0.0110       2.5830    -999.2500       3.0080       2.3380       3.0080
   1749.0946      13.1110      25.3931       0.0215    -999.2500      47.8038    -999.2500      44.1686      25.8428      23.0009       0.1440       4.2282       0.0120       2.5870    -999.2500       3.1335       2.3015       3.1334
   1749.2471      13.1110      27.6250       0.0260    -999.2500      52.4170    -999.2500      42.2040      25.1440       7.5700       0.1521       4.3450       0.0130       2.5910    -999.2500       3.2590       2.2650       3.2590
   1749.3994      13.1890      25.8805       0.0270    -999.2500      52.3235    -999.2500      41.3956      26.5110      10.1786       0.1508       4.4507       0.0130       2.6010    -999.2500       3.4844       1.9963       3.4842
   1749.5518      13.2670      24.1290       0.0280    -999.2500      52.2300    -999.2500      40.5890      27.8780      12.7810       0.1450       4.5560       0.0130       2.6110    -999.2500       3.7100       1.7270       3.7100
   1749.7042      13.3000      21.8633       0.0220    -999.2500      50.5328    -999.2500      43.9422      29.2194      24.9235       0.1391       4.3992       0.0125       2.5975    -999.2500       3.8484       1.5208       3.8483
   1749.8566      13.3330      19.5880       0.0160    -999.2500      48.8340    -999.2500      47.2880      30.5600      37.0390       0.1360       4.2430       0.0120       2.5840    -999.2500       3.9870       1.3140       3.9870
   1750.0090      13.2775      18.7792      -0.0005    -999.2500      47.1864    -999.2500      47.0222      29.7313      35.4759       0.1380       4.0592       0.0110       2.5680    -999.2500       3.9815       1.2706       3.9815
   1750.1614      13.2220      17.9670      -0.0170    -999.2500      45.5370    -999.2500      46.7570      28.9030      33.9160       0.1429       3.8760       0.0100       2.5520    -999.2500       3.9760       1.2270       3.9760
   1750.3138      13.2220      18.0129      -0.0150    -999.2500      45.6404    -999.2500      45.7185      28.1329      31.5852       0.1482       3.7713       0.0100       2.5460    -999.2500       3.9655       1.2295       3.9655
   1750.4662      13.2220      18.0590      -0.0130    -999.2500      45.7440    -999.2500      44.6820      27.3630      29.2590       0.1527       3.6670       0.0100       2.5400    -999.2500       3.9550       1.2320       3.9550
   1750.6187      13.2220      18.1658      -0.0065    -999.2500      46.8837    -999.2500      44.8456      25.4493      21.8332       0.1552       3.6670       0.0095       2.5310    -999.2500       4.0919       1.4032       4.0918
   1750.7710      13.2220      18.2730       0.0000    -999.2500      48.0250    -999.2500      45.0090      23.5360      14.4210       0.1528       3.6670       0.0090       2.5220    -999.2500       4.2290       1.5750       4.2290
   1750.9235      13.2220      20.2035      -0.0040    -999.2500      48.9122    -999.2500      36.6914      18.4947      15.9058       0.1425       3.6114       0.0095       2.5380    -999.2500       4.4699       2.0343       4.4696
   1751.0758      13.2220      22.1430      -0.0080    -999.2500      49.8000    -999.2500      28.3880      13.4540      17.3880       0.1275       3.5560       0.0100       2.5540    -999.2500       4.7110       2.4950       4.7110
   1751.2281      13.2615      22.1156      -0.0125    -999.2500      50.5215    -999.2500      24.9649      14.0730      31.3317       0.1108       3.5560       0.0105       2.5860    -999.2500       4.9695       2.4586       4.9691
   1751.3806      13.3010      22.0880      -0.0170    -999.2500      51.2430    -999.2500      21.5500      14.6920      45.2420       0.0981       3.5560       0.0110       2.6180    -999.2500       5.2280       2.4220       5.2280
   1751.5330      13.3565      16.2483      -0.0110    -999.2500      54.7843    -999.2500      23.8295      20.5116      41.3430       0.0950       3.9125       0.0085       2.6340    -999.2500       5.1150       2.1943       5.1151
   1751.6854      13.4120      10.3890      -0.0050    -999.2500      58.3260    -999.2500      26.1020      26.3320      37.4560       0.0958       4.2680       0.0060       2.6500    -999.2500       5.0020       1.9660       5.0020
   1751.8378      13.4680       7.1172      -0.0025    -999.2500      45.7746    -999.2500      33.6947      32.0903      37.5021       0.0950       4.5234       0.0030       2.6380    -999.2500       4.7910       1.7892       4.7912
   1751.9902      13.5240       3.8340       0.0000    -999.2500      33.2200    -999.2500      41.2650      37.8500      37.5480       0.0958       4.7780       0.0000       2.6260    -999.2500       4.5800       1.6120       4.5800
   1752.1426      13.5400       5.9542      -0.0030    -999.2500      34.7927    -999.2500      51.4919      42.3171      35.4325       0.1017       4.6188       0.0005       2.6185    -999.2500       4.3320       1.8408       4.3322
