#------------------------------------------------------------------------------
#
#   Created by  : [OpenWorks] Log Export Utility (LEXP)
#   Created on  : 2016-05-23 17:52:12
#   Project     : CANT971
#   User        : R5K
#   Interpreter : PEP
#
#------------------------------------------------------------------------------
~VERSION INFORMATION
VERS. 2.0 : CWLS Log ASCII Standard - version 2.0
WRAP.  NO : One line per depth step
~WELL INFORMATION
#MNEMONIC   .UNIT                                           VALUE :DESCRIPTION
#------------------------------------------------------------------------------
STRT        .M                                           472.1350 :START DEPTH
STOP        .M                                          2749.2959 :STOP DEPTH
STEP        .M                                             0.1524 :STEP
NULL        .                                           -999.2500 :NULL VALUE
COMP        .                                   PEMEX EXPL & PROD :COMPANY
WELL        .                                                1082 :WELL
FLD         .                                           CANTARELL :FIELD
LOC         .                                             UNKNOWN :LOCATION
CNTY        .                                      CD. DEL CARMEN :COUNTY
STAT        .                                            CAMPECHE :STATE
CTRY        .                                              MEXICO :COUNTRY
SRVC        .                                             UNKNOWN :SERVICE COMPANY
DATE        .                                             UNKNOWN :LOG DATE
UWI         .                                          3060000508 :UNIQUE WELL ID
XCOORD      .                                       598501.860000 :SURFACE X
YCOORD      .                                      2149269.250000 :SURFACE Y
LAT         .                                           19.436526 :LATITUDE
LON         .                                          -92.061687 :LONGITUDE
ELEV        .M                                            27.6000 :SURFACE ELEV
ELEV_TYPE   .                                                  KB :ELEV TYPE
~CURVE INFORMATION
#MNEMONIC.UNIT        API CODE       : CURVE DESCRIPTION
#------------------------------------------------------------------------------
DEPTH    .M                          : Measured Depth
CALI     .inches      UNKNOWN        : CALI:registros:rC:NONE:v0 (auto-composite)
CGR      .API         UNKNOWN        : CGR:registros:rC:NONE:v0 (auto-composite)
DRHO     .g/cm3       UNKNOWN        : DRHO:registros:rC:NONE:v0 (auto-composite)
DT       .us/ft       UNKNOWN        : DT:registros:rC:NONE:v0 (auto-composite)
GR       .API         UNKNOWN        : GR:registros:rC:NONE:v0 (auto-composite)
ILD      .ohm.m       UNKNOWN        : ILD:registros:rC:NONE:v0 (auto-composite)
LLD      .ohm.m       UNKNOWN        : LLD:registros:rC:NONE:v0 (auto-composite)
LLS      .ohm.m       UNKNOWN        : LLS:registros:rC:NONE:v0 (auto-composite)
MSFL     .ohm.m       UNKNOWN        : MSFL:registros:rC:NONE:v0 (auto-composite)
NPHI     .UNKNOWN     UNKNOWN        : NPHI:registros:rC:NONE:v0 (auto-composite)
PEF      .UNKNOWN     UNKNOWN        : PEF:registros:rC:NONE:v0 (auto-composite)
POTA     .UNKNOWN     UNKNOWN        : POTA:registros:rC:NONE:v0 (auto-composite)
RHOB     .g/cm3       UNKNOWN        : RHOB:registros:rC:NONE:v0 (auto-composite)
SIGM     .UNKNOWN     UNKNOWN        : SIGM:registros:rC:NONE:v0 (auto-composite)
SP       .mV          UNKNOWN        : SP:registros:rC:NONE:v0 (auto-composite)
THOR     .ppm         UNKNOWN        : THOR:registros:rC:NONE:v0 (auto-composite)
URAN     .ppm         UNKNOWN        : URAN:registros:rC:NONE:v0 (auto-composite)
~A     DEPTH         CALI          CGR         DRHO           DT           GR          ILD          LLD          LLS         MSFL         NPHI          PEF         POTA         RHOB         SIGM           SP         THOR         URAN
# ...
   2109.6731       9.6240    -999.2500       0.0345      59.4069      48.5222    -999.2500      83.7613      61.7232      89.0438       0.0764       2.9264    -999.2500       2.6390    -999.2500    -999.2500    -999.2500    -999.2500
   2109.8254       9.6230    -999.2500       0.0190      60.4160      61.5030    -999.2500      95.5840      58.5730     162.9830       0.0695       2.8420    -999.2500       2.6000    -999.2500    -999.2500    -999.2500    -999.2500
   2109.9778       9.6230    -999.2500       0.0330      60.4160      66.3040    -999.2500      80.1950      48.7175      87.2920       0.0760       2.8420    -999.2500       2.6495    -999.2500    -999.2500    -999.2500    -999.2500
   2110.1301       9.6230    -999.2500       0.0470      60.4160      71.1110    -999.2500      64.8850      38.8970      11.9900       0.0828       2.8420    -999.2500       2.6990    -999.2500    -999.2500    -999.2500    -999.2500
   2110.2827       9.6080    -999.2500       0.0390      60.0934      66.3103    -999.2500      81.3363      51.1880      91.9652       0.0799       3.1418    -999.2500       2.6795    -999.2500    -999.2500    -999.2500    -999.2500
   2110.4351       9.5930    -999.2500       0.0310      59.7720      61.5030    -999.2500      97.7050      63.4370     171.5390       0.0765       3.4410    -999.2500       2.6600    -999.2500    -999.2500    -999.2500    -999.2500
   2110.5874       9.5930    -999.2500       0.0310      58.4764      52.9799    -999.2500      86.6505      56.8266     171.5390       0.0762       3.4410    -999.2500       2.6790    -999.2500    -999.2500    -999.2500    -999.2500
   2110.7397       9.5930    -999.2500       0.0310      57.1850      44.4440    -999.2500      75.6500      50.2380     171.5390       0.0755       3.4410    -999.2500       2.6980    -999.2500    -999.2500    -999.2500    -999.2500
   2110.8921       9.5690    -999.2500       0.0170      58.4806      57.7162    -999.2500      86.7039      51.5586      99.9057       0.0679       3.3104    -999.2500       2.7095    -999.2500    -999.2500    -999.2500    -999.2500
   2111.0447       9.5450    -999.2500       0.0030      59.7720      71.0100    -999.2500      97.7050      52.8750      28.6140       0.0602       3.1800    -999.2500       2.7210    -999.2500    -999.2500    -999.2500    -999.2500
   2111.1970       9.5070    -999.2500       0.0030      58.4936      57.8830    -999.2500      86.6519      52.1604      84.3307       0.0596       3.1800    -999.2500       2.7110    -999.2500    -999.2500    -999.2500    -999.2500
   2111.3494       9.4690    -999.2500       0.0030      57.2190      44.7540    -999.2500      75.6500      51.4480     139.7890       0.0604       3.1800    -999.2500       2.7010    -999.2500    -999.2500    -999.2500    -999.2500
   2111.5017       9.5070    -999.2500       0.0255      57.3272      46.6622    -999.2500      82.3737      63.7520      84.0756       0.0698       3.4162    -999.2500       2.7110    -999.2500    -999.2500    -999.2500    -999.2500
   2111.6543       9.5450    -999.2500       0.0480      57.4350      48.5710    -999.2500      89.0670      76.0200      28.6140       0.0793       3.6520    -999.2500       2.7210    -999.2500    -999.2500    -999.2500    -999.2500
   2111.8066       9.5090    -999.2500       0.0480      57.4350      48.5710    -999.2500      89.0670      76.0200      82.3013       0.0801       3.6520    -999.2500       2.7090    -999.2500    -999.2500    -999.2500    -999.2500
   2111.9590       9.4730    -999.2500       0.0480      57.4350      48.5710    -999.2500      89.0670      76.0200     135.7530       0.0794       3.6520    -999.2500       2.6970    -999.2500    -999.2500    -999.2500    -999.2500
   2112.1113       9.5375    -999.2500       0.0440      58.4954      44.1782    -999.2500     105.3563     123.8433      97.0805       0.0718       3.3188    -999.2500       2.7080    -999.2500    -999.2500    -999.2500    -999.2500
   2112.2639       9.6020    -999.2500       0.0400      59.5530      39.7830    -999.2500     121.5760     171.5390      58.5730       0.0643       2.9860    -999.2500       2.7190    -999.2500    -999.2500    -999.2500    -999.2500
   2112.4163       9.5645    -999.2500       0.0380      64.1614      37.1144    -999.2500     173.3607     170.2484     110.8863       0.0655       3.0005    -999.2500       2.7160    -999.2500    -999.2500    -999.2500    -999.2500
   2112.5686       9.5270    -999.2500       0.0360      68.7580      34.4440    -999.2500     224.9310     168.9610     162.9830       0.0697       3.0150    -999.2500       2.7130    -999.2500    -999.2500    -999.2500    -999.2500
   2112.7209       9.5020    -999.2500       0.0305      68.7470      34.5545    -999.2500     241.6541     154.3573     135.5534       0.0956       3.2946    -999.2500       2.6850    -999.2500    -999.2500    -999.2500    -999.2500
   2112.8733       9.4770    -999.2500       0.0250      68.7360      34.6650    -999.2500     258.3100     139.7890     108.2340       0.1197       3.5740    -999.2500       2.6570    -999.2500    -999.2500    -999.2500    -999.2500
   2113.0259       9.4925    -999.2500       0.0205      66.3709      36.2828    -999.2500     257.6427     139.7890     124.0422       0.1060       3.5615    -999.2500       2.6235    -999.2500    -999.2500    -999.2500    -999.2500
   2113.1782       9.5080    -999.2500       0.0160      64.0150      37.9020    -999.2500     256.9780     139.7890     139.7890       0.0902       3.5490    -999.2500       2.5900    -999.2500    -999.2500    -999.2500    -999.2500
   2113.3306       9.4885    -999.2500       0.0400      64.0150      37.9020    -999.2500     256.9780     139.7890     139.7890       0.0923       3.2842    -999.2500       2.5900    -999.2500    -999.2500    -999.2500    -999.2500
   2113.4829       9.4690    -999.2500       0.0640      64.0150      37.9020    -999.2500     256.9780     139.7890     139.7890       0.0955       3.0200    -999.2500       2.5900    -999.2500    -999.2500    -999.2500    -999.2500
   2113.6355       9.5040    -999.2500       0.0400      66.6593      46.7239    -999.2500     206.8848     107.9967      81.4006       0.0923       3.2848    -999.2500       2.6260    -999.2500    -999.2500    -999.2500    -999.2500
   2113.7878       9.5390    -999.2500       0.0160      69.2940      55.5560    -999.2500     157.0540      76.3200      23.3180       0.0900       3.5490    -999.2500       2.6620    -999.2500    -999.2500    -999.2500    -999.2500
   2113.9402       9.5080    -999.2500       0.0200      68.3318      55.5560    -999.2500     157.0540      63.2560      65.8847       0.1035       3.2732    -999.2500       2.6620    -999.2500    -999.2500    -999.2500    -999.2500
   2114.0925       9.4770    -999.2500       0.0240      67.3730      55.5560    -999.2500     157.0540      50.2380     108.2340       0.1162       2.9980    -999.2500       2.6620    -999.2500    -999.2500    -999.2500    -999.2500
   2114.2451       9.5705    -999.2500       0.0175      68.3351      54.1775    -999.2500     127.0407      63.3011      65.6699       0.1062       3.1271    -999.2500       2.6220    -999.2500    -999.2500    -999.2500    -999.2500
   2114.3975       9.6640    -999.2500       0.0110      69.2940      52.7970    -999.2500      97.1770      76.3200      23.3180       0.0956       3.2560    -999.2500       2.5820    -999.2500    -999.2500    -999.2500    -999.2500
   2114.5498       9.6640    -999.2500       0.0245      68.3354      40.2971    -999.2500      97.1770      63.2577      56.9998       0.1025       3.4326    -999.2500       2.6115    -999.2500    -999.2500    -999.2500    -999.2500
   2114.7021       9.6640    -999.2500       0.0380      67.3800      27.7780    -999.2500      97.1770      50.2380      90.5180       0.1109       3.6090    -999.2500       2.6410    -999.2500    -999.2500    -999.2500    -999.2500
   2114.8545       9.5780    -999.2500       0.0245      67.9524      40.2771    -999.2500      86.3879      49.4157      52.7325       0.1154       3.3143    -999.2500       2.6115    -999.2500    -999.2500    -999.2500    -999.2500
