#------------------------------------------------------------------------------
#
#   Created by  : [OpenWorks] Log Export Utility (LEXP)
#   Created on  : 2016-05-23 17:52:12
#   Project     : CANT971
#   User        : R5K
#   Interpreter : PEP
#
#------------------------------------------------------------------------------
~VERSION INFORMATION
VERS. 2.0 : CWLS Log ASCII Standard - version 2.0
WRAP.  NO : One line per depth step
~WELL INFORMATION
#MNEMONIC   .UNIT                                           VALUE :DESCRIPTION
#------------------------------------------------------------------------------
STRT        .M                                           472.1350 :START DEPTH
STOP        .M                                          2749.2959 :STOP DEPTH
STEP        .M                                             0.1524 :STEP
NULL        .                                           -999.2500 :NULL VALUE
COMP        .                                   PEMEX EXPL & PROD :COMPANY
WELL        .                                                1082 :WELL
FLD         .                                           CANTARELL :FIELD
LOC         .                                             UNKNOWN :LOCATION
CNTY        .                                      CD. DEL CARMEN :COUNTY
STAT        .                                            CAMPECHE :STATE
CTRY        .                                              MEXICO :COUNTRY
SRVC        .                                             UNKNOWN :SERVICE COMPANY
DATE        .                                             UNKNOWN :LOG DATE
UWI         .                                          3060000508 :UNIQUE WELL ID
XCOORD      .                                       598501.860000 :SURFACE X
YCOORD      .                                      2149269.250000 :SURFACE Y
LAT         .                                           19.436526 :LATITUDE
LON         .                                          -92.061687 :LONGITUDE
ELEV        .M                                            27.6000 :SURFACE ELEV
ELEV_TYPE   .                                                  KB :ELEV TYPE
~CURVE INFORMATION
#MNEMONIC.UNIT        API CODE       : CURVE DESCRIPTION
#------------------------------------------------------------------------------
DEPTH    .M                          : Measured Depth
CALI     .inches      UNKNOWN        : CALI:registros:rC:NONE:v0 (auto-composite)
CGR      .API         UNKNOWN        : CGR:registros:rC:NONE:v0 (auto-composite)
DRHO     .g/cm3       UNKNOWN        : DRHO:registros:rC:NONE:v0 (auto-composite)
DT       .us/ft       UNKNOWN        : DT:registros:rC:NONE:v0 (auto-composite)
GR       .API         UNKNOWN        : GR:registros:rC:NONE:v0 (auto-composite)
ILD      .ohm.m       UNKNOWN        : ILD:registros:rC:NONE:v0 (auto-composite)
LLD      .ohm.m       UNKNOWN        : LLD:registros:rC:NONE:v0 (auto-composite)
LLS      .ohm.m       UNKNOWN        : LLS:registros:rC:NONE:v0 (auto-composite)
MSFL     .ohm.m       UNKNOWN        : MSFL:registros:rC:NONE:v0 (auto-composite)
NPHI     .UNKNOWN     UNKNOWN        : NPHI:registros:rC:NONE:v0 (auto-composite)
PEF      .UNKNOWN     UNKNOWN        : PEF:registros:rC:NONE:v0 (auto-composite)
POTA     .UNKNOWN     UNKNOWN        : POTA:registros:rC:NONE:v0 (auto-composite)
RHOB     .g/cm3       UNKNOWN        : RHOB:registros:rC:NONE:v0 (auto-composite)
SIGM     .UNKNOWN     UNKNOWN        : SIGM:registros:rC:NONE:v0 (auto-composite)
SP       .mV          UNKNOWN        : SP:registros:rC:NONE:v0 (auto-composite)
THOR     .ppm         UNKNOWN        : THOR:registros:rC:NONE:v0 (auto-composite)
URAN     .ppm         UNKNOWN        : URAN:registros:rC:NONE:v0 (auto-composite)
~A     DEPTH         CALI          CGR         DRHO           DT           GR          ILD          LLD          LLS         MSFL         NPHI          PEF         POTA         RHOB         SIGM           SP         THOR         URAN
# ...
   2744.4189       7.4380       0.0000       0.2060       0.0000     123.2980    -999.2500    -999.2500    -999.2500    -999.2500       0.2436       2.4910       0.0000       2.2430    -999.2500       0.0000       0.0000       0.0000
   2744.5713       7.3281       0.0000       0.2185       0.0000     123.2980    -999.2500    -999.2500    -999.2500    -999.2500       0.2430       2.4550       0.0000       2.2805    -999.2500       0.0000       0.0000       0.0000
   2744.7239       7.2180       0.0000       0.2310       0.0000     123.2980    -999.2500    -999.2500    -999.2500    -999.2500       0.2428       2.4190       0.0000       2.3180    -999.2500       0.0000       0.0000       0.0000
   2744.8762       6.9253       0.0000       0.2595       0.0000     123.2980    -999.2500    -999.2500    -999.2500    -999.2500       0.2465       2.3496       0.0000       2.3310    -999.2500       0.0000       0.0000       0.0000
   2745.0286       6.6320       0.0000       0.2880       0.0000     123.2980    -999.2500    -999.2500    -999.2500    -999.2500       0.2506       2.2800       0.0000       2.3440    -999.2500       0.0000       0.0000       0.0000
   2745.1809       6.4037       0.0000       0.2920       0.0000     123.2980    -999.2500    -999.2500    -999.2500    -999.2500       0.2530       2.4858       0.0000       2.3994    -999.2500       0.0000       0.0000       0.0000
   2745.3335       6.1750       0.0000       0.2960       0.0000     123.2980    -999.2500    -999.2500    -999.2500    -999.2500       0.2552       2.6920       0.0000       2.4550    -999.2500       0.0000       0.0000       0.0000
   2745.4858       5.8451       0.0000       0.2645       0.0000     123.2980    -999.2500    -999.2500    -999.2500    -999.2500       0.2580       2.7595       0.0000       2.3845    -999.2500       0.0000       0.0000       0.0000
   2745.6382       5.5150       0.0000       0.2330       0.0000     123.2980    -999.2500    -999.2500    -999.2500    -999.2500       0.2607       2.8270       0.0000       2.3140    -999.2500       0.0000       0.0000       0.0000
   2745.7905       5.4080       0.0000       0.2085       0.0000     123.2980    -999.2500    -999.2500    -999.2500    -999.2500       0.2620       2.7150       0.0000       2.2210    -999.2500       0.0000       0.0000       0.0000
   2745.9431       5.3010       0.0000       0.1840       0.0000     123.2980    -999.2500    -999.2500    -999.2500    -999.2500       0.2625       2.6030       0.0000       2.1280    -999.2500       0.0000       0.0000       0.0000
   2746.0955       5.5679       0.0000       0.1980       0.0000     123.2980    -999.2500    -999.2500    -999.2500    -999.2500       0.2605       2.5610       0.0000       2.1985    -999.2500       0.0000       0.0000       0.0000
   2746.2478       5.8350       0.0000       0.2120       0.0000     123.2980    -999.2500    -999.2500    -999.2500    -999.2500       0.2583       2.5190       0.0000       2.2690    -999.2500       0.0000       0.0000       0.0000
   2746.4001       5.9230       0.0000       0.1825       0.0000     123.2980    -999.2500    -999.2500    -999.2500    -999.2500       0.2575       2.6115       0.0000       2.4089    -999.2500       0.0000       0.0000       0.0000
   2746.5525       6.0110       0.0000       0.1530       0.0000     123.2980    -999.2500    -999.2500    -999.2500    -999.2500       0.2571       2.7040       0.0000       2.5490    -999.2500       0.0000       0.0000       0.0000
   2746.7051       5.9535       0.0000       0.0880       0.0000     123.2980    -999.2500    -999.2500    -999.2500    -999.2500       0.2575       2.6675       0.0000       2.5000    -999.2500       0.0000       0.0000       0.0000
   2746.8574       5.8960       0.0000       0.0230       0.0000     123.2980    -999.2500    -999.2500    -999.2500    -999.2500       0.2579       2.6310       0.0000       2.4510    -999.2500       0.0000       0.0000       0.0000
   2747.0098       5.8660       0.0000       0.0365       0.0000     123.2980    -999.2500    -999.2500    -999.2500    -999.2500       0.2580       2.6200       0.0000       2.4470    -999.2500       0.0000       0.0000       0.0000
   2747.1621       5.8360       0.0000       0.0500       0.0000     123.2980    -999.2500    -999.2500    -999.2500    -999.2500       0.2582       2.6090       0.0000       2.4430    -999.2500       0.0000       0.0000       0.0000
   2747.3147       5.6786       0.0000       0.0630       0.0000     123.2980    -999.2500    -999.2500    -999.2500    -999.2500       0.2595       2.5865       0.0000       2.4135    -999.2500       0.0000       0.0000       0.0000
   2747.4670       5.5210       0.0000       0.0760       0.0000     123.2980    -999.2500    -999.2500    -999.2500    -999.2500       0.2609       2.5640       0.0000       2.3840    -999.2500       0.0000       0.0000       0.0000
   2747.6194       5.4106       0.0000       0.0865       0.0000     123.2980    -999.2500    -999.2500    -999.2500    -999.2500       0.2620       2.7609       0.0000       2.4120    -999.2500       0.0000       0.0000       0.0000
   2747.7717       5.3000       0.0000       0.0970       0.0000     123.2980    -999.2500    -999.2500    -999.2500    -999.2500       0.2629       2.9580       0.0000       2.4400    -999.2500       0.0000       0.0000       0.0000
   2747.9243       5.2635       0.0000       0.1150       0.0000     123.2980    -999.2500    -999.2500    -999.2500    -999.2500       0.2635       3.1219       0.0000       2.4920    -999.2500       0.0000       0.0000       0.0000
   2748.0767       5.2270       0.0000       0.1330       0.0000     123.2980    -999.2500    -999.2500    -999.2500    -999.2500       0.2643       3.2860       0.0000       2.5440    -999.2500       0.0000       0.0000       0.0000
   2748.2290       4.9472       0.0000       0.1425       0.0000     123.2980    -999.2500    -999.2500    -999.2500    -999.2500       0.2665       3.3819       0.0000       2.6000    -999.2500       0.0000       0.0000       0.0000
   2748.3813       4.6670       0.0000       0.1520       0.0000     123.2980    -999.2500    -999.2500    -999.2500    -999.2500       0.2688       3.4780       0.0000       2.6560    -999.2500       0.0000       0.0000       0.0000
   2748.5337       4.5616       0.0000       0.1550       0.0000     123.2980    -999.2500    -999.2500    -999.2500    -999.2500       0.2700       3.4765       0.0000       2.6735    -999.2500       0.0000       0.0000       0.0000
   2748.6863       4.4560       0.0000       0.1580       0.0000     123.2980    -999.2500    -999.2500    -999.2500    -999.2500       0.2709       3.4750       0.0000       2.6910    -999.2500       0.0000       0.0000       0.0000
   2748.8386       4.4560       0.0000       0.1515       0.0000     123.2980    -999.2500    -999.2500    -999.2500    -999.2500       0.2710       3.4750       0.0000       2.6850    -999.2500       0.0000       0.0000       0.0000
   2748.9910       4.4560       0.0000       0.1450       0.0000     123.2980    -999.2500    -999.2500    -999.2500    -999.2500       0.2710       3.4750       0.0000       2.6790    -999.2500       0.0000       0.0000       0.0000
   2749.1433       4.4560       0.0000       0.1510       0.0000     123.2980    -999.2500    -999.2500    -999.2500    -999.2500       0.2710       3.4750       0.0000       2.6845    -999.2500       0.0000       0.0000       0.0000
   2749.2959       4.4560       0.0000       0.1570       0.0000     123.2980    -999.2500    -999.2500    -999.2500    -999.2500    -999.2500       3.4750       0.0000       2.6900    -999.2500       0.0000       0.0000       0.0000
