#------------------------------------------------------------------------------
#
#   Created by  : [OpenWorks] Log Export Utility (LEXP)
#   Created on  : 2016-05-23 17:52:12
#   Project     : CANT971
#   User        : R5K
#   Interpreter : PEP
#
#------------------------------------------------------------------------------
~VERSION INFORMATION
VERS. 2.0 : CWLS Log ASCII Standard - version 2.0
WRAP.  NO : One line per depth step
~WELL INFORMATION
#MNEMONIC   .UNIT                                           VALUE :DESCRIPTION
#------------------------------------------------------------------------------
STRT        .M                                           472.1350 :START DEPTH
STOP        .M                                          2749.2959 :STOP DEPTH
STEP        .M                                             0.1524 :STEP
NULL        .                                           -999.2500 :NULL VALUE
COMP        .                                   PEMEX EXPL & PROD :COMPANY
WELL        .                                                1082 :WELL
FLD         .                                           CANTARELL :FIELD
LOC         .                                             UNKNOWN :LOCATION
CNTY        .                                      CD. DEL CARMEN :COUNTY
STAT        .                                            CAMPECHE :STATE
CTRY        .                                              MEXICO :COUNTRY
SRVC        .                                             UNKNOWN :SERVICE COMPANY
DATE        .                                             UNKNOWN :LOG DATE
UWI         .                                          3060000508 :UNIQUE WELL ID
XCOORD      .                                       598501.860000 :SURFACE X
YCOORD      .                                      2149269.250000 :SURFACE Y
LAT         .                                           19.436526 :LATITUDE
LON         .                                          -92.061687 :LONGITUDE
ELEV        .M                                            27.6000 :SURFACE ELEV
ELEV_TYPE   .                                                  KB :ELEV TYPE
~CURVE INFORMATION
#MNEMONIC.UNIT        API CODE       : CURVE DESCRIPTION
#------------------------------------------------------------------------------
DEPTH    .M                          : Measured Depth
CALI     .inches      UNKNOWN        : CALI:registros:rC:NONE:v0 (auto-composite)
CGR      .API         UNKNOWN        : CGR:registros:rC:NONE:v0 (auto-composite)
DRHO     .g/cm3       UNKNOWN        : DRHO:registros:rC:NONE:v0 (auto-composite)
DT       .us/ft       UNKNOWN        : DT:registros:rC:NONE:v0 (auto-composite)
GR       .API         UNKNOWN        : GR:registros:rC:NONE:v0 (auto-composite)
ILD      .ohm.m       UNKNOWN        : ILD:registros:rC:NONE:v0 (auto-composite)
LLD      .ohm.m       UNKNOWN        : LLD:registros:rC:NONE:v0 (auto-composite)
LLS      .ohm.m       UNKNOWN        : LLS:registros:rC:NONE:v0 (auto-composite)
MSFL     .ohm.m       UNKNOWN        : MSFL:registros:rC:NONE:v0 (auto-composite)
NPHI     .UNKNOWN     UNKNOWN        : NPHI:registros:rC:NONE:v0 (auto-composite)
PEF      .UNKNOWN     UNKNOWN        : PEF:registros:rC:NONE:v0 (auto-composite)
POTA     .UNKNOWN     UNKNOWN        : POTA:registros:rC:NONE:v0 (auto-composite)
RHOB     .g/cm3       UNKNOWN        : RHOB:registros:rC:NONE:v0 (auto-composite)
SIGM     .UNKNOWN     UNKNOWN        : SIGM:registros:rC:NONE:v0 (auto-composite)
SP       .mV          UNKNOWN        : SP:registros:rC:NONE:v0 (auto-composite)
THOR     .ppm         UNKNOWN        : THOR:registros:rC:NONE:v0 (auto-composite)
URAN     .ppm         UNKNOWN        : URAN:registros:rC:NONE:v0 (auto-composite)
~A     DEPTH         CALI          CGR         DRHO           DT           GR          ILD          LLD          LLS         MSFL         NPHI          PEF         POTA         RHOB         SIGM           SP         THOR         URAN
# ...
   1928.3170      12.2946    -999.2500       0.0390      78.9701     133.4366    -999.2500     333.8780     218.1481      26.3636       0.1719       3.4333    -999.2500       2.5720    -999.2500    -999.2500    -999.2500    -999.2500
   1928.4694      12.6020    -999.2500       0.0370      79.2960     139.9500    -999.2500     354.2540     221.5510      21.0500       0.1738       3.6620    -999.2500       2.5500    -999.2500    -999.2500    -999.2500    -999.2500
   1928.6218      12.5745    -999.2500       0.0210      80.4617     144.9724    -999.2500     403.9755     216.0195      22.1861       0.1880       3.6149    -999.2500       2.4860    -999.2500    -999.2500    -999.2500    -999.2500
   1928.7742      12.5470    -999.2500       0.0050      81.6220     150.0000    -999.2500     453.5090     210.5000      23.3180       0.2017       3.5680    -999.2500       2.4220    -999.2500    -999.2500    -999.2500    -999.2500
   1928.9266      12.5860    -999.2500       0.0080      81.1999     144.7585    -999.2500     411.4626     214.8275      18.6399       0.2020       3.3543    -999.2500       2.4315    -999.2500    -999.2500    -999.2500    -999.2500
   1929.0790      12.6250    -999.2500       0.0110      80.7800     139.5110    -999.2500     369.5700     219.1460      13.9790       0.1966       3.1410    -999.2500       2.4410    -999.2500    -999.2500    -999.2500    -999.2500
   1929.2314      12.5585    -999.2500       0.0105      78.8611     126.1700    -999.2500     373.3452     226.1713      18.0742       0.1886       3.2581    -999.2500       2.5010    -999.2500    -999.2500    -999.2500    -999.2500
   1929.3838      12.4920    -999.2500       0.0100      76.9520     112.8120    -999.2500     377.1070     233.1830      22.1550       0.1804       3.3750    -999.2500       2.5610    -999.2500    -999.2500    -999.2500    -999.2500
   1929.5363      12.7460    -999.2500       0.0140      74.8247     101.4494    -999.2500     393.2780     230.8434      21.5009       0.1741       3.3505    -999.2500       2.5575    -999.2500    -999.2500    -999.2500    -999.2500
   1929.6886      13.0000    -999.2500       0.0180      72.7080      90.0710    -999.2500     409.3940     228.5080      20.8490       0.1684       3.3260    -999.2500       2.5540    -999.2500    -999.2500    -999.2500    -999.2500
   1929.8411      12.9845    -999.2500       0.0285      72.3767      73.9303    -999.2500     405.2712     219.4964      16.7272       0.1625       3.2109    -999.2500       2.5450    -999.2500    -999.2500    -999.2500    -999.2500
   1929.9934      12.9690    -999.2500       0.0390      72.0470      57.7780    -999.2500     401.1620     210.5000      12.6190       0.1563       3.0960    -999.2500       2.5360    -999.2500    -999.2500    -999.2500    -999.2500
   1930.1458      12.6369    -999.2500       0.0380      71.7799      63.0864    -999.2500     385.3410     210.5000      13.7378       0.1491       3.1055    -999.2500       2.5210    -999.2500    -999.2500    -999.2500    -999.2500
   1930.2982      12.3050    -999.2500       0.0370      71.5140      68.3950    -999.2500     369.5700     210.5000      14.8530       0.1436       3.1150    -999.2500       2.5060    -999.2500    -999.2500    -999.2500    -999.2500
   1930.4506      12.3280    -999.2500       0.0185      69.8191      88.6208    -999.2500     369.5700     210.5000      24.1215       0.1437       3.1400    -999.2500       2.5285    -999.2500    -999.2500    -999.2500    -999.2500
   1930.6030      12.3510    -999.2500       0.0000      68.1320     108.8500    -999.2500     369.5700     210.5000      33.3620       0.1477       3.1650    -999.2500       2.5510    -999.2500    -999.2500    -999.2500    -999.2500
   1930.7554      12.4791    -999.2500       0.0000      68.2598     129.2030    -999.2500     369.5700     210.5000      29.7197       0.1571       3.3933    -999.2500       2.5425    -999.2500    -999.2500    -999.2500    -999.2500
   1930.9078      12.6070    -999.2500       0.0000      68.3870     149.5620    -999.2500     369.5700     210.5000      26.0880       0.1725       3.6210    -999.2500       2.5340    -999.2500    -999.2500    -999.2500    -999.2500
   1931.0602      12.9052    -999.2500      -0.0010      69.4929     155.3353    -999.2500     369.5700     210.5000      17.9181       0.1987       3.5399    -999.2500       2.4740    -999.2500    -999.2500    -999.2500    -999.2500
   1931.2126      13.2030    -999.2500      -0.0020      70.5940     161.1110    -999.2500     369.5700     210.5000       9.7710       0.2198       3.4590    -999.2500       2.4140    -999.2500    -999.2500    -999.2500    -999.2500
   1931.3650      13.0544    -999.2500       0.0020      72.1904     159.9923    -999.2500     369.5700     210.5000      10.6485       0.2161       3.2723    -999.2500       2.4355    -999.2500    -999.2500    -999.2500    -999.2500
   1931.5175      12.9060    -999.2500       0.0060      73.7800     158.8730    -999.2500     369.5700     210.5000      11.5230       0.2063       3.0860    -999.2500       2.4570    -999.2500    -999.2500    -999.2500    -999.2500
   1931.6698      12.9455    -999.2500       0.0020      74.2986     132.7787    -999.2500     373.4390     217.2401      19.3712       0.2051       3.1406    -999.2500       2.4545    -999.2500    -999.2500    -999.2500    -999.2500
   1931.8223      12.9850    -999.2500      -0.0020      74.8150     106.6670    -999.2500     377.2920     223.9740      27.1870       0.2060       3.1950    -999.2500       2.4520    -999.2500    -999.2500    -999.2500    -999.2500
   1931.9746      13.0590    -999.2500       0.0045      75.5024     109.4434    -999.2500     415.4769     241.1489      23.0863       0.2043       3.1870    -999.2500       2.4240    -999.2500    -999.2500    -999.2500    -999.2500
   1932.1270      13.1330    -999.2500       0.0110      76.1870     112.2220    -999.2500     453.5090     258.3100      19.0020       0.1990       3.1790    -999.2500       2.3960    -999.2500    -999.2500    -999.2500    -999.2500
   1932.2794      13.2345    -999.2500       0.0110      75.3844     111.0945    -999.2500     444.2586     255.6515      20.0280       0.1873       3.1640    -999.2500       2.4195    -999.2500    -999.2500    -999.2500    -999.2500
   1932.4318      13.3360    -999.2500       0.0110      74.5850     109.9660    -999.2500     435.0440     252.9970      21.0500       0.1712       3.1490    -999.2500       2.4430    -999.2500    -999.2500    -999.2500    -999.2500
   1932.5842      13.0779    -999.2500       0.0135      73.0485     103.7932    -999.2500     390.6948     230.3386      20.4108       0.1499       3.0764    -999.2500       2.5055    -999.2500    -999.2500    -999.2500    -999.2500
   1932.7366      12.8200    -999.2500       0.0160      71.5190      97.6140    -999.2500     346.5120     207.7290      19.7740       0.1267       3.0040    -999.2500       2.5680    -999.2500    -999.2500    -999.2500    -999.2500
   1932.8890      12.8250    -999.2500       0.0155      69.7018      82.1496    -999.2500     295.6072     174.2275      18.5423       0.1038       3.0716    -999.2500       2.6500    -999.2500    -999.2500    -999.2500    -999.2500
   1933.0414      12.8300    -999.2500       0.0150      67.8940      66.6670    -999.2500     244.8870     140.7940      17.3150       0.0884       3.1390    -999.2500       2.7320    -999.2500    -999.2500    -999.2500    -999.2500
   1933.1938      12.8655    -999.2500       0.0120      68.0093      74.4395    -999.2500     221.2356     122.7553      13.7933       0.0922       3.2651    -999.2500       2.7055    -999.2500    -999.2500    -999.2500    -999.2500
   1933.3462      12.9010    -999.2500       0.0090      68.1240      82.2220    -999.2500     197.6670     104.7510      10.2840       0.1044       3.3910    -999.2500       2.6790    -999.2500    -999.2500    -999.2500    -999.2500
   1933.4987      13.0015    -999.2500       0.0215      68.8232      81.0813    -999.2500     187.2099      97.8193      12.8889       0.1195       3.4786    -999.2500       2.6315    -999.2500    -999.2500    -999.2500    -999.2500
