#------------------------------------------------------------------------------
#
#   Created by  : [OpenWorks] Log Export Utility (LEXP)
#   Created on  : 2016-05-23 17:52:12
#   Project     : CANT971
#   User        : R5K
#   Interpreter : PEP
#
#------------------------------------------------------------------------------
~VERSION INFORMATION
VERS. 2.0 : CWLS Log ASCII Standard - version 2.0
WRAP.  NO : One line per depth step
~WELL INFORMATION
#MNEMONIC   .UNIT                                           VALUE :DESCRIPTION
#------------------------------------------------------------------------------
STRT        .M                                           472.1350 :START DEPTH
STOP        .M                                          2749.2959 :STOP DEPTH
STEP        .M                                             0.1524 :STEP
NULL        .                                           -999.2500 :NULL VALUE
COMP        .                                   PEMEX EXPL & PROD :COMPANY
WELL        .                                                1082 :WELL
FLD         .                                           CANTARELL :FIELD
LOC         .                                             UNKNOWN :LOCATION
CNTY        .                                      CD. DEL CARMEN :COUNTY
STAT        .                                            CAMPECHE :STATE
CTRY        .                                              MEXICO :COUNTRY
SRVC        .                                             UNKNOWN :SERVICE COMPANY
DATE        .                                             UNKNOWN :LOG DATE
UWI         .                                          3060000508 :UNIQUE WELL ID
XCOORD      .                                       598501.860000 :SURFACE X
YCOORD      .                                      2149269.250000 :SURFACE Y
LAT         .                                           19.436526 :LATITUDE
LON         .                                          -92.061687 :LONGITUDE
ELEV        .M                                            27.6000 :SURFACE ELEV
ELEV_TYPE   .                                                  KB :ELEV TYPE
~CURVE INFORMATION
#MNEMONIC.UNIT        API CODE       : CURVE DESCRIPTION
#------------------------------------------------------------------------------
DEPTH    .M                          : Measured Depth
CALI     .inches      UNKNOWN        : CALI:registros:rC:NONE:v0 (auto-composite)
CGR      .API         UNKNOWN        : CGR:registros:rC:NONE:v0 (auto-composite)
DRHO     .g/cm3       UNKNOWN        : DRHO:registros:rC:NONE:v0 (auto-composite)
DT       .us/ft       UNKNOWN        : DT:registros:rC:NONE:v0 (auto-composite)
GR       .API         UNKNOWN        : GR:registros:rC:NONE:v0 (auto-composite)
ILD      .ohm.m       UNKNOWN        : ILD:registros:rC:NONE:v0 (auto-composite)
LLD      .ohm.m       UNKNOWN        : LLD:registros:rC:NONE:v0 (auto-composite)
LLS      .ohm.m       UNKNOWN        : LLS:registros:rC:NONE:v0 (auto-composite)
MSFL     .ohm.m       UNKNOWN        : MSFL:registros:rC:NONE:v0 (auto-composite)
NPHI     .UNKNOWN     UNKNOWN        : NPHI:registros:rC:NONE:v0 (auto-composite)
PEF      .UNKNOWN     UNKNOWN        : PEF:registros:rC:NONE:v0 (auto-composite)
POTA     .UNKNOWN     UNKNOWN        : POTA:registros:rC:NONE:v0 (auto-composite)
RHOB     .g/cm3       UNKNOWN        : RHOB:registros:rC:NONE:v0 (auto-composite)
SIGM     .UNKNOWN     UNKNOWN        : SIGM:registros:rC:NONE:v0 (auto-composite)
SP       .mV          UNKNOWN        : SP:registros:rC:NONE:v0 (auto-composite)
THOR     .ppm         UNKNOWN        : THOR:registros:rC:NONE:v0 (auto-composite)
URAN     .ppm         UNKNOWN        : URAN:registros:rC:NONE:v0 (auto-composite)
~A     DEPTH         CALI          CGR         DRHO           DT           GR          ILD          LLD          LLS         MSFL         NPHI          PEF         POTA         RHOB         SIGM           SP         THOR         URAN
# ...
   2653.7410       6.1015       0.0000       0.0160       0.0000     105.4896    -999.2500      32.1242      29.7196      31.1126       0.1195       3.4530       0.0000       2.6600      17.7314     -23.0298       0.0000       0.0000
   2653.8933       6.1270       0.0000       0.0150       0.0000     118.7030    -999.2500      33.6030      31.0300      39.0010       0.1190       3.5190       0.0000       2.6500      17.8150     -24.3110       0.0000       0.0000
   2654.0459       6.1000       0.0000       0.0255       0.0000     126.0262    -999.2500      32.8699      31.3978      27.5137       0.1205       3.7569       0.0000       2.6985      18.0168     -24.5928       0.0000       0.0000
   2654.1982       6.0730       0.0000       0.0360       0.0000     133.3580    -999.2500      32.1430      31.7630      16.1230       0.1198       3.9950       0.0000       2.7470      18.2536     -24.8750       0.0000       0.0000
   2654.3506       6.0885       0.0000       0.0380       0.0000     111.5156    -999.2500      33.1150      31.0872      43.9211       0.1125       3.7522       0.0000       2.7535      18.8443     -25.6240       0.0000       0.0000
   2654.5029       6.1040       0.0000       0.0400       0.0000      89.6450    -999.2500      34.0790      30.4160      71.4890       0.1002       3.5090       0.0000       2.7600      19.1260     -26.3740       0.0000       0.0000
   2654.6555       6.0880       0.0000       0.0385       0.0000      67.3218    -999.2500      31.9212      29.6624      57.4954       0.0840       3.5625       0.0000       2.7810      19.0236     -26.8736       0.0000       0.0000
   2654.8079       6.0720       0.0000       0.0370       0.0000      44.9670    -999.2500      29.7810      28.9150      43.6160       0.0695       3.6160       0.0000       2.8020      18.4900     -27.3740       0.0000       0.0000
   2654.9602       6.0855       0.0000       0.0300       0.0000      42.9486    -999.2500      26.4712      25.9852      38.7399       0.0620       3.6865       0.0000       2.7905      16.9009     -28.3108       0.0000       0.0000
   2655.1125       6.0990       0.0000       0.0230       0.0000      40.9270    -999.2500      23.1880      23.0790      33.9030       0.0586       3.7570       0.0000       2.7790      15.8942     -29.2490       0.0000       0.0000
   2655.2649       6.1515       0.0000       0.0165       0.0000      43.8006    -999.2500      21.6891      21.7583      24.9516       0.0565       3.5585       0.0000       2.7570      14.3978     -30.0294       0.0000       0.0000
   2655.4175       6.2040       0.0000       0.0100       0.0000      46.6790    -999.2500      20.2020      20.4480      16.0710       0.0560       3.3600       0.0000       2.7350      13.7951     -30.8110       0.0000       0.0000
   2655.5698       6.1480       0.0000       0.0225       0.0000      42.9244    -999.2500      20.2326      20.6277      13.4357       0.0575       3.2805       0.0000       2.7510      13.0823     -31.0303       0.0000       0.0000
   2655.7222       6.0920       0.0000       0.0350       0.0000      39.1630    -999.2500      20.2630      20.8060      10.8210       0.0598       3.2010       0.0000       2.7670      12.7609     -31.2500       0.0000       0.0000
   2655.8745       6.0730       0.0000       0.0315       0.0000      36.5090    -999.2500      21.2774      21.7004      18.6525       0.0615       3.3950       0.0000       2.7565      12.2141     -31.5937       0.0000       0.0000
   2656.0271       6.0540       0.0000       0.0280       0.0000      33.8500    -999.2500      22.2840      22.5880      26.4240       0.0629       3.5890       0.0000       2.7460      11.9347     -31.9380       0.0000       0.0000
   2656.1794       6.0735       0.0000       0.0315       0.0000      36.7914    -999.2500      18.7311      19.1952      22.3652       0.0640       3.2771       0.0000       2.7300      11.5871     -30.1914       0.0000       0.0000
   2656.3318       6.0930       0.0000       0.0350       0.0000      39.7340    -999.2500      15.2050      15.8280      18.3370       0.0654       2.9650       0.0000       2.7140      11.4848     -28.4440       0.0000       0.0000
   2656.4841       6.0965       0.0000       0.0430       0.0000      45.3919    -999.2500      15.6858      16.2676      27.7168       0.0675       2.9215       0.0000       2.7335      11.4893     -24.2557       0.0000       0.0000
   2656.6367       6.1000       0.0000       0.0510       0.0000      51.0530    -999.2500      16.1630      16.7040      37.0270       0.0695       2.8780       0.0000       2.7530      11.5756     -20.0650       0.0000       0.0000
   2656.7891       6.0880       0.0000       0.0590       0.0000      45.1795    -999.2500      23.3959      23.7145      26.1112       0.0705       3.1949       0.0000       2.7695      11.6575     -17.2835       0.0000       0.0000
   2656.9414       6.0760       0.0000       0.0670       0.0000      39.3020    -999.2500      30.5760      30.6740      15.2750       0.0712       3.5120       0.0000       2.7860      11.8576     -14.5000       0.0000       0.0000
   2657.0938       6.0695       0.0000       0.0680       0.0000      37.1134    -999.2500      38.8421      39.5639      68.2524       0.0725       3.2891       0.0000       2.7965      12.0123     -17.1199       0.0000       0.0000
   2657.2461       6.0630       0.0000       0.0690       0.0000      34.9230    -999.2500      47.0490      48.3900     120.8500       0.0748       3.0660       0.0000       2.8070      12.4018     -19.7420       0.0000       0.0000
   2657.3987       6.1739       0.0000       0.0575       0.0000      38.9346    -999.2500      60.6408      62.0787      80.5788       0.0790       3.1989       0.0000       2.7935      12.6353     -20.0584       0.0000       0.0000
   2657.5510       6.2850       0.0000       0.0460       0.0000      42.9500    -999.2500      74.1370      75.6710      40.5910       0.0841       3.3320       0.0000       2.7800      13.0161     -20.3750       0.0000       0.0000
   2657.7034       6.2245       0.0000       0.0370       0.0000      30.5186    -999.2500     124.6628     125.3820      70.2978       0.0895       3.6718       0.0000       2.7635      13.1902     -19.8128       0.0000       0.0000
   2657.8557       6.1640       0.0000       0.0280       0.0000      18.0740    -999.2500     174.8390     174.7490      99.7990       0.0929       4.0120       0.0000       2.7470      13.4119     -19.2500       0.0000       0.0000
   2658.0083       6.1135       0.0000       0.0335       0.0000      19.7225    -999.2500     190.8702     188.3475     139.8509       0.0920       3.9465       0.0000       2.7580      13.5211     -19.4999       0.0000       0.0000
   2658.1606       6.0630       0.0000       0.0390       0.0000      21.3730    -999.2500     206.7670     201.8320     179.5670       0.0868       3.8810       0.0000       2.7690      13.7430     -19.7500       0.0000       0.0000
   2658.3130       6.0760       0.0000       0.0405       0.0000      24.5064    -999.2500     202.1078     196.6386     115.3204       0.0770       3.6941       0.0000       2.7645      13.8837     -18.7507       0.0000       0.0000
   2658.4653       6.0890       0.0000       0.0420       0.0000      27.6440    -999.2500     197.4870     191.4880      51.6040       0.0663       3.5070       0.0000       2.7600      13.9904     -17.7500       0.0000       0.0000
   2658.6179       6.0650       0.0000       0.0430       0.0000      30.5774    -999.2500     180.6435     175.6566      71.3167       0.0580       3.4535       0.0000       2.7660      13.8353     -19.1865       0.0000       0.0000
   2658.7703       6.0410       0.0000       0.0440       0.0000      33.5150    -999.2500     163.9370     159.9540      90.8690       0.0540       3.4000       0.0000       2.7720      12.9036     -20.6250       0.0000       0.0000
   2658.9226       6.0500       0.0000       0.0380       0.0000      40.5100    -999.2500     142.4641     139.5950      79.3168       0.0560       3.6360       0.0000       2.7605      12.1525     -20.2508       0.0000       0.0000
