#------------------------------------------------------------------------------
#
#   Created by  : [OpenWorks] Log Export Utility (LEXP)
#   Created on  : 2016-05-23 17:52:12
#   Project     : CANT971
#   User        : R5K
#   Interpreter : PEP
#
#------------------------------------------------------------------------------
~VERSION INFORMATION
VERS. 2.0 : CWLS Log ASCII Standard - version 2.0
WRAP.  NO : One line per depth step
~WELL INFORMATION
#MNEMONIC   .UNIT                                           VALUE :DESCRIPTION
#------------------------------------------------------------------------------
STRT        .M                                           472.1350 :START DEPTH
STOP        .M                                          2749.2959 :STOP DEPTH
STEP        .M                                             0.1524 :STEP
NULL        .                                           -999.2500 :NULL VALUE
COMP        .                                   PEMEX EXPL & PROD :COMPANY
WELL        .                                                1082 :WELL
FLD         .                                           CANTARELL :FIELD
LOC         .                                             UNKNOWN :LOCATION
CNTY        .                                      CD. DEL CARMEN :COUNTY
STAT        .                                            CAMPECHE :STATE
CTRY        .                                              MEXICO :COUNTRY
SRVC        .                                             UNKNOWN :SERVICE COMPANY
DATE        .                                             UNKNOWN :LOG DATE
UWI         .                                          3060000508 :UNIQUE WELL ID
XCOORD      .                                       598501.860000 :SURFACE X
YCOORD      .                                      2149269.250000 :SURFACE Y
LAT         .                                           19.436526 :LATITUDE
LON         .                                          -92.061687 :LONGITUDE
ELEV        .M                                            27.6000 :SURFACE ELEV
ELEV_TYPE   .                                                  KB :ELEV TYPE
~CURVE INFORMATION
#MNEMONIC.UNIT        API CODE       : CURVE DESCRIPTION
#------------------------------------------------------------------------------
DEPTH    .M                          : Measured Depth
CALI     .inches      UNKNOWN        : CALI:registros:rC:NONE:v0 (auto-composite)
CGR      .API         UNKNOWN        : CGR:registros:rC:NONE:v0 (auto-composite)
DRHO     .g/cm3       UNKNOWN        : DRHO:registros:rC:NONE:v0 (auto-composite)
DT       .us/ft       UNKNOWN        : DT:registros:rC:NONE:v0 (auto-composite)
GR       .API         UNKNOWN        : GR:registros:rC:NONE:v0 (auto-composite)
ILD      .ohm.m       UNKNOWN        : ILD:registros:rC:NONE:v0 (auto-composite)
LLD      .ohm.m       UNKNOWN        : LLD:registros:rC:NONE:v0 (auto-composite)
LLS      .ohm.m       UNKNOWN        : LLS:registros:rC:NONE:v0 (auto-composite)
MSFL     .ohm.m       UNKNOWN        : MSFL:registros:rC:NONE:v0 (auto-composite)
NPHI     .UNKNOWN     UNKNOWN        : NPHI:registros:rC:NONE:v0 (auto-composite)
PEF      .UNKNOWN     UNKNOWN        : PEF:registros:rC:NONE:v0 (auto-composite)
POTA     .UNKNOWN     UNKNOWN        : POTA:registros:rC:NONE:v0 (auto-composite)
RHOB     .g/cm3       UNKNOWN        : RHOB:registros:rC:NONE:v0 (auto-composite)
SIGM     .UNKNOWN     UNKNOWN        : SIGM:registros:rC:NONE:v0 (auto-composite)
SP       .mV          UNKNOWN        : SP:registros:rC:NONE:v0 (auto-composite)
THOR     .ppm         UNKNOWN        : THOR:registros:rC:NONE:v0 (auto-composite)
URAN     .ppm         UNKNOWN        : URAN:registros:rC:NONE:v0 (auto-composite)
~A     DEPTH         CALI          CGR         DRHO           DT           GR          ILD          LLD          LLS         MSFL         NPHI          PEF         POTA         RHOB         SIGM           SP         THOR         URAN
# ...
   1837.6390      12.5560      22.1540       0.0220    -999.2500      47.0710    -999.2500      74.8230      48.3560      55.5470       0.1205       5.7690       0.0090       2.5890    -999.2500       3.4450       2.4700       3.4450
   1837.7914      12.5680      22.0182       0.0220    -999.2500      46.4491    -999.2500      76.4968      49.6162      58.7549       0.1181       5.6383       0.0105       2.5920    -999.2500       3.5290       3.0389       3.5289
   1837.9438      12.5800      21.8820       0.0220    -999.2500      45.8270    -999.2500      78.1660      50.8750      61.9540       0.1146       5.5080       0.0120       2.5950    -999.2500       3.6130       3.6090       3.6130
   1838.0962      12.8852      24.2935       0.0140    -999.2500      46.0324    -999.2500      84.6170      53.2312      61.2776       0.0932       4.9197       0.0120       2.6585    -999.2500       4.0489       3.6070       4.0485
   1838.2487      13.1900      26.7140       0.0060    -999.2500      46.2380    -999.2500      91.0510      55.5850      60.6030       0.0720       4.3330       0.0120       2.7220    -999.2500       4.4850       3.6050       4.4850
   1838.4010      14.0474      26.6945       0.0085    -999.2500      52.6733    -999.2500      91.0140      55.5620      48.9433       0.0717       4.3480       0.0110       2.7215    -999.2500       4.4845       3.5331       4.4845
   1838.5535      14.9040      26.6750       0.0110    -999.2500      59.1130    -999.2500      90.9770      55.5390      37.3130       0.0732       4.3630       0.0100       2.7210    -999.2500       4.4840       3.4610       4.4840
   1838.7058      15.3967      26.1411       0.0085    -999.2500      58.9026    -999.2500      90.0474      53.8243      37.4707       0.0729       4.9041       0.0090       2.7105    -999.2500       4.4655       2.6909       4.4655
   1838.8582      15.8890      25.6050       0.0060    -999.2500      58.6920    -999.2500      89.1200      52.1110      37.6280       0.0712       5.4440       0.0080       2.7000    -999.2500       4.4470       1.9190       4.4470
   1839.0106      15.8305      22.9181       0.0060    -999.2500      51.4204    -999.2500      85.8042      52.1385      52.3367       0.0562       5.2217       0.0070       2.7005    -999.2500       4.1956       1.9190       4.1958
   1839.1630      15.7720      20.2200       0.0060    -999.2500      44.1420    -999.2500      82.4960      52.1660      67.0120       0.0413       5.0000       0.0060       2.7010    -999.2500       3.9440       1.9190       3.9440
   1839.3154      13.9965      18.6294       0.0060    -999.2500      44.9171    -999.2500      82.6743      52.8032      60.1855       0.0400       5.0215       0.0065       2.7310    -999.2500       3.9485       1.9889       3.9485
   1839.4678      12.2220      17.0320       0.0060    -999.2500      45.6930    -999.2500      82.8520      53.4400      53.3790       0.0400       5.0430       0.0070       2.7610    -999.2500       3.9530       2.0590       3.9530
   1839.6202      12.4445      16.8998       0.0060    -999.2500      45.6375    -999.2500      87.0912      55.5659      55.6601       0.0402       5.5222       0.0060       2.7605    -999.2500       4.0769       2.0545       4.0768
   1839.7726      12.6670      16.7670       0.0060    -999.2500      45.5820    -999.2500      91.3150      57.6910      57.9330       0.0406       6.0000       0.0050       2.7600    -999.2500       4.2010       2.0500       4.2010
   1839.9250      12.6615      15.1565       0.0090    -999.2500      43.5279    -999.2500     105.0209      66.9553      42.6148       0.0438       5.9830       0.0050       2.7410    -999.2500       4.1990       1.8753       4.1990
   1840.0774      12.6560      13.5400       0.0120    -999.2500      41.4710    -999.2500     118.6790      76.2170      27.3500       0.0473       5.9660       0.0050       2.7220    -999.2500       4.1970       1.7000       4.1970
   1840.2299      12.4944      14.0807       0.0170    -999.2500      42.8011    -999.2500     129.2197      76.1545      27.6715       0.0522       5.6314       0.0050       2.7220    -999.2500       4.1620       1.7010       4.1621
   1840.3822      12.3330      14.6230       0.0220    -999.2500      44.1320    -999.2500     139.7250      76.0920      27.9920       0.0572       5.2980       0.0050       2.7220    -999.2500       4.1270       1.7020       4.1270
   1840.5347      12.3390      14.5881       0.0165    -999.2500      44.0840    -999.2500     139.5422      74.8370      49.0581       0.0623       4.9264       0.0050       2.7215    -999.2500       4.0600       1.7305       4.0601
   1840.6870      12.3450      14.5530       0.0110    -999.2500      44.0360    -999.2500     139.3600      73.5820      70.0560       0.0676       4.5560       0.0050       2.7210    -999.2500       3.9930       1.7590       3.9930
   1840.8394      12.5061      13.9081       0.0110    -999.2500      42.5156    -999.2500     134.9917      70.3639      69.1561       0.0754       4.5775       0.0045       2.7150    -999.2500       3.9945       2.0977       3.9945
   1840.9918      12.6670      13.2610       0.0110    -999.2500      40.9950    -999.2500     130.6370      67.1480      68.2590       0.0823       4.5990       0.0040       2.7090    -999.2500       3.9960       2.4370       3.9960
   1841.1442      12.4999      14.3067       0.0110    -999.2500      42.8293    -999.2500     105.4779      53.9999      51.1354       0.0767       5.3005       0.0045       2.6850    -999.2500       4.0270       2.4320       4.0270
   1841.2966      12.3330      15.3560       0.0110    -999.2500      44.6640    -999.2500      80.3940      40.8700      34.0630       0.0705       6.0000       0.0050       2.6610    -999.2500       4.0580       2.4270       4.0580
   1841.4490      12.3330      14.3398       0.0055    -999.2500      43.4717    -999.2500      80.4030      40.9716      52.6050       0.0700       5.9935       0.0050       2.6610    -999.2500       4.1700       2.3366       4.1699
   1841.6014      12.3330      13.3200       0.0000    -999.2500      42.2790    -999.2500      80.4120      41.0730      71.0940       0.0700       5.9870       0.0050       2.6610    -999.2500       4.2820       2.2460       4.2820
   1841.7538      12.5001      13.4932       0.0000    -999.2500      42.8104    -999.2500      80.3935      41.0075      56.7454       0.0700       5.8723       0.0050       2.6610    -999.2500       4.2780       2.0422       4.2780
   1841.9062      12.6670      13.6670       0.0000    -999.2500      43.3420    -999.2500      80.3750      40.9420      42.4360       0.0700       5.7580       0.0050       2.6610    -999.2500       4.2740       1.8380       4.2740
   1842.0586      12.6115      13.5802       0.0030    -999.2500      43.2805    -999.2500      73.7373      37.1196      52.2573       0.0700       5.5873       0.0050       2.6610    -999.2500       4.2000       1.6782       4.2001
   1842.2111      12.5560      13.4930       0.0060    -999.2500      43.2190    -999.2500      67.1170      33.3010      62.0530       0.0700       5.4170       0.0050       2.6610    -999.2500       4.1260       1.5180       4.1260
   1842.3634      12.5595       9.9669       0.0030    -999.2500      42.0859    -999.2500      67.1681      33.4186      61.9624       0.0703       5.1912       0.0035       2.6625    -999.2500       4.0315       1.2188       4.0316
   1842.5159      12.5630       6.4270       0.0000    -999.2500      40.9520    -999.2500      67.2190      33.5360      61.8720       0.0709       4.9660       0.0020       2.6640    -999.2500       3.9370       0.9190       3.9370
   1842.6682      12.6150       6.6745       0.0000    -999.2500      38.2941    -999.2500      73.5945      36.5942      59.6684       0.0757       4.7012       0.0025       2.6960    -999.2500       3.8725       0.6868       3.8726
   1842.8206      12.6670       6.9230       0.0000    -999.2500      35.6340    -999.2500      79.9550      39.6500      57.4700       0.0809       4.4370       0.0030       2.7280    -999.2500       3.8080       0.4540       3.8080
