#------------------------------------------------------------------------------
#
#   Created by  : [OpenWorks] Log Export Utility (LEXP)
#   Created on  : 2016-05-23 17:52:12
#   Project     : CANT971
#   User        : R5K
#   Interpreter : PEP
#
#------------------------------------------------------------------------------
~VERSION INFORMATION
VERS. 2.0 : CWLS Log ASCII Standard - version 2.0
WRAP.  NO : One line per depth step
~WELL INFORMATION
#MNEMONIC   .UNIT                                           VALUE :DESCRIPTION
#------------------------------------------------------------------------------
STRT        .M                                           472.1350 :START DEPTH
STOP        .M                                          2749.2959 :STOP DEPTH
STEP        .M                                             0.1524 :STEP
NULL        .                                           -999.2500 :NULL VALUE
COMP        .                                   PEMEX EXPL & PROD :COMPANY
WELL        .                                                1082 :WELL
FLD         .                                           CANTARELL :FIELD
LOC         .                                             UNKNOWN :LOCATION
CNTY        .                                      CD. DEL CARMEN :COUNTY
STAT        .                                            CAMPECHE :STATE
CTRY        .                                              MEXICO :COUNTRY
SRVC        .                                             UNKNOWN :SERVICE COMPANY
DATE        .                                             UNKNOWN :LOG DATE
UWI         .                                          3060000508 :UNIQUE WELL ID
XCOORD      .                                       598501.860000 :SURFACE X
YCOORD      .                                      2149269.250000 :SURFACE Y
LAT         .                                           19.436526 :LATITUDE
LON         .                                          -92.061687 :LONGITUDE
ELEV        .M                                            27.6000 :SURFACE ELEV
ELEV_TYPE   .                                                  KB :ELEV TYPE
~CURVE INFORMATION
#MNEMONIC.UNIT        API CODE       : CURVE DESCRIPTION
#------------------------------------------------------------------------------
DEPTH    .M                          : Measured Depth
CALI     .inches      UNKNOWN        : CALI:registros:rC:NONE:v0 (auto-composite)
CGR      .API         UNKNOWN        : CGR:registros:rC:NONE:v0 (auto-composite)
DRHO     .g/cm3       UNKNOWN        : DRHO:registros:rC:NONE:v0 (auto-composite)
DT       .us/ft       UNKNOWN        : DT:registros:rC:NONE:v0 (auto-composite)
GR       .API         UNKNOWN        : GR:registros:rC:NONE:v0 (auto-composite)
ILD      .ohm.m       UNKNOWN        : ILD:registros:rC:NONE:v0 (auto-composite)
LLD      .ohm.m       UNKNOWN        : LLD:registros:rC:NONE:v0 (auto-composite)
LLS      .ohm.m       UNKNOWN        : LLS:registros:rC:NONE:v0 (auto-composite)
MSFL     .ohm.m       UNKNOWN        : MSFL:registros:rC:NONE:v0 (auto-composite)
NPHI     .UNKNOWN     UNKNOWN        : NPHI:registros:rC:NONE:v0 (auto-composite)
PEF      .UNKNOWN     UNKNOWN        : PEF:registros:rC:NONE:v0 (auto-composite)
POTA     .UNKNOWN     UNKNOWN        : POTA:registros:rC:NONE:v0 (auto-composite)
RHOB     .g/cm3       UNKNOWN        : RHOB:registros:rC:NONE:v0 (auto-composite)
SIGM     .UNKNOWN     UNKNOWN        : SIGM:registros:rC:NONE:v0 (auto-composite)
SP       .mV          UNKNOWN        : SP:registros:rC:NONE:v0 (auto-composite)
THOR     .ppm         UNKNOWN        : THOR:registros:rC:NONE:v0 (auto-composite)
URAN     .ppm         UNKNOWN        : URAN:registros:rC:NONE:v0 (auto-composite)
~A     DEPTH         CALI          CGR         DRHO           DT           GR          ILD          LLD          LLS         MSFL         NPHI          PEF         POTA         RHOB         SIGM           SP         THOR         URAN
# ...
   2472.3850       6.1860       0.0000       0.0185       0.0000      86.5209    -999.2500      37.7655      42.3503      33.3420       0.1275       4.4160       0.0000       2.5285    -999.2500      76.9700       0.0000       0.0000
   2472.5374       6.1700       0.0000       0.0230       0.0000     107.8530    -999.2500      42.2610      46.4720      47.0260       0.1404       4.4330       0.0000       2.5600    -999.2500      76.3130       0.0000       0.0000
   2472.6897       6.1775       0.0000       0.0190       0.0000     124.6869    -999.2500      53.1666      58.1159      60.5729       0.1495       4.5240       0.0000       2.5930    -999.2500      76.5003       0.0000       0.0000
   2472.8423       6.1850       0.0000       0.0150       0.0000     141.5500    -999.2500      64.0040      69.6870      74.0350       0.1512       4.6150       0.0000       2.6260    -999.2500      76.6880       0.0000       0.0000
   2472.9946       6.1765       0.0000       0.0130       0.0000     128.9581    -999.2500      70.8636      75.3474      58.9371       0.1395       4.3695       0.0000       2.6060    -999.2500      76.7505       0.0000       0.0000
   2473.1470       6.1680       0.0000       0.0110       0.0000     116.3630    -999.2500      77.6810      80.9730      43.9320       0.1223       4.1240       0.0000       2.5860    -999.2500      76.8130       0.0000       0.0000
   2473.2993       6.1800       0.0000       0.0150       0.0000     101.4723    -999.2500      88.7518      90.9490      66.2461       0.1055       4.5164       0.0000       2.5695    -999.2500      76.7815       0.0000       0.0000
   2473.4519       6.1920       0.0000       0.0190       0.0000      86.5760    -999.2500      99.7560     100.8650      88.4260       0.0911       4.9090       0.0000       2.5530    -999.2500      76.7500       0.0000       0.0000
   2473.6042       6.1755       0.0000       0.0200       0.0000      82.7025    -999.2500      88.1679      89.8475     113.4216       0.0815       5.3044       0.0000       2.5410    -999.2500      76.8440       0.0000       0.0000
   2473.7566       6.1590       0.0000       0.0210       0.0000      78.8270    -999.2500      76.6480      78.8950     138.2700       0.0831       5.7000       0.0000       2.5290    -999.2500      76.9380       0.0000       0.0000
   2473.9089       6.1705       0.0000       0.0155       0.0000      73.5237    -999.2500      68.9236      72.4509      92.8584       0.1060       5.5675       0.0000       2.5455    -999.2500      76.1892       0.0000       0.0000
   2474.0615       6.1820       0.0000       0.0100       0.0000      68.2170    -999.2500      61.2560      66.0440      47.7810       0.1325       5.4350       0.0000       2.5620    -999.2500      75.4400       0.0000       0.0000
   2474.2139       6.1880       0.0000       0.0075       0.0000      59.4228    -999.2500      69.7964      74.6984     102.5032       0.1460       5.6784       0.0000       2.5810    -999.2500      74.4709       0.0000       0.0000
   2474.3662       6.1940       0.0000       0.0050       0.0000      50.6220    -999.2500      78.2750      83.3040     156.8300       0.1484       5.9220       0.0000       2.6000    -999.2500      73.5010       0.0000       0.0000
   2474.5186       6.1900       0.0000       0.0065       0.0000      66.2106    -999.2500      63.2054      67.7070      97.9974       0.1375       5.6134       0.0000       2.5910    -999.2500      73.4070       0.0000       0.0000
   2474.6709       6.1860       0.0000       0.0080       0.0000      81.8130    -999.2500      48.2430      52.1960      39.5830       0.1189       5.3050       0.0000       2.5820    -999.2500      73.3130       0.0000       0.0000
   2474.8235       6.1555       0.0000       0.0210       0.0000      85.7675    -999.2500      43.5296      46.8706      31.7687       0.0951       5.0699       0.0000       2.5695    -999.2500      73.2190       0.0000       0.0000
   2474.9758       6.1250       0.0000       0.0340       0.0000      89.7260    -999.2500      38.8490      41.5740      24.0090       0.0738       4.8350       0.0000       2.5570    -999.2500      73.1250       0.0000       0.0000
   2475.1282       6.1330       0.0000       0.0455       0.0000      83.8813    -999.2500      42.1162      44.6967      44.6332       0.0640       4.5574       0.0000       2.5770    -999.2500      72.8447       0.0000       0.0000
   2475.2805       6.1410       0.0000       0.0570       0.0000      78.0300    -999.2500      45.3610      47.7980      65.1160       0.0646       4.2800       0.0000       2.5970    -999.2500      72.5640       0.0000       0.0000
   2475.4331       6.1570       0.0000       0.0465       0.0000      69.2590    -999.2500      79.9624      84.2526      77.2684       0.0785       4.4245       0.0000       2.6085    -999.2500      71.6586       0.0000       0.0000
   2475.5854       6.1730       0.0000       0.0360       0.0000      60.4770    -999.2500     114.3310     120.4620      89.3390       0.0957       4.5690       0.0000       2.6200    -999.2500      70.7520       0.0000       0.0000
   2475.7378       6.1985       0.0000       0.0300       0.0000      62.1154    -999.2500     134.1701     141.7599     183.1089       0.1075       4.5165       0.0000       2.6105    -999.2500      70.3143       0.0000       0.0000
   2475.8901       6.2240       0.0000       0.0240       0.0000      63.7560    -999.2500     153.8780     162.9170     276.2590       0.1129       4.4640       0.0000       2.6010    -999.2500      69.8760       0.0000       0.0000
   2476.0427       6.1660       0.0000       0.0275       0.0000      69.9948    -999.2500     119.6441     127.7827     189.3700       0.1085       4.3090       0.0000       2.5920    -999.2500      69.6881       0.0000       0.0000
   2476.1951       6.1080       0.0000       0.0310       0.0000      76.2430    -999.2500      85.6320      92.8760     103.0440       0.1054       4.1540       0.0000       2.5830    -999.2500      69.5000       0.0000       0.0000
   2476.3474       6.1455       0.0000       0.0245       0.0000      95.8914    -999.2500      65.0546      70.8244      72.8921       0.1155       4.0685       0.0000       2.5845    -999.2500      67.5641       0.0000       0.0000
   2476.4998       6.1830       0.0000       0.0180       0.0000     115.5720    -999.2500      44.6080      48.9130      42.9320       0.1313       3.9830       0.0000       2.5860    -999.2500      65.6250       0.0000       0.0000
   2476.6521       6.1530       0.0000       0.0155       0.0000     137.7230    -999.2500      42.3259      46.7488      63.1229       0.1480       4.1930       0.0000       2.6010    -999.2500      65.9992       0.0000       0.0000
   2476.8047       6.1230       0.0000       0.0130       0.0000     159.9130    -999.2500      40.0580      44.5980      83.1880       0.1587       4.4030       0.0000       2.6160    -999.2500      66.3740       0.0000       0.0000
   2476.9570       6.1545       0.0000       0.0130       0.0000     161.0223    -999.2500      51.4568      57.3931      53.4898       0.1540       4.8429       0.0000       2.6320    -999.2500      66.4060       0.0000       0.0000
   2477.1094       6.1860       0.0000       0.0130       0.0000     162.1320    -999.2500      62.7860      70.1100      23.9730       0.1392       5.2830       0.0000       2.6480    -999.2500      66.4380       0.0000       0.0000
   2477.2617       6.2040       0.0000       0.0130       0.0000     146.0933    -999.2500      78.6509      89.5396      38.1850       0.1150       5.0935       0.0000       2.6255    -999.2500      66.1256       0.0000       0.0000
   2477.4143       6.2220       0.0000       0.0130       0.0000     130.0480    -999.2500      94.4210     108.8530      52.3120       0.0914       4.9040       0.0000       2.6030    -999.2500      65.8130       0.0000       0.0000
   2477.5667       6.1750       0.0000       0.0125       0.0000     109.7229    -999.2500     129.9160     149.1335     113.3584       0.0785       4.7295       0.0000       2.5665    -999.2500      65.8755       0.0000       0.0000
