#------------------------------------------------------------------------------
#
#   Created by  : [OpenWorks] Log Export Utility (LEXP)
#   Created on  : 2016-05-23 17:52:12
#   Project     : CANT971
#   User        : R5K
#   Interpreter : PEP
#
#------------------------------------------------------------------------------
~VERSION INFORMATION
VERS. 2.0 : CWLS Log ASCII Standard - version 2.0
WRAP.  NO : One line per depth step
~WELL INFORMATION
#MNEMONIC   .UNIT                                           VALUE :DESCRIPTION
#------------------------------------------------------------------------------
STRT        .M                                           472.1350 :START DEPTH
STOP        .M                                          2749.2959 :STOP DEPTH
STEP        .M                                             0.1524 :STEP
NULL        .                                           -999.2500 :NULL VALUE
COMP        .                                   PEMEX EXPL & PROD :COMPANY
WELL        .                                                1082 :WELL
FLD         .                                           CANTARELL :FIELD
LOC         .                                             UNKNOWN :LOCATION
CNTY        .                                      CD. DEL CARMEN :COUNTY
STAT        .                                            CAMPECHE :STATE
CTRY        .                                              MEXICO :COUNTRY
SRVC        .                                             UNKNOWN :SERVICE COMPANY
DATE        .                                             UNKNOWN :LOG DATE
UWI         .                                          3060000508 :UNIQUE WELL ID
XCOORD      .                                       598501.860000 :SURFACE X
YCOORD      .                                      2149269.250000 :SURFACE Y
LAT         .                                           19.436526 :LATITUDE
LON         .                                          -92.061687 :LONGITUDE
ELEV        .M                                            27.6000 :SURFACE ELEV
ELEV_TYPE   .                                                  KB :ELEV TYPE
~CURVE INFORMATION
#MNEMONIC.UNIT        API CODE       : CURVE DESCRIPTION
#------------------------------------------------------------------------------
DEPTH    .M                          : Measured Depth
CALI     .inches      UNKNOWN        : CALI:registros:rC:NONE:v0 (auto-composite)
CGR      .API         UNKNOWN        : CGR:registros:rC:NONE:v0 (auto-composite)
DRHO     .g/cm3       UNKNOWN        : DRHO:registros:rC:NONE:v0 (auto-composite)
DT       .us/ft       UNKNOWN        : DT:registros:rC:NONE:v0 (auto-composite)
GR       .API         UNKNOWN        : GR:registros:rC:NONE:v0 (auto-composite)
ILD      .ohm.m       UNKNOWN        : ILD:registros:rC:NONE:v0 (auto-composite)
LLD      .ohm.m       UNKNOWN        : LLD:registros:rC:NONE:v0 (auto-composite)
LLS      .ohm.m       UNKNOWN        : LLS:registros:rC:NONE:v0 (auto-composite)
MSFL     .ohm.m       UNKNOWN        : MSFL:registros:rC:NONE:v0 (auto-composite)
NPHI     .UNKNOWN     UNKNOWN        : NPHI:registros:rC:NONE:v0 (auto-composite)
PEF      .UNKNOWN     UNKNOWN        : PEF:registros:rC:NONE:v0 (auto-composite)
POTA     .UNKNOWN     UNKNOWN        : POTA:registros:rC:NONE:v0 (auto-composite)
RHOB     .g/cm3       UNKNOWN        : RHOB:registros:rC:NONE:v0 (auto-composite)
SIGM     .UNKNOWN     UNKNOWN        : SIGM:registros:rC:NONE:v0 (auto-composite)
SP       .mV          UNKNOWN        : SP:registros:rC:NONE:v0 (auto-composite)
THOR     .ppm         UNKNOWN        : THOR:registros:rC:NONE:v0 (auto-composite)
URAN     .ppm         UNKNOWN        : URAN:registros:rC:NONE:v0 (auto-composite)
~A     DEPTH         CALI          CGR         DRHO           DT           GR          ILD          LLD          LLS         MSFL         NPHI          PEF         POTA         RHOB         SIGM           SP         THOR         URAN
# ...
   2018.9950       9.8090    -999.2500       0.0140      62.7540      78.6930    -999.2500     108.2340      75.6500      31.6980       0.1140       3.6580    -999.2500       2.6700    -999.2500    -999.2500    -999.2500    -999.2500
   2019.1475       9.7990    -999.2500       0.0085      65.0724      88.2285    -999.2500     124.6904      83.5423      46.0464       0.1185       3.5619    -999.2500       2.6560    -999.2500    -999.2500    -999.2500    -999.2500
   2019.2998       9.7890    -999.2500       0.0030      67.3830      97.7780    -999.2500     141.0920      91.4210      60.3470       0.1187       3.4660    -999.2500       2.6420    -999.2500    -999.2500    -999.2500    -999.2500
   2019.4523       9.8095    -999.2500       0.0045      61.3740      91.1906    -999.2500     175.8656     102.5770     141.1106       0.1111       3.4250    -999.2500       2.6360    -999.2500    -999.2500    -999.2500    -999.2500
   2019.6046       9.8300    -999.2500       0.0060      55.3890      84.5980    -999.2500     210.5000     113.7150     221.5510       0.1036       3.3840    -999.2500       2.6300    -999.2500    -999.2500    -999.2500    -999.2500
   2019.7570       9.8400    -999.2500       0.0090      55.9588      78.9988    -999.2500     206.5668     116.8095     121.6195       0.1044       3.2539    -999.2500       2.6280    -999.2500    -999.2500    -999.2500    -999.2500
   2019.9094       9.8500    -999.2500       0.0120      56.5260      73.3990    -999.2500     202.6520     119.8970      22.1550       0.1084       3.1240    -999.2500       2.6260    -999.2500    -999.2500    -999.2500    -999.2500
   2020.0618       9.8855    -999.2500       0.0145      57.0577      64.4786    -999.2500     169.5973     109.4936      97.0172       0.1130       2.9779    -999.2500       2.6060    -999.2500    -999.2500    -999.2500    -999.2500
   2020.2142       9.9210    -999.2500       0.0170      57.5870      55.5560    -999.2500     136.6930      99.1210     171.5390       0.1194       2.8320    -999.2500       2.5860    -999.2500    -999.2500    -999.2500    -999.2500
   2020.3666       9.9420    -999.2500       0.0225      58.7877      55.9699    -999.2500     123.8661      89.3983     159.3821       0.1302       2.9661    -999.2500       2.5665    -999.2500    -999.2500    -999.2500    -999.2500
   2020.5190       9.9630    -999.2500       0.0280      59.9830      56.3840    -999.2500     111.0960      79.7030     147.2790       0.1399       3.1000    -999.2500       2.5470    -999.2500    -999.2500    -999.2500    -999.2500
   2020.6714       9.9775    -999.2500       0.0450      60.5262      57.3543    -999.2500     101.9804      72.3090     113.3772       0.1422       3.1781    -999.2500       2.5615    -999.2500    -999.2500    -999.2500    -999.2500
   2020.8239       9.9920    -999.2500       0.0620      61.0670      58.3250    -999.2500      92.9040      64.9350      79.6210       0.1414       3.2560    -999.2500       2.5760    -999.2500    -999.2500    -999.2500    -999.2500
   2020.9762       9.9490    -999.2500       0.0595      62.2284      61.9394    -999.2500      84.2590      58.8972      79.6210       0.1395       3.3341    -999.2500       2.5940    -999.2500    -999.2500    -999.2500    -999.2500
   2021.1287       9.9060    -999.2500       0.0570      63.3850      65.5560    -999.2500      75.6500      52.8750      79.6210       0.1359       3.4120    -999.2500       2.6120    -999.2500    -999.2500    -999.2500    -999.2500
   2021.2810       9.9215    -999.2500       0.0390      63.9632      63.8936    -999.2500      81.9222      59.7104      50.2761       0.1287       3.3639    -999.2500       2.6165    -999.2500    -999.2500    -999.2500    -999.2500
   2021.4333       9.9370    -999.2500       0.0210      64.5390      62.2300    -999.2500      88.1690      66.5290      21.0500       0.1226       3.3160    -999.2500       2.6210    -999.2500    -999.2500    -999.2500    -999.2500
   2021.5858       9.9315    -999.2500       0.0120      65.7143      59.5902    -999.2500     114.9080      78.5134      42.5687       0.1232       3.3325    -999.2500       2.6150    -999.2500    -999.2500    -999.2500    -999.2500
   2021.7382       9.9260    -999.2500       0.0030      66.8850      56.9480    -999.2500     141.5420      90.4700      64.0030       0.1269       3.3490    -999.2500       2.6090    -999.2500    -999.2500    -999.2500    -999.2500
   2021.8906       9.9045    -999.2500       0.0090      68.0793      53.7516    -999.2500     206.8305     115.1567      78.4449       0.1320       3.3660    -999.2500       2.5865    -999.2500    -999.2500    -999.2500    -999.2500
   2022.0430       9.8830    -999.2500       0.0150      69.2690      50.5520    -999.2500     271.8710     139.7890      92.8320       0.1335       3.3830    -999.2500       2.5640    -999.2500    -999.2500    -999.2500    -999.2500
   2022.1954       9.8915    -999.2500       0.0180      66.6337      49.1658    -999.2500     266.7316     137.1488      90.5122       0.1232       3.5146    -999.2500       2.5715    -999.2500    -999.2500    -999.2500    -999.2500
   2022.3478       9.9000    -999.2500       0.0210      64.0080      47.7780    -999.2500     261.6110     134.5140      88.2010       0.1098       3.6460    -999.2500       2.5790    -999.2500    -999.2500    -999.2500    -999.2500
   2022.5002       9.9030    -999.2500       0.0275      61.2937      49.4500    -999.2500     236.0101     113.6527     139.2030       0.0993       3.5709    -999.2500       2.6060    -999.2500    -999.2500    -999.2500    -999.2500
   2022.6526       9.9060    -999.2500       0.0340      58.5890      51.1240    -999.2500     210.5000      92.8320     190.0240       0.0956       3.4960    -999.2500       2.6330    -999.2500    -999.2500    -999.2500    -999.2500
   2022.8051       9.9450    -999.2500       0.0525      58.7873      63.8153    -999.2500     254.2829     123.1001     146.3548       0.1079       3.4304    -999.2500       2.6205    -999.2500    -999.2500    -999.2500    -999.2500
   2022.9574       9.9840    -999.2500       0.0710      58.9850      76.5240    -999.2500     297.9160     153.3130     102.8350       0.1325       3.3650    -999.2500       2.6080    -999.2500    -999.2500    -999.2500    -999.2500
   2023.1099       9.9645    -999.2500       0.0620      61.6238      90.9651    -999.2500     400.3153     181.9308     302.9359       0.1758       3.6112    -999.2500       2.5605    -999.2500    -999.2500    -999.2500    -999.2500
   2023.2622       9.9450    -999.2500       0.0530      64.2540     105.4280    -999.2500     502.3770     210.5000     502.3770       0.2142       3.8570    -999.2500       2.5130    -999.2500    -999.2500    -999.2500    -999.2500
   2023.4146      10.0040    -999.2500       0.0370      69.7469     114.3768    -999.2500     450.2064     173.9713     458.0821       0.2206       3.8100    -999.2500       2.4750    -999.2500    -999.2500    -999.2500    -999.2500
   2023.5670      10.0630    -999.2500       0.0210      75.2180     123.3330    -999.2500     398.2430     137.5000     413.9630       0.2155       3.7630    -999.2500       2.4370    -999.2500    -999.2500    -999.2500    -999.2500
   2023.7194      10.0155    -999.2500       0.0120      77.7714     117.4394    -999.2500     302.1890     116.2306     333.7483       0.2101       3.6449    -999.2500       2.4720    -999.2500    -999.2500    -999.2500    -999.2500
   2023.8718       9.9680    -999.2500       0.0030      80.3130     111.5450    -999.2500     206.5810      95.0090     253.9060       0.2020       3.5270    -999.2500       2.5070    -999.2500    -999.2500    -999.2500    -999.2500
   2024.0242       9.9370    -999.2500      -0.0070      79.3894     105.0239    -999.2500     166.0620      81.0867     218.0961       0.1865       3.5655    -999.2500       2.5395    -999.2500    -999.2500    -999.2500    -999.2500
   2024.1766       9.9060    -999.2500      -0.0170      78.4700      98.5010    -999.2500     125.7260      67.2050     182.4480       0.1636       3.6040    -999.2500       2.5720    -999.2500    -999.2500    -999.2500    -999.2500
