#------------------------------------------------------------------------------
#
#   Created by  : [OpenWorks] Log Export Utility (LEXP)
#   Created on  : 2016-05-23 17:52:12
#   Project     : CANT971
#   User        : R5K
#   Interpreter : PEP
#
#------------------------------------------------------------------------------
~VERSION INFORMATION
VERS. 2.0 : CWLS Log ASCII Standard - version 2.0
WRAP.  NO : One line per depth step
~WELL INFORMATION
#MNEMONIC   .UNIT                                           VALUE :DESCRIPTION
#------------------------------------------------------------------------------
STRT        .M                                           472.1350 :START DEPTH
STOP        .M                                          2749.2959 :STOP DEPTH
STEP        .M                                             0.1524 :STEP
NULL        .                                           -999.2500 :NULL VALUE
COMP        .                                   PEMEX EXPL & PROD :COMPANY
WELL        .                                                1082 :WELL
FLD         .                                           CANTARELL :FIELD
LOC         .                                             UNKNOWN :LOCATION
CNTY        .                                      CD. DEL CARMEN :COUNTY
STAT        .                                            CAMPECHE :STATE
CTRY        .                                              MEXICO :COUNTRY
SRVC        .                                             UNKNOWN :SERVICE COMPANY
DATE        .                                             UNKNOWN :LOG DATE
UWI         .                                          3060000508 :UNIQUE WELL ID
XCOORD      .                                       598501.860000 :SURFACE X
YCOORD      .                                      2149269.250000 :SURFACE Y
LAT         .                                           19.436526 :LATITUDE
LON         .                                          -92.061687 :LONGITUDE
ELEV        .M                                            27.6000 :SURFACE ELEV
ELEV_TYPE   .                                                  KB :ELEV TYPE
~CURVE INFORMATION
#MNEMONIC.UNIT        API CODE       : CURVE DESCRIPTION
#------------------------------------------------------------------------------
DEPTH    .M                          : Measured Depth
CALI     .inches      UNKNOWN        : CALI:registros:rC:NONE:v0 (auto-composite)
CGR      .API         UNKNOWN        : CGR:registros:rC:NONE:v0 (auto-composite)
DRHO     .g/cm3       UNKNOWN        : DRHO:registros:rC:NONE:v0 (auto-composite)
DT       .us/ft       UNKNOWN        : DT:registros:rC:NONE:v0 (auto-composite)
GR       .API         UNKNOWN        : GR:registros:rC:NONE:v0 (auto-composite)
ILD      .ohm.m       UNKNOWN        : ILD:registros:rC:NONE:v0 (auto-composite)
LLD      .ohm.m       UNKNOWN        : LLD:registros:rC:NONE:v0 (auto-composite)
LLS      .ohm.m       UNKNOWN        : LLS:registros:rC:NONE:v0 (auto-composite)
MSFL     .ohm.m       UNKNOWN        : MSFL:registros:rC:NONE:v0 (auto-composite)
NPHI     .UNKNOWN     UNKNOWN        : NPHI:registros:rC:NONE:v0 (auto-composite)
PEF      .UNKNOWN     UNKNOWN        : PEF:registros:rC:NONE:v0 (auto-composite)
POTA     .UNKNOWN     UNKNOWN        : POTA:registros:rC:NONE:v0 (auto-composite)
RHOB     .g/cm3       UNKNOWN        : RHOB:registros:rC:NONE:v0 (auto-composite)
SIGM     .UNKNOWN     UNKNOWN        : SIGM:registros:rC:NONE:v0 (auto-composite)
SP       .mV          UNKNOWN        : SP:registros:rC:NONE:v0 (auto-composite)
THOR     .ppm         UNKNOWN        : THOR:registros:rC:NONE:v0 (auto-composite)
URAN     .ppm         UNKNOWN        : URAN:registros:rC:NONE:v0 (auto-composite)
~A     DEPTH         CALI          CGR         DRHO           DT           GR          ILD          LLD          LLS         MSFL         NPHI          PEF         POTA         RHOB         SIGM           SP         THOR         URAN
# ...
   1384.2490    -999.2500    -999.2500    -999.2500    -999.2500    -999.2500    -999.2500    -999.2500    -999.2500    -999.2500    -999.2500    -999.2500    -999.2500    -999.2500    -999.2500    -999.2500    -999.2500    -999.2500
   1384.4014    -999.2500    -999.2500    -999.2500    -999.2500    -999.2500    -999.2500    -999.2500    -999.2500    -999.2500    -999.2500    -999.2500    -999.2500    -999.2500    -999.2500    -999.2500    -999.2500    -999.2500
   1384.5538    -999.2500    -999.2500    -999.2500    -999.2500    -999.2500    -999.2500    -999.2500    -999.2500    -999.2500    -999.2500    -999.2500    -999.2500    -999.2500    -999.2500    -999.2500    -999.2500    -999.2500
   1384.7062    -698.3530    -999.2500    -698.4280    -999.2500    -698.3530       0.2000    -999.2500    -999.2500    -999.2500    -999.2500    -999.2500    -999.2500    -697.7660    -999.2500    -999.2500    -999.2500    -999.2500
   1384.8586    -346.9153    -999.2500    -348.9948    -999.2500    -345.8934       0.1700    -999.2500    -999.2500    -999.2500      -3.5863    -999.2500    -999.2500    -347.4369    -999.2500    -999.2500    -999.2500    -999.2500
   1385.0110       3.8300    -999.2500      -0.2500    -999.2500       6.7180       0.1400       1.1310    -999.2500       0.2260      -0.2804    -999.2500    -999.2500       2.2020    -999.2500    -999.2500    -999.2500    -999.2500
   1385.1635       8.2526    -999.2500      -0.2270    -999.2500      14.4709    -999.2500      42.4716    -999.2500       0.3285      -0.1090    -999.2500    -999.2500       2.4928    -999.2500    -999.2500    -999.2500    -999.2500
   1385.3158      12.6670    -999.2500      -0.2040    -999.2500      22.2220    -999.2500      83.8020       0.2000       0.4310      -0.0661    -999.2500    -695.9640       2.7830    -999.2500       0.0000    -702.0200       0.0000
   1385.4683      12.6670    -999.2500      -0.1520    -999.2500      22.2220    -999.2500      80.6788       0.2000       0.4240       0.0261    -999.2500    -348.5287       2.7830    -999.2500      -0.0145    -358.4932      -0.0145
   1385.6206      12.6670    -999.2500      -0.1000    -999.2500      22.2220    -999.2500      77.5560       0.2000       0.4170       0.1166    -999.2500      -0.0200       2.7830    -999.2500      -0.0290     -13.9050      -0.0290
   1385.7729      12.6670    -999.2500      -0.1000    -999.2500      22.2220    -999.2500      83.4170       0.2000       0.4005       0.1200    -999.2500       0.0149       2.7830    -999.2500      -0.0290      -6.9637      -0.0290
   1385.9254      12.6670    -999.2500      -0.1000    -999.2500      22.2220    -999.2500      89.2780       0.2000       0.3840       0.1200    -999.2500       0.0500       2.7830    -999.2500      -0.0290       0.0000      -0.0290
   1386.0778      12.6670    -999.2500      -0.1000    -999.2500      22.2220    -999.2500      45.8044       0.2000       0.4005       0.1200    -999.2500       0.0500       2.7840    -999.2500      -0.0290       0.0000      -0.0290
   1386.2302      12.6670    -999.2500      -0.1000    -999.2500      22.2220    -999.2500       2.3250       0.2000       0.4170       0.1200    -999.2500       0.0500       2.7850    -999.2500      -0.0290       0.0000      -0.0290
   1386.3826      12.6670    -999.2500      -0.1000    -999.2500      22.2220    -999.2500       2.3530       0.2000       0.4055       0.1200    -999.2500       0.0500       2.7870    -999.2500      -0.0285       0.0000      -0.0285
   1386.5350      12.6670    -999.2500      -0.1000    -999.2500      22.2220    -999.2500       2.3810       0.2000       0.3940       0.1200    -999.2500       0.0500       2.7890    -999.2500      -0.0280       0.0000      -0.0280
   1386.6874      12.6670    -999.2500      -0.1000    -999.2500      22.2220    -999.2500       3.2353       0.2000       0.3655       0.1200    -999.2500       0.0500       2.7860    -999.2500      -0.0280       0.0000      -0.0280
   1386.8398      12.6670    -999.2500      -0.1000    -999.2500      22.2220    -999.2500       4.0900       0.2000       0.3370       0.1200    -999.2500       0.0500       2.7830    -999.2500      -0.0280       0.0000      -0.0280
   1386.9922      12.6670    -999.2500      -0.1000    -999.2500      22.2220    -999.2500      25.5196       0.2000       0.3105       0.1200    -999.2500       0.0500       2.7830    -999.2500      -0.0275       0.0000      -0.0275
   1387.1447      12.6670    -999.2500      -0.1000    -999.2500      22.2220    -999.2500      46.9430       0.2000       0.2840       0.1200    -999.2500       0.0500       2.7830    -999.2500      -0.0270       0.0000      -0.0270
   1387.2970      12.6670    -999.2500      -0.1000    -999.2500      22.2220    -999.2500      37.3604       0.1995       0.2405       0.1200    -999.2500       0.0500       2.7830    -999.2500      -0.0265       0.0000      -0.0265
   1387.4495      12.6670    -999.2500      -0.1000    -999.2500      22.2220    -999.2500      27.7870       0.1990       0.1970       0.1200    -999.2500       0.0500       2.7830    -999.2500      -0.0260       0.0000      -0.0260
   1387.6018      12.6670    -999.2500      -0.1000    -999.2500      22.2220    -999.2500      18.1324       0.1990       0.3361       0.1205    -999.2500       0.0500       2.7830    -999.2500      -0.0260       0.0000      -0.0260
   1387.7542      12.6670    -999.2500      -0.1000    -999.2500      22.2220    -999.2500       8.4860       0.1990       0.4750       0.1211    -999.2500       0.0500       2.7830    -999.2500      -0.0260       0.0000      -0.0260
   1387.9066      12.6670    -999.2500      -0.1000    -999.2500      22.2220    -999.2500       6.7974       0.1990       0.3560       0.1222    -999.2500       0.0500       2.7830    -999.2500      -0.0255       0.0000      -0.0255
   1388.0590      12.6670    -999.2500      -0.1000    -999.2500      22.2220    -999.2500       5.1100       0.1990       0.2370       0.1233    -999.2500       0.0500       2.7830    -999.2500      -0.0250       0.0000      -0.0250
   1388.2114      12.6670    -999.2500      -0.1000    -999.2500      22.2220    -999.2500       3.4470       0.1990       0.2580       0.1233    -999.2500       0.0500       2.7830    -999.2500      -0.0250       0.0000      -0.0250
   1388.3638      12.6670    -999.2500      -0.1000    -999.2500      22.2220    -999.2500       1.7850       0.1990       0.2790       0.1233    -999.2500       0.0500       2.7830    -999.2500      -0.0250       0.0000      -0.0250
   1388.5162      12.6670    -999.2500      -0.1000    -999.2500      22.2220    -999.2500       1.5069       0.1990       0.5231       0.1233    -999.2500       0.0450       2.7665    -999.2500       0.0759       1.9988       0.0759
   1388.6686      12.6670    -999.2500      -0.1000    -999.2500      22.2220    -999.2500       1.2290       0.1990       0.7670       0.1233    -999.2500       0.0400       2.7500    -999.2500       0.1770       4.0030       0.1770
   1388.8210      12.6670    -999.2500      -0.1000    -999.2500      22.2220    -999.2500       0.8434       0.1990       0.7215       0.1239    -999.2500       0.0230       2.7640    -999.2500       0.4964       3.9566       0.4960
   1388.9734      12.6670    -999.2500      -0.1000    -999.2500      22.2220    -999.2500       0.4580       0.1990       0.6760       0.1244    -999.2500       0.0060       2.7780    -999.2500       0.8160       3.9100       0.8160
   1389.1259      12.6670    -999.2500      -0.1000    -999.2500      22.7776    -999.2500       0.5290       0.1990       0.5555       0.1255    -999.2500       0.0060       2.8170    -999.2500       1.0535       3.7612       1.0531
   1389.2782      12.6670    -999.2500      -0.1000    -999.2500      23.3330    -999.2500       0.6000       0.1990       0.4350       0.1267    -999.2500       0.0060       2.8560    -999.2500       1.2910       3.6120       1.2910
   1389.4307      12.6670    -999.2500      -0.1000    -999.2500      22.7775    -999.2500       1.0555       0.1990       0.3605       0.1277    -999.2500       0.0065       2.8195    -999.2500       1.2845       3.4627       1.2845
