#------------------------------------------------------------------------------
#
#   Created by  : [OpenWorks] Log Export Utility (LEXP)
#   Created on  : 2016-05-23 17:52:12
#   Project     : CANT971
#   User        : R5K
#   Interpreter : PEP
#
#------------------------------------------------------------------------------
~VERSION INFORMATION
VERS. 2.0 : CWLS Log ASCII Standard - version 2.0
WRAP.  NO : One line per depth step
~WELL INFORMATION
#MNEMONIC   .UNIT                                           VALUE :DESCRIPTION
#------------------------------------------------------------------------------
STRT        .M                                           472.1350 :START DEPTH
STOP        .M                                          2749.2959 :STOP DEPTH
STEP        .M                                             0.1524 :STEP
NULL        .                                           -999.2500 :NULL VALUE
COMP        .                                   PEMEX EXPL & PROD :COMPANY
WELL        .                                                1082 :WELL
FLD         .                                           CANTARELL :FIELD
LOC         .                                             UNKNOWN :LOCATION
CNTY        .                                      CD. DEL CARMEN :COUNTY
STAT        .                                            CAMPECHE :STATE
CTRY        .                                              MEXICO :COUNTRY
SRVC        .                                             UNKNOWN :SERVICE COMPANY
DATE        .                                             UNKNOWN :LOG DATE
UWI         .                                          3060000508 :UNIQUE WELL ID
XCOORD      .                                       598501.860000 :SURFACE X
YCOORD      .                                      2149269.250000 :SURFACE Y
LAT         .                                           19.436526 :LATITUDE
LON         .                                          -92.061687 :LONGITUDE
ELEV        .M                                            27.6000 :SURFACE ELEV
ELEV_TYPE   .                                                  KB :ELEV TYPE
~CURVE INFORMATION
#MNEMONIC.UNIT        API CODE       : CURVE DESCRIPTION
#------------------------------------------------------------------------------
DEPTH    .M                          : Measured Depth
CALI     .inches      UNKNOWN        : CALI:registros:rC:NONE:v0 (auto-composite)
CGR      .API         UNKNOWN        : CGR:registros:rC:NONE:v0 (auto-composite)
DRHO     .g/cm3       UNKNOWN        : DRHO:registros:rC:NONE:v0 (auto-composite)
DT       .us/ft       UNKNOWN        : DT:registros:rC:NONE:v0 (auto-composite)
GR       .API         UNKNOWN        : GR:registros:rC:NONE:v0 (auto-composite)
ILD      .ohm.m       UNKNOWN        : ILD:registros:rC:NONE:v0 (auto-composite)
LLD      .ohm.m       UNKNOWN        : LLD:registros:rC:NONE:v0 (auto-composite)
LLS      .ohm.m       UNKNOWN        : LLS:registros:rC:NONE:v0 (auto-composite)
MSFL     .ohm.m       UNKNOWN        : MSFL:registros:rC:NONE:v0 (auto-composite)
NPHI     .UNKNOWN     UNKNOWN        : NPHI:registros:rC:NONE:v0 (auto-composite)
PEF      .UNKNOWN     UNKNOWN        : PEF:registros:rC:NONE:v0 (auto-composite)
POTA     .UNKNOWN     UNKNOWN        : POTA:registros:rC:NONE:v0 (auto-composite)
RHOB     .g/cm3       UNKNOWN        : RHOB:registros:rC:NONE:v0 (auto-composite)
SIGM     .UNKNOWN     UNKNOWN        : SIGM:registros:rC:NONE:v0 (auto-composite)
SP       .mV          UNKNOWN        : SP:registros:rC:NONE:v0 (auto-composite)
THOR     .ppm         UNKNOWN        : THOR:registros:rC:NONE:v0 (auto-composite)
URAN     .ppm         UNKNOWN        : URAN:registros:rC:NONE:v0 (auto-composite)
~A     DEPTH         CALI          CGR         DRHO           DT           GR          ILD          LLD          LLS         MSFL         NPHI          PEF         POTA         RHOB         SIGM           SP         THOR         URAN
# ...
   2200.3511       9.1110    -999.2500       0.0120      51.4440      40.0000    -999.2500      82.1770      84.5820     180.5450       0.0623       3.1000    -999.2500       2.6780    -999.2500    -999.2500    -999.2500    -999.2500
   2200.5034       9.0975    -999.2500       0.0070      54.0535      40.0000    -999.2500      82.1770      84.5820     144.3046       0.0679       3.2366    -999.2500       2.6905    -999.2500    -999.2500    -999.2500    -999.2500
   2200.6558       9.0840    -999.2500       0.0020      56.6550      40.0000    -999.2500      82.1770      84.5820     108.2340       0.0762       3.3730    -999.2500       2.7030    -999.2500    -999.2500    -999.2500    -999.2500
   2200.8081       9.0920    -999.2500       0.0070      54.0456      39.7565    -999.2500      95.2353      97.6664     159.4839       0.0778       3.2364    -999.2500       2.6905    -999.2500    -999.2500    -999.2500    -999.2500
   2200.9607       9.1000    -999.2500       0.0120      51.4440      39.5130    -999.2500     108.2340     110.6910     210.5000       0.0766       3.1000    -999.2500       2.6780    -999.2500    -999.2500    -999.2500    -999.2500
   2201.1130       9.0735    -999.2500       0.0185      53.5885      38.6457    -999.2500     114.0785     110.6910     135.9086       0.0762       3.2006    -999.2500       2.7160    -999.2500    -999.2500    -999.2500    -999.2500
   2201.2654       9.0470    -999.2500       0.0250      55.7270      37.7780    -999.2500     119.8970     110.6910      61.6480       0.0736       3.3010    -999.2500       2.7540    -999.2500    -999.2500    -999.2500    -999.2500
   2201.4177       9.0735    -999.2500       0.0160      54.0002      38.6453    -999.2500     114.0529     112.3070     136.2349       0.0657       3.2315    -999.2500       2.7205    -999.2500    -999.2500    -999.2500    -999.2500
   2201.5703       9.1000    -999.2500       0.0070      52.2780      39.5130    -999.2500     108.2340     113.9160     210.5000       0.0578       3.1620    -999.2500       2.6870    -999.2500    -999.2500    -999.2500    -999.2500
   2201.7227       9.0345    -999.2500       0.0110      52.2780      38.8907    -999.2500     112.7405     105.7935     153.4927       0.0552       3.0615    -999.2500       2.7245    -999.2500    -999.2500    -999.2500    -999.2500
   2201.8750       8.9690    -999.2500       0.0150      52.2780      38.2680    -999.2500     117.2210      97.7050      96.8150       0.0569       2.9610    -999.2500       2.7620    -999.2500    -999.2500    -999.2500    -999.2500
   2202.0273       9.0080    -999.2500       0.0235      52.6610      40.7996    -999.2500     104.9919     105.8270     215.5532       0.0620       3.0615    -999.2500       2.7540    -999.2500    -999.2500    -999.2500    -999.2500
   2202.1799       9.0470    -999.2500       0.0320      53.0430      43.3330    -999.2500      92.8320     113.9160     333.6200       0.0668       3.1620    -999.2500       2.7460    -999.2500    -999.2500    -999.2500    -999.2500
   2202.3323       9.0320    -999.2500       0.0290      53.2998      42.8397    -999.2500      95.2753     105.7945     280.0027       0.0676       3.1535    -999.2500       2.7520    -999.2500    -999.2500    -999.2500    -999.2500
   2202.4846       9.0170    -999.2500       0.0260      53.5560      42.3460    -999.2500      97.7050      97.7050     226.6820       0.0667       3.1450    -999.2500       2.7580    -999.2500    -999.2500    -999.2500    -999.2500
   2202.6370       9.0045    -999.2500       0.0260      53.5560      42.3460    -999.2500      95.2619      95.2638     147.2719       0.0664       3.0625    -999.2500       2.7715    -999.2500    -999.2500    -999.2500    -999.2500
   2202.7893       8.9920    -999.2500       0.0260      53.5560      42.3460    -999.2500      92.8320      92.8320      68.2910       0.0671       2.9800    -999.2500       2.7850    -999.2500    -999.2500    -999.2500    -999.2500
   2202.9419       9.0045    -999.2500       0.0380      54.3593      38.9529    -999.2500      95.2750      95.2730     147.6963       0.0691       3.0626    -999.2500       2.7715    -999.2500    -999.2500    -999.2500    -999.2500
   2203.0942       9.0170    -999.2500       0.0500      55.1610      35.5560    -999.2500      97.7050      97.7050     226.6820       0.0711       3.1450    -999.2500       2.7580    -999.2500    -999.2500    -999.2500    -999.2500
   2203.2466       9.1415    -999.2500       0.0515      55.9903      35.5560    -999.2500      95.2622      95.2642     149.0790       0.0718       3.0719    -999.2500       2.7695    -999.2500    -999.2500    -999.2500    -999.2500
   2203.3989       9.2660    -999.2500       0.0530      56.8180      35.5560    -999.2500      92.8320      92.8320      71.8760       0.0698       2.9990    -999.2500       2.7810    -999.2500    -999.2500    -999.2500    -999.2500
   2203.5515       9.1310    -999.2500       0.0480      55.9887      37.4707    -999.2500      86.4189      85.3096      80.0591       0.0637       3.3648    -999.2500       2.7530    -999.2500    -999.2500    -999.2500    -999.2500
   2203.7039       8.9960    -999.2500       0.0430      55.1610      39.3880    -999.2500      80.0380      77.8130      88.2010       0.0564       3.7300    -999.2500       2.7250    -999.2500    -999.2500    -999.2500    -999.2500
   2203.8562       9.2595    -999.2500       0.0335      55.6498      39.6938    -999.2500      80.0380      77.8130      85.3440       0.0506       3.7300    -999.2500       2.7250    -999.2500    -999.2500    -999.2500    -999.2500
   2204.0085       9.5230    -999.2500       0.0240      56.1370      40.0000    -999.2500      80.0380      77.8130      82.5010       0.0480       3.7300    -999.2500       2.7250    -999.2500    -999.2500    -999.2500    -999.2500
   2204.1609       9.2930    -999.2500       0.0365      55.2000      38.8899    -999.2500      74.3208      73.2147      90.1212       0.0506       3.6329    -999.2500       2.7455    -999.2500    -999.2500    -999.2500    -999.2500
   2204.3135       9.0630    -999.2500       0.0490      54.2660      37.7780    -999.2500      68.6310      68.6310      97.7050       0.0539       3.5360    -999.2500       2.7660    -999.2500    -999.2500    -999.2500    -999.2500
   2204.4658       9.0980    -999.2500       0.0450      53.6861      37.7780    -999.2500      68.6310      68.6310     105.8294       0.0537       3.5360    -999.2500       2.7620    -999.2500    -999.2500    -999.2500    -999.2500
   2204.6182       9.1330    -999.2500       0.0410      53.1080      37.7780    -999.2500      68.6310      68.6310     113.9160       0.0510       3.5360    -999.2500       2.7580    -999.2500    -999.2500    -999.2500    -999.2500
   2204.7705       9.0980    -999.2500       0.0475      53.6879      40.1497    -999.2500      54.7535      60.8604      94.7395       0.0466       3.2903    -999.2500       2.7805    -999.2500    -999.2500    -999.2500    -999.2500
   2204.9231       9.0630    -999.2500       0.0540      54.2660      42.5220    -999.2500      40.9390      53.1250      75.6500       0.0436       3.0450    -999.2500       2.8030    -999.2500    -999.2500    -999.2500    -999.2500
   2205.0754       9.0630    -999.2500       0.0385      53.7388      44.0387    -999.2500      40.9390      47.0186      91.9780       0.0449       3.0450    -999.2500       2.7835    -999.2500    -999.2500    -999.2500    -999.2500
   2205.2278       9.0630    -999.2500       0.0230      53.2130      45.5560    -999.2500      40.9390      40.9390     108.2340       0.0466       3.0450    -999.2500       2.7640    -999.2500    -999.2500    -999.2500    -999.2500
   2205.3801       9.0665    -999.2500       0.0385      53.4388      44.0394    -999.2500      45.2628      47.0451      91.9070       0.0449       3.3452    -999.2500       2.7835    -999.2500    -999.2500    -999.2500    -999.2500
   2205.5327       9.0700    -999.2500       0.0540      53.6640      42.5220    -999.2500      49.5680      53.1250      75.6500       0.0431       3.6450    -999.2500       2.8030    -999.2500    -999.2500    -999.2500    -999.2500
