#------------------------------------------------------------------------------
#
#   Created by  : [OpenWorks] Log Export Utility (LEXP)
#   Created on  : 2016-05-23 17:52:12
#   Project     : CANT971
#   User        : R5K
#   Interpreter : PEP
#
#------------------------------------------------------------------------------
~VERSION INFORMATION
VERS. 2.0 : CWLS Log ASCII Standard - version 2.0
WRAP.  NO : One line per depth step
~WELL INFORMATION
#MNEMONIC   .UNIT                                           VALUE :DESCRIPTION
#------------------------------------------------------------------------------
STRT        .M                                           472.1350 :START DEPTH
STOP        .M                                          2749.2959 :STOP DEPTH
STEP        .M                                             0.1524 :STEP
NULL        .                                           -999.2500 :NULL VALUE
COMP        .                                   PEMEX EXPL & PROD :COMPANY
WELL        .                                                1082 :WELL
FLD         .                                           CANTARELL :FIELD
LOC         .                                             UNKNOWN :LOCATION
CNTY        .                                      CD. DEL CARMEN :COUNTY
STAT        .                                            CAMPECHE :STATE
CTRY        .                                              MEXICO :COUNTRY
SRVC        .                                             UNKNOWN :SERVICE COMPANY
DATE        .                                             UNKNOWN :LOG DATE
UWI         .                                          3060000508 :UNIQUE WELL ID
XCOORD      .                                       598501.860000 :SURFACE X
YCOORD      .                                      2149269.250000 :SURFACE Y
LAT         .                                           19.436526 :LATITUDE
LON         .                                          -92.061687 :LONGITUDE
ELEV        .M                                            27.6000 :SURFACE ELEV
ELEV_TYPE   .                                                  KB :ELEV TYPE
~CURVE INFORMATION
#MNEMONIC.UNIT        API CODE       : CURVE DESCRIPTION
#------------------------------------------------------------------------------
DEPTH    .M                          : Measured Depth
CALI     .inches      UNKNOWN        : CALI:registros:rC:NONE:v0 (auto-composite)
CGR      .API         UNKNOWN        : CGR:registros:rC:NONE:v0 (auto-composite)
DRHO     .g/cm3       UNKNOWN        : DRHO:registros:rC:NONE:v0 (auto-composite)
DT       .us/ft       UNKNOWN        : DT:registros:rC:NONE:v0 (auto-composite)
GR       .API         UNKNOWN        : GR:registros:rC:NONE:v0 (auto-composite)
ILD      .ohm.m       UNKNOWN        : ILD:registros:rC:NONE:v0 (auto-composite)
LLD      .ohm.m       UNKNOWN        : LLD:registros:rC:NONE:v0 (auto-composite)
LLS      .ohm.m       UNKNOWN        : LLS:registros:rC:NONE:v0 (auto-composite)
MSFL     .ohm.m       UNKNOWN        : MSFL:registros:rC:NONE:v0 (auto-composite)
NPHI     .UNKNOWN     UNKNOWN        : NPHI:registros:rC:NONE:v0 (auto-composite)
PEF      .UNKNOWN     UNKNOWN        : PEF:registros:rC:NONE:v0 (auto-composite)
POTA     .UNKNOWN     UNKNOWN        : POTA:registros:rC:NONE:v0 (auto-composite)
RHOB     .g/cm3       UNKNOWN        : RHOB:registros:rC:NONE:v0 (auto-composite)
SIGM     .UNKNOWN     UNKNOWN        : SIGM:registros:rC:NONE:v0 (auto-composite)
SP       .mV          UNKNOWN        : SP:registros:rC:NONE:v0 (auto-composite)
THOR     .ppm         UNKNOWN        : THOR:registros:rC:NONE:v0 (auto-composite)
URAN     .ppm         UNKNOWN        : URAN:registros:rC:NONE:v0 (auto-composite)
~A     DEPTH         CALI          CGR         DRHO           DT           GR          ILD          LLD          LLS         MSFL         NPHI          PEF         POTA         RHOB         SIGM           SP         THOR         URAN
# ...
   1565.6050      15.7780       9.1843      -0.0140    -999.2500      28.7973    -999.2500    1679.0249     118.3009      80.3360       0.1683       8.4445       0.0035       2.5885    -999.2500       2.8235       1.5610       2.8236
   1565.7574      15.7780       9.4430      -0.0110    -999.2500      29.6120    -999.2500    1897.1450     118.8860      82.9280       0.1734       8.8870       0.0030       2.5940    -999.2500       2.7270       1.5870       2.7270
   1565.9098      15.8335       9.0294      -0.0055    -999.2500      28.8112    -999.2500    1969.2908     114.0387      71.8041       0.1683       9.3881       0.0025       2.6025    -999.2500       2.6755       1.3198       2.6756
   1566.0623      15.8890       8.6140       0.0000    -999.2500      28.0100    -999.2500    2041.3600     109.1810      60.6920       0.1600       9.8870       0.0020       2.6110    -999.2500       2.6240       1.0520       2.6240
   1566.2146      15.8890       8.2846      -0.0030    -999.2500      27.9945    -999.2500    2040.5381     100.2965      65.2821       0.1517      11.2794       0.0020       2.6220    -999.2500       2.6245       1.0080       2.6245
   1566.3671      15.8890       7.9540      -0.0060    -999.2500      27.9790    -999.2500    2039.7170      91.3990      69.8680       0.1430      12.6660       0.0020       2.6330    -999.2500       2.6250       0.9640       2.6250
   1566.5194      15.8335       7.8248      -0.0085    -999.2500      25.8309    -999.2500    1972.1453      79.1484      43.9025       0.1333      16.1179       0.0025       2.6470    -999.2500       2.6435       0.7932       2.6435
   1566.6718      15.7780       7.6950      -0.0110    -999.2500      23.6810    -999.2500    1904.6281      66.8880      17.9580       0.1252      19.5560       0.0030       2.6610    -999.2500       2.6620       0.6220       2.6620
   1566.8242      15.5552       7.0758      -0.0110    -999.2500      25.0504    -999.2500    1433.7798      59.2450      63.8567       0.1233      19.5540       0.0030       2.6585    -999.2500       2.6950       0.6220       2.6950
   1566.9766      15.3330       6.4540      -0.0110    -999.2500      26.4210    -999.2500     963.2530      51.5950     109.7240       0.1256      19.5520       0.0030       2.6560    -999.2500       2.7280       0.6220       2.7280
   1567.1290      15.3330       7.2683      -0.0165    -999.2500      25.3031    -999.2500     818.0694      50.0388     109.5639       0.1350      18.1569       0.0035       2.6560    -999.2500       2.7830       0.8083       2.7829
   1567.2814      15.3330       8.0860      -0.0220    -999.2500      24.1840    -999.2500     673.0830      48.4810     109.4040       0.1444      16.7670       0.0040       2.6560    -999.2500       2.8380       0.9950       2.8380
   1567.4338      15.3886       8.0850      -0.0220    -999.2500      26.4867    -999.2500     649.5586      47.4086      63.8537       0.1466      14.8721       0.0040       2.6750    -999.2500       2.9115       0.9945       2.9114
   1567.5862      15.4440       8.0840      -0.0220    -999.2500      28.7920    -999.2500     626.0820      46.3350      18.3960       0.1437      12.9840       0.0040       2.6940    -999.2500       2.9850       0.9940       2.9850
   1567.7386      15.4445       7.8440      -0.0220    -999.2500      27.6208    -999.2500     554.5423      39.0382      21.3593       0.1316      10.9800       0.0035       2.7190    -999.2500       3.1814       0.8812       3.1812
   1567.8910      15.4450       7.6030      -0.0220    -999.2500      26.4480    -999.2500     483.1390      31.7320      24.3170       0.1169       8.9830       0.0030       2.7440    -999.2500       3.3780       0.7680       3.3780
   1568.0435      15.5005       7.2388      -0.0195    -999.2500      26.4555    -999.2500     306.7399      31.1249      24.1368       0.1033       7.3733       0.0025       2.7440    -999.2500       3.3775       0.7635       3.3775
   1568.1958      15.5560       6.8730      -0.0170    -999.2500      26.4630    -999.2500     130.6550      30.5170      23.9570       0.0925       5.7690       0.0020       2.7440    -999.2500       3.3770       0.7590       3.3770
   1568.3483      15.5565       6.7358      -0.0170    -999.2500      27.7360    -999.2500     117.6622      22.0366      13.1531       0.0900       4.8827       0.0015       2.7325    -999.2500       3.3005       0.4081       3.3006
   1568.5006      15.5570       6.5980      -0.0170    -999.2500      29.0090    -999.2500     104.6910      13.5430       2.3670       0.0914       4.0000       0.0010       2.7210    -999.2500       3.2240       0.0560       3.2240
   1568.6530      15.6130       4.9505      -0.0140    -999.2500      24.1572    -999.2500      68.6249      10.9277       1.9352       0.0970       4.0000       0.0005       2.6770    -999.2500       3.2245       0.0565       3.2245
   1568.8054      15.6690       3.2950      -0.0110    -999.2500      19.3050    -999.2500      32.6140       8.3080       1.5040       0.1082       4.0000       0.0000       2.6330    -999.2500       3.2250       0.0570       3.2250
   1568.9578      15.7811       1.0387      -0.0140    -999.2500      19.3270    -999.2500      32.6510       8.3165       1.5165       0.1340       4.0005       0.0000       2.6195    -999.2500       3.2490       0.0869       3.2490
   1569.1102      15.8930      -1.2290      -0.0170    -999.2500      19.3490    -999.2500      32.6880       8.3250       1.5290       0.1649       4.0010       0.0000       2.6060    -999.2500       3.2730       0.1170       3.2730
   1569.2626      16.4469       0.1554      -0.0170    -999.2500      21.5376    -999.2500      37.1188       9.2786      13.6948       0.1989       4.0586       0.0005       2.5830    -999.2500       3.4445       0.1175       3.4443
   1569.4150      17.0000       1.5470      -0.0170    -999.2500      23.7270    -999.2500      41.5440      10.2340      25.8450       0.2320       4.1160       0.0010       2.5600    -999.2500       3.6160       0.1180       3.6160
   1569.5674      16.9995       1.5385      -0.0170    -999.2500      24.7793    -999.2500     134.4536      17.7723      25.7805       0.2586       4.3365       0.0010       2.4830    -999.2500       3.6155       0.1190       3.6155
   1569.7198      16.9990       1.5300      -0.0170    -999.2500      25.8320    -999.2500     227.2560      25.3260      25.7160       0.2787       4.5560       0.0010       2.4060    -999.2500       3.6150       0.1200       3.6150
   1569.8722      16.6658       0.6944      -0.0055    -999.2500      24.6413    -999.2500     227.2435      25.3185      21.4463       0.2829       4.2774       0.0010       2.4060    -999.2500       3.5315       0.1210       3.5316
   1570.0247      16.3330      -0.1450       0.0060    -999.2500      23.4500    -999.2500     227.2310      25.3110      17.1810       0.2775       4.0000       0.0010       2.4060    -999.2500       3.4480       0.1220       3.4480
   1570.1770      16.3330      -0.1410       0.0030    -999.2500      23.4750    -999.2500     225.9334      24.7045      11.7045       0.2545       4.0000       0.0010       2.4175    -999.2500       3.4495       0.1230       3.4495
   1570.3295      16.3330      -0.1370       0.0000    -999.2500      23.5000    -999.2500     224.6370      24.0970       6.2330       0.2295       4.0000       0.0010       2.4290    -999.2500       3.4510       0.1240       3.4510
   1570.4818      16.3320       0.1225       0.0000    -999.2500      25.1638    -999.2500     201.0078      19.7483       6.2555       0.2149       4.0010       0.0015       2.4785    -999.2500       3.5295       0.1255       3.5294
   1570.6342      16.3310       0.3830       0.0000    -999.2500      26.8290    -999.2500     177.3970      15.3960       6.2780       0.2061       4.0020       0.0020       2.5280    -999.2500       3.6080       0.1270       3.6080
   1570.7866      16.1653       1.0756       0.0000    -999.2500      29.1464    -999.2500     155.0097      15.4200       8.1061       0.2067       4.0586       0.0020       2.5280    -999.2500       3.8364       0.2204       3.8362
