#------------------------------------------------------------------------------
#
#   Created by  : [OpenWorks] Log Export Utility (LEXP)
#   Created on  : 2016-05-23 17:52:12
#   Project     : CANT971
#   User        : R5K
#   Interpreter : PEP
#
#------------------------------------------------------------------------------
~VERSION INFORMATION
VERS. 2.0 : CWLS Log ASCII Standard - version 2.0
WRAP.  NO : One line per depth step
~WELL INFORMATION
#MNEMONIC   .UNIT                                           VALUE :DESCRIPTION
#------------------------------------------------------------------------------
STRT        .M                                           472.1350 :START DEPTH
STOP        .M                                          2749.2959 :STOP DEPTH
STEP        .M                                             0.1524 :STEP
NULL        .                                           -999.2500 :NULL VALUE
COMP        .                                   PEMEX EXPL & PROD :COMPANY
WELL        .                                                1082 :WELL
FLD         .                                           CANTARELL :FIELD
LOC         .                                             UNKNOWN :LOCATION
CNTY        .                                      CD. DEL CARMEN :COUNTY
STAT        .                                            CAMPECHE :STATE
CTRY        .                                              MEXICO :COUNTRY
SRVC        .                                             UNKNOWN :SERVICE COMPANY
DATE        .                                             UNKNOWN :LOG DATE
UWI         .                                          3060000508 :UNIQUE WELL ID
XCOORD      .                                       598501.860000 :SURFACE X
YCOORD      .                                      2149269.250000 :SURFACE Y
LAT         .                                           19.436526 :LATITUDE
LON         .                                          -92.061687 :LONGITUDE
ELEV        .M                                            27.6000 :SURFACE ELEV
ELEV_TYPE   .                                                  KB :ELEV TYPE
~CURVE INFORMATION
#MNEMONIC.UNIT        API CODE       : CURVE DESCRIPTION
#------------------------------------------------------------------------------
DEPTH    .M                          : Measured Depth
CALI     .inches      UNKNOWN        : CALI:registros:rC:NONE:v0 (auto-composite)
CGR      .API         UNKNOWN        : CGR:registros:rC:NONE:v0 (auto-composite)
DRHO     .g/cm3       UNKNOWN        : DRHO:registros:rC:NONE:v0 (auto-composite)
DT       .us/ft       UNKNOWN        : DT:registros:rC:NONE:v0 (auto-composite)
GR       .API         UNKNOWN        : GR:registros:rC:NONE:v0 (auto-composite)
ILD      .ohm.m       UNKNOWN        : ILD:registros:rC:NONE:v0 (auto-composite)
LLD      .ohm.m       UNKNOWN        : LLD:registros:rC:NONE:v0 (auto-composite)
LLS      .ohm.m       UNKNOWN        : LLS:registros:rC:NONE:v0 (auto-composite)
MSFL     .ohm.m       UNKNOWN        : MSFL:registros:rC:NONE:v0 (auto-composite)
NPHI     .UNKNOWN     UNKNOWN        : NPHI:registros:rC:NONE:v0 (auto-composite)
PEF      .UNKNOWN     UNKNOWN        : PEF:registros:rC:NONE:v0 (auto-composite)
POTA     .UNKNOWN     UNKNOWN        : POTA:registros:rC:NONE:v0 (auto-composite)
RHOB     .g/cm3       UNKNOWN        : RHOB:registros:rC:NONE:v0 (auto-composite)
SIGM     .UNKNOWN     UNKNOWN        : SIGM:registros:rC:NONE:v0 (auto-composite)
SP       .mV          UNKNOWN        : SP:registros:rC:NONE:v0 (auto-composite)
THOR     .ppm         UNKNOWN        : THOR:registros:rC:NONE:v0 (auto-composite)
URAN     .ppm         UNKNOWN        : URAN:registros:rC:NONE:v0 (auto-composite)
~A     DEPTH         CALI          CGR         DRHO           DT           GR          ILD          LLD          LLS         MSFL         NPHI          PEF         POTA         RHOB         SIGM           SP         THOR         URAN
# ...
   1474.9270      18.6950       0.7630       0.1170    -999.2500      15.5680    -999.2500       3.8890       3.3960       2.8580       0.2250       3.8870       0.0040       2.2960    -999.2500       2.3130       0.1300       2.3130
   1475.0795      19.6818       2.4954       0.0895    -999.2500      20.9126    -999.2500       2.9916       2.9129       1.7255       0.1900       3.1201       0.0055       2.2154    -999.2500       2.3425       0.1605       2.3425
   1475.2318      20.6670       4.2360       0.0620    -999.2500      26.2570    -999.2500       2.0950       2.4290       0.5940       0.1645       2.3570       0.0070       2.1350    -999.2500       2.3720       0.1910       2.3720
   1475.3842      20.3332       6.0730       0.0225    -999.2500      25.5205    -999.2500       1.7447       1.9339       0.4639       0.1739       2.0668       0.0060       2.0424    -999.2500       2.3505       0.1835       2.3505
   1475.5366      20.0000       7.9190      -0.0170    -999.2500      24.7840    -999.2500       1.3950       1.4380       0.3340       0.1991       1.7780       0.0050       1.9500    -999.2500       2.3290       0.1760       2.3290
   1475.6890      20.7966       7.8806      -0.0500    -999.2500      23.6581    -999.2500       1.4125       1.1887       0.3865       0.2279       1.9228       0.0050       1.9500    -999.2500       2.2665       0.1036       2.2666
   1475.8414      21.5920       7.8420      -0.0830    -999.2500      22.5320    -999.2500       1.4300       0.9390       0.4390       0.2598       2.0670       0.0050       1.9500    -999.2500       2.2040       0.0310       2.2040
   1475.9938      22.4075       7.6699      -0.0815    -999.2500      22.9409    -999.2500       2.3806       0.9675       0.8242       0.2957       2.7991       0.0050       2.0010    -999.2500       2.0770      -0.0114       2.0772
   1476.1462      23.2220       7.4970      -0.0800    -999.2500      23.3500    -999.2500       3.3300       0.9960       1.2090       0.3235       3.5280       0.0050       2.0520    -999.2500       1.9500      -0.0540       1.9500
   1476.2986      23.1129       7.3928      -0.0515    -999.2500      21.2130    -999.2500      11.5422       1.6164       3.2507       0.3279       4.2761       0.0050       2.1936    -999.2500       1.7181      -0.0171       1.7183
   1476.4510      23.0040       7.2880      -0.0230    -999.2500      19.0750    -999.2500      19.7450       2.2380       5.2900       0.3200       5.0210       0.0050       2.3350    -999.2500       1.4860       0.0200       1.4860
   1476.6034      22.5096       6.3181       0.0115    -999.2500      15.7025    -999.2500      47.4085       8.4911     243.4421       0.3062       5.5246       0.0035       2.4501    -999.2500       1.2596       0.0655       1.2597
   1476.7559      22.0160       5.3430       0.0460    -999.2500      12.3280    -999.2500      75.0440      14.7580     481.3530       0.2952       6.0260       0.0020       2.5650    -999.2500       1.0330       0.1110       1.0330
   1476.9082      21.1649       2.7786       0.0700    -999.2500      10.0523    -999.2500      97.4915      26.1313     383.3885       0.2967       6.2895       0.0010       2.5990    -999.2500       0.9270       0.1530       0.9271
   1477.0607      20.3160       0.2000       0.0940    -999.2500       7.7750    -999.2500     119.9190      37.5310     285.5110       0.2955       6.5520       0.0000       2.6330    -999.2500       0.8210       0.1950       0.8210
   1477.2130      19.2968       0.3671       0.0725    -999.2500       6.5290    -999.2500     105.2669      39.9995     152.1282       0.2759       6.6652       0.0000       2.6470    -999.2500       0.8700       0.1860       0.8699
   1477.3654      18.2800       0.5350       0.0510    -999.2500       5.2820    -999.2500      90.6260      42.4740      18.8470       0.2367       6.7780       0.0000       2.6610    -999.2500       0.9190       0.1770       0.9190
   1477.5178      17.2498       0.4068       0.0285    -999.2500       6.5204    -999.2500      74.2893      39.2147      49.7283       0.1695       6.4849       0.0005       2.6540    -999.2500       1.0939       0.1490       1.0938
   1477.6702      16.2220       0.2780       0.0060    -999.2500       7.7600    -999.2500      57.9630      35.9470      80.5900       0.0994       6.1930       0.0010       2.6470    -999.2500       1.2690       0.1210       1.2690
   1477.8226      16.2220       0.6851       0.0115    -999.2500       9.8958    -999.2500      50.0520      29.4138      64.8315       0.0502       5.8569       0.0010       2.6355    -999.2500       1.5169       0.0596       1.5167
   1477.9750      16.2220       1.0940       0.0170    -999.2500      12.0340    -999.2500      42.1450      22.8630      49.0810       0.0198       5.5220       0.0010       2.6240    -999.2500       1.7650      -0.0020       1.7650
   1478.1274      15.7771       2.6316       0.0215    -999.2500      12.9944    -999.2500      37.3751      19.7149      40.1148       0.0122       5.3160       0.0015       2.6120    -999.2500       1.9399       0.0459       1.9398
   1478.2798      15.3330       4.1760       0.0260    -999.2500      13.9560    -999.2500      32.6070      16.5580      31.1520       0.0152       5.1110       0.0020       2.6000    -999.2500       2.1150       0.0940       2.1150
   1478.4323      15.3330       5.2131       0.0285    -999.2500      17.8010    -999.2500      29.7891      15.9204      23.4840       0.0200       5.2223       0.0020       2.6020    -999.2500       2.1915       0.1973       2.1914
   1478.5846      15.3330       6.2550       0.0310    -999.2500      21.6480    -999.2500      26.9720      15.2810      15.8180       0.0259       5.3330       0.0020       2.6040    -999.2500       2.2680       0.3010       2.2680
   1478.7371      15.3700       5.8679       0.0375    -999.2500      20.6779    -999.2500      25.0479      15.0008      93.2927       0.0327       5.2593       0.0020       2.6105    -999.2500       2.2585       0.3449       2.2585
   1478.8894      15.4070       5.4790       0.0440    -999.2500      19.7080    -999.2500      23.1240      14.7200     170.7570       0.0364       5.1860       0.0020       2.6170    -999.2500       2.2490       0.3890       2.2490
   1479.0419      15.4625       4.4460       0.0315    -999.2500      21.3805    -999.2500      21.7254      13.7872     122.9076       0.0317       5.0376       0.0030       2.6150    -999.2500       2.2980       0.3061       2.2979
   1479.1942      15.5180       3.4080       0.0190    -999.2500      23.0530    -999.2500      20.3280      12.8530      75.0970       0.0268       4.8900       0.0040       2.6130    -999.2500       2.3470       0.2230       2.3470
   1479.3466      15.6111       5.1178       0.0040    -999.2500      25.1729    -999.2500      18.7914      11.8349      49.3219       0.0300       4.7782       0.0045       2.6025    -999.2500       2.4350       0.3268       2.4349
   1479.4990      15.7040       6.8360      -0.0110    -999.2500      27.2930    -999.2500      17.2570      10.8150      23.5850       0.0400       4.6670       0.0050       2.5920    -999.2500       2.5230       0.4310       2.5230
   1479.6514      15.7966       8.1003      -0.0055    -999.2500      26.2771    -999.2500      15.2481      10.0777      14.9651       0.0578       4.7783       0.0055       2.5745    -999.2500       2.4645       0.4070       2.4646
   1479.8038      15.8890       9.3710       0.0000    -999.2500      25.2610    -999.2500      13.2420       9.3390       6.3570       0.0776       4.8890       0.0060       2.5570    -999.2500       2.4060       0.3830       2.4060
   1479.9562      15.8335       8.7681       0.0110    -999.2500      24.1892    -999.2500      13.3971       9.8480       7.8469       0.0944       5.0188       0.0035       2.5370    -999.2500       2.2560       0.3351       2.2563
   1480.1086      15.7780       8.1620       0.0220    -999.2500      23.1170    -999.2500      13.5520      10.3580       9.3350       0.1040       5.1480       0.0010       2.5170    -999.2500       2.1060       0.2870       2.1060
