#------------------------------------------------------------------------------
#
#   Created by  : [OpenWorks] Log Export Utility (LEXP)
#   Created on  : 2016-05-23 17:52:12
#   Project     : CANT971
#   User        : R5K
#   Interpreter : PEP
#
#------------------------------------------------------------------------------
~VERSION INFORMATION
VERS. 2.0 : CWLS Log ASCII Standard - version 2.0
WRAP.  NO : One line per depth step
~WELL INFORMATION
#MNEMONIC   .UNIT                                           VALUE :DESCRIPTION
#------------------------------------------------------------------------------
STRT        .M                                           472.1350 :START DEPTH
STOP        .M                                          2749.2959 :STOP DEPTH
STEP        .M                                             0.1524 :STEP
NULL        .                                           -999.2500 :NULL VALUE
COMP        .                                   PEMEX EXPL & PROD :COMPANY
WELL        .                                                1082 :WELL
FLD         .                                           CANTARELL :FIELD
LOC         .                                             UNKNOWN :LOCATION
CNTY        .                                      CD. DEL CARMEN :COUNTY
STAT        .                                            CAMPECHE :STATE
CTRY        .                                              MEXICO :COUNTRY
SRVC        .                                             UNKNOWN :SERVICE COMPANY
DATE        .                                             UNKNOWN :LOG DATE
UWI         .                                          3060000508 :UNIQUE WELL ID
XCOORD      .                                       598501.860000 :SURFACE X
YCOORD      .                                      2149269.250000 :SURFACE Y
LAT         .                                           19.436526 :LATITUDE
LON         .                                          -92.061687 :LONGITUDE
ELEV        .M                                            27.6000 :SURFACE ELEV
ELEV_TYPE   .                                                  KB :ELEV TYPE
~CURVE INFORMATION
#MNEMONIC.UNIT        API CODE       : CURVE DESCRIPTION
#------------------------------------------------------------------------------
DEPTH    .M                          : Measured Depth
CALI     .inches      UNKNOWN        : CALI:registros:rC:NONE:v0 (auto-composite)
CGR      .API         UNKNOWN        : CGR:registros:rC:NONE:v0 (auto-composite)
DRHO     .g/cm3       UNKNOWN        : DRHO:registros:rC:NONE:v0 (auto-composite)
DT       .us/ft       UNKNOWN        : DT:registros:rC:NONE:v0 (auto-composite)
GR       .API         UNKNOWN        : GR:registros:rC:NONE:v0 (auto-composite)
ILD      .ohm.m       UNKNOWN        : ILD:registros:rC:NONE:v0 (auto-composite)
LLD      .ohm.m       UNKNOWN        : LLD:registros:rC:NONE:v0 (auto-composite)
LLS      .ohm.m       UNKNOWN        : LLS:registros:rC:NONE:v0 (auto-composite)
MSFL     .ohm.m       UNKNOWN        : MSFL:registros:rC:NONE:v0 (auto-composite)
NPHI     .UNKNOWN     UNKNOWN        : NPHI:registros:rC:NONE:v0 (auto-composite)
PEF      .UNKNOWN     UNKNOWN        : PEF:registros:rC:NONE:v0 (auto-composite)
POTA     .UNKNOWN     UNKNOWN        : POTA:registros:rC:NONE:v0 (auto-composite)
RHOB     .g/cm3       UNKNOWN        : RHOB:registros:rC:NONE:v0 (auto-composite)
SIGM     .UNKNOWN     UNKNOWN        : SIGM:registros:rC:NONE:v0 (auto-composite)
SP       .mV          UNKNOWN        : SP:registros:rC:NONE:v0 (auto-composite)
THOR     .ppm         UNKNOWN        : THOR:registros:rC:NONE:v0 (auto-composite)
URAN     .ppm         UNKNOWN        : URAN:registros:rC:NONE:v0 (auto-composite)
~A     DEPTH         CALI          CGR         DRHO           DT           GR          ILD          LLD          LLS         MSFL         NPHI          PEF         POTA         RHOB         SIGM           SP         THOR         URAN
# ...
   2291.0291       8.7070    -999.2500       0.0370      49.9494      33.8882    -999.2500     192.4526     182.1205     308.3801       0.0376       3.1937    -999.2500       2.7635    -999.2500    -167.0624    -999.2500    -999.2500
   2291.1814       8.6870    -999.2500       0.0150      52.1250      36.6670    -999.2500     139.7890     153.8610     228.2580       0.0510       3.5430    -999.2500       2.7560    -999.2500    -167.3750    -999.2500    -999.2500
   2291.3337       8.7145    -999.2500      -0.0015      51.4942      35.1585    -999.2500     173.7573     136.8440     158.0294       0.0447       3.3799    -999.2500       2.7665    -999.2500    -167.1256    -999.2500    -999.2500
   2291.4863       8.7420    -999.2500      -0.0180      50.8650      33.6490    -999.2500     207.5320     119.8970      88.2010       0.0373       3.2170    -999.2500       2.7770    -999.2500    -166.8760    -999.2500    -999.2500
   2291.6387       8.7145    -999.2500      -0.0000      51.8297      27.9378    -999.2500     355.3669     338.6400     404.3640       0.0437       3.4151    -999.2500       2.7605    -999.2500    -166.6881    -999.2500    -999.2500
   2291.7910       8.6870    -999.2500       0.0180      52.7920      22.2220    -999.2500     502.3770     556.5120     718.7630       0.0505       3.6130    -999.2500       2.7440    -999.2500    -166.5000    -999.2500    -999.2500
   2291.9434       8.6755    -999.2500       0.0280      52.4546      31.1068    -999.2500     383.7698     445.8385     541.9111       0.0459       3.3909    -999.2500       2.7605    -999.2500    -166.5940    -999.2500    -999.2500
   2292.0957       8.6640    -999.2500       0.0380      52.1180      40.0000    -999.2500     265.8090     335.5920     366.0230       0.0420       3.1690    -999.2500       2.7770    -999.2500    -166.6880    -999.2500    -999.2500
   2292.2483       8.6795    -999.2500       0.0310      54.4625      35.5579    -999.2500     223.0631     257.8614     256.2831       0.0539       2.9799    -999.2500       2.7565    -999.2500    -166.8129    -999.2500    -999.2500
   2292.4006       8.6950    -999.2500       0.0240      56.8020      31.1110    -999.2500     180.5450     180.5450     147.1280       0.0671       2.7910    -999.2500       2.7360    -999.2500    -166.9380    -999.2500    -999.2500
   2292.5530       8.6795    -999.2500       0.0430      57.5362      34.4425    -999.2500     257.2820     257.2820     133.4770       0.0720       3.0310    -999.2500       2.7470    -999.2500    -166.9690    -999.2500    -999.2500
   2292.7053       8.6640    -999.2500       0.0620      58.2690      37.7780    -999.2500     333.6200     333.6200     119.8970       0.0748       3.2710    -999.2500       2.7580    -999.2500    -167.0000    -999.2500    -999.2500
   2292.8579       8.7615    -999.2500       0.0410      56.1185      35.0018    -999.2500     277.4428     306.4019     385.0444       0.0715       3.4265    -999.2500       2.7335    -999.2500    -166.5318    -999.2500    -999.2500
   2293.0103       8.8590    -999.2500       0.0200      53.9720      32.2220    -999.2500     221.5510     279.3220     648.8450       0.0683       3.5820    -999.2500       2.7090    -999.2500    -166.0630    -999.2500    -999.2500
   2293.1626       8.7695    -999.2500       0.0150      54.3929      37.2184    -999.2500     269.3834     250.3648     377.8688       0.0708       3.3135    -999.2500       2.7255    -999.2500    -165.9381    -999.2500    -999.2500
   2293.3149       8.6800    -999.2500       0.0100      54.8130      42.2220    -999.2500     316.9790     221.5510     108.2340       0.0727       3.0450    -999.2500       2.7420    -999.2500    -165.8130    -999.2500    -999.2500
   2293.4675       8.7230    -999.2500       0.0170      56.7576      40.6278    -999.2500     224.6751     185.7100      98.1933       0.0642       3.1486    -999.2500       2.7575    -999.2500    -165.8755    -999.2500    -999.2500
   2293.6199       8.7660    -999.2500       0.0240      58.6990      39.0310    -999.2500     132.8170     150.0420      88.2010       0.0574       3.2520    -999.2500       2.7730    -999.2500    -165.9380    -999.2500    -999.2500
   2293.7722       8.7540    -999.2500       0.0390      56.3787      36.1821    -999.2500     152.2392     144.9034     167.0613       0.0720       3.3391    -999.2500       2.7495    -999.2500    -165.9065    -999.2500    -999.2500
   2293.9246       8.7420    -999.2500       0.0540      54.0620      33.3330    -999.2500     171.5390     139.7890     245.4250       0.0865       3.4260    -999.2500       2.7260    -999.2500    -165.8750    -999.2500    -999.2500
   2294.0769       8.7735    -999.2500       0.0645      54.4828      39.4438    -999.2500     145.6381     151.4126     130.0993       0.0784       3.3194    -999.2500       2.7095    -999.2500    -165.8125    -999.2500    -999.2500
   2294.2295       8.8050    -999.2500       0.0750      54.9030      45.5560    -999.2500     119.8970     162.9830      15.4850       0.0688       3.2130    -999.2500       2.6930    -999.2500    -165.7500    -999.2500    -999.2500
   2294.3818       8.7775    -999.2500       0.0525      55.7532      40.5569    -999.2500     125.5631     141.3920     118.8305       0.0728       3.1590    -999.2500       2.7400    -999.2500    -165.7815    -999.2500    -999.2500
   2294.5342       8.7500    -999.2500       0.0300      56.6010      35.5560    -999.2500     131.1950     119.8970     221.5510       0.0775       3.1050    -999.2500       2.7870    -999.2500    -165.8130    -999.2500    -999.2500
   2294.6865       8.7950    -999.2500       0.0255      56.0372      40.3609    -999.2500     188.4795     165.2968     269.4066       0.0742       3.0195    -999.2500       2.7470    -999.2500    -166.0314    -999.2500    -999.2500
   2294.8391       8.8400    -999.2500       0.0210      55.4750      45.1680    -999.2500     245.4250     210.5000     316.9790       0.0695       2.9340    -999.2500       2.7070    -999.2500    -166.2500    -999.2500    -999.2500
   2294.9915       8.9435    -999.2500       0.0125      55.0725      49.2493    -999.2500     176.9555     160.8848     197.9549       0.0627       3.3557    -999.2500       2.7205    -999.2500    -165.0319    -999.2500    -999.2500
   2295.1438       9.0470    -999.2500       0.0040      54.6710      53.3330    -999.2500     108.8830     111.4780      79.6210       0.0562       3.7770    -999.2500       2.7340    -999.2500    -163.8130    -999.2500    -999.2500
   2295.2961       8.8986    -999.2500       0.0100      54.1353      46.6689    -999.2500     100.8347      93.5274     162.7587       0.0535       3.5454    -999.2500       2.7435    -999.2500    -164.0314    -999.2500    -999.2500
   2295.4487       8.7500    -999.2500       0.0160      53.6010      40.0000    -999.2500      92.8320      75.6500     245.4250       0.0532       3.3140    -999.2500       2.7530    -999.2500    -164.2500    -999.2500    -999.2500
   2295.6011       8.7070    -999.2500       0.0295      53.9374      40.5553    -999.2500     106.3996     102.0677     179.4876       0.0671       3.2515    -999.2500       2.7720    -999.2500    -164.5619    -999.2500    -999.2500
   2295.7534       8.6640    -999.2500       0.0430      54.2730      41.1110    -999.2500     119.8920     128.3810     113.9160       0.0799       3.1890    -999.2500       2.7910    -999.2500    -164.8740    -999.2500    -999.2500
   2295.9058       8.6750    -999.2500       0.0375      54.9973      35.5582    -999.2500     129.8675     137.7725      86.1693       0.0695       3.4346    -999.2500       2.7480    -999.2500    -165.0619    -999.2500    -999.2500
   2296.0581       8.6860    -999.2500       0.0320      55.7200      30.0000    -999.2500     139.7890     147.1280      58.5730       0.0570       3.6800    -999.2500       2.7050    -999.2500    -165.2500    -999.2500    -999.2500
   2296.2107       8.7180    -999.2500       0.0210      53.8555      35.7523    -999.2500     146.4968     139.9535      86.3180       0.0524       3.2844    -999.2500       2.7275    -999.2500    -165.3439    -999.2500    -999.2500
