#------------------------------------------------------------------------------
#
#   Created by  : [OpenWorks] Log Export Utility (LEXP)
#   Created on  : 2016-05-11 12:13:37
#   Project     : CANT971
#   User        : R5K
#   Interpreter : PEP
#
#------------------------------------------------------------------------------
~VERSION INFORMATION
VERS. 2.0 : CWLS Log ASCII Standard - version 2.0
WRAP.  NO : One line per depth step
~WELL INFORMATION
#MNEMONIC   .UNIT                                           VALUE :DESCRIPTION
#------------------------------------------------------------------------------
STRT        .M                                           735.9406 :START DEPTH
STOP        .M                                          3069.9465 :STOP DEPTH
STEP        .M                                             0.1524 :STEP
NULL        .                                           -999.2500 :NULL VALUE
COMP        .                                   PEMEX EXPL & PROD :COMPANY
WELL        .                                               1085D :WELL
FLD         .                                           CANTARELL :FIELD
LOC         .                                             UNKNOWN :LOCATION
CNTY        .                                      CD. DEL CARMEN :COUNTY
STAT        .                                            CAMPECHE :STATE
CTRY        .                                              MEXICO :COUNTRY
SRVC        .                                             UNKNOWN :SERVICE COMPANY
DATE        .                                             UNKNOWN :LOG DATE
UWI         .                                          3060000781 :UNIQUE WELL ID
XCOORD      .                                       601386.880000 :SURFACE X
YCOORD      .                                      2149875.750000 :SURFACE Y
LAT         .                                           19.441862 :LATITUDE
LON         .                                          -92.034176 :LONGITUDE
ELEV        .M                                            28.0000 :SURFACE ELEV
ELEV_TYPE   .                                                  KB :ELEV TYPE
~CURVE INFORMATION
#MNEMONIC.UNIT        API CODE       : CURVE DESCRIPTION
#------------------------------------------------------------------------------
DEPTH    .M                          : Measured Depth
CALI     .inches      UNKNOWN        : CALI:registros:rC:NONE:v0 (auto-composite)
CGR      .API         UNKNOWN        : CGR:registros:rC:NONE:v0 (auto-composite)
DRHO     .g/cm3       UNKNOWN        : DRHO:registros:rC:NONE:v0 (auto-composite)
DT       .UNKNOWN     UNKNOWN        : DT:registros:rC:NONE:v0 (auto-composite)
GR       .API         UNKNOWN        : GR:registros:rC:NONE:v0 (auto-composite)
ILD      .ohm.m       UNKNOWN        : ILD:registros:rC:NONE:v0 (auto-composite)
ILM      .ohm.m       UNKNOWN        : ILM:registros:rC:NONE:v0 (auto-composite)
LLD      .ohm.m       UNKNOWN        : LLD:registros:rC:NONE:v0 (auto-composite)
LLS      .ohm.m       UNKNOWN        : LLS:registros:rC:NONE:v0 (auto-composite)
MSFL     .ohm.m       UNKNOWN        : MSFL:registros:rC:NONE:v0 (auto-composite)
NPHI     .UNKNOWN     UNKNOWN        : NPHI:registros:rC:NONE:v0 (auto-composite)
PEF      .b/elec      UNKNOWN        : PEF:registros:rC:NONE:v0 (auto-composite)
POTA     .UNKNOWN     UNKNOWN        : POTA:registros:rC:NONE:v0 (auto-composite)
RHOB     .g/cm3       UNKNOWN        : RHOB:registros:rC:NONE:v0 (auto-composite)
SP       .mV          UNKNOWN        : SP:registros:rC:NONE:v0 (auto-composite)
THOR     .ppm         UNKNOWN        : THOR:registros:rC:NONE:v0 (auto-composite)
URAN     .ppm         UNKNOWN        : URAN:registros:rC:NONE:v0 (auto-composite)
~A     DEPTH         CALI          CGR         DRHO           DT           GR          ILD          ILM          LLD          LLS         MSFL         NPHI          PEF         POTA         RHOB           SP         THOR         URAN
# ...
   2901.5447       9.8050      16.1640       0.0230      70.4050      58.2631    -999.2500    -999.2500     100.6750     106.6460     106.0980       0.1093       3.3210       0.0050       2.8050       0.0000       0.8940       4.7830
   2901.6970       9.8050      16.7110       0.0320      77.5630      60.3130    -999.2500    -999.2500     105.6820     110.8000     181.6870       0.1022       3.3930       0.0060       2.8060       0.0000       0.8870       4.9640
   2901.8494       9.8050      16.7630       0.0490      70.5240      61.6226    -999.2500    -999.2500     100.0970     106.6550     116.3890       0.0963       3.4280       0.0070       2.8100       0.0000       0.8030       5.1020
   2902.0017       9.8050      16.7660       0.0670      63.5000      62.5510    -999.2500    -999.2500      94.5320     102.5320      51.4370       0.0902       3.4640       0.0080       2.8140       0.0000       0.7190       5.2410
   2902.1543       9.8050      16.6400       0.0790      64.1260      63.2274    -999.2500    -999.2500     101.5250     109.3450      78.4780       0.0823       3.4900       0.0080       2.8230       0.0000       0.6580       5.3050
   2902.3066       9.8050      16.3190       0.0900      64.7500      63.4979    -999.2500    -999.2500     108.4940     116.1230     105.3790       0.0740       3.5150       0.0080       2.8320       0.0000       0.5970       5.3690
   2902.4590       9.8050      15.4790       0.0800      64.6380      62.9644    -999.2500    -999.2500     173.9520     172.5510     179.1570       0.0658       3.5630       0.0070       2.8280       0.0000       0.7630       5.6770
   2902.6113       9.8050      14.6330       0.0710      64.5270      61.4266    -999.2500    -999.2500     239.1850     228.6940     252.5620       0.0587       3.6110       0.0070       2.8230       0.0000       0.9290       5.9850
   2902.7639       9.8050      13.7710       0.0560      63.7590      58.0717    -999.2500    -999.2500     211.8020     206.0820     187.8400       0.0540       3.6080       0.0060       2.8130       0.0000       0.6470       5.4040
   2902.9163       9.8050      13.6410       0.0410      62.9930      55.7315    -999.2500    -999.2500     184.5100     183.5820     123.4370       0.0522       3.6040       0.0050       2.8020       0.0000       0.3640       4.8220
   2903.0686       9.8050      15.3550       0.0310      61.9100      57.8017    -999.2500    -999.2500     152.9700     154.0000     583.5710       0.0556       3.5500       0.0050       2.7700       0.0000       0.3800       5.1470
   2903.2209       9.8050      17.4490       0.0210      60.8290      61.9762    -999.2500    -999.2500     121.5820     124.5600    1041.5000       0.0591       3.4970       0.0050       2.7370       0.0000       0.3950       5.4730
   2903.3733       9.8050      20.4780       0.0170      59.5140      67.1792    -999.2500    -999.2500     104.5660     109.3040     635.5930       0.0579       3.3580       0.0050       2.7450       0.0000       0.5560       5.8240
   2903.5259       9.8050      22.8920       0.0130      58.2000      73.2028    -999.2500    -999.2500      87.6290      94.1200     231.5780       0.0570       3.2190       0.0060       2.7530       0.0000       0.7180       6.1750
   2903.6782       9.8050      23.8380       0.0130      56.6300      80.2944    -999.2500    -999.2500      81.6820      89.6430     128.2420       0.0614       3.3200       0.0090       2.7460       0.0000       1.0990       6.4350
   2903.8306       9.8050      24.1270       0.0130      55.0630      86.0287    -999.2500    -999.2500      75.7610      85.1860      25.3750       0.0657       3.4220       0.0110       2.7390       0.0000       1.4800       6.6960
   2903.9829       9.8050      22.8700       0.0150      55.2140      87.2666    -999.2500    -999.2500      76.4470      87.1850      31.3990       0.0648       3.3920       0.0110       2.7420       0.0000       1.4610       6.8140
   2904.1355       9.8050      21.3600       0.0170      55.3640      86.3983    -999.2500    -999.2500      77.1290      89.1760      37.3960       0.0637       3.3630       0.0110       2.7450       0.0000       1.4420       6.9320
   2904.2878       9.7810      19.2710       0.0250      55.7840      84.6431    -999.2500    -999.2500      79.0570      92.9560     152.3820       0.0673       3.3910       0.0100       2.7730       0.0000       1.3670       6.8400
   2904.4402       9.7580      17.1780       0.0330      56.2030      82.0933    -999.2500    -999.2500      80.9770      96.7190     266.8750       0.0708       3.4200       0.0090       2.8000       0.0000       1.2910       6.7480
   2904.5925       9.7110      15.0790       0.0330      57.0090      78.4085    -999.2500    -999.2500      83.8500      99.2760     160.9520       0.0690       3.3750       0.0090       2.7850       0.0000       1.4080       6.5830
   2904.7451       9.6640      13.1450       0.0330      57.8130      74.5725    -999.2500    -999.2500      86.7100     101.8220      55.4690       0.0633       3.3300       0.0080       2.7700       0.0000       1.5240       6.4180
   2904.8975       9.6640      11.5710       0.0320      57.6420      71.4633    -999.2500    -999.2500      97.6270     110.2310     320.6450       0.0522       3.3340       0.0070       2.7490       0.0000       1.6050       6.2510
   2905.0498       9.6640      10.7580       0.0320      57.4720      68.7279    -999.2500    -999.2500     108.4990     118.6060     584.7500       0.0402       3.3380       0.0060       2.7270       0.0000       1.6870       6.0840
   2905.2021       9.6640      11.5540       0.0430      57.0570      66.2034    -999.2500    -999.2500     129.9180     138.7110     340.8980       0.0307       3.4070       0.0050       2.7760       0.0000       1.4550       6.1380
   2905.3545       9.6640      12.9860       0.0540      56.6440      64.7684    -999.2500    -999.2500     151.2540     158.7380      98.0000       0.0254       3.4770       0.0040       2.8250       0.0000       1.2230       6.1920
   2905.5071       9.6640      15.7320       0.0490      56.1030      65.8424    -999.2500    -999.2500     146.3190     153.6680     386.1710       0.0282       3.4640       0.0040       2.8220       0.0000       1.0370       6.3540
   2905.6594       9.6640      17.9950       0.0440      55.5630      70.0236    -999.2500    -999.2500     141.4020     148.6170     673.2500       0.0355       3.4500       0.0050       2.8180       0.0000       0.8510       6.5170
   2905.8118       9.6720      19.2820       0.0320      56.8950      79.4781    -999.2500    -999.2500     112.3500     122.1610     419.7230       0.0460       3.3730       0.0050       2.8010       0.0000       1.4030       6.8470
   2905.9641       9.6800      20.2500       0.0210      58.2250      88.4196    -999.2500    -999.2500      83.4050      95.8450     167.5290       0.0569       3.2950       0.0060       2.7840       0.0000       1.9560       7.1780
   2906.1167       9.6720      20.5890       0.0230      60.6770      90.9160    -999.2500    -999.2500      63.5730      75.3690     117.8490       0.0656       3.2380       0.0070       2.7550       0.0000       1.8730       7.4190
   2906.2690       9.6640      21.5550       0.0240      63.1250      91.1381    -999.2500    -999.2500      43.8110      54.9990      68.4240       0.0743       3.1800       0.0070       2.7260       0.0000       1.7890       7.6600
   2906.4214       9.6640      23.7300       0.0340      60.9040      92.1279    -999.2500    -999.2500      43.9540      55.0470      47.3550       0.0855       3.2240       0.0070       2.7360       0.0000       1.7980       7.8020
   2906.5737       9.6640      26.1720       0.0430      58.6870      94.8409    -999.2500    -999.2500      44.0960      55.0950      26.3910       0.0974       3.2670       0.0080       2.7460       0.0000       1.8080       7.9440
   2906.7263       9.6640      29.1120       0.0400      60.3160     101.0460    -999.2500    -999.2500      48.4220      59.6330      33.1830       0.1085       3.3150       0.0100       2.7370       0.0000       2.1330       7.7580
