#------------------------------------------------------------------------------
#
#   Created by  : [OpenWorks] Log Export Utility (LEXP)
#   Created on  : 2016-05-11 12:13:37
#   Project     : CANT971
#   User        : R5K
#   Interpreter : PEP
#
#------------------------------------------------------------------------------
~VERSION INFORMATION
VERS. 2.0 : CWLS Log ASCII Standard - version 2.0
WRAP.  NO : One line per depth step
~WELL INFORMATION
#MNEMONIC   .UNIT                                           VALUE :DESCRIPTION
#------------------------------------------------------------------------------
STRT        .M                                           735.9406 :START DEPTH
STOP        .M                                          3069.9465 :STOP DEPTH
STEP        .M                                             0.1524 :STEP
NULL        .                                           -999.2500 :NULL VALUE
COMP        .                                   PEMEX EXPL & PROD :COMPANY
WELL        .                                               1085D :WELL
FLD         .                                           CANTARELL :FIELD
LOC         .                                             UNKNOWN :LOCATION
CNTY        .                                      CD. DEL CARMEN :COUNTY
STAT        .                                            CAMPECHE :STATE
CTRY        .                                              MEXICO :COUNTRY
SRVC        .                                             UNKNOWN :SERVICE COMPANY
DATE        .                                             UNKNOWN :LOG DATE
UWI         .                                          3060000781 :UNIQUE WELL ID
XCOORD      .                                       601386.880000 :SURFACE X
YCOORD      .                                      2149875.750000 :SURFACE Y
LAT         .                                           19.441862 :LATITUDE
LON         .                                          -92.034176 :LONGITUDE
ELEV        .M                                            28.0000 :SURFACE ELEV
ELEV_TYPE   .                                                  KB :ELEV TYPE
~CURVE INFORMATION
#MNEMONIC.UNIT        API CODE       : CURVE DESCRIPTION
#------------------------------------------------------------------------------
DEPTH    .M                          : Measured Depth
CALI     .inches      UNKNOWN        : CALI:registros:rC:NONE:v0 (auto-composite)
CGR      .API         UNKNOWN        : CGR:registros:rC:NONE:v0 (auto-composite)
DRHO     .g/cm3       UNKNOWN        : DRHO:registros:rC:NONE:v0 (auto-composite)
DT       .UNKNOWN     UNKNOWN        : DT:registros:rC:NONE:v0 (auto-composite)
GR       .API         UNKNOWN        : GR:registros:rC:NONE:v0 (auto-composite)
ILD      .ohm.m       UNKNOWN        : ILD:registros:rC:NONE:v0 (auto-composite)
ILM      .ohm.m       UNKNOWN        : ILM:registros:rC:NONE:v0 (auto-composite)
LLD      .ohm.m       UNKNOWN        : LLD:registros:rC:NONE:v0 (auto-composite)
LLS      .ohm.m       UNKNOWN        : LLS:registros:rC:NONE:v0 (auto-composite)
MSFL     .ohm.m       UNKNOWN        : MSFL:registros:rC:NONE:v0 (auto-composite)
NPHI     .UNKNOWN     UNKNOWN        : NPHI:registros:rC:NONE:v0 (auto-composite)
PEF      .b/elec      UNKNOWN        : PEF:registros:rC:NONE:v0 (auto-composite)
POTA     .UNKNOWN     UNKNOWN        : POTA:registros:rC:NONE:v0 (auto-composite)
RHOB     .g/cm3       UNKNOWN        : RHOB:registros:rC:NONE:v0 (auto-composite)
SP       .mV          UNKNOWN        : SP:registros:rC:NONE:v0 (auto-composite)
THOR     .ppm         UNKNOWN        : THOR:registros:rC:NONE:v0 (auto-composite)
URAN     .ppm         UNKNOWN        : URAN:registros:rC:NONE:v0 (auto-composite)
~A     DEPTH         CALI          CGR         DRHO           DT           GR          ILD          ILM          LLD          LLS         MSFL         NPHI          PEF         POTA         RHOB           SP         THOR         URAN
# ...
   3066.8987       8.1170       4.2200       0.0970    -999.2500      22.3751    -999.2500    -999.2500    -999.2500    -999.2500    -999.2500       0.0493       3.1340       0.0050       2.8240       0.0000       0.1070       4.0270
   3067.0510       8.1130       4.3840       0.0920    -999.2500      22.3440    -999.2500    -999.2500    -999.2500    -999.2500    -999.2500       0.0610       3.0870       0.0050       2.8190       0.0000       0.1040       4.0260
   3067.2034       8.1090       4.3830       0.0870    -999.2500      22.3134    -999.2500    -999.2500    -999.2500    -999.2500    -999.2500       0.0688       3.0390       0.0050       2.8140       0.0000       0.1010       4.0250
   3067.3557       8.1100       4.3710       0.0870    -999.2500      21.1968    -999.2500    -999.2500    -999.2500    -999.2500    -999.2500       0.0716       3.0490       0.0050       2.8180       0.0000       0.0970       3.9940
   3067.5083       8.1110       4.2860       0.0880    -999.2500      20.1519    -999.2500    -999.2500    -999.2500    -999.2500    -999.2500       0.0735       3.0600       0.0050       2.8210       0.0000       0.0940       3.9640
   3067.6606       8.1180       4.2120       0.0860    -999.2500      22.4096    -999.2500    -999.2500    -999.2500    -999.2500    -999.2500       0.0707       3.1140       0.0050       2.8190       0.0000       0.0890       3.9640
   3067.8130       8.1250       4.2210       0.0850    -999.2500      24.7647    -999.2500    -999.2500    -999.2500    -999.2500    -999.2500       0.0600       3.1680       0.0050       2.8160       0.0000       0.0840       3.9640
   3067.9653       8.1170       4.2420       0.0800    -999.2500      27.3597    -999.2500    -999.2500    -999.2500    -999.2500    -999.2500       0.0460       3.1480       0.0050       2.8030       0.0000       0.0810       3.9640
   3068.1179       8.1090       4.3450       0.0750    -999.2500      29.8371    -999.2500    -999.2500    -999.2500    -999.2500    -999.2500       0.0389       3.1290       0.0050       2.7900       0.0000       0.0780       3.9640
   3068.2703       8.1170       4.5220       0.0790    -999.2500      28.6213    -999.2500    -999.2500    -999.2500    -999.2500    -999.2500       0.0422       3.1410       0.0050       2.7990       0.0000       0.0750       3.9640
   3068.4226       8.1250       5.1560       0.0830    -999.2500      27.1056    -999.2500    -999.2500    -999.2500    -999.2500    -999.2500       0.0550       3.1520       0.0050       2.8090       0.0000       0.0720       3.9650
   3068.5750       8.1170       6.0230       0.0830    -999.2500      20.1274    -999.2500    -999.2500    -999.2500    -999.2500    -999.2500       0.0751       3.2280       0.0060       2.8080       0.0000       0.0680       3.9580
   3068.7273       8.1090       8.2550       0.0820    -999.2500      13.2848    -999.2500    -999.2500    -999.2500    -999.2500    -999.2500       0.0849       3.3050       0.0070       2.8070       0.0000       0.0650       3.9510
   3068.8799       8.1090       9.8940       0.0790    -999.2500      13.9449    -999.2500    -999.2500    -999.2500    -999.2500    -999.2500       0.0894       3.2870       0.0070       2.7970       0.0000       0.0600       3.9210
   3069.0322       8.1090       8.1880       0.0760    -999.2500      14.8221    -999.2500    -999.2500    -999.2500    -999.2500    -999.2500       0.0832       3.2700       0.0070       2.7880       0.0000       0.0540       3.8910
   3069.1846       8.0900       6.2910       0.0760    -999.2500      14.3978    -999.2500    -999.2500    -999.2500    -999.2500    -999.2500       0.0835       3.1290       0.0040       2.7890    -999.2500       0.0270       1.9490
   3069.3369       8.0700       3.3500       0.0770    -999.2500      14.0133    -999.2500    -999.2500    -999.2500    -999.2500    -999.2500       0.0764       2.9880       0.0000       2.7910    -999.2500       0.0000       0.0000
   3069.4895       8.0730    -999.2500       0.0790    -999.2500      15.9058    -999.2500    -999.2500    -999.2500    -999.2500    -999.2500       0.0740       3.0610       0.0000       2.7980    -999.2500       0.0000       0.0000
   3069.6418       8.0760    -999.2500       0.0810    -999.2500      17.9307    -999.2500    -999.2500    -999.2500    -999.2500    -999.2500       0.0691       3.1350       0.0000       2.8050    -999.2500       0.0000       0.0000
   3069.7942    -999.2500    -999.2500    -999.2500    -999.2500      21.0217    -999.2500    -999.2500    -999.2500    -999.2500    -999.2500       0.0709    -999.2500    -999.2500    -999.2500    -999.2500    -999.2500    -999.2500
   3069.9465    -999.2500    -999.2500    -999.2500    -999.2500      24.1585    -999.2500    -999.2500    -999.2500    -999.2500    -999.2500       0.0782    -999.2500    -999.2500    -999.2500    -999.2500    -999.2500    -999.2500
