#------------------------------------------------------------------------------
#
#   Created by  : [OpenWorks] Log Export Utility (LEXP)
#   Created on  : 2016-05-11 12:13:37
#   Project     : CANT971
#   User        : R5K
#   Interpreter : PEP
#
#------------------------------------------------------------------------------
~VERSION INFORMATION
VERS. 2.0 : CWLS Log ASCII Standard - version 2.0
WRAP.  NO : One line per depth step
~WELL INFORMATION
#MNEMONIC   .UNIT                                           VALUE :DESCRIPTION
#------------------------------------------------------------------------------
STRT        .M                                           735.9406 :START DEPTH
STOP        .M                                          3069.9465 :STOP DEPTH
STEP        .M                                             0.1524 :STEP
NULL        .                                           -999.2500 :NULL VALUE
COMP        .                                   PEMEX EXPL & PROD :COMPANY
WELL        .                                               1085D :WELL
FLD         .                                           CANTARELL :FIELD
LOC         .                                             UNKNOWN :LOCATION
CNTY        .                                      CD. DEL CARMEN :COUNTY
STAT        .                                            CAMPECHE :STATE
CTRY        .                                              MEXICO :COUNTRY
SRVC        .                                             UNKNOWN :SERVICE COMPANY
DATE        .                                             UNKNOWN :LOG DATE
UWI         .                                          3060000781 :UNIQUE WELL ID
XCOORD      .                                       601386.880000 :SURFACE X
YCOORD      .                                      2149875.750000 :SURFACE Y
LAT         .                                           19.441862 :LATITUDE
LON         .                                          -92.034176 :LONGITUDE
ELEV        .M                                            28.0000 :SURFACE ELEV
ELEV_TYPE   .                                                  KB :ELEV TYPE
~CURVE INFORMATION
#MNEMONIC.UNIT        API CODE       : CURVE DESCRIPTION
#------------------------------------------------------------------------------
DEPTH    .M                          : Measured Depth
CALI     .inches      UNKNOWN        : CALI:registros:rC:NONE:v0 (auto-composite)
CGR      .API         UNKNOWN        : CGR:registros:rC:NONE:v0 (auto-composite)
DRHO     .g/cm3       UNKNOWN        : DRHO:registros:rC:NONE:v0 (auto-composite)
DT       .UNKNOWN     UNKNOWN        : DT:registros:rC:NONE:v0 (auto-composite)
GR       .API         UNKNOWN        : GR:registros:rC:NONE:v0 (auto-composite)
ILD      .ohm.m       UNKNOWN        : ILD:registros:rC:NONE:v0 (auto-composite)
ILM      .ohm.m       UNKNOWN        : ILM:registros:rC:NONE:v0 (auto-composite)
LLD      .ohm.m       UNKNOWN        : LLD:registros:rC:NONE:v0 (auto-composite)
LLS      .ohm.m       UNKNOWN        : LLS:registros:rC:NONE:v0 (auto-composite)
MSFL     .ohm.m       UNKNOWN        : MSFL:registros:rC:NONE:v0 (auto-composite)
NPHI     .UNKNOWN     UNKNOWN        : NPHI:registros:rC:NONE:v0 (auto-composite)
PEF      .b/elec      UNKNOWN        : PEF:registros:rC:NONE:v0 (auto-composite)
POTA     .UNKNOWN     UNKNOWN        : POTA:registros:rC:NONE:v0 (auto-composite)
RHOB     .g/cm3       UNKNOWN        : RHOB:registros:rC:NONE:v0 (auto-composite)
SP       .mV          UNKNOWN        : SP:registros:rC:NONE:v0 (auto-composite)
THOR     .ppm         UNKNOWN        : THOR:registros:rC:NONE:v0 (auto-composite)
URAN     .ppm         UNKNOWN        : URAN:registros:rC:NONE:v0 (auto-composite)
~A     DEPTH         CALI          CGR         DRHO           DT           GR          ILD          ILM          LLD          LLS         MSFL         NPHI          PEF         POTA         RHOB           SP         THOR         URAN
# ...
   2789.5305       9.5630      11.7870       0.0170      58.9720      35.2063    -999.2500    -999.2500     210.2620     359.1420     800.5430       0.0370       3.4550       0.0050       2.8300       0.0000       1.0790       2.5210
   2789.6831       9.5940      11.0160       0.0230      57.0630      33.5615    -999.2500    -999.2500     297.2040     353.3480     458.7640       0.0305       3.5340       0.0040       2.8420       0.0000       0.9470       2.4370
   2789.8354       9.6250      10.1520       0.0290      55.1580      31.5551    -999.2500    -999.2500     383.6820     347.5850     118.8120       0.0241       3.6130       0.0040       2.8550       0.0000       0.8140       2.3530
   2789.9878       9.6060       9.0990       0.0250      54.2030      28.7414    -999.2500    -999.2500     398.0700     350.0650     256.0770       0.0216       3.6050       0.0030       2.8530       0.0000       0.5960       2.3580
   2790.1401       9.5860       8.3080       0.0220      53.2500      26.2461    -999.2500    -999.2500     412.3830     352.5330     392.6250       0.0203       3.5980       0.0020       2.8510       0.0000       0.3780       2.3620
   2790.2927       9.5870       8.0320       0.0230      53.4150      26.1877    -999.2500    -999.2500     396.5740     338.7890     364.0790       0.0204       3.4330       0.0020       2.8410       0.0000       0.4370       2.4490
   2790.4451       9.5890       8.1620       0.0240      53.5800      26.8604    -999.2500    -999.2500     380.8450     325.1160     335.6790       0.0213       3.2680       0.0020       2.8300       0.0000       0.4950       2.5360
   2790.5974       9.6230       9.0730       0.0300      54.8260      28.9742    -999.2500    -999.2500     306.0530     262.0480     198.8430       0.0248       3.3890       0.0020       2.8300       0.0000       0.8360       2.8860
   2790.7498       9.6560      10.2950       0.0360      56.0700      31.3975    -999.2500    -999.2500     231.6330     199.2930      62.6880       0.0307       3.5100       0.0030       2.8310       0.0000       1.1770       3.2370
   2790.9021       9.6290      12.0990       0.0500      58.7560      34.0428    -999.2500    -999.2500     181.9130     161.7840      64.7070       0.0470       3.5030       0.0040       2.8210       0.0000       1.4320       3.3950
   2791.0547       9.6020      13.7240       0.0640      61.4370      37.0185    -999.2500    -999.2500     132.4340     124.5170      66.7130       0.0624       3.4970       0.0040       2.8110       0.0000       1.6870       3.5530
   2791.2070       9.6290      15.0230       0.0600      60.9740      41.6178    -999.2500    -999.2500     107.9980     104.5970     132.8460       0.0620       3.3860       0.0040       2.8120       0.0000       1.8440       3.6610
   2791.3594       9.6560      16.1480       0.0570      60.5110      45.9783    -999.2500    -999.2500      83.6780      84.8020     198.5620       0.0592       3.2750       0.0040       2.8120       0.0000       2.0000       3.7690
   2791.5117       9.6520      16.9630       0.0620      58.1200      47.5440    -999.2500    -999.2500      72.1090      74.5270     108.4000       0.0588       3.2900       0.0040       2.8260       0.0000       2.1090       3.8130
   2791.6643       9.6480      17.9410       0.0660      55.7360      48.6722    -999.2500    -999.2500      60.5940      64.3160      18.7970       0.0626       3.3050       0.0050       2.8410       0.0000       2.2170       3.8560
   2791.8167       9.6490      19.2040       0.0540      55.0390      50.2249    -999.2500    -999.2500      44.0510      58.8080      19.3120       0.0872       3.5260       0.0060       2.8330       0.0000       2.2390       3.9910
   2791.9690       9.6510      20.6630       0.0430      54.3440      51.9893    -999.2500    -999.2500      27.5830      53.3340      19.8230       0.1117       3.7480       0.0070       2.8250       0.0000       2.2610       4.1270
   2792.1213       9.6580      22.4590       0.0490      53.2960      54.5317    -999.2500    -999.2500      27.5940      43.4710      39.9400       0.1153       3.7320       0.0070       2.7570       0.0000       2.3930       4.1240
   2792.2739       9.6640      24.4970       0.0550      52.2500      56.9234    -999.2500    -999.2500      27.6050      33.6670      59.9370       0.1147       3.7160       0.0070       2.6880       0.0000       2.5250       4.1220
   2792.4263       9.6600      26.9400       0.0540      52.4070      57.6815    -999.2500    -999.2500      28.3580      34.4180      44.8150       0.1124       3.6200       0.0100       2.6880       0.0000       2.7520       4.1000
   2792.5786       9.6560      29.9410       0.0530      52.5640      58.3646    -999.2500    -999.2500      29.1070      35.1640      29.7810       0.1087       3.5230       0.0130       2.6890       0.0000       2.9790       4.0780
   2792.7310       9.6570      33.8580       0.0480      55.4420      60.2827    -999.2500    -999.2500      38.5310      44.0210      67.5290       0.0998       3.5320       0.0130       2.7240       0.0000       2.9540       4.0090
   2792.8833       9.6580      36.8810       0.0430      58.3130      62.7609    -999.2500    -999.2500      47.9010      52.8280     105.0620       0.0881       3.5410       0.0130       2.7580       0.0000       2.9300       3.9400
   2793.0359       9.6610      38.4760       0.0410      58.1200      67.2866    -999.2500    -999.2500     118.7380     104.6960      72.2210       0.0665       3.4750       0.0120       2.7570       0.0000       2.7610       3.7520
   2793.1882       9.6640      38.1070       0.0380      57.9280      68.8532    -999.2500    -999.2500     189.1820     156.2750      39.5630       0.0462       3.4080       0.0100       2.7550       0.0000       2.5920       3.5640
   2793.3406       9.6640      34.6480       0.0320      55.8680      51.4336    -999.2500    -999.2500     290.1110     249.4030      66.8870       0.0435       3.5170       0.0070       2.7440       0.0000       2.2310       3.0030
   2793.4929       9.6640      29.4660       0.0250      53.8130      33.4067    -999.2500    -999.2500     390.4920     342.0240      94.0630       0.0441       3.6270       0.0030       2.7340       0.0000       1.8700       2.4420
   2793.6455       9.6640      21.6320       0.0220      53.8750      30.8090    -999.2500    -999.2500     374.5710     329.1580      66.5680       0.0462       3.6240       0.0030       2.7110       0.0000       1.3020       2.4580
   2793.7979       9.6640      15.4000       0.0180      53.9370      30.9161    -999.2500    -999.2500     358.7350     316.3610      39.2190       0.0490       3.6200       0.0030       2.6890       0.0000       0.7350       2.4750
   2793.9502       9.5940      11.5770       0.0130      53.7180      31.3849    -999.2500    -999.2500     292.5530     262.4720      39.2770       0.0546       3.5890       0.0040       2.6550       0.0000       0.5890       2.5800
   2794.1025       9.5230       9.8660       0.0070      53.5000      32.1059    -999.2500    -999.2500     226.7150     208.8630      39.3350       0.0595       3.5570       0.0040       2.6210       0.0000       0.4420       2.6860
   2794.2551       9.7500      11.2580       0.0070      53.7190      33.9743    -999.2500    -999.2500     184.7920     175.2210      41.0530       0.0580       3.4520       0.0050       2.6230       0.0000       0.4590       2.8520
   2794.4075       9.9770      12.9220       0.0080      53.9370      36.6893    -999.2500    -999.2500     143.0800     141.7500      42.7630       0.0560       3.3460       0.0060       2.6250       0.0000       0.4760       3.0180
   2794.5598       9.9370      14.9780       0.0100      53.0300      43.3739    -999.2500    -999.2500     143.4010     142.2220      62.1790       0.0571       3.3560       0.0060       2.6400       0.0000       0.6480       3.3460
   2794.7122       9.8970      16.5020       0.0130      52.1250      49.7599    -999.2500    -999.2500     143.7200     142.6920      81.5000       0.0601       3.3670       0.0060       2.6550       0.0000       0.8200       3.6750
