#------------------------------------------------------------------------------
#
#   Created by  : [OpenWorks] Log Export Utility (LEXP)
#   Created on  : 2016-05-11 12:13:37
#   Project     : CANT971
#   User        : R5K
#   Interpreter : PEP
#
#------------------------------------------------------------------------------
~VERSION INFORMATION
VERS. 2.0 : CWLS Log ASCII Standard - version 2.0
WRAP.  NO : One line per depth step
~WELL INFORMATION
#MNEMONIC   .UNIT                                           VALUE :DESCRIPTION
#------------------------------------------------------------------------------
STRT        .M                                           735.9406 :START DEPTH
STOP        .M                                          3069.9465 :STOP DEPTH
STEP        .M                                             0.1524 :STEP
NULL        .                                           -999.2500 :NULL VALUE
COMP        .                                   PEMEX EXPL & PROD :COMPANY
WELL        .                                               1085D :WELL
FLD         .                                           CANTARELL :FIELD
LOC         .                                             UNKNOWN :LOCATION
CNTY        .                                      CD. DEL CARMEN :COUNTY
STAT        .                                            CAMPECHE :STATE
CTRY        .                                              MEXICO :COUNTRY
SRVC        .                                             UNKNOWN :SERVICE COMPANY
DATE        .                                             UNKNOWN :LOG DATE
UWI         .                                          3060000781 :UNIQUE WELL ID
XCOORD      .                                       601386.880000 :SURFACE X
YCOORD      .                                      2149875.750000 :SURFACE Y
LAT         .                                           19.441862 :LATITUDE
LON         .                                          -92.034176 :LONGITUDE
ELEV        .M                                            28.0000 :SURFACE ELEV
ELEV_TYPE   .                                                  KB :ELEV TYPE
~CURVE INFORMATION
#MNEMONIC.UNIT        API CODE       : CURVE DESCRIPTION
#------------------------------------------------------------------------------
DEPTH    .M                          : Measured Depth
CALI     .inches      UNKNOWN        : CALI:registros:rC:NONE:v0 (auto-composite)
CGR      .API         UNKNOWN        : CGR:registros:rC:NONE:v0 (auto-composite)
DRHO     .g/cm3       UNKNOWN        : DRHO:registros:rC:NONE:v0 (auto-composite)
DT       .UNKNOWN     UNKNOWN        : DT:registros:rC:NONE:v0 (auto-composite)
GR       .API         UNKNOWN        : GR:registros:rC:NONE:v0 (auto-composite)
ILD      .ohm.m       UNKNOWN        : ILD:registros:rC:NONE:v0 (auto-composite)
ILM      .ohm.m       UNKNOWN        : ILM:registros:rC:NONE:v0 (auto-composite)
LLD      .ohm.m       UNKNOWN        : LLD:registros:rC:NONE:v0 (auto-composite)
LLS      .ohm.m       UNKNOWN        : LLS:registros:rC:NONE:v0 (auto-composite)
MSFL     .ohm.m       UNKNOWN        : MSFL:registros:rC:NONE:v0 (auto-composite)
NPHI     .UNKNOWN     UNKNOWN        : NPHI:registros:rC:NONE:v0 (auto-composite)
PEF      .b/elec      UNKNOWN        : PEF:registros:rC:NONE:v0 (auto-composite)
POTA     .UNKNOWN     UNKNOWN        : POTA:registros:rC:NONE:v0 (auto-composite)
RHOB     .g/cm3       UNKNOWN        : RHOB:registros:rC:NONE:v0 (auto-composite)
SP       .mV          UNKNOWN        : SP:registros:rC:NONE:v0 (auto-composite)
THOR     .ppm         UNKNOWN        : THOR:registros:rC:NONE:v0 (auto-composite)
URAN     .ppm         UNKNOWN        : URAN:registros:rC:NONE:v0 (auto-composite)
~A     DEPTH         CALI          CGR         DRHO           DT           GR          ILD          ILM          LLD          LLS         MSFL         NPHI          PEF         POTA         RHOB           SP         THOR         URAN
# ...
   3013.5586       8.8150      25.8520       0.0080      61.0630      43.4624    -999.2500    -999.2500      40.5030      39.8600     177.6880       0.0822       3.1840       0.0090       2.7370       0.0000       1.5310       2.2050
   3013.7109       8.8640      29.2130       0.0090      69.2210      47.9845    -999.2500    -999.2500      42.2210      39.8920     175.9490       0.0834       3.1850       0.0090       2.7580       0.0000       1.8560       2.2510
   3013.8635       8.9140      32.2340       0.0090      77.3750      53.1339    -999.2500    -999.2500      43.9330      39.9240     174.2160       0.0867       3.1860       0.0100       2.7790       0.0000       2.1820       2.2970
   3014.0159       8.9170      33.8920       0.0270      68.9980      57.4211    -999.2500    -999.2500      43.9220      41.2620     100.5440       0.0846       3.2850       0.0120       2.7570       0.0000       2.6680       2.7460
   3014.1682       8.9190      34.9960       0.0450      60.6250      60.8363    -999.2500    -999.2500      43.9100      42.5950      27.1410       0.0818       3.3850       0.0130       2.7350       0.0000       3.1560       3.1970
   3014.3206       9.0120      33.9590       0.0810      62.0320      61.4650    -999.2500    -999.2500      44.3810      43.0260      27.2750       0.0813       3.3850       0.0130       2.7360       0.0000       3.1520       3.1970
   3014.4729       9.1050      32.7010       0.1170      63.4370      61.2542    -999.2500    -999.2500      44.8510      43.4550      27.4080       0.0826       3.3840       0.0130       2.7360       0.0000       3.1490       3.1960
   3014.6255       9.1730      30.6140       0.1160      63.3730      60.2669    -999.2500    -999.2500      72.6530      64.5300      33.6730       0.0894       3.3620       0.0130       2.7580       0.0000       3.0110       3.1800
   3014.7778       9.2420      28.6010       0.1160      63.3100      58.8889    -999.2500    -999.2500     100.3600      85.5340      39.9170       0.0961       3.3390       0.0120       2.7800       0.0000       2.8720       3.1640
   3014.9302       9.2420      26.8570       0.0980      58.9330      56.6079    -999.2500    -999.2500     102.7800      86.8520      50.9610       0.0970       3.2730       0.0100       2.7790       0.0000       2.5420       3.1470
   3015.0825       9.2420      25.4950       0.0800      54.5630      54.1577    -999.2500    -999.2500     105.1930      88.1650      61.9690       0.0965       3.2070       0.0090       2.7770       0.0000       2.2110       3.1290
   3015.2351       9.2410      25.4830       0.0590      56.2200      51.8787    -999.2500    -999.2500     105.1240      88.0810      50.8740       0.0965       3.2340       0.0090       2.7060       0.0000       2.2110       3.0070
   3015.3875       9.2400      25.7880       0.0380      57.8750      50.8238    -999.2500    -999.2500     105.0550      87.9980      39.8130       0.0982       3.2620       0.0090       2.6350       0.0000       2.2110       2.8840
   3015.5398       9.1940      27.1790       0.0340      57.8460      54.9059    -999.2500    -999.2500     102.7250      84.8920      39.9210       0.1070       3.2170       0.0100       2.6350       0.0000       2.2200       2.8910
   3015.6921       9.1490      28.4000       0.0290      57.8160      59.2070    -999.2500    -999.2500     100.4010      81.7960      40.0290       0.1158       3.1720       0.0110       2.6360       0.0000       2.2300       2.8990
   3015.8447       9.0290      29.0550       0.0290      56.8470      59.4000    -999.2500    -999.2500     100.4820      81.8540     265.2770       0.1172       3.2210       0.0110       2.6580       0.0000       2.4540       3.1420
   3015.9971       8.9080      29.5700       0.0280      55.8790      58.7784    -999.2500    -999.2500     100.5620      81.9110     489.8750       0.1160       3.2700       0.0110       2.6790       0.0000       2.6780       3.3860
   3016.1494       8.7980      29.6340       0.0210      53.7510      58.6840    -999.2500    -999.2500     106.6180      86.2030     477.9000       0.1103       3.2220       0.0100       2.7020       0.0000       2.7410       3.5250
   3016.3018       8.6870      29.6880       0.0130      51.6250      59.0854    -999.2500    -999.2500     112.6570      90.4840     465.9570       0.1025       3.1740       0.0100       2.7250       0.0000       2.8050       3.6650
   3016.4541       8.6870      29.7080       0.0140      51.6480      61.1556    -999.2500    -999.2500     103.2130      83.7210     263.4300       0.0893       3.2530       0.0100       2.7260       0.0000       2.9390       3.7620
   3016.6067       8.6870      29.4660       0.0140      51.6720      63.2173    -999.2500    -999.2500      93.7930      76.9750      61.4380       0.0771       3.3320       0.0110       2.7270       0.0000       3.0730       3.8590
   3016.7590       8.6870      28.4250       0.0250      53.9620      63.5802    -999.2500    -999.2500     100.3410      79.6120      64.3160       0.0749       3.3310       0.0100       2.7670       0.0000       3.0720       3.8560
   3016.9114       8.6870      27.6190       0.0370      56.2500      63.1655    -999.2500    -999.2500     106.8730      82.2420      67.1870       0.0750       3.3300       0.0090       2.8070       0.0000       3.0720       3.8530
   3017.0637       8.6870      27.5090       0.0490      56.2240      60.9439    -999.2500    -999.2500     106.7440      82.2250      53.7650       0.0753       3.2370       0.0090       2.7740       0.0000       3.0460       3.7800
   3017.2163       8.6870      27.9130       0.0620      56.1990      59.1213    -999.2500    -999.2500     106.6150      82.2070      40.3750       0.0758       3.1430       0.0090       2.7420       0.0000       3.0190       3.7060
   3017.3687       8.6870      29.7970       0.0820      55.4860      60.9079    -999.2500    -999.2500     102.1090      80.2750      40.7160       0.0777       3.1460       0.0090       2.7780       0.0000       2.7980       3.6870
   3017.5210       8.6870      31.4230       0.1020      54.7740      63.0643    -999.2500    -999.2500      97.6200      78.3510      41.0550       0.0799       3.1490       0.0100       2.8140       0.0000       2.5770       3.6680
   3017.6733       8.6870      32.3260       0.1010      53.2930      63.2850    -999.2500    -999.2500      97.7060      78.3760      52.0150       0.0818       3.2580       0.0110       2.8140       0.0000       2.6250       3.6070
   3017.8259       8.6870      32.8210       0.1000      51.8130      62.3652    -999.2500    -999.2500      97.7910      78.4000      62.9340       0.0835       3.3670       0.0120       2.8140       0.0000       2.6740       3.5450
   3017.9783       8.6870      32.1970       0.0760      51.8260      58.1129    -999.2500    -999.2500     100.0640      79.1430      67.0680       0.0841       3.3530       0.0120       2.8060       0.0000       2.6700       3.3060
   3018.1306       8.6880      31.5330       0.0520      51.8400      53.7504    -999.2500    -999.2500     102.3280      79.8830      71.1880       0.0844       3.3400       0.0120       2.7990       0.0000       2.6650       3.0660
   3018.2830       8.7340      30.7670       0.0450      52.1750      52.1277    -999.2500    -999.2500     110.2730      88.4560      65.2560       0.0846       3.3520       0.0120       2.7720       0.0000       2.3560       2.8160
   3018.4353       8.7810      29.9310       0.0380      52.5100      50.9787    -999.2500    -999.2500     118.1900      97.0000      59.3440       0.0849       3.3650       0.0110       2.7440       0.0000       2.0470       2.5660
   3018.5879       8.7810      28.9130       0.0340      52.6950      49.2799    -999.2500    -999.2500     117.9540      96.8290      59.8410       0.0859       3.2670       0.0110       2.7500       0.0000       2.0490       2.4810
   3018.7402       8.7800      27.6580       0.0290      52.8800      47.2049    -999.2500    -999.2500     117.7180      96.6580      60.3370       0.0874       3.1680       0.0110       2.7570       0.0000       2.0500       2.3950
