#------------------------------------------------------------------------------
#
#   Created by  : [OpenWorks] Log Export Utility (LEXP)
#   Created on  : 2016-05-11 12:13:37
#   Project     : CANT971
#   User        : R5K
#   Interpreter : PEP
#
#------------------------------------------------------------------------------
~VERSION INFORMATION
VERS. 2.0 : CWLS Log ASCII Standard - version 2.0
WRAP.  NO : One line per depth step
~WELL INFORMATION
#MNEMONIC   .UNIT                                           VALUE :DESCRIPTION
#------------------------------------------------------------------------------
STRT        .M                                           735.9406 :START DEPTH
STOP        .M                                          3069.9465 :STOP DEPTH
STEP        .M                                             0.1524 :STEP
NULL        .                                           -999.2500 :NULL VALUE
COMP        .                                   PEMEX EXPL & PROD :COMPANY
WELL        .                                               1085D :WELL
FLD         .                                           CANTARELL :FIELD
LOC         .                                             UNKNOWN :LOCATION
CNTY        .                                      CD. DEL CARMEN :COUNTY
STAT        .                                            CAMPECHE :STATE
CTRY        .                                              MEXICO :COUNTRY
SRVC        .                                             UNKNOWN :SERVICE COMPANY
DATE        .                                             UNKNOWN :LOG DATE
UWI         .                                          3060000781 :UNIQUE WELL ID
XCOORD      .                                       601386.880000 :SURFACE X
YCOORD      .                                      2149875.750000 :SURFACE Y
LAT         .                                           19.441862 :LATITUDE
LON         .                                          -92.034176 :LONGITUDE
ELEV        .M                                            28.0000 :SURFACE ELEV
ELEV_TYPE   .                                                  KB :ELEV TYPE
~CURVE INFORMATION
#MNEMONIC.UNIT        API CODE       : CURVE DESCRIPTION
#------------------------------------------------------------------------------
DEPTH    .M                          : Measured Depth
CALI     .inches      UNKNOWN        : CALI:registros:rC:NONE:v0 (auto-composite)
CGR      .API         UNKNOWN        : CGR:registros:rC:NONE:v0 (auto-composite)
DRHO     .g/cm3       UNKNOWN        : DRHO:registros:rC:NONE:v0 (auto-composite)
DT       .UNKNOWN     UNKNOWN        : DT:registros:rC:NONE:v0 (auto-composite)
GR       .API         UNKNOWN        : GR:registros:rC:NONE:v0 (auto-composite)
ILD      .ohm.m       UNKNOWN        : ILD:registros:rC:NONE:v0 (auto-composite)
ILM      .ohm.m       UNKNOWN        : ILM:registros:rC:NONE:v0 (auto-composite)
LLD      .ohm.m       UNKNOWN        : LLD:registros:rC:NONE:v0 (auto-composite)
LLS      .ohm.m       UNKNOWN        : LLS:registros:rC:NONE:v0 (auto-composite)
MSFL     .ohm.m       UNKNOWN        : MSFL:registros:rC:NONE:v0 (auto-composite)
NPHI     .UNKNOWN     UNKNOWN        : NPHI:registros:rC:NONE:v0 (auto-composite)
PEF      .b/elec      UNKNOWN        : PEF:registros:rC:NONE:v0 (auto-composite)
POTA     .UNKNOWN     UNKNOWN        : POTA:registros:rC:NONE:v0 (auto-composite)
RHOB     .g/cm3       UNKNOWN        : RHOB:registros:rC:NONE:v0 (auto-composite)
SP       .mV          UNKNOWN        : SP:registros:rC:NONE:v0 (auto-composite)
THOR     .ppm         UNKNOWN        : THOR:registros:rC:NONE:v0 (auto-composite)
URAN     .ppm         UNKNOWN        : URAN:registros:rC:NONE:v0 (auto-composite)
~A     DEPTH         CALI          CGR         DRHO           DT           GR          ILD          ILM          LLD          LLS         MSFL         NPHI          PEF         POTA         RHOB           SP         THOR         URAN
# ...
   2453.4885       9.8050       1.8650       0.0350      52.6270      14.9028    -999.2500    -999.2500    2101.3391    1001.4260     492.6410       0.0833       3.4260       0.0010       2.7650       0.0000       0.2200       1.2940
   2453.6411       9.8050       1.9670       0.0270      53.9370      14.4874    -999.2500    -999.2500    2444.5391    1259.8669     779.2500       0.0943       3.3280       0.0000       2.7490       0.0000       0.2220       1.2220
   2453.7935       9.8050       2.0590       0.0220      52.8460      14.1269    -999.2500    -999.2500    2112.1030     995.4910     645.3290       0.1049       3.3390       0.0010       2.7590       0.0000       0.2230       1.2090
   2453.9458       9.8050       2.0460       0.0160      51.7580      13.7393    -999.2500    -999.2500    1782.4740     733.7650     512.7500       0.1135       3.3490       0.0010       2.7690       0.0000       0.2240       1.1950
   2454.0981       9.8050       1.9420       0.0110      51.2530      13.2377    -999.2500    -999.2500    1300.0031     550.3070     716.0070       0.1179       3.4210       0.0010       2.7640       0.0000       0.2250       1.1950
   2454.2507       9.8050       1.7230       0.0060      50.7500      12.9626    -999.2500    -999.2500     821.5430     368.6660     917.2500       0.1199       3.4940       0.0010       2.7600       0.0000       0.2260       1.1950
   2454.4031       9.8050       1.4060       0.0040      51.2420      13.2956    -999.2500    -999.2500     849.1010     373.5630     713.5660       0.1208       3.4420       0.0010       2.7380       0.0000       0.2270       1.2180
   2454.5554       9.8050       1.0450       0.0030      51.7330      14.0210    -999.2500    -999.2500     876.4330     378.4120     511.8740       0.1198       3.3900       0.0010       2.7160       0.0000       0.2280       1.2410
   2454.7078       9.8050       0.6480       0.0100      53.0780      15.0019    -999.2500    -999.2500    1314.1740     538.7860     437.2380       0.1154       3.3190       0.0010       2.7400       0.0000       0.2280       1.3490
   2454.8601       9.8050       0.3850       0.0170      54.4180      15.5928    -999.2500    -999.2500    1748.3850     697.6110     363.3230       0.1096       3.2490       0.0000       2.7650       0.0000       0.2290       1.4570
   2455.0127       9.7930       0.2340       0.0270      59.6930      15.0813    -999.2500    -999.2500    2409.7390    1089.2700     317.1610       0.1036       3.2110       0.0000       2.7830       0.0000       0.2300       1.5670
   2455.1650       9.7810       0.1800       0.0370      64.9430      14.4282    -999.2500    -999.2500    3065.8379    1477.1980     271.4380       0.0985       3.1740       0.0000       2.8020       0.0000       0.2320       1.6760
   2455.3174       9.7930       0.2040       0.0420      66.5130      14.5611    -999.2500    -999.2500    3255.3069    1443.9340     222.0180       0.0955       3.1960       0.0000       2.8150       0.0000       0.2330       1.7340
   2455.4697       9.8050       0.2150       0.0470      68.0750      15.2040    -999.2500    -999.2500    3443.2949    1410.9830     173.0620       0.0949       3.2180       0.0000       2.8270       0.0000       0.2340       1.7920
   2455.6223       9.7340       0.2140       0.0430      71.9530      16.1733    -999.2500    -999.2500    2711.4199    1217.8060     197.3520       0.0975       3.2800       0.0000       2.8160       0.0000       0.2350       1.8780
   2455.7747       9.6640       0.2140       0.0380      75.8130      17.1314    -999.2500    -999.2500    1985.1760    1026.4210     221.4170       0.1016       3.3430       0.0000       2.8050       0.0000       0.2350       1.9640
   2455.9270       9.6790       0.2140       0.0380      68.8420      17.7389    -999.2500    -999.2500    1676.2070     815.9620     279.7880       0.1054       3.4240       0.0000       2.7970       0.0000       0.2360       1.9980
   2456.0793       9.6950       0.2140       0.0390      61.9020      17.7784    -999.2500    -999.2500    1370.0680     607.4300     337.6250       0.1065       3.5040       0.0000       2.7900       0.0000       0.2370       2.0320
   2456.2319       9.6790       0.2140       0.0390      59.7900      16.9381    -999.2500    -999.2500    1306.2190     576.3660     226.1540       0.1019       3.3910       0.0000       2.7930       0.0000       0.2370       2.0030
   2456.3843       9.6640       0.2140       0.0390      57.6870      16.0519    -999.2500    -999.2500    1242.9460     545.5820     115.6880       0.0966       3.2790       0.0000       2.7970       0.0000       0.2380       1.9750
   2456.5366       9.6640       0.2130       0.0420      60.5050      15.9366    -999.2500    -999.2500    1495.3990     749.8250     232.3440       0.0953       3.3490       0.0000       2.8040       0.0000       0.2400       1.9490
   2456.6890       9.6640       0.2130       0.0450      63.3110      15.9571    -999.2500    -999.2500    1745.6040     952.2490     347.9600       0.0948       3.4200       0.0000       2.8110       0.0000       0.2410       1.9230
   2456.8413       9.6640       0.2130       0.0460      66.3180      15.5043    -999.2500    -999.2500    1849.3630    1017.4520    1131.7939       0.0921       3.3070       0.0000       2.8100       0.0000       0.2690       1.8160
   2456.9939       9.6640       0.2450       0.0470      69.3130      14.7904    -999.2500    -999.2500    1952.2111    1081.9790    1907.5000       0.0906       3.1950       0.0000       2.8100       0.0000       0.2970       1.7090
   2457.1462       9.6640       0.3000       0.0490      68.1220      13.9841    -999.2500    -999.2500    1789.8750    1029.3850    1779.1949       0.0937       3.2820       0.0000       2.8090       0.0000       0.4210       1.5750
   2457.2986       9.6640       0.6350       0.0500      66.9350      13.3473    -999.2500    -999.2500    1628.9449     977.3290    1652.2040       0.0996       3.3690       0.0000       2.8070       0.0000       0.5440       1.4410
   2457.4509       9.6640       1.1640       0.0390      65.6150      13.1638    -999.2500    -999.2500    1469.2820     899.3610     868.4170       0.1068       3.3400       0.0000       2.7830       0.0000       0.7510       1.3450
   2457.6035       9.6640       2.1650       0.0280      64.2990      13.4080    -999.2500    -999.2500    1310.9800     822.1820      92.5620       0.1114       3.3110       0.0000       2.7600       0.0000       0.9580       1.2500
   2457.7559       9.6640       3.4870       0.0320      62.5210      14.1183    -999.2500    -999.2500    1237.2190     785.2530     119.5530       0.1088       3.3460       0.0010       2.7790       0.0000       0.9250       1.2270
   2457.9082       9.6640       4.5930       0.0350      60.7500      15.0504    -999.2500    -999.2500    1164.0780     748.6930     146.2750       0.1017       3.3820       0.0010       2.7970       0.0000       0.8920       1.2050
   2458.0605       9.6640       5.5530       0.0340      61.7200      15.9930    -999.2500    -999.2500     912.1200     598.2580     231.2440       0.0920       3.3920       0.0020       2.7830       0.0000       0.7830       1.2380
   2458.2131       9.6640       5.7410       0.0320      62.6870      16.4983    -999.2500    -999.2500     662.2460     449.3070     315.3750       0.0811       3.4020       0.0020       2.7700       0.0000       0.6750       1.2700
   2458.3655       9.6640       5.4220       0.0320      62.5760      16.0605    -999.2500    -999.2500    1153.1370     714.5290     240.4090       0.0706       3.2810       0.0020       2.7660       0.0000       0.5110       1.2550
   2458.5178       9.6640       4.8430       0.0310      62.4650      14.9547    -999.2500    -999.2500    1640.0250     977.1700     166.1720       0.0611       3.1600       0.0020       2.7610       0.0000       0.3470       1.2400
   2458.6702       9.6560       4.0950       0.0360      61.0860      13.3651    -999.2500    -999.2500    1850.9840    1078.6150     158.2040       0.0537       3.2170       0.0020       2.7920       0.0000       0.3000       1.2110
