#------------------------------------------------------------------------------
#
#   Created by  : [OpenWorks] Log Export Utility (LEXP)
#   Created on  : 2016-05-11 12:13:37
#   Project     : CANT971
#   User        : R5K
#   Interpreter : PEP
#
#------------------------------------------------------------------------------
~VERSION INFORMATION
VERS. 2.0 : CWLS Log ASCII Standard - version 2.0
WRAP.  NO : One line per depth step
~WELL INFORMATION
#MNEMONIC   .UNIT                                           VALUE :DESCRIPTION
#------------------------------------------------------------------------------
STRT        .M                                           735.9406 :START DEPTH
STOP        .M                                          3069.9465 :STOP DEPTH
STEP        .M                                             0.1524 :STEP
NULL        .                                           -999.2500 :NULL VALUE
COMP        .                                   PEMEX EXPL & PROD :COMPANY
WELL        .                                               1085D :WELL
FLD         .                                           CANTARELL :FIELD
LOC         .                                             UNKNOWN :LOCATION
CNTY        .                                      CD. DEL CARMEN :COUNTY
STAT        .                                            CAMPECHE :STATE
CTRY        .                                              MEXICO :COUNTRY
SRVC        .                                             UNKNOWN :SERVICE COMPANY
DATE        .                                             UNKNOWN :LOG DATE
UWI         .                                          3060000781 :UNIQUE WELL ID
XCOORD      .                                       601386.880000 :SURFACE X
YCOORD      .                                      2149875.750000 :SURFACE Y
LAT         .                                           19.441862 :LATITUDE
LON         .                                          -92.034176 :LONGITUDE
ELEV        .M                                            28.0000 :SURFACE ELEV
ELEV_TYPE   .                                                  KB :ELEV TYPE
~CURVE INFORMATION
#MNEMONIC.UNIT        API CODE       : CURVE DESCRIPTION
#------------------------------------------------------------------------------
DEPTH    .M                          : Measured Depth
CALI     .inches      UNKNOWN        : CALI:registros:rC:NONE:v0 (auto-composite)
CGR      .API         UNKNOWN        : CGR:registros:rC:NONE:v0 (auto-composite)
DRHO     .g/cm3       UNKNOWN        : DRHO:registros:rC:NONE:v0 (auto-composite)
DT       .UNKNOWN     UNKNOWN        : DT:registros:rC:NONE:v0 (auto-composite)
GR       .API         UNKNOWN        : GR:registros:rC:NONE:v0 (auto-composite)
ILD      .ohm.m       UNKNOWN        : ILD:registros:rC:NONE:v0 (auto-composite)
ILM      .ohm.m       UNKNOWN        : ILM:registros:rC:NONE:v0 (auto-composite)
LLD      .ohm.m       UNKNOWN        : LLD:registros:rC:NONE:v0 (auto-composite)
LLS      .ohm.m       UNKNOWN        : LLS:registros:rC:NONE:v0 (auto-composite)
MSFL     .ohm.m       UNKNOWN        : MSFL:registros:rC:NONE:v0 (auto-composite)
NPHI     .UNKNOWN     UNKNOWN        : NPHI:registros:rC:NONE:v0 (auto-composite)
PEF      .b/elec      UNKNOWN        : PEF:registros:rC:NONE:v0 (auto-composite)
POTA     .UNKNOWN     UNKNOWN        : POTA:registros:rC:NONE:v0 (auto-composite)
RHOB     .g/cm3       UNKNOWN        : RHOB:registros:rC:NONE:v0 (auto-composite)
SP       .mV          UNKNOWN        : SP:registros:rC:NONE:v0 (auto-composite)
THOR     .ppm         UNKNOWN        : THOR:registros:rC:NONE:v0 (auto-composite)
URAN     .ppm         UNKNOWN        : URAN:registros:rC:NONE:v0 (auto-composite)
~A     DEPTH         CALI          CGR         DRHO           DT           GR          ILD          ILM          LLD          LLS         MSFL         NPHI          PEF         POTA         RHOB           SP         THOR         URAN
# ...
   2730.8567       9.6600       0.5890       0.0640      49.3110      21.7294    -999.2500    -999.2500    2055.7759    1234.5770    1287.0780       0.0142       3.5490       0.0010       2.8680       0.0000       0.4100       2.3760
   2731.0090       9.6640       0.4000       0.0640      48.3440      21.3424    -999.2500    -999.2500    1799.7930    1095.3030     769.4640       0.0148       3.6040       0.0010       2.8570       0.0000       0.4150       2.3320
   2731.1614       9.6640       0.2740       0.0560      48.6220      21.0134    -999.2500    -999.2500    1691.1730    1056.7960     495.6560       0.0160       3.5700       0.0010       2.8430       0.0000       0.4160       2.3250
   2731.3137       9.6640       0.2800       0.0490      48.9000      20.8016    -999.2500    -999.2500    1583.1591    1018.5650     223.8120       0.0172       3.5370       0.0010       2.8300       0.0000       0.4170       2.3170
   2731.4663       9.6870       0.2910       0.0500      49.0360      20.7787    -999.2500    -999.2500    1388.0540     926.4790     364.3390       0.0177       3.6390       0.0010       2.8530       0.0000       0.3880       2.4000
   2731.6187       9.7110       0.3110       0.0510      49.1720      21.2113    -999.2500    -999.2500    1194.0140     835.0430     503.8750       0.0180       3.7420       0.0010       2.8770       0.0000       0.3590       2.4830
   2731.7710       9.7030       0.5820       0.0400      49.4770      22.4154    -999.2500    -999.2500     899.6800     652.1690     380.6980       0.0187       3.5970       0.0010       2.8590       0.0000       0.3260       2.6180
   2731.9233       9.6960       1.3650       0.0290      49.7810      24.8703    -999.2500    -999.2500     606.9160     470.5620     258.3730       0.0203       3.4520       0.0000       2.8420       0.0000       0.2930       2.7540
   2732.0759       9.6880       2.4470       0.0260      49.4370      29.2029    -999.2500    -999.2500     506.8190     399.6430     201.8380       0.0236       3.4180       0.0010       2.8390       0.0000       0.3800       3.1980
   2732.2283       9.6800       4.1310       0.0240      49.0940      33.5732    -999.2500    -999.2500     407.2440     329.2070     145.6870       0.0264       3.3850       0.0020       2.8350       0.0000       0.4660       3.6410
   2732.3806       9.7380       6.0040       0.0270      49.2120      36.1680    -999.2500    -999.2500     378.6180     308.9830     285.8740       0.0264       3.4340       0.0030       2.8380       0.0000       0.6180       3.7820
   2732.5330       9.7970       8.2480       0.0300      49.3290      38.4838    -999.2500    -999.2500     350.1380     288.8930     425.1250       0.0259       3.4840       0.0040       2.8400       0.0000       0.7710       3.9230
   2732.6853       9.8010      10.5570       0.0320      50.0090      41.9808    -999.2500    -999.2500     344.4620     285.3760     320.0620       0.0270       3.4650       0.0050       2.8350       0.0000       0.9320       3.9800
   2732.8379       9.8050      12.9910       0.0350      50.6870      46.2278    -999.2500    -999.2500     338.8230     281.8820     215.6880       0.0286       3.4460       0.0070       2.8300       0.0000       1.0930       4.0360
   2732.9902       9.8280      14.6030       0.0320      49.9180      50.8778    -999.2500    -999.2500     357.7450     291.2860     270.5830       0.0302       3.4210       0.0070       2.8230       0.0000       1.2070       4.0400
   2733.1426       9.8520      14.6890       0.0290      49.1520      53.5136    -999.2500    -999.2500     376.5460     300.6300     325.1250       0.0307       3.3950       0.0080       2.8160       0.0000       1.3200       4.0430
   2733.2949       9.7740      14.1540       0.0340      48.5150      51.4800    -999.2500    -999.2500     420.7770     325.0650     257.4200       0.0292       3.3230       0.0070       2.8220       0.0000       1.2000       3.8650
   2733.4475       9.6960      12.4940       0.0380      47.8800      47.9372    -999.2500    -999.2500     464.7300     349.3470     190.1420       0.0271       3.2500       0.0060       2.8280       0.0000       1.0800       3.6880
   2733.5999       9.6800      10.8670       0.0630      46.5000      45.8352    -999.2500    -999.2500     614.8000     443.4210     183.2680       0.0255       3.2650       0.0050       2.8180       0.0000       0.9720       3.5090
   2733.7522       9.6640       9.3000       0.0880      45.1250      43.7033    -999.2500    -999.2500     763.9450     536.9140     176.4370       0.0254       3.2800       0.0040       2.8070       0.0000       0.8650       3.3310
   2733.9045       9.6720       8.0960       0.1410      46.2530      40.0784    -999.2500    -999.2500     689.7680     482.8920     188.7240       0.0281       3.3160       0.0040       2.8570       0.0000       0.8980       3.3010
   2734.0571       9.6790       7.5250       0.1940      47.3780      37.1324    -999.2500    -999.2500     616.0400     429.1970     200.9370       0.0316       3.3520       0.0030       2.9070       0.0000       0.9310       3.2710
   2734.2095       9.6830       7.2900       0.1620      48.9570      37.1379    -999.2500    -999.2500     527.9530     366.1880     145.5230       0.0344       3.3680       0.0030       2.8910       0.0000       1.0490       3.3030
   2734.3618       9.6870       7.6240       0.1290      50.5310      38.1405    -999.2500    -999.2500     440.3880     303.5520      90.4380       0.0356       3.3830       0.0030       2.8750       0.0000       1.1670       3.3360
   2734.5142       9.6990       7.6700       0.1090      49.5460      38.3370    -999.2500    -999.2500     433.7950     299.5590     181.2950       0.0343       3.3760       0.0030       2.8790       0.0000       1.1010       3.3720
   2734.6665       9.7110       7.2360       0.0900      48.5630      37.5073    -999.2500    -999.2500     427.2410     295.5900     271.6250       0.0313       3.3690       0.0030       2.8840       0.0000       1.0350       3.4080
   2734.8191       9.6870       6.8920       0.0650      50.3200      35.2855    -999.2500    -999.2500     435.1480     304.1550     188.7540       0.0273       3.4070       0.0030       2.8580       0.0000       0.6280       3.3060
   2734.9714       9.6640       6.6950       0.0410      52.0730      33.9001    -999.2500    -999.2500     443.0100     312.6580     106.4850       0.0237       3.4440       0.0030       2.8310       0.0000       0.2220       3.2040
   2735.1238       9.6640       7.0190       0.0510      53.3540      35.7015    -999.2500    -999.2500     433.2560     316.4980      93.3830       0.0220       3.4660       0.0040       2.8420       0.0000       0.3380       3.2390
   2735.2761       9.6640       8.1670       0.0610      54.6320      39.1780    -999.2500    -999.2500     423.5560     320.3100      80.3750       0.0220       3.4880       0.0040       2.8520       0.0000       0.4530       3.2740
   2735.4287       9.6640       9.6370       0.0490      56.2140      43.1081    -999.2500    -999.2500     387.4870     298.6230     143.6090       0.0241       3.5100       0.0050       2.8470       0.0000       0.6000       3.3550
   2735.5811       9.6640      11.6070       0.0370      57.7920      46.4588    -999.2500    -999.2500     351.6130     277.0890     206.4000       0.0270       3.5310       0.0060       2.8420       0.0000       0.7470       3.4350
   2735.7334       9.6640      13.4170       0.0350      63.3700      48.1020    -999.2500    -999.2500     303.0150     242.9270     359.8530       0.0299       3.4920       0.0070       2.8420       0.0000       0.8360       3.5450
   2735.8857       9.6640      14.9820       0.0330      68.9370      49.2489    -999.2500    -999.2500     254.6740     209.0010     512.2500       0.0319       3.4530       0.0080       2.8410       0.0000       0.9240       3.6540
   2736.0383       9.6640      15.7240       0.0380      60.8570      51.0199    -999.2500    -999.2500     241.2250     194.3850     375.5060       0.0317       3.3360       0.0070       2.8330       0.0000       1.3400       3.9050
