#------------------------------------------------------------------------------
#
#   Created by  : [OpenWorks] Log Export Utility (LEXP)
#   Created on  : 2016-05-11 12:13:37
#   Project     : CANT971
#   User        : R5K
#   Interpreter : PEP
#
#------------------------------------------------------------------------------
~VERSION INFORMATION
VERS. 2.0 : CWLS Log ASCII Standard - version 2.0
WRAP.  NO : One line per depth step
~WELL INFORMATION
#MNEMONIC   .UNIT                                           VALUE :DESCRIPTION
#------------------------------------------------------------------------------
STRT        .M                                           735.9406 :START DEPTH
STOP        .M                                          3069.9465 :STOP DEPTH
STEP        .M                                             0.1524 :STEP
NULL        .                                           -999.2500 :NULL VALUE
COMP        .                                   PEMEX EXPL & PROD :COMPANY
WELL        .                                               1085D :WELL
FLD         .                                           CANTARELL :FIELD
LOC         .                                             UNKNOWN :LOCATION
CNTY        .                                      CD. DEL CARMEN :COUNTY
STAT        .                                            CAMPECHE :STATE
CTRY        .                                              MEXICO :COUNTRY
SRVC        .                                             UNKNOWN :SERVICE COMPANY
DATE        .                                             UNKNOWN :LOG DATE
UWI         .                                          3060000781 :UNIQUE WELL ID
XCOORD      .                                       601386.880000 :SURFACE X
YCOORD      .                                      2149875.750000 :SURFACE Y
LAT         .                                           19.441862 :LATITUDE
LON         .                                          -92.034176 :LONGITUDE
ELEV        .M                                            28.0000 :SURFACE ELEV
ELEV_TYPE   .                                                  KB :ELEV TYPE
~CURVE INFORMATION
#MNEMONIC.UNIT        API CODE       : CURVE DESCRIPTION
#------------------------------------------------------------------------------
DEPTH    .M                          : Measured Depth
CALI     .inches      UNKNOWN        : CALI:registros:rC:NONE:v0 (auto-composite)
CGR      .API         UNKNOWN        : CGR:registros:rC:NONE:v0 (auto-composite)
DRHO     .g/cm3       UNKNOWN        : DRHO:registros:rC:NONE:v0 (auto-composite)
DT       .UNKNOWN     UNKNOWN        : DT:registros:rC:NONE:v0 (auto-composite)
GR       .API         UNKNOWN        : GR:registros:rC:NONE:v0 (auto-composite)
ILD      .ohm.m       UNKNOWN        : ILD:registros:rC:NONE:v0 (auto-composite)
ILM      .ohm.m       UNKNOWN        : ILM:registros:rC:NONE:v0 (auto-composite)
LLD      .ohm.m       UNKNOWN        : LLD:registros:rC:NONE:v0 (auto-composite)
LLS      .ohm.m       UNKNOWN        : LLS:registros:rC:NONE:v0 (auto-composite)
MSFL     .ohm.m       UNKNOWN        : MSFL:registros:rC:NONE:v0 (auto-composite)
NPHI     .UNKNOWN     UNKNOWN        : NPHI:registros:rC:NONE:v0 (auto-composite)
PEF      .b/elec      UNKNOWN        : PEF:registros:rC:NONE:v0 (auto-composite)
POTA     .UNKNOWN     UNKNOWN        : POTA:registros:rC:NONE:v0 (auto-composite)
RHOB     .g/cm3       UNKNOWN        : RHOB:registros:rC:NONE:v0 (auto-composite)
SP       .mV          UNKNOWN        : SP:registros:rC:NONE:v0 (auto-composite)
THOR     .ppm         UNKNOWN        : THOR:registros:rC:NONE:v0 (auto-composite)
URAN     .ppm         UNKNOWN        : URAN:registros:rC:NONE:v0 (auto-composite)
~A     DEPTH         CALI          CGR         DRHO           DT           GR          ILD          ILM          LLD          LLS         MSFL         NPHI          PEF         POTA         RHOB           SP         THOR         URAN
# ...
   2618.8425       9.1090      14.1040       0.0210      74.2780      60.1887    -999.2500    -999.2500     354.5750     393.7810    1507.5000       0.0696       3.2700       0.0050       2.7360       0.0000       1.0520       5.5300
   2618.9951       9.1090      13.5910       0.0220      73.1050      62.1395    -999.2500    -999.2500     268.8260     301.7950     783.6940       0.0783       3.3290       0.0040       2.7130       0.0000       1.3730       5.4360
   2619.1475       9.1090      11.6800       0.0220      71.9370      63.8178    -999.2500    -999.2500     183.6970     210.4740      65.1250       0.0865       3.3870       0.0040       2.6900       0.0000       1.6940       5.3410
   2619.2998       9.1090       9.4980       0.0230      72.5570      61.2012    -999.2500    -999.2500     227.5700     257.5890     218.3510       0.0860       3.3400       0.0040       2.6970       0.0000       1.5130       4.9560
   2619.4521       9.1090       6.8900       0.0250      73.1750      57.6213    -999.2500    -999.2500     271.1320     304.3690     370.4880       0.0840       3.2930       0.0030       2.7040       0.0000       1.3330       4.5710
   2619.6045       9.1090       4.8320       0.0230      75.8740      49.4239    -999.2500    -999.2500    1451.2030    1319.7510    1188.3500       0.0768       3.3180       0.0020       2.7210       0.0000       0.7560       4.1150
   2619.7571       9.1090       3.6290       0.0220      78.5630      40.9828    -999.2500    -999.2500    2623.0339    2328.0430    2000.5000       0.0689       3.3420       0.0010       2.7380       0.0000       0.1810       3.6610
   2619.9094       9.1090       2.9900       0.0230      78.1560      34.8081    -999.2500    -999.2500    2300.1260    2202.8530    2000.5000       0.0606       3.3400       0.0020       2.7490       0.0000       0.1820       3.4160
   2620.0618       9.1090       3.2050       0.0250      77.7500      29.5025    -999.2500    -999.2500    1979.4301    2078.7200    2000.5000       0.0530       3.3380       0.0030       2.7590       0.0000       0.1820       3.1720
   2620.2141       9.1090       3.4610       0.0300      78.6790      29.5789    -999.2500    -999.2500    2081.6001    1960.5291    2000.5000       0.0530       3.3390       0.0020       2.7580       0.0000       0.1830       3.0930
   2620.3667       9.1090       3.7760       0.0350      79.6050      30.1956    -999.2500    -999.2500    2183.0820    1843.3199    2000.5000       0.0541       3.3410       0.0020       2.7570       0.0000       0.1840       3.0150
   2620.5190       9.1090       3.8520       0.0330      81.4310      30.1701    -999.2500    -999.2500    2089.2729    1778.2770    2000.5000       0.0564       3.4090       0.0020       2.7500       0.0000       0.1850       2.9970
   2620.6714       9.1090       3.5800       0.0310      83.2500      29.9446    -999.2500    -999.2500    1996.0830    1713.7679    2000.5000       0.0588       3.4770       0.0010       2.7430       0.0000       0.1860       2.9780
   2620.8237       9.1090       3.1000       0.0320      79.3370      28.6513    -999.2500    -999.2500    2059.1240    1776.9210    2000.5000       0.0608       3.4380       0.0010       2.7470       0.0000       0.2030       2.8330
   2620.9763       9.1090       2.3260       0.0340      75.4370      27.1336    -999.2500    -999.2500    2121.7571    1839.5640    2000.5000       0.0626       3.3990       0.0010       2.7500       0.0000       0.2190       2.6890
   2621.1287       9.1090       1.7960       0.0310      75.8240      24.7088    -999.2500    -999.2500    1516.2230    1332.1680    2000.5000       0.0638       3.3420       0.0010       2.7560       0.0000       0.2370       2.7000
   2621.2810       9.1090       1.6050       0.0280      76.2100      22.8219    -999.2500    -999.2500     914.5340     828.8050    2000.5000       0.0652       3.2850       0.0000       2.7620       0.0000       0.2550       2.7110
   2621.4333       9.0970       1.8800       0.0240      77.2630      26.2188    -999.2500    -999.2500     598.8790     567.6040    2000.5000       0.0689       3.3360       0.0010       2.7620       0.0000       0.2280       3.0630
   2621.5857       9.0860       2.7910       0.0200      78.3130      30.3458    -999.2500    -999.2500     285.1900     308.4450    2000.5000       0.0733       3.3870       0.0010       2.7620       0.0000       0.2000       3.4140
   2621.7383       9.0880       4.0280       0.0180      76.9370      35.4659    -999.2500    -999.2500     234.9300     268.4140    2000.5000       0.0803       3.4370       0.0020       2.7540       0.0000       0.2130       3.8380
   2621.8906       9.0900       5.6990       0.0150      75.5650      40.5937    -999.2500    -999.2500     184.9770     228.6920    2000.5000       0.0881       3.4860       0.0020       2.7470       0.0000       0.2260       4.2610
   2622.0430       9.0960       8.0370       0.0130      71.1200      45.1456    -999.2500    -999.2500     133.5540     168.3550    2000.5000       0.0989       3.4400       0.0020       2.7250       0.0000       0.4170       4.4630
   2622.1953       9.1020      11.2440       0.0110      66.6870      50.0010    -999.2500    -999.2500      82.4380     108.4740    2000.5000       0.1124       3.3940       0.0030       2.7030       0.0000       0.6080       4.6640
   2622.3479       9.0900      13.3230       0.0050      67.0610      58.1078    -999.2500    -999.2500      83.1410     108.8850    1043.7510       0.1433       3.3410       0.0040       2.6480       0.0000       1.4690       4.8980
   2622.5002       9.0780      13.9640      -0.0010      67.4340      64.8035    -999.2500    -999.2500      83.8390     109.2930      94.1250       0.1723       3.2870       0.0050       2.5940       0.0000       2.3280       5.1320
   2622.6526       9.0940      12.7440       0.0010      68.6870      57.5375    -999.2500    -999.2500      99.9210     127.8580     192.3640       0.1685       3.3490       0.0040       2.6020       0.0000       1.7890       4.6990
   2622.8049       9.1090       9.2030       0.0030      69.9370      48.4475    -999.2500    -999.2500     115.8860     146.2870     289.8840       0.1604       3.4120       0.0030       2.6100       0.0000       1.2500       4.2670
   2622.9575       9.0970       5.9980       0.0070      69.4140      38.8474    -999.2500    -999.2500     203.1280     247.2080     973.1490       0.1510       3.3160       0.0020       2.5960       0.0000       0.7490       3.6670
   2623.1099       9.0860       3.2080       0.0110      68.8930      30.0393    -999.2500    -999.2500     289.7430     347.4030    1651.5000       0.1426       3.2190       0.0000       2.5820       0.0000       0.2480       3.0670
   2623.2622       9.0880       1.4210       0.0190      67.4120      27.8045    -999.2500    -999.2500     423.6230     491.3710    1324.9720       0.1428       3.2790       0.0000       2.5850       0.0000       0.2390       3.0900
   2623.4146       9.0900       0.8390       0.0260      65.9370      26.5495    -999.2500    -999.2500     556.5580     634.3220    1000.7500       0.1445       3.3380       0.0000       2.5880       0.0000       0.2300       3.1130
   2623.5669       9.0960       0.5250       0.0200      71.6980      26.2520    -999.2500    -999.2500     606.8670     693.0010    1148.5000       0.1493       3.3300       0.0000       2.5670       0.0000       0.2210       3.1630
   2623.7195       9.1020       0.5260       0.0140      77.4370      26.1033    -999.2500    -999.2500     656.8260     751.2730    1295.2240       0.1538       3.3230       0.0000       2.5460       0.0000       0.2110       3.2120
   2623.8718       9.1060       0.5270       0.0160      74.9050      26.1149    -999.2500    -999.2500     727.9540     750.2880    1649.3510       0.1523       3.3030       0.0000       2.5510       0.0000       0.2020       3.2600
   2624.0242       9.1090       0.5290       0.0190      72.3820      26.1213    -999.2500    -999.2500     798.5980     749.3120    2000.5000       0.1499       3.2820       0.0000       2.5560       0.0000       0.1930       3.3090
