#------------------------------------------------------------------------------
#
#   Created by  : [OpenWorks] Log Export Utility (LEXP)
#   Created on  : 2016-05-11 12:13:37
#   Project     : CANT971
#   User        : R5K
#   Interpreter : PEP
#
#------------------------------------------------------------------------------
~VERSION INFORMATION
VERS. 2.0 : CWLS Log ASCII Standard - version 2.0
WRAP.  NO : One line per depth step
~WELL INFORMATION
#MNEMONIC   .UNIT                                           VALUE :DESCRIPTION
#------------------------------------------------------------------------------
STRT        .M                                           735.9406 :START DEPTH
STOP        .M                                          3069.9465 :STOP DEPTH
STEP        .M                                             0.1524 :STEP
NULL        .                                           -999.2500 :NULL VALUE
COMP        .                                   PEMEX EXPL & PROD :COMPANY
WELL        .                                               1085D :WELL
FLD         .                                           CANTARELL :FIELD
LOC         .                                             UNKNOWN :LOCATION
CNTY        .                                      CD. DEL CARMEN :COUNTY
STAT        .                                            CAMPECHE :STATE
CTRY        .                                              MEXICO :COUNTRY
SRVC        .                                             UNKNOWN :SERVICE COMPANY
DATE        .                                             UNKNOWN :LOG DATE
UWI         .                                          3060000781 :UNIQUE WELL ID
XCOORD      .                                       601386.880000 :SURFACE X
YCOORD      .                                      2149875.750000 :SURFACE Y
LAT         .                                           19.441862 :LATITUDE
LON         .                                          -92.034176 :LONGITUDE
ELEV        .M                                            28.0000 :SURFACE ELEV
ELEV_TYPE   .                                                  KB :ELEV TYPE
~CURVE INFORMATION
#MNEMONIC.UNIT        API CODE       : CURVE DESCRIPTION
#------------------------------------------------------------------------------
DEPTH    .M                          : Measured Depth
CALI     .inches      UNKNOWN        : CALI:registros:rC:NONE:v0 (auto-composite)
CGR      .API         UNKNOWN        : CGR:registros:rC:NONE:v0 (auto-composite)
DRHO     .g/cm3       UNKNOWN        : DRHO:registros:rC:NONE:v0 (auto-composite)
DT       .UNKNOWN     UNKNOWN        : DT:registros:rC:NONE:v0 (auto-composite)
GR       .API         UNKNOWN        : GR:registros:rC:NONE:v0 (auto-composite)
ILD      .ohm.m       UNKNOWN        : ILD:registros:rC:NONE:v0 (auto-composite)
ILM      .ohm.m       UNKNOWN        : ILM:registros:rC:NONE:v0 (auto-composite)
LLD      .ohm.m       UNKNOWN        : LLD:registros:rC:NONE:v0 (auto-composite)
LLS      .ohm.m       UNKNOWN        : LLS:registros:rC:NONE:v0 (auto-composite)
MSFL     .ohm.m       UNKNOWN        : MSFL:registros:rC:NONE:v0 (auto-composite)
NPHI     .UNKNOWN     UNKNOWN        : NPHI:registros:rC:NONE:v0 (auto-composite)
PEF      .b/elec      UNKNOWN        : PEF:registros:rC:NONE:v0 (auto-composite)
POTA     .UNKNOWN     UNKNOWN        : POTA:registros:rC:NONE:v0 (auto-composite)
RHOB     .g/cm3       UNKNOWN        : RHOB:registros:rC:NONE:v0 (auto-composite)
SP       .mV          UNKNOWN        : SP:registros:rC:NONE:v0 (auto-composite)
THOR     .ppm         UNKNOWN        : THOR:registros:rC:NONE:v0 (auto-composite)
URAN     .ppm         UNKNOWN        : URAN:registros:rC:NONE:v0 (auto-composite)
~A     DEPTH         CALI          CGR         DRHO           DT           GR          ILD          ILM          LLD          LLS         MSFL         NPHI          PEF         POTA         RHOB           SP         THOR         URAN
# ...
   2954.8845       9.1440      31.6910       0.0520      59.2250      66.4959    -999.2500    -999.2500     172.7360     186.0270     106.9790       0.5322       3.4330       0.0120       2.7780       0.0000       2.7760       3.9360
   2955.0371       9.1250      29.4360       0.0610      60.7500      65.8154    -999.2500    -999.2500     156.7760     170.7360      44.5310       0.6118       3.4570       0.0120       2.8030       0.0000       2.6010       3.8300
   2955.1895       9.1370      26.9020       0.0540      58.5310      60.9584    -999.2500    -999.2500     187.3400     198.0540      79.7580       0.6287       3.3490       0.0100       2.7820       0.0000       2.5220       3.7310
   2955.3418       9.1500      23.1500       0.0470      56.3130      56.0448    -999.2500    -999.2500     217.7820     225.2620     114.8440       0.5932       3.2400       0.0090       2.7610       0.0000       2.4430       3.6330
   2955.4941       9.1570      19.6960       0.0440      57.9400      55.1965    -999.2500    -999.2500     258.5650     266.2500     132.0080       0.5140       3.3360       0.0070       2.7860       0.0000       2.1680       3.9060
   2955.6467       9.1640      17.4940       0.0410      59.5640      55.3251    -999.2500    -999.2500     299.1900     307.0800     149.1050       0.4386       3.4320       0.0060       2.8110       0.0000       1.8930       4.1790
   2955.7991       9.1560      15.7660       0.0300      60.4460      53.3704    -999.2500    -999.2500     326.7500     334.1430     182.8340       0.4148       3.4120       0.0050       2.8030       0.0000       1.6970       4.1410
   2955.9514       9.1480      15.9640       0.0180      61.3260      51.5098    -999.2500    -999.2500     354.2070     361.1050     216.4370       0.4040       3.3930       0.0050       2.7950       0.0000       1.5000       4.1040
   2956.1038       9.1790      16.0610       0.0310      63.5400      51.9177    -999.2500    -999.2500     424.7860     434.8300     140.8000       0.3684       3.3850       0.0050       2.7890       0.0000       1.4410       4.0300
   2956.2561       9.2110      15.7640       0.0430      65.7500      52.6571    -999.2500    -999.2500     495.1100     508.2880      65.4380       0.3178       3.3770       0.0060       2.7830       0.0000       1.3830       3.9570
   2956.4087       9.2030      15.2260       0.0590      62.2060      51.8066    -999.2500    -999.2500     494.9690     505.4820     109.4180       0.2615       3.3620       0.0050       2.7860       0.0000       1.3190       3.8500
   2956.5610       9.1950      13.7780       0.0750      58.6690      49.5798    -999.2500    -999.2500     494.8290     502.6860     153.2440       0.2212       3.3460       0.0050       2.7900       0.0000       1.2550       3.7420
   2956.7134       9.2010      12.3090       0.0860      57.4250      46.1319    -999.2500    -999.2500     555.2180     548.7370     305.8170       0.2189       3.3690       0.0040       2.7960       0.0000       1.1590       3.4540
   2956.8657       9.2080      10.7620       0.0980      56.1830      42.1170    -999.2500    -999.2500     615.4040     594.6330     457.8750       0.2340       3.3930       0.0040       2.8020       0.0000       1.0620       3.1650
   2957.0183       9.2220       9.3170       0.1040      54.8090      38.1708    -999.2500    -999.2500     661.2370     622.2250     306.1590       0.2465       3.4350       0.0040       2.8140       0.0000       1.0380       2.9440
   2957.1707       9.2360       8.2380       0.1090      53.4370      34.4087    -999.2500    -999.2500     706.9210     649.7280     154.9370       0.2442       3.4770       0.0030       2.8260       0.0000       1.0140       2.7220
   2957.3230       9.2390       7.2460       0.0820      54.2450      30.9401    -999.2500    -999.2500     866.6010     776.6010     328.5660       0.2141       3.2840       0.0020       2.8020       0.0000       1.0920       2.5860
   2957.4753       9.2420       6.5520       0.0540      55.0510      27.9976    -999.2500    -999.2500    1025.7820     902.8740     501.3750       0.1747       3.0900       0.0010       2.7770       0.0000       1.1710       2.4490
   2957.6279       9.2540       5.8940       0.0580      55.2760      25.8308    -999.2500    -999.2500     956.9640     728.0320     381.8520       0.1442       3.1180       0.0010       2.7890       0.0000       1.2470       2.3090
   2957.7803       9.2660       5.3530       0.0610      55.5000      23.8832    -999.2500    -999.2500     888.3520     553.9930     262.8770       0.1271       3.1460       0.0010       2.8020       0.0000       1.3240       2.1690
   2957.9326       9.2540       4.9870       0.0520      54.2350      21.6158    -999.2500    -999.2500     658.1800     423.4460     176.7340       0.1285       3.1210       0.0010       2.7810       0.0000       1.2380       2.0820
   2958.0850       9.2420       5.1940       0.0430      52.9710      21.7273    -999.2500    -999.2500     429.0380     293.4830      90.9770       0.1372       3.0960       0.0010       2.7600       0.0000       1.1510       1.9940
   2958.2373       9.3120       6.2040       0.0520      52.3690      27.0381    -999.2500    -999.2500     286.6180     204.9520      74.1390       0.1425       3.1560       0.0020       2.7520       0.0000       1.0280       2.3030
   2958.3899       9.3830       9.7520       0.0600      51.7670      35.1526    -999.2500    -999.2500     144.8170     116.8060      57.3750       0.1476       3.2170       0.0020       2.7440       0.0000       0.9050       2.6120
   2958.5422       9.3800      13.5550       0.0580      51.2900      43.8087    -999.2500    -999.2500     148.7030     120.4290     155.1750       0.1556       3.1620       0.0040       2.7460       0.0000       0.8770       3.1020
   2958.6946       9.3760      18.1480       0.0550      50.8130      51.7843    -999.2500    -999.2500     152.5730     124.0360     252.5620       0.1609       3.1070       0.0070       2.7470       0.0000       0.8500       3.5940
   2958.8469       9.3680      21.9970       0.0500      51.4480      57.8172    -999.2500    -999.2500     146.1870     120.0170     141.0450       0.1577       2.9960       0.0090       2.7300       0.0000       0.9040       3.7610
   2958.9995       9.3590      23.6090       0.0450      52.0830      61.4360    -999.2500    -999.2500     139.8280     116.0150      29.9840       0.1784       2.8850       0.0100       2.7130       0.0000       0.9570       3.9280
   2959.1519       9.3590      24.7500       0.0330      53.7610      62.0248    -999.2500    -999.2500     125.4470     107.1960      35.4400       0.2566       3.0420       0.0090       2.6970       0.0000       1.4620       3.8000
   2959.3042       9.3590      24.5160       0.0210      55.4370      60.6857    -999.2500    -999.2500     111.1220      98.4110      40.8750       0.3586       3.2000       0.0080       2.6800       0.0000       1.9680       3.6720
   2959.4565       9.3400      24.2580       0.0280      54.4670      58.3922    -999.2500    -999.2500     106.9180      96.1730      36.2020       0.4518       3.3060       0.0070       2.6510       0.0000       2.4590       3.5360
   2959.6091       9.3200      23.9290       0.0350      53.5000      56.0347    -999.2500    -999.2500     102.7310      93.9430      31.5470       0.5161       3.4120       0.0070       2.6210       0.0000       2.9500       3.4000
   2959.7615       9.3200      23.5030       0.0600      55.3640      54.4986    -999.2500    -999.2500     104.0400      93.4150      32.0710       0.5293       3.2850       0.0070       2.6120       0.0000       2.7040       3.3740
   2959.9138       9.3200      22.8090       0.0860      57.2250      53.5262    -999.2500    -999.2500     105.3450      92.8890      32.5940       0.5138       3.1570       0.0070       2.6030       0.0000       2.4580       3.3470
   2960.0662       9.3040      21.9900       0.0970      58.4890      52.9033    -999.2500    -999.2500     101.6980      86.5380      26.6660       0.4905       2.7580       0.0070       2.6090       0.0000       2.2170       3.2170
