#------------------------------------------------------------------------------
#
#   Created by  : [OpenWorks] Log Export Utility (LEXP)
#   Created on  : 2016-05-11 12:13:37
#   Project     : CANT971
#   User        : R5K
#   Interpreter : PEP
#
#------------------------------------------------------------------------------
~VERSION INFORMATION
VERS. 2.0 : CWLS Log ASCII Standard - version 2.0
WRAP.  NO : One line per depth step
~WELL INFORMATION
#MNEMONIC   .UNIT                                           VALUE :DESCRIPTION
#------------------------------------------------------------------------------
STRT        .M                                           735.9406 :START DEPTH
STOP        .M                                          3069.9465 :STOP DEPTH
STEP        .M                                             0.1524 :STEP
NULL        .                                           -999.2500 :NULL VALUE
COMP        .                                   PEMEX EXPL & PROD :COMPANY
WELL        .                                               1085D :WELL
FLD         .                                           CANTARELL :FIELD
LOC         .                                             UNKNOWN :LOCATION
CNTY        .                                      CD. DEL CARMEN :COUNTY
STAT        .                                            CAMPECHE :STATE
CTRY        .                                              MEXICO :COUNTRY
SRVC        .                                             UNKNOWN :SERVICE COMPANY
DATE        .                                             UNKNOWN :LOG DATE
UWI         .                                          3060000781 :UNIQUE WELL ID
XCOORD      .                                       601386.880000 :SURFACE X
YCOORD      .                                      2149875.750000 :SURFACE Y
LAT         .                                           19.441862 :LATITUDE
LON         .                                          -92.034176 :LONGITUDE
ELEV        .M                                            28.0000 :SURFACE ELEV
ELEV_TYPE   .                                                  KB :ELEV TYPE
~CURVE INFORMATION
#MNEMONIC.UNIT        API CODE       : CURVE DESCRIPTION
#------------------------------------------------------------------------------
DEPTH    .M                          : Measured Depth
CALI     .inches      UNKNOWN        : CALI:registros:rC:NONE:v0 (auto-composite)
CGR      .API         UNKNOWN        : CGR:registros:rC:NONE:v0 (auto-composite)
DRHO     .g/cm3       UNKNOWN        : DRHO:registros:rC:NONE:v0 (auto-composite)
DT       .UNKNOWN     UNKNOWN        : DT:registros:rC:NONE:v0 (auto-composite)
GR       .API         UNKNOWN        : GR:registros:rC:NONE:v0 (auto-composite)
ILD      .ohm.m       UNKNOWN        : ILD:registros:rC:NONE:v0 (auto-composite)
ILM      .ohm.m       UNKNOWN        : ILM:registros:rC:NONE:v0 (auto-composite)
LLD      .ohm.m       UNKNOWN        : LLD:registros:rC:NONE:v0 (auto-composite)
LLS      .ohm.m       UNKNOWN        : LLS:registros:rC:NONE:v0 (auto-composite)
MSFL     .ohm.m       UNKNOWN        : MSFL:registros:rC:NONE:v0 (auto-composite)
NPHI     .UNKNOWN     UNKNOWN        : NPHI:registros:rC:NONE:v0 (auto-composite)
PEF      .b/elec      UNKNOWN        : PEF:registros:rC:NONE:v0 (auto-composite)
POTA     .UNKNOWN     UNKNOWN        : POTA:registros:rC:NONE:v0 (auto-composite)
RHOB     .g/cm3       UNKNOWN        : RHOB:registros:rC:NONE:v0 (auto-composite)
SP       .mV          UNKNOWN        : SP:registros:rC:NONE:v0 (auto-composite)
THOR     .ppm         UNKNOWN        : THOR:registros:rC:NONE:v0 (auto-composite)
URAN     .ppm         UNKNOWN        : URAN:registros:rC:NONE:v0 (auto-composite)
~A     DEPTH         CALI          CGR         DRHO           DT           GR          ILD          ILM          LLD          LLS         MSFL         NPHI          PEF         POTA         RHOB           SP         THOR         URAN
# ...
   2842.8706       9.8050      10.8450       0.0450      86.0000      39.9542    -999.2500    -999.2500     188.5750     189.8890     193.5630       0.0138       3.5120       0.0030       2.8120       0.0000       0.9440       3.0570
   2843.0229       9.8050      10.0230       0.0300      76.6760      37.5775    -999.2500    -999.2500     180.1950     181.0440     171.9360       0.0200       3.3890       0.0030       2.7730       0.0000       0.8500       2.7640
   2843.1753       9.8050       9.8170       0.0150      67.3750      35.1394    -999.2500    -999.2500     171.8480     172.2490     150.4310       0.0274       3.2660       0.0030       2.7330       0.0000       0.7570       2.4700
   2843.3279       9.8050      10.0580       0.0160      74.2270      32.4828    -999.2500    -999.2500     142.4410     141.5990     115.6500       0.0484       3.3340       0.0040       2.7360       0.0000       0.7800       2.1830
   2843.4802       9.8050      11.6030       0.0180      81.0630      30.2156    -999.2500    -999.2500     113.1500     111.1190      81.0620       0.0687       3.4020       0.0050       2.7380       0.0000       0.8020       1.8950
   2843.6326       9.8050      13.0370       0.0230      78.2160      33.6911    -999.2500    -999.2500     116.6950     113.9260      90.4300       0.0674       3.3840       0.0050       2.7470       0.0000       1.1520       2.0060
   2843.7849       9.8050      14.1590       0.0280      75.3750      37.2830    -999.2500    -999.2500     120.2200     116.7180      99.7470       0.0643       3.3650       0.0050       2.7550       0.0000       1.5020       2.1180
   2843.9375       9.8110      14.8770       0.0350      76.2510      37.1050    -999.2500    -999.2500     146.1440     137.5620     137.1910       0.0589       3.4610       0.0050       2.7710       0.0000       1.4320       2.3080
   2844.0898       9.8160      14.4820       0.0420      77.1250      36.5764    -999.2500    -999.2500     171.9320     158.2960     174.4380       0.0541       3.5570       0.0050       2.7870       0.0000       1.3620       2.4980
   2844.2422       9.8450      14.0020       0.0600      67.9280      34.8965    -999.2500    -999.2500     139.3590     146.9010     164.8680       0.0597       3.4720       0.0050       2.7820       0.0000       1.1680       2.5010
   2844.3945       9.8740      13.2940       0.0780      58.7500      33.2806    -999.2500    -999.2500     106.9530     135.5650     155.3470       0.0682       3.3870       0.0050       2.7770       0.0000       0.9740       2.5040
   2844.5471       9.9060      12.7690       0.0780      59.0540      33.5656    -999.2500    -999.2500     108.8030     119.8500     135.0990       0.1078       3.3910       0.0040       2.7800       0.0000       1.0030       2.5260
   2844.6995       9.9370      12.7230       0.0780      59.3570      34.0552    -999.2500    -999.2500     110.6440     104.2140     114.9520       0.1465       3.3950       0.0040       2.7840       0.0000       1.0330       2.5480
   2844.8518       9.9370      13.4800       0.0830      59.9720      35.4373    -999.2500    -999.2500      96.8050      92.2740      98.6440       0.1452       3.5070       0.0040       2.7800       0.0000       1.2630       2.6090
   2845.0042       9.9370      16.2880       0.0880      60.5860      37.0699    -999.2500    -999.2500      83.0340      80.3930      82.4160       0.1433       3.6190       0.0050       2.7760       0.0000       1.4920       2.6690
   2845.1565       9.9370      19.0320       0.0820      61.4500      41.2152    -999.2500    -999.2500      64.2600      63.9540      48.2830       0.1737       3.5820       0.0070       2.7530       0.0000       1.4840       2.8360
   2845.3091       9.9370      21.6180       0.0760      62.3130      45.6386    -999.2500    -999.2500      45.5750      47.5940      14.3130       0.2036       3.5460       0.0090       2.7310       0.0000       1.4760       3.0030
   2845.4614       9.9370      23.3700       0.0610      62.2190      51.3745    -999.2500    -999.2500      49.8420      51.9200      16.3320       0.1960       3.4810       0.0090       2.6970       0.0000       1.4520       3.3920
   2845.6138       9.9370      23.1000       0.0460      62.1250      56.7234    -999.2500    -999.2500      54.0900      56.2250      18.3420       0.1847       3.4160       0.0090       2.6640       0.0000       1.4280       3.7810
   2845.7661      10.4290      22.3940       0.0260      74.5080      55.7939    -999.2500    -999.2500      65.0100      67.5380      25.5460       0.1647       3.4180       0.0070       2.6680       0.0000       1.4470       3.7370
   2845.9187      10.9220      20.6630       0.0060      86.8750      54.1735    -999.2500    -999.2500      75.8800      78.8000      32.7180       0.1444       3.4210       0.0060       2.6710       0.0000       1.4670       3.6920
   2846.0710      10.9130      18.9360       0.0070      74.9300      50.0957    -999.2500    -999.2500      80.4070      84.0270      39.1090       0.1285       3.4820       0.0050       2.6820       0.0000       1.5390       3.6950
   2846.2234      10.9040      17.2220       0.0090      63.0000      46.2249    -999.2500    -999.2500      84.9130      89.2320      45.4720       0.1146       3.5430       0.0040       2.6930       0.0000       1.6120       3.6990
   2846.3757      10.4170      15.7250       0.0330      68.9460      46.8321    -999.2500    -999.2500      89.7870      93.2480      50.8610       0.1195       3.5330       0.0040       2.7100       0.0000       1.5940       3.7460
   2846.5283       9.9300      14.7190       0.0570      74.8750      47.7135    -999.2500    -999.2500      94.6400      97.2400      56.2190       0.1276       3.5230       0.0040       2.7270       0.0000       1.5770       3.7920
   2846.6807       9.9500      13.8390       0.0560      69.2120      47.5052    -999.2500    -999.2500     103.2660     102.9840      51.8940       0.1543       3.4560       0.0040       2.7230       0.0000       1.5460       3.7860
   2846.8330       9.9690      13.2380       0.0540      63.5630      47.1576    -999.2500    -999.2500     111.8570     108.6960      47.5940       0.1868       3.3890       0.0040       2.7190       0.0000       1.5140       3.7800
   2846.9854       9.9620      12.8010       0.0470      63.6250      46.2457    -999.2500    -999.2500     118.6140     113.2430      49.7630       0.2673       3.4020       0.0040       2.7080       0.0000       1.5010       3.7370
   2847.1377       9.9540      12.7180       0.0390      63.6870      45.2912    -999.2500    -999.2500     125.3430     117.7640      51.9200       0.3449       3.4160       0.0040       2.6980       0.0000       1.4880       3.6930
   2847.2903       9.8800      12.7070       0.0200      63.5070      44.3197    -999.2500    -999.2500     142.0650     135.6280      76.9980       0.3401       3.4640       0.0040       2.6860       0.0000       1.4660       3.5860
   2847.4426       9.8050      12.8480       0.0000      63.3270      43.3994    -999.2500    -999.2500     158.7210     153.3950     101.9380       0.3205       3.5120       0.0030       2.6740       0.0000       1.4440       3.4790
   2847.5950       9.8050      12.8990       0.0010      62.2250      42.9456    -999.2500    -999.2500     147.5220     142.6200      97.4980       0.2165       3.4840       0.0030       2.6650       0.0000       1.4440       3.3060
   2847.7473       9.8050      12.7660       0.0020      61.1250      42.2803    -999.2500    -999.2500     136.3840     131.9020      93.0820       0.1140       3.4550       0.0030       2.6570       0.0000       1.4450       3.1320
   2847.8999       9.8090      12.6860       0.0040      63.5970      38.7899    -999.2500    -999.2500     121.5670     117.7000      82.7860       0.1104       3.4050       0.0020       2.6550       0.0000       1.4950       2.5280
   2848.0522       9.8130      12.7120       0.0060      66.0630      35.3932    -999.2500    -999.2500     106.8280     103.5730      72.5440       0.1174       3.3560       0.0020       2.6530       0.0000       1.5460       1.9230
