#------------------------------------------------------------------------------
#
#   Created by  : [OpenWorks] Log Export Utility (LEXP)
#   Created on  : 2016-05-11 12:13:37
#   Project     : CANT971
#   User        : R5K
#   Interpreter : PEP
#
#------------------------------------------------------------------------------
~VERSION INFORMATION
VERS. 2.0 : CWLS Log ASCII Standard - version 2.0
WRAP.  NO : One line per depth step
~WELL INFORMATION
#MNEMONIC   .UNIT                                           VALUE :DESCRIPTION
#------------------------------------------------------------------------------
STRT        .M                                           735.9406 :START DEPTH
STOP        .M                                          3069.9465 :STOP DEPTH
STEP        .M                                             0.1524 :STEP
NULL        .                                           -999.2500 :NULL VALUE
COMP        .                                   PEMEX EXPL & PROD :COMPANY
WELL        .                                               1085D :WELL
FLD         .                                           CANTARELL :FIELD
LOC         .                                             UNKNOWN :LOCATION
CNTY        .                                      CD. DEL CARMEN :COUNTY
STAT        .                                            CAMPECHE :STATE
CTRY        .                                              MEXICO :COUNTRY
SRVC        .                                             UNKNOWN :SERVICE COMPANY
DATE        .                                             UNKNOWN :LOG DATE
UWI         .                                          3060000781 :UNIQUE WELL ID
XCOORD      .                                       601386.880000 :SURFACE X
YCOORD      .                                      2149875.750000 :SURFACE Y
LAT         .                                           19.441862 :LATITUDE
LON         .                                          -92.034176 :LONGITUDE
ELEV        .M                                            28.0000 :SURFACE ELEV
ELEV_TYPE   .                                                  KB :ELEV TYPE
~CURVE INFORMATION
#MNEMONIC.UNIT        API CODE       : CURVE DESCRIPTION
#------------------------------------------------------------------------------
DEPTH    .M                          : Measured Depth
CALI     .inches      UNKNOWN        : CALI:registros:rC:NONE:v0 (auto-composite)
CGR      .API         UNKNOWN        : CGR:registros:rC:NONE:v0 (auto-composite)
DRHO     .g/cm3       UNKNOWN        : DRHO:registros:rC:NONE:v0 (auto-composite)
DT       .UNKNOWN     UNKNOWN        : DT:registros:rC:NONE:v0 (auto-composite)
GR       .API         UNKNOWN        : GR:registros:rC:NONE:v0 (auto-composite)
ILD      .ohm.m       UNKNOWN        : ILD:registros:rC:NONE:v0 (auto-composite)
ILM      .ohm.m       UNKNOWN        : ILM:registros:rC:NONE:v0 (auto-composite)
LLD      .ohm.m       UNKNOWN        : LLD:registros:rC:NONE:v0 (auto-composite)
LLS      .ohm.m       UNKNOWN        : LLS:registros:rC:NONE:v0 (auto-composite)
MSFL     .ohm.m       UNKNOWN        : MSFL:registros:rC:NONE:v0 (auto-composite)
NPHI     .UNKNOWN     UNKNOWN        : NPHI:registros:rC:NONE:v0 (auto-composite)
PEF      .b/elec      UNKNOWN        : PEF:registros:rC:NONE:v0 (auto-composite)
POTA     .UNKNOWN     UNKNOWN        : POTA:registros:rC:NONE:v0 (auto-composite)
RHOB     .g/cm3       UNKNOWN        : RHOB:registros:rC:NONE:v0 (auto-composite)
SP       .mV          UNKNOWN        : SP:registros:rC:NONE:v0 (auto-composite)
THOR     .ppm         UNKNOWN        : THOR:registros:rC:NONE:v0 (auto-composite)
URAN     .ppm         UNKNOWN        : URAN:registros:rC:NONE:v0 (auto-composite)
~A     DEPTH         CALI          CGR         DRHO           DT           GR          ILD          ILM          LLD          LLS         MSFL         NPHI          PEF         POTA         RHOB           SP         THOR         URAN
# ...
   2506.8286       9.5230       1.2800       0.0470      61.4070      45.6022    -999.2500    -999.2500     141.1600     119.7630     296.8510       0.0679       3.1440       0.0030       2.7830       0.0000       0.1480       4.6360
   2506.9810       9.5230       1.0000       0.0550      57.5000      39.4682    -999.2500    -999.2500     145.8900     124.2070     521.7500       0.0652       3.1480       0.0030       2.7830       0.0000       0.0940       4.2740
   2507.1333       9.5230       1.3670       0.0490      57.5630      37.9190    -999.2500    -999.2500     293.1230     278.6370     348.8370       0.0573       3.3090       0.0020       2.7760       0.0000       0.0940       4.2790
   2507.2859       9.5230       2.5200       0.0420      57.6250      39.8597    -999.2500    -999.2500     439.3010     431.7160     177.4370       0.0496       3.4710       0.0010       2.7680       0.0000       0.0950       4.2840
   2507.4382       9.5230       4.6410       0.0450      57.2800      45.0066    -999.2500    -999.2500     423.0700     416.2790     872.9690       0.0473       3.4660       0.0010       2.7710       0.0000       0.1130       5.0570
   2507.5906       9.5230       7.9240       0.0490      56.9370      52.4566    -999.2500    -999.2500     406.9800     400.9750    1562.5000       0.0480       3.4610       0.0010       2.7740       0.0000       0.1320       5.8280
   2507.7429       9.5230      10.7670       0.0360      57.0640      61.8402    -999.2500    -999.2500     235.0670     233.6000     784.0060       0.0500       3.3950       0.0030       2.7710       0.0000       0.7560       5.7820
   2507.8955       9.5230      13.0940       0.0220      57.1910      69.3110    -999.2500    -999.2500      64.6140      67.6460      12.1250       0.0578       3.3300       0.0050       2.7680       0.0000       1.3780       5.7360
   2508.0479       9.5230      13.1570       0.0240      59.4120      70.5764    -999.2500    -999.2500      65.6420      68.5260      99.5850       0.0773       3.2590       0.0050       2.7280       0.0000       1.3260       5.1420
   2508.2002       9.5230      10.6210       0.0270      61.6250      64.7275    -999.2500    -999.2500      66.6620      69.3980     186.3130       0.0939       3.1870       0.0050       2.6890       0.0000       1.2750       4.5490
   2508.3525       9.5230       7.6390       0.0260      61.5710      49.0597    -999.2500    -999.2500     304.6570     262.8150     186.0940       0.0924       3.1870       0.0020       2.6810       0.0000       0.6550       3.8190
   2508.5051       9.5230       4.1550       0.0260      61.5180      33.7923    -999.2500    -999.2500     540.6890     454.3280     185.8770       0.0853       3.1880      -0.0010       2.6740       0.0000       0.0380       3.0920
   2508.6575       9.5230       1.9350       0.0210      60.3190      29.2308    -999.2500    -999.2500     499.4590     423.3850     181.4360       0.0836       3.2040      -0.0010       2.6670       0.0000       0.0380       3.0990
   2508.8098       9.5230       1.1010       0.0150      59.1250      29.8320    -999.2500    -999.2500     458.5640     392.7420     177.0390       0.0884       3.2210       0.0000       2.6600       0.0000       0.0380       3.1060
   2508.9622      10.0030       0.9600       0.0140      59.1830      31.4125    -999.2500    -999.2500     246.9770     217.3110     100.7870       0.1023       3.3480       0.0000       2.6540       0.0000       0.0390       3.1980
   2509.1145      10.4840       1.5680       0.0120      59.2400      33.4029    -999.2500    -999.2500      37.0810      43.5630      25.2660       0.1157       3.4750       0.0000       2.6470       0.0000       0.0400       3.2900
   2509.2671      10.0430       2.5300       0.0130      59.9110      35.3422    -999.2500    -999.2500      37.0910      43.5700      40.5490       0.1189       3.6080       0.0010       2.6630       0.0000       0.0410       3.4850
   2509.4194       9.6020       3.8660       0.0130      60.5800      37.2000    -999.2500    -999.2500      37.1020      43.5770      55.6880       0.1142       3.7400       0.0010       2.6790       0.0000       0.0410       3.6800
   2509.5718       9.7150       5.5480       0.0090      61.1970      38.9384    -999.2500    -999.2500      37.8010      44.2560      39.8480       0.1019       3.7250       0.0020       2.6770       0.0000       0.0630       3.8100
   2509.7241       9.8280       7.5880       0.0060      61.8130      41.5687    -999.2500    -999.2500      38.4950      44.9280      24.1560       0.0912       3.7100       0.0030       2.6740       0.0000       0.0850       3.9400
   2509.8767       9.8210       9.3290       0.0070      61.8020      46.3479    -999.2500    -999.2500      47.2120      53.5920      24.9410       0.0914       3.4610       0.0040       2.6440       0.0000       0.4910       4.2240
   2510.0291       9.8140      10.7670       0.0070      61.7910      50.6963    -999.2500    -999.2500      55.8620      62.1760      25.7180       0.0952       3.2130       0.0050       2.6140       0.0000       0.8960       4.5070
   2510.1814       9.6680      11.4190       0.0090      61.4800      51.9062    -999.2500    -999.2500      72.3030      76.8250      38.8310       0.0962       3.2140       0.0050       2.6160       0.0000       0.8910       4.5010
   2510.3337       9.5230      11.2940       0.0120      61.1710      51.3892    -999.2500    -999.2500      88.6200      91.3410      51.8240       0.0958       3.2160       0.0050       2.6180       0.0000       0.8850       4.4940
   2510.4863       9.5230      10.8820       0.0120      58.4550      50.0519    -999.2500    -999.2500     150.0150     138.1510      71.0050       0.0945       3.2370       0.0050       2.6450       0.0000       0.8310       4.4160
   2510.6387       9.5230      10.1940       0.0110      55.7500      48.6170    -999.2500    -999.2500     210.9570     184.5420      90.0140       0.0903       3.2570       0.0050       2.6720       0.0000       0.7780       4.3380
   2510.7910       9.5230       9.6310       0.0120      55.9940      47.7774    -999.2500    -999.2500     209.9100     183.2460     138.0630       0.0801       3.2870       0.0040       2.6970       0.0000       0.7470       4.2380
   2510.9434       9.5230       9.1890       0.0120      56.2370      46.9904    -999.2500    -999.2500     208.8710     181.9620     185.6880       0.0704       3.3180       0.0030       2.7220       0.0000       0.7160       4.1380
   2511.0957       9.5230       8.8880       0.0160      58.9720      45.7308    -999.2500    -999.2500     198.7280     169.8460     172.6940       0.0676       3.4320       0.0030       2.7330       0.0000       0.7180       4.1180
   2511.2483       9.5230       8.7190       0.0210      61.6960      44.6367    -999.2500    -999.2500     188.6580     157.8350     159.8130       0.0684       3.5470       0.0030       2.7430       0.0000       0.7200       4.0980
   2511.4006       9.5240       8.8980       0.0290      64.6760      44.3958    -999.2500    -999.2500     183.3160     154.4290     228.0120       0.0706       3.5430       0.0030       2.7430       0.0000       0.7420       4.1000
   2511.5530       9.5240       9.3950       0.0370      67.6440      45.2248    -999.2500    -999.2500     178.0200     151.0530     295.6250       0.0808       3.5390       0.0030       2.7420       0.0000       0.7630       4.1010
   2511.7053       9.5280       9.9590       0.0360      69.5350      47.6847    -999.2500    -999.2500     147.5030     127.3230     269.6590       0.1080       3.4930       0.0030       2.7300       0.0000       0.7840       4.1250
   2511.8579       9.5320      10.5820       0.0360      71.4190      50.1064    -999.2500    -999.2500     117.2450     103.7930     243.9130       0.1345       3.4480       0.0030       2.7170       0.0000       0.8040       4.1490
   2512.0103       9.5980      10.7720       0.0250      74.1310      50.8042    -999.2500    -999.2500      77.5710      69.5660     129.3700       0.1423       3.3750       0.0040       2.6390       0.0000       0.9610       4.3250
