#------------------------------------------------------------------------------
#
#   Created by  : [OpenWorks] Log Export Utility (LEXP)
#   Created on  : 2016-05-11 12:13:37
#   Project     : CANT971
#   User        : R5K
#   Interpreter : PEP
#
#------------------------------------------------------------------------------
~VERSION INFORMATION
VERS. 2.0 : CWLS Log ASCII Standard - version 2.0
WRAP.  NO : One line per depth step
~WELL INFORMATION
#MNEMONIC   .UNIT                                           VALUE :DESCRIPTION
#------------------------------------------------------------------------------
STRT        .M                                           735.9406 :START DEPTH
STOP        .M                                          3069.9465 :STOP DEPTH
STEP        .M                                             0.1524 :STEP
NULL        .                                           -999.2500 :NULL VALUE
COMP        .                                   PEMEX EXPL & PROD :COMPANY
WELL        .                                               1085D :WELL
FLD         .                                           CANTARELL :FIELD
LOC         .                                             UNKNOWN :LOCATION
CNTY        .                                      CD. DEL CARMEN :COUNTY
STAT        .                                            CAMPECHE :STATE
CTRY        .                                              MEXICO :COUNTRY
SRVC        .                                             UNKNOWN :SERVICE COMPANY
DATE        .                                             UNKNOWN :LOG DATE
UWI         .                                          3060000781 :UNIQUE WELL ID
XCOORD      .                                       601386.880000 :SURFACE X
YCOORD      .                                      2149875.750000 :SURFACE Y
LAT         .                                           19.441862 :LATITUDE
LON         .                                          -92.034176 :LONGITUDE
ELEV        .M                                            28.0000 :SURFACE ELEV
ELEV_TYPE   .                                                  KB :ELEV TYPE
~CURVE INFORMATION
#MNEMONIC.UNIT        API CODE       : CURVE DESCRIPTION
#------------------------------------------------------------------------------
DEPTH    .M                          : Measured Depth
CALI     .inches      UNKNOWN        : CALI:registros:rC:NONE:v0 (auto-composite)
CGR      .API         UNKNOWN        : CGR:registros:rC:NONE:v0 (auto-composite)
DRHO     .g/cm3       UNKNOWN        : DRHO:registros:rC:NONE:v0 (auto-composite)
DT       .UNKNOWN     UNKNOWN        : DT:registros:rC:NONE:v0 (auto-composite)
GR       .API         UNKNOWN        : GR:registros:rC:NONE:v0 (auto-composite)
ILD      .ohm.m       UNKNOWN        : ILD:registros:rC:NONE:v0 (auto-composite)
ILM      .ohm.m       UNKNOWN        : ILM:registros:rC:NONE:v0 (auto-composite)
LLD      .ohm.m       UNKNOWN        : LLD:registros:rC:NONE:v0 (auto-composite)
LLS      .ohm.m       UNKNOWN        : LLS:registros:rC:NONE:v0 (auto-composite)
MSFL     .ohm.m       UNKNOWN        : MSFL:registros:rC:NONE:v0 (auto-composite)
NPHI     .UNKNOWN     UNKNOWN        : NPHI:registros:rC:NONE:v0 (auto-composite)
PEF      .b/elec      UNKNOWN        : PEF:registros:rC:NONE:v0 (auto-composite)
POTA     .UNKNOWN     UNKNOWN        : POTA:registros:rC:NONE:v0 (auto-composite)
RHOB     .g/cm3       UNKNOWN        : RHOB:registros:rC:NONE:v0 (auto-composite)
SP       .mV          UNKNOWN        : SP:registros:rC:NONE:v0 (auto-composite)
THOR     .ppm         UNKNOWN        : THOR:registros:rC:NONE:v0 (auto-composite)
URAN     .ppm         UNKNOWN        : URAN:registros:rC:NONE:v0 (auto-composite)
~A     DEPTH         CALI          CGR         DRHO           DT           GR          ILD          ILM          LLD          LLS         MSFL         NPHI          PEF         POTA         RHOB           SP         THOR         URAN
# ...
   2229.4607       8.7890    -999.2500      -1.2320      73.9620      26.5424       1.0340       1.0743    -999.2500    -999.2500    -999.2500       0.2397      36.7370    -999.2500       1.9990       0.0000    -999.2500    -999.2500
   2229.6130       8.7730    -999.2500      -1.2500      91.0000      26.0450       1.0384       1.0332    -999.2500    -999.2500    -999.2500       0.2423      45.2190    -999.2500       1.9370       0.0000    -999.2500    -999.2500
   2229.7654       8.7850    -999.2500      -1.2500      81.8510      27.3763       1.0520       1.0202    -999.2500    -999.2500    -999.2500       0.2502      42.0150    -999.2500       1.9370       0.0000    -999.2500    -999.2500
   2229.9177       8.7970    -999.2500      -1.2500      72.7500      28.8266       1.0680       1.0288    -999.2500    -999.2500    -999.2500       0.2600      38.8130    -999.2500       1.9380       0.0000    -999.2500    -999.2500
   2230.0703       8.7930    -999.2500      -1.1020      75.6640      28.7096       1.0800       1.0538    -999.2500    -999.2500    -999.2500       0.2687      39.9540    -999.2500       2.0300       0.0000    -999.2500    -999.2500
   2230.2227       8.7890    -999.2500      -0.9540      78.5630      28.0628       1.0954       1.0838    -999.2500       9.0580       0.5460       0.2921      41.0940    -999.2500       2.1210       0.0000    -999.2500    -999.2500
   2230.3750       8.7890    -999.2500      -0.9540      78.5400      27.8740       1.1218       1.1090    -999.2500       8.9380       0.5080       0.3470      35.7340    -999.2500       2.1210       0.0000    -999.2500    -999.2500
   2230.5273       8.7890    -999.2500      -0.9540      78.5170      28.6121       1.1540       1.1364       0.9990       8.8200       0.4700       0.3997      30.3750    -999.2500       2.1210       0.0000    -999.2500    -999.2500
   2230.6799       8.8040    -999.2500      -0.9550      76.6540      30.8170       1.1880       1.1730       0.5840       4.9420       0.5090       0.4167      30.4050    -999.2500       2.0950       0.0000    -999.2500    -999.2500
   2230.8323       8.8200    -999.2500      -0.9560      74.8000      32.8099       1.0641       1.0548       0.1730       1.1140       0.5470       0.4149      30.4350    -999.2500       2.0680       0.0000    -999.2500    -999.2500
   2230.9846       8.8200    -999.2500      -0.9850      67.9360      32.9055       0.6104       0.6062       0.1730       0.6390       0.5000       0.4094      35.0770    -999.2500       1.9720       0.0000    -999.2500    -999.2500
   2231.1370       8.8200    -999.2500      -1.0140      61.1040      32.2933       0.1497       0.1487       0.1730       0.1700       0.4530       0.4040      39.7190    -999.2500       1.8750       0.0000    -999.2500    -999.2500
   2231.2893       8.8160    -999.2500      -1.0200      57.2930      32.0948       0.0000       0.0000       0.2120       0.1620       0.4540       0.4023      38.5630    -999.2500       1.8730       0.0000    -999.2500    -999.2500
   2231.4419       8.8130    -999.2500      -1.0270      53.5000      32.4874    -999.2500    -999.2500       0.2510       0.1550       0.4540       0.4068      37.4060    -999.2500       1.8720       0.0000    -999.2500    -999.2500
   2231.5942       8.8210    -999.2500      -1.0380      64.9010      33.6899    -999.2500    -999.2500       0.2480       0.1510       0.6470       0.4203      37.5120    -999.2500       1.8700       0.0000    -999.2500    -999.2500
   2231.7466       8.8280    -999.2500      -1.0490      76.2500      34.8793    -999.2500    -999.2500       0.2450       0.1470       0.8380       0.4338      37.6170    -999.2500       1.8680       0.0000    -999.2500    -999.2500
   2231.8989       8.8280    -999.2500      -1.0710      64.8500      35.2342    -999.2500    -999.2500       0.2450       0.1460       0.6580       0.4380      48.9930    -999.2500       1.8390       0.0000    -999.2500    -999.2500
   2232.0515       8.8280    -999.2500      -1.0920      53.5000      34.5964    -999.2500    -999.2500       0.2450       0.1450       0.4800       0.4357      60.3750    -999.2500       1.8110       0.0000    -999.2500    -999.2500
   2232.2039       8.8000    -999.2500      -1.0920      53.7280      32.7381    -999.2500    -999.2500       0.2540       0.1450       0.5980       0.4288      60.2820    -999.2500       1.8120       0.0000    -999.2500    -999.2500
   2232.3562       8.7730    -999.2500      -1.0920      53.9550      30.0232    -999.2500    -999.2500       0.2620       0.1450       0.7140       0.4148      60.1880    -999.2500       1.8130       0.0000    -999.2500    -999.2500
   2232.5085       8.7740    -999.2500      -1.0610      74.7550      26.7512    -999.2500    -999.2500       0.2550       0.1490       0.6380       0.3906      55.4910    -999.2500       1.9150       0.0000    -999.2500    -999.2500
   2232.6611       8.7740    -999.2500      -1.0290      95.4370      22.9905    -999.2500    -999.2500       0.2480       0.1540       0.5630       0.3495      50.7980    -999.2500       2.0170       0.0000    -999.2500    -999.2500
   2232.8135       8.7930    -999.2500      -1.0290      77.7630      18.7743    -999.2500    -999.2500       0.2490       0.1540       0.5640       0.2833      44.2710    -999.2500       2.0160       0.0000    -999.2500    -999.2500
   2232.9658       8.8130    -999.2500      -1.0290      60.1870      15.2830    -999.2500    -999.2500       0.2490       0.1530       0.5650       0.2244      37.7500    -999.2500       2.0150       0.0000    -999.2500    -999.2500
   2233.1182       8.8210    -999.2500      -1.0400      70.9980      13.7516    -999.2500    -999.2500       0.2630       0.1460       0.6350       0.2052      37.9110    -999.2500       1.9460       0.0000    -999.2500    -999.2500
   2233.2705       8.8280    -999.2500      -1.0510      81.7500      12.8480    -999.2500    -999.2500       0.2760       0.1390       0.7050       0.2057      38.0720    -999.2500       1.8770       0.0000    -999.2500    -999.2500
   2233.4231       8.8130    -999.2500      -1.0510      81.6360      11.2837    -999.2500    -999.2500       0.2800       0.1030       0.6420       0.2071      61.7920    -999.2500       1.8780       0.0000    -999.2500    -999.2500
   2233.5754       8.7970    -999.2500      -1.0510      81.5230       9.8770    -999.2500    -999.2500       0.2850       0.0680       0.5800       0.2125      85.5000    -999.2500       1.8780       0.0000    -999.2500    -999.2500
   2233.7278       8.8130    -999.2500      -1.0460      66.7550       9.4430    -999.2500    -999.2500       0.3760       0.0690       0.5830       0.2254      84.8640    -999.2500       1.9000       0.0000    -999.2500    -999.2500
   2233.8801       8.8280    -999.2500      -1.0410      52.0630       9.9189    -999.2500    -999.2500       0.4660       0.0700       0.5860       0.2376      84.2280    -999.2500       1.9220       0.0000    -999.2500    -999.2500
   2234.0327       8.8280    -999.2500      -1.0350      52.0900      11.2935    -999.2500    -999.2500       0.9870       0.1370       0.5490       0.2411      59.9440    -999.2500       1.9360       0.0000    -999.2500    -999.2500
   2234.1851       8.8280    -999.2500      -1.0290      52.1170      12.6487    -999.2500    -999.2500       1.5030       0.2040       0.5120       0.2343      35.6680    -999.2500       1.9490       0.0000    -999.2500    -999.2500
   2234.3374       8.8240    -999.2500      -1.0120      53.6560      13.0710    -999.2500    -999.2500       2.3120       0.3060       0.5390       0.2151      28.7320    -999.2500       1.9970       0.0000    -999.2500    -999.2500
   2234.4897       8.8200    -999.2500      -0.9950      55.1870      12.7809    -999.2500    -999.2500       3.1130       0.4060       0.5650       0.1923      21.7970    -999.2500       2.0450       0.0000    -999.2500    -999.2500
   2234.6423       8.8090    -999.2500      -0.9910      54.3730      11.9618    -999.2500    -999.2500       1.5770       0.4030       0.5260       0.1743      29.3050    -999.2500       2.1020       0.0000    -999.2500    -999.2500
