#------------------------------------------------------------------------------
#
#   Created by  : [OpenWorks] Log Export Utility (LEXP)
#   Created on  : 2016-05-11 12:13:37
#   Project     : CANT971
#   User        : R5K
#   Interpreter : PEP
#
#------------------------------------------------------------------------------
~VERSION INFORMATION
VERS. 2.0 : CWLS Log ASCII Standard - version 2.0
WRAP.  NO : One line per depth step
~WELL INFORMATION
#MNEMONIC   .UNIT                                           VALUE :DESCRIPTION
#------------------------------------------------------------------------------
STRT        .M                                           735.9406 :START DEPTH
STOP        .M                                          3069.9465 :STOP DEPTH
STEP        .M                                             0.1524 :STEP
NULL        .                                           -999.2500 :NULL VALUE
COMP        .                                   PEMEX EXPL & PROD :COMPANY
WELL        .                                               1085D :WELL
FLD         .                                           CANTARELL :FIELD
LOC         .                                             UNKNOWN :LOCATION
CNTY        .                                      CD. DEL CARMEN :COUNTY
STAT        .                                            CAMPECHE :STATE
CTRY        .                                              MEXICO :COUNTRY
SRVC        .                                             UNKNOWN :SERVICE COMPANY
DATE        .                                             UNKNOWN :LOG DATE
UWI         .                                          3060000781 :UNIQUE WELL ID
XCOORD      .                                       601386.880000 :SURFACE X
YCOORD      .                                      2149875.750000 :SURFACE Y
LAT         .                                           19.441862 :LATITUDE
LON         .                                          -92.034176 :LONGITUDE
ELEV        .M                                            28.0000 :SURFACE ELEV
ELEV_TYPE   .                                                  KB :ELEV TYPE
~CURVE INFORMATION
#MNEMONIC.UNIT        API CODE       : CURVE DESCRIPTION
#------------------------------------------------------------------------------
DEPTH    .M                          : Measured Depth
CALI     .inches      UNKNOWN        : CALI:registros:rC:NONE:v0 (auto-composite)
CGR      .API         UNKNOWN        : CGR:registros:rC:NONE:v0 (auto-composite)
DRHO     .g/cm3       UNKNOWN        : DRHO:registros:rC:NONE:v0 (auto-composite)
DT       .UNKNOWN     UNKNOWN        : DT:registros:rC:NONE:v0 (auto-composite)
GR       .API         UNKNOWN        : GR:registros:rC:NONE:v0 (auto-composite)
ILD      .ohm.m       UNKNOWN        : ILD:registros:rC:NONE:v0 (auto-composite)
ILM      .ohm.m       UNKNOWN        : ILM:registros:rC:NONE:v0 (auto-composite)
LLD      .ohm.m       UNKNOWN        : LLD:registros:rC:NONE:v0 (auto-composite)
LLS      .ohm.m       UNKNOWN        : LLS:registros:rC:NONE:v0 (auto-composite)
MSFL     .ohm.m       UNKNOWN        : MSFL:registros:rC:NONE:v0 (auto-composite)
NPHI     .UNKNOWN     UNKNOWN        : NPHI:registros:rC:NONE:v0 (auto-composite)
PEF      .b/elec      UNKNOWN        : PEF:registros:rC:NONE:v0 (auto-composite)
POTA     .UNKNOWN     UNKNOWN        : POTA:registros:rC:NONE:v0 (auto-composite)
RHOB     .g/cm3       UNKNOWN        : RHOB:registros:rC:NONE:v0 (auto-composite)
SP       .mV          UNKNOWN        : SP:registros:rC:NONE:v0 (auto-composite)
THOR     .ppm         UNKNOWN        : THOR:registros:rC:NONE:v0 (auto-composite)
URAN     .ppm         UNKNOWN        : URAN:registros:rC:NONE:v0 (auto-composite)
~A     DEPTH         CALI          CGR         DRHO           DT           GR          ILD          ILM          LLD          LLS         MSFL         NPHI          PEF         POTA         RHOB           SP         THOR         URAN
# ...
   2394.8147       9.5230       2.0030       0.0120      96.8750      42.4087    -999.2500    -999.2500     464.8470     383.7200     206.5630       0.0803       3.3710       0.0010       2.6910       0.0000       0.2010       4.7860
   2394.9670       9.5230       1.5230       0.0190      80.4980      42.5972    -999.2500    -999.2500     375.2590     313.0410     172.6370       0.0816       3.3320       0.0010       2.6940       0.0000       0.3670       4.7340
   2395.1194       9.5230       1.2560       0.0260      64.1870      43.0282    -999.2500    -999.2500     286.4590     243.0960     139.0630       0.0842       3.2930       0.0000       2.6960       0.0000       0.5320       4.6820
   2395.2717       9.5230       0.9800       0.0230      75.1460      42.3345    -999.2500    -999.2500     317.9150     273.0090     258.2060       0.0912       3.2280       0.0000       2.6740       0.0000       0.6450       4.6260
   2395.4243       9.5230       0.6970       0.0190      86.0630      41.3915    -999.2500    -999.2500     349.0990     302.6140     376.1250       0.0979       3.1640       0.0000       2.6510       0.0000       0.7570       4.5700
   2395.5767       9.5230       0.4500       0.0220      72.3180      39.9187    -999.2500    -999.2500     476.3390     411.9660     220.0840       0.0984       3.2330       0.0000       2.6580       0.0000       0.8110       4.4470
   2395.7290       9.5230       0.2360       0.0240      58.6250      38.3431    -999.2500    -999.2500     602.4910     520.2100      65.6250       0.0976       3.3010       0.0000       2.6640       0.0000       0.8640       4.3240
   2395.8813       9.5230       0.1020       0.0290      78.6620      36.6279    -999.2500    -999.2500     716.7660     606.9500     149.6400       0.0934       3.2550       0.0000       2.6780       0.0000       0.8890       4.1560
   2396.0337       9.5230       0.0380       0.0330      98.6250      34.6585    -999.2500    -999.2500     830.0790     692.8210     232.8130       0.0899       3.2090       0.0000       2.6920       0.0000       0.9140       3.9890
   2396.1863       9.5230       0.1740       0.0280      90.3850      31.1585    -999.2500    -999.2500     969.8820     782.0790     179.7380       0.0931       3.2280       0.0000       2.6850       0.0000       0.7740       3.7430
   2396.3386       9.5230       0.4840       0.0230      82.1870      27.9625    -999.2500    -999.2500    1108.5229     870.4550     127.1880       0.0963       3.2480       0.0000       2.6790       0.0000       0.6350       3.4970
   2396.4910       9.5230       1.2020       0.0180      98.4150      27.9436    -999.2500    -999.2500    1329.6100     997.8270     218.8540       0.0920       3.2120       0.0010       2.6850       0.0000       0.4200       3.2840
   2396.6433       9.5230       2.2690       0.0120     114.5630      28.5108    -999.2500    -999.2500    1548.5370    1123.9550     309.6250       0.0874       3.1760       0.0010       2.6910       0.0000       0.2060       3.0720
   2396.7959       9.5230       3.1640       0.0080     111.1480      29.5815    -999.2500    -999.2500    1687.9709    1256.4139     259.6710       0.0882       3.2160       0.0010       2.6820       0.0000       0.2430       3.2680
   2396.9482       9.5230       3.9170       0.0040     107.7500      31.2595    -999.2500    -999.2500    1826.0610    1387.5959     210.1990       0.0903       3.2560       0.0010       2.6730       0.0000       0.2790       3.4630
   2397.1006       9.5270       3.8470       0.0040     109.9410      36.1771    -999.2500    -999.2500    1647.3330    1320.7140     143.4690       0.0951       3.3010       0.0010       2.6610       0.0000       0.3060       3.8220
   2397.2529       9.5310       3.1030       0.0040     112.1210      40.5769    -999.2500    -999.2500    1470.3060    1254.4680      77.3750       0.0987       3.3460       0.0010       2.6490       0.0000       0.3340       4.1800
   2397.4055       9.5270       2.7330       0.0070     121.4570      38.7514    -999.2500    -999.2500    1005.8130     891.2900      81.9630       0.0916       3.3250       0.0010       2.6570       0.0000       0.2790       4.0870
   2397.5579       9.5230       2.6640       0.0100     130.7500      36.9824    -999.2500    -999.2500     545.6800     532.0990      86.5000       0.0844       3.3030       0.0010       2.6640       0.0000       0.2240       3.9950
   2397.7102       9.5230       2.9690       0.0120     118.8480      41.6738    -999.2500    -999.2500     390.8720     368.1010      56.1320       0.0879       3.1940       0.0020       2.6570       0.0000       0.3230       4.3130
   2397.8625       9.5230       3.5670       0.0140     107.0000      46.3141    -999.2500    -999.2500     237.4990     205.8810      26.0940       0.0930       3.0840       0.0020       2.6500       0.0000       0.4220       4.6300
   2398.0149       9.5230       3.4200       0.0150     118.3370      44.3473    -999.2500    -999.2500     212.1550     206.3360      53.0900       0.0971       3.1620       0.0020       2.6540       0.0000       0.3690       4.8660
   2398.1675       9.5230       2.7020       0.0160     129.6250      41.3122    -999.2500    -999.2500     187.0430     206.7860      79.7960       0.1003       3.2410       0.0010       2.6570       0.0000       0.3170       5.1010
   2398.3198       9.5230       1.9770       0.0140     123.8940      38.4221    -999.2500    -999.2500     341.9630     360.6360     176.0960       0.0998       3.3520       0.0020       2.6640       0.0000       0.2640       5.0470
   2398.4722       9.5230       1.2460       0.0110     118.1870      36.1015    -999.2500    -999.2500     495.4860     512.8550     271.3750       0.0996       3.4620       0.0020       2.6720       0.0000       0.2110       4.9930
   2398.6245       9.5470       1.2660       0.0120     122.2170      36.8697    -999.2500    -999.2500     459.3490     476.4580     183.5090       0.1044       3.5070       0.0020       2.6580       0.0000       0.2120       4.6390
   2398.7771       9.5700       1.8390       0.0120     126.2310      38.9424    -999.2500    -999.2500     423.5340     440.4430      96.5630       0.1101       3.5510       0.0030       2.6430       0.0000       0.2120       4.2860
   2398.9294       9.5820       3.4240       0.0130     139.7280      45.5143    -999.2500    -999.2500     397.8720     408.9100     101.1440       0.1158       3.4970       0.0030       2.6260       0.0000       0.2130       4.5710
   2399.0818       9.5940       5.7390       0.0130     153.1720      52.8558    -999.2500    -999.2500     372.4350     377.7040     105.6780       0.1214       3.4440       0.0030       2.6090       0.0000       0.2140       4.8550
   2399.2341       9.6120       7.5800       0.0140     163.2240      60.1388    -999.2500    -999.2500     383.4390     384.2490     112.2790       0.1264       3.3880       0.0030       2.6010       0.0000       0.6110       5.5880
   2399.3867       9.6300       9.0880       0.0140     173.2380      67.0402    -999.2500    -999.2500     394.3470     390.7260     118.8120       0.1309       3.3320       0.0030       2.5930       0.0000       1.0060       6.3180
   2399.5391       9.6440       8.9840       0.0160     211.4400      71.9917    -999.2500    -999.2500     401.7090     389.6870      94.6910       0.1330       3.3560       0.0040       2.5960       0.0000       1.2650       6.7400
   2399.6914       9.6590       7.7690       0.0180     249.5000      75.7137    -999.2500    -999.2500     409.0080     388.6580      70.8130       0.1329       3.3800       0.0040       2.6000       0.0000       1.5240       7.1600
   2399.8438       9.7080       6.1550       0.0270     194.4630      74.6919    -999.2500    -999.2500     455.6930     419.0250      95.2790       0.1221       3.4610       0.0040       2.6320       0.0000       1.3780       7.1520
   2399.9961       9.7580       4.2680       0.0370     139.6250      72.2198    -999.2500    -999.2500     501.9860     449.0890     119.5000       0.1097       3.5430       0.0030       2.6630       0.0000       1.2320       7.1430
