#------------------------------------------------------------------------------
#
#   Created by  : [OpenWorks] Log Export Utility (LEXP)
#   Created on  : 2016-05-11 12:13:37
#   Project     : CANT971
#   User        : R5K
#   Interpreter : PEP
#
#------------------------------------------------------------------------------
~VERSION INFORMATION
VERS. 2.0 : CWLS Log ASCII Standard - version 2.0
WRAP.  NO : One line per depth step
~WELL INFORMATION
#MNEMONIC   .UNIT                                           VALUE :DESCRIPTION
#------------------------------------------------------------------------------
STRT        .M                                           735.9406 :START DEPTH
STOP        .M                                          3069.9465 :STOP DEPTH
STEP        .M                                             0.1524 :STEP
NULL        .                                           -999.2500 :NULL VALUE
COMP        .                                   PEMEX EXPL & PROD :COMPANY
WELL        .                                               1085D :WELL
FLD         .                                           CANTARELL :FIELD
LOC         .                                             UNKNOWN :LOCATION
CNTY        .                                      CD. DEL CARMEN :COUNTY
STAT        .                                            CAMPECHE :STATE
CTRY        .                                              MEXICO :COUNTRY
SRVC        .                                             UNKNOWN :SERVICE COMPANY
DATE        .                                             UNKNOWN :LOG DATE
UWI         .                                          3060000781 :UNIQUE WELL ID
XCOORD      .                                       601386.880000 :SURFACE X
YCOORD      .                                      2149875.750000 :SURFACE Y
LAT         .                                           19.441862 :LATITUDE
LON         .                                          -92.034176 :LONGITUDE
ELEV        .M                                            28.0000 :SURFACE ELEV
ELEV_TYPE   .                                                  KB :ELEV TYPE
~CURVE INFORMATION
#MNEMONIC.UNIT        API CODE       : CURVE DESCRIPTION
#------------------------------------------------------------------------------
DEPTH    .M                          : Measured Depth
CALI     .inches      UNKNOWN        : CALI:registros:rC:NONE:v0 (auto-composite)
CGR      .API         UNKNOWN        : CGR:registros:rC:NONE:v0 (auto-composite)
DRHO     .g/cm3       UNKNOWN        : DRHO:registros:rC:NONE:v0 (auto-composite)
DT       .UNKNOWN     UNKNOWN        : DT:registros:rC:NONE:v0 (auto-composite)
GR       .API         UNKNOWN        : GR:registros:rC:NONE:v0 (auto-composite)
ILD      .ohm.m       UNKNOWN        : ILD:registros:rC:NONE:v0 (auto-composite)
ILM      .ohm.m       UNKNOWN        : ILM:registros:rC:NONE:v0 (auto-composite)
LLD      .ohm.m       UNKNOWN        : LLD:registros:rC:NONE:v0 (auto-composite)
LLS      .ohm.m       UNKNOWN        : LLS:registros:rC:NONE:v0 (auto-composite)
MSFL     .ohm.m       UNKNOWN        : MSFL:registros:rC:NONE:v0 (auto-composite)
NPHI     .UNKNOWN     UNKNOWN        : NPHI:registros:rC:NONE:v0 (auto-composite)
PEF      .b/elec      UNKNOWN        : PEF:registros:rC:NONE:v0 (auto-composite)
POTA     .UNKNOWN     UNKNOWN        : POTA:registros:rC:NONE:v0 (auto-composite)
RHOB     .g/cm3       UNKNOWN        : RHOB:registros:rC:NONE:v0 (auto-composite)
SP       .mV          UNKNOWN        : SP:registros:rC:NONE:v0 (auto-composite)
THOR     .ppm         UNKNOWN        : THOR:registros:rC:NONE:v0 (auto-composite)
URAN     .ppm         UNKNOWN        : URAN:registros:rC:NONE:v0 (auto-composite)
~A     DEPTH         CALI          CGR         DRHO           DT           GR          ILD          ILM          LLD          LLS         MSFL         NPHI          PEF         POTA         RHOB           SP         THOR         URAN
# ...
   2282.8005      10.5480       0.4190       0.0040      89.9380       9.2483    -999.2500    -999.2500     250.8590     203.9320     256.6230       0.0723       5.2670       0.0000       2.5250       0.0000       0.1960       1.2990
   2282.9531      10.5700       0.5720       0.0020      91.8680       9.1676    -999.2500    -999.2500     293.1980     235.2690     374.3750       0.0678       5.3670       0.0000       2.5290       0.0000       0.2180       1.2690
   2283.1055      10.5680       0.7100       0.0010     120.0120       9.3901    -999.2500    -999.2500     291.3100     235.1050     279.9690       0.0602       5.3590       0.0000       2.5450       0.0000       0.1900       1.2210
   2283.2578      10.5650       0.8360      -0.0010     148.0000       9.6497    -999.2500    -999.2500     289.4410     234.9420     186.6870       0.0535       5.3510       0.0000       2.5600       0.0000       0.1620       1.1740
   2283.4102      10.5360       0.8620       0.0010     146.6700       9.6962    -999.2500    -999.2500     275.5870     227.2160     367.5330       0.0522       5.3150       0.0000       2.5660       0.0000       0.1710       1.1740
   2283.5625      10.5080       0.8170       0.0020     145.3480       9.5897    -999.2500    -999.2500     261.8750     219.5810     546.2500       0.0541       5.2790       0.0000       2.5720       0.0000       0.1810       1.1740
   2283.7151      10.5080       0.7560       0.0070     137.1530       9.3256    -999.2500    -999.2500     227.9360     187.2850     504.4140       0.0579       5.2280       0.0000       2.5690       0.0000       0.2520       1.1740
   2283.8674      10.5080       0.6830       0.0110     129.0020       9.1426    -999.2500    -999.2500     194.3380     155.3650     463.0650       0.0624       5.1780       0.0000       2.5660       0.0000       0.3220       1.1750
   2284.0198      10.5040       0.8730       0.0150      96.6050       9.3113    -999.2500    -999.2500     196.1880     156.5700     337.0630       0.0669       5.0810       0.0000       2.5530       0.0000       0.4900       1.1730
   2284.1721      10.5000       1.2400       0.0200      64.3750       9.5463    -999.2500    -999.2500     198.0200     157.7610     212.5140       0.0702       4.9840       0.0000       2.5410       0.0000       0.6570       1.1700
   2284.3247      10.5010       1.6580       0.0190      77.2400       9.5932    -999.2500    -999.2500     205.3150     164.2270     158.6680       0.0709       5.0120       0.0000       2.5360       0.0000       0.8300       1.1390
   2284.4771      10.5020       2.1100       0.0180      90.0390       9.4706    -999.2500    -999.2500     212.5380     170.6190     105.4370       0.0701       5.0400       0.0000       2.5310       0.0000       1.0020       1.1080
   2284.6294      10.5050       2.3570       0.0140     139.7670       9.1191    -999.2500    -999.2500     214.8170     178.9610     107.3560       0.0681       5.1730       0.0000       2.5330       0.0000       1.1700       1.0150
   2284.7817      10.5080       2.4730       0.0090     189.2500       8.7921    -999.2500    -999.2500     217.0740     187.2090     109.2540       0.0652       5.3050       0.0000       2.5340       0.0000       1.3370       0.9220
   2284.9343      10.5040       2.6220       0.0050     180.1030       8.7558    -999.2500    -999.2500     202.0370     175.0940     117.3910       0.0611       5.2780       0.0000       2.5390       0.0000       1.3090       0.9220
   2285.0867      10.5000       2.7930       0.0020     171.0000       8.9278    -999.2500    -999.2500     187.1440     163.1150     125.4370       0.0570       5.2500       0.0000       2.5450       0.0000       1.2810       0.9220
   2285.2390      10.5020       3.4660       0.0040     173.9710       9.3227    -999.2500    -999.2500     140.3450     123.8360      70.5170       0.0540       5.2720       0.0010       2.5490       0.0000       1.1170       0.9240
   2285.3914      10.5030       4.4480       0.0060     176.9290      10.3972    -999.2500    -999.2500      93.9890      84.9900      16.2030       0.0519       5.2930       0.0010       2.5520       0.0000       0.9530       0.9260
   2285.5437      10.5750       5.4870       0.0250     209.1000      12.9343    -999.2500    -999.2500      69.1130      62.9810      99.1480       0.0513       5.2850       0.0020       2.5420       0.0000       1.0440       0.9920
   2285.6963      10.6460       6.5600       0.0440     241.1250      15.2801    -999.2500    -999.2500      44.4690      41.2120     181.1880       0.0535       5.2760       0.0020       2.5320       0.0000       1.1350       1.0570
   2285.8486      10.8750       7.0650       0.0410     207.6130      15.6984    -999.2500    -999.2500      54.8390      48.0110     163.9300       0.0609       5.2000       0.0020       2.4280       0.0000       1.1090       0.9910
   2286.0010      11.1030       7.2320       0.0390     174.2500      15.0883    -999.2500    -999.2500      65.1130      54.7260     146.8850       0.0826       5.1230       0.0020       2.3250       0.0000       1.0830       0.9260
   2286.1533      11.2670       7.0630       0.0290     176.4330      13.8420    -999.2500    -999.2500      64.2750      53.8080      80.7290       0.1349       4.8350       0.0020       2.3260       0.0000       1.1420       0.9260
   2286.3059      11.4300       6.6980       0.0180     178.6060      12.7245    -999.2500    -999.2500      63.4470      52.9020      15.3830       0.1846       4.5470       0.0010       2.3280       0.0000       1.2000       0.9260
   2286.4583      11.3350       6.3050       0.0130     187.9470      12.5676    -999.2500    -999.2500      59.6840      48.9230      15.6190       0.1975       4.5950       0.0010       2.3340       0.0000       1.1890       0.9300
   2286.6106      11.2400       5.8950       0.0080     197.2500      12.7157    -999.2500    -999.2500      55.9610      44.9920      15.8530       0.1936       4.6420       0.0010       2.3400       0.0000       1.1780       0.9340
   2286.7629      10.9080       5.6080       0.0090     193.9350      12.6695    -999.2500    -999.2500      56.7060      45.5130      51.2320       0.1842       4.9660       0.0010       2.3510       0.0000       0.9460       0.9630
   2286.9155      10.5760       5.3880       0.0090     190.6330      12.4440    -999.2500    -999.2500      57.4430      46.0280      86.1880       0.1707       5.2890       0.0010       2.3610       0.0000       0.7150       0.9920
   2287.0679      10.5310       5.3930       0.0050     179.4060      11.9613    -999.2500    -999.2500      60.7710      48.3240      69.6680       0.1521       5.1150       0.0010       2.3970       0.0000       0.7450       0.9850
   2287.2202      10.4850       5.5190       0.0020     168.2400      11.6040    -999.2500    -999.2500      64.0640      50.5920      53.3440       0.1344       4.9410       0.0010       2.4320       0.0000       0.7750       0.9780
   2287.3726      10.4030       5.6730       0.0020     158.8450      11.8196    -999.2500    -999.2500      73.0540      54.6340      56.2830       0.1241       4.9500       0.0010       2.4600       0.0000       0.9010       0.9540
   2287.5249      10.3200       5.8410       0.0030     149.5000      12.1578    -999.2500    -999.2500      81.9530      58.6290      59.1880       0.1185       4.9580       0.0010       2.4880       0.0000       1.0260       0.9310
   2287.6775      10.3400       5.6000       0.0070     151.6310      12.2358    -999.2500    -999.2500      80.7490      57.6830      58.3740       0.1175       4.9980       0.0010       2.4860       0.0000       1.0020       0.9370
   2287.8298      10.3590       5.1490       0.0110     153.7500      12.1699    -999.2500    -999.2500      79.5570      56.7480      57.5700       0.1208       5.0390       0.0010       2.4840       0.0000       0.9780       0.9440
   2287.9822      10.3560       4.5500       0.0190     149.0990      11.9992    -999.2500    -999.2500      73.8110      52.1370      50.4470       0.1300       5.1050       0.0010       2.4710       0.0000       0.8970       0.9770
