#------------------------------------------------------------------------------
#
#   Created by  : [OpenWorks] Log Export Utility (LEXP)
#   Created on  : 2016-05-11 12:13:37
#   Project     : CANT971
#   User        : R5K
#   Interpreter : PEP
#
#------------------------------------------------------------------------------
~VERSION INFORMATION
VERS. 2.0 : CWLS Log ASCII Standard - version 2.0
WRAP.  NO : One line per depth step
~WELL INFORMATION
#MNEMONIC   .UNIT                                           VALUE :DESCRIPTION
#------------------------------------------------------------------------------
STRT        .M                                           735.9406 :START DEPTH
STOP        .M                                          3069.9465 :STOP DEPTH
STEP        .M                                             0.1524 :STEP
NULL        .                                           -999.2500 :NULL VALUE
COMP        .                                   PEMEX EXPL & PROD :COMPANY
WELL        .                                               1085D :WELL
FLD         .                                           CANTARELL :FIELD
LOC         .                                             UNKNOWN :LOCATION
CNTY        .                                      CD. DEL CARMEN :COUNTY
STAT        .                                            CAMPECHE :STATE
CTRY        .                                              MEXICO :COUNTRY
SRVC        .                                             UNKNOWN :SERVICE COMPANY
DATE        .                                             UNKNOWN :LOG DATE
UWI         .                                          3060000781 :UNIQUE WELL ID
XCOORD      .                                       601386.880000 :SURFACE X
YCOORD      .                                      2149875.750000 :SURFACE Y
LAT         .                                           19.441862 :LATITUDE
LON         .                                          -92.034176 :LONGITUDE
ELEV        .M                                            28.0000 :SURFACE ELEV
ELEV_TYPE   .                                                  KB :ELEV TYPE
~CURVE INFORMATION
#MNEMONIC.UNIT        API CODE       : CURVE DESCRIPTION
#------------------------------------------------------------------------------
DEPTH    .M                          : Measured Depth
CALI     .inches      UNKNOWN        : CALI:registros:rC:NONE:v0 (auto-composite)
CGR      .API         UNKNOWN        : CGR:registros:rC:NONE:v0 (auto-composite)
DRHO     .g/cm3       UNKNOWN        : DRHO:registros:rC:NONE:v0 (auto-composite)
DT       .UNKNOWN     UNKNOWN        : DT:registros:rC:NONE:v0 (auto-composite)
GR       .API         UNKNOWN        : GR:registros:rC:NONE:v0 (auto-composite)
ILD      .ohm.m       UNKNOWN        : ILD:registros:rC:NONE:v0 (auto-composite)
ILM      .ohm.m       UNKNOWN        : ILM:registros:rC:NONE:v0 (auto-composite)
LLD      .ohm.m       UNKNOWN        : LLD:registros:rC:NONE:v0 (auto-composite)
LLS      .ohm.m       UNKNOWN        : LLS:registros:rC:NONE:v0 (auto-composite)
MSFL     .ohm.m       UNKNOWN        : MSFL:registros:rC:NONE:v0 (auto-composite)
NPHI     .UNKNOWN     UNKNOWN        : NPHI:registros:rC:NONE:v0 (auto-composite)
PEF      .b/elec      UNKNOWN        : PEF:registros:rC:NONE:v0 (auto-composite)
POTA     .UNKNOWN     UNKNOWN        : POTA:registros:rC:NONE:v0 (auto-composite)
RHOB     .g/cm3       UNKNOWN        : RHOB:registros:rC:NONE:v0 (auto-composite)
SP       .mV          UNKNOWN        : SP:registros:rC:NONE:v0 (auto-composite)
THOR     .ppm         UNKNOWN        : THOR:registros:rC:NONE:v0 (auto-composite)
URAN     .ppm         UNKNOWN        : URAN:registros:rC:NONE:v0 (auto-composite)
~A     DEPTH         CALI          CGR         DRHO           DT           GR          ILD          ILM          LLD          LLS         MSFL         NPHI          PEF         POTA         RHOB           SP         THOR         URAN
# ...
   2341.4746      12.2270      49.4890       0.0590      88.7040      79.5832    -999.2500    -999.2500       4.9900       5.0120       4.4180       0.1625       4.2940       0.0230       2.6050       0.0000       2.3590       3.6400
   2341.6270      12.3170      49.8590       0.0830      91.9540      84.6181    -999.2500    -999.2500       4.9490       4.9690       5.0250       0.1398       3.9220       0.0230       2.5660       0.0000       2.2540       3.8410
   2341.7793      12.4070      49.7080       0.1070      95.1870      89.4089    -999.2500    -999.2500       4.9090       4.9270       5.6250       0.1190       3.5510       0.0240       2.5270       0.0000       2.1490       4.0420
   2341.9319      12.7670      49.2030       0.1700      92.0720      87.6843    -999.2500    -999.2500       4.8260       4.7330       5.4590       0.1220       3.5890       0.0230       2.4880       0.0000       2.0140       4.0030
   2342.0842      13.1270      47.9450       0.2330      88.9740      84.9396    -999.2500    -999.2500       4.7430       4.5410       5.2950       0.1283       3.6270       0.0230       2.4490       0.0000       1.8800       3.9640
   2342.2366      16.1650      46.1830       0.2170      81.6870      78.5297    -999.2500    -999.2500       4.3530       4.0260       4.4420       0.1437       3.5860       0.0220       2.4650       0.0000       1.9330       3.8780
   2342.3889      19.2030      44.3390       0.2010      74.4370      72.3358    -999.2500    -999.2500       3.9660       3.5170       3.5980       0.1645       3.5450       0.0200       2.4810       0.0000       1.9860       3.7930
   2342.5415      15.9680      42.4410       0.1530      74.8690      71.8359    -999.2500    -999.2500       3.4370       3.0550       3.6360       0.2321       3.6590       0.0190       2.4760       0.0000       2.1600       3.7410
   2342.6938      12.7340      40.6610       0.1050      75.2980      71.8660    -999.2500    -999.2500       2.9140       2.5980       3.6740       0.2971       3.7730       0.0180       2.4710       0.0000       2.3330       3.6890
   2342.8462      12.7340      38.9590       0.0570      76.9650      71.5451    -999.2500    -999.2500       3.0950       2.7740       3.3970       0.2915       3.7600       0.0180       2.4980       0.0000       2.3200       3.6750
   2342.9985      12.7340      38.0070       0.0090      78.6250      71.1062    -999.2500    -999.2500       3.2740       2.9490       3.1230       0.2731       3.7460       0.0170       2.5250       0.0000       2.3080       3.6610
   2343.1511      13.7390      37.5260       0.0090      72.7670      69.7722    -999.2500    -999.2500       5.3200       4.4950       7.4090       0.1960       3.7160       0.0160       2.4870       0.0000       2.0890       3.8550
   2343.3035      14.7440      37.7230       0.0090      66.9370      68.5412    -999.2500    -999.2500       7.3460       6.0230      11.6480       0.1212       3.6850       0.0160       2.4500       0.0000       1.8710       4.0470
   2343.4558      16.1670      38.3340       0.0090      68.2210      69.1691    -999.2500    -999.2500       6.6020       5.4380      11.3680       0.1296       3.6640       0.0160       2.3680       0.0000       1.9490       4.0430
   2343.6082      17.5910      38.7200       0.0100      69.5000      70.0206    -999.2500    -999.2500       5.8660       4.8590      11.0900       0.1496       3.6430       0.0160       2.2870       0.0000       2.0260       4.0390
   2343.7605      17.8110      38.9720       0.0120      68.8950      71.4253    -999.2500    -999.2500       4.3550       3.6800       6.9350       0.2098       3.6740       0.0160       2.2930       0.0000       2.0050       4.0180
   2343.9131      18.0310      38.9280       0.0130      68.2930      72.7357    -999.2500    -999.2500       2.8580       2.5140       2.8240       0.2675       3.7060       0.0170       2.2980       0.0000       1.9840       3.9980
   2344.0654      15.5050      38.7130       0.0100      56.9970      72.5029    -999.2500    -999.2500       3.0130       2.6050       4.4930       0.2574       3.8820       0.0170       2.3130       0.0000       1.9210       4.0070
   2344.2178      12.9770      38.6110       0.0080      45.7500      72.1867    -999.2500    -999.2500       3.1670       2.6960       6.1450       0.2404       4.0590       0.0170       2.3280       0.0000       1.8580       4.0160
   2344.3701      13.0790      38.5740       0.0110      49.6240      72.4995    -999.2500    -999.2500       3.7240       3.0730       5.3120       0.2153       4.0180       0.0160       2.3670       0.0000       1.9130       4.0600
   2344.5227      13.1810      38.8340       0.0140      53.4820      72.9408    -999.2500    -999.2500       4.2750       3.4470       4.4880       0.1905       3.9770       0.0160       2.4060       0.0000       1.9670       4.1030
   2344.6750      13.5650      39.2600       0.0190      73.4060      74.2087    -999.2500    -999.2500       5.2330       4.2510       5.5820       0.1781       3.8490       0.0160       2.4020       0.0000       2.3060       4.2050
   2344.8274      13.9490      39.8220       0.0240      93.2500      75.5285    -999.2500    -999.2500       6.1820       5.0470       6.6640       0.1684       3.7210       0.0160       2.3980       0.0000       2.6430       4.3070
   2344.9797      15.0520      40.4590       0.0230      79.9420      76.7145    -999.2500    -999.2500       5.8970       4.8370       6.0150       0.1791       3.7280       0.0160       2.3850       0.0000       2.6290       4.3040
   2345.1323      16.1560      40.8190       0.0220      66.6870      77.7940    -999.2500    -999.2500       5.6150       4.6300       5.3720       0.1924       3.7360       0.0170       2.3730       0.0000       2.6150       4.3010
   2345.2847      16.0860      41.0330       0.0230      66.9690      77.8330    -999.2500    -999.2500       4.7290       3.9930       4.7420       0.2162       3.7520       0.0170       2.3790       0.0000       2.5620       4.2960
   2345.4370      16.0160      41.0640       0.0230      67.2500      77.7675    -999.2500    -999.2500       3.8500       3.3620       4.1180       0.2386       3.7680       0.0170       2.3850       0.0000       2.5100       4.2910
   2345.5894      16.1560      41.0010       0.0300      65.3700      77.5173    -999.2500    -999.2500       3.9340       3.4290       3.8050       0.2352       3.8070       0.0170       2.4290       0.0000       2.4460       4.3060
   2345.7417      16.2970      41.3460       0.0360      63.5000      77.3785    -999.2500    -999.2500       4.0180       3.4960       3.4960       0.2293       3.8470       0.0170       2.4730       0.0000       2.3830       4.3210
   2345.8943      15.8320      41.8970       0.0340      64.0010      78.7385    -999.2500    -999.2500       4.2270       3.6670       4.3780       0.2189       3.9130       0.0170       2.4700       0.0000       2.5270       4.4160
   2346.0466      15.3670      42.2660       0.0330      64.5000      80.3009    -999.2500    -999.2500       4.4340       3.8350       5.2500       0.2089       3.9790       0.0170       2.4660       0.0000       2.6710       4.5100
   2346.1990      18.7230      42.5430       0.0280      64.4570      83.0419    -999.2500    -999.2500       4.3440       3.8080       4.5300       0.2095       3.9610       0.0170       2.4510       0.0000       2.9140       4.6590
   2346.3513      22.0780      42.2130       0.0230      64.4140      85.6378    -999.2500    -999.2500       4.2540       3.7810       3.8180       0.2115       3.9420       0.0170       2.4350       0.0000       3.1560       4.8080
   2346.5039      22.0150      41.5880       0.0180      64.2050      85.5524    -999.2500    -999.2500       4.0930       3.7170       3.9010       0.2205       3.8870       0.0160       2.4160       0.0000       3.1100       4.9610
   2346.6562      21.9530      40.3610       0.0120      63.9970      85.1474    -999.2500    -999.2500       3.9340       3.6530       3.9820       0.2301       3.8320       0.0160       2.3970       0.0000       3.0640       5.1130
