#------------------------------------------------------------------------------
#
#   Created by  : [OpenWorks] Log Export Utility (LEXP)
#   Created on  : 2016-05-11 12:13:37
#   Project     : CANT971
#   User        : R5K
#   Interpreter : PEP
#
#------------------------------------------------------------------------------
~VERSION INFORMATION
VERS. 2.0 : CWLS Log ASCII Standard - version 2.0
WRAP.  NO : One line per depth step
~WELL INFORMATION
#MNEMONIC   .UNIT                                           VALUE :DESCRIPTION
#------------------------------------------------------------------------------
STRT        .M                                           735.9406 :START DEPTH
STOP        .M                                          3069.9465 :STOP DEPTH
STEP        .M                                             0.1524 :STEP
NULL        .                                           -999.2500 :NULL VALUE
COMP        .                                   PEMEX EXPL & PROD :COMPANY
WELL        .                                               1085D :WELL
FLD         .                                           CANTARELL :FIELD
LOC         .                                             UNKNOWN :LOCATION
CNTY        .                                      CD. DEL CARMEN :COUNTY
STAT        .                                            CAMPECHE :STATE
CTRY        .                                              MEXICO :COUNTRY
SRVC        .                                             UNKNOWN :SERVICE COMPANY
DATE        .                                             UNKNOWN :LOG DATE
UWI         .                                          3060000781 :UNIQUE WELL ID
XCOORD      .                                       601386.880000 :SURFACE X
YCOORD      .                                      2149875.750000 :SURFACE Y
LAT         .                                           19.441862 :LATITUDE
LON         .                                          -92.034176 :LONGITUDE
ELEV        .M                                            28.0000 :SURFACE ELEV
ELEV_TYPE   .                                                  KB :ELEV TYPE
~CURVE INFORMATION
#MNEMONIC.UNIT        API CODE       : CURVE DESCRIPTION
#------------------------------------------------------------------------------
DEPTH    .M                          : Measured Depth
CALI     .inches      UNKNOWN        : CALI:registros:rC:NONE:v0 (auto-composite)
CGR      .API         UNKNOWN        : CGR:registros:rC:NONE:v0 (auto-composite)
DRHO     .g/cm3       UNKNOWN        : DRHO:registros:rC:NONE:v0 (auto-composite)
DT       .UNKNOWN     UNKNOWN        : DT:registros:rC:NONE:v0 (auto-composite)
GR       .API         UNKNOWN        : GR:registros:rC:NONE:v0 (auto-composite)
ILD      .ohm.m       UNKNOWN        : ILD:registros:rC:NONE:v0 (auto-composite)
ILM      .ohm.m       UNKNOWN        : ILM:registros:rC:NONE:v0 (auto-composite)
LLD      .ohm.m       UNKNOWN        : LLD:registros:rC:NONE:v0 (auto-composite)
LLS      .ohm.m       UNKNOWN        : LLS:registros:rC:NONE:v0 (auto-composite)
MSFL     .ohm.m       UNKNOWN        : MSFL:registros:rC:NONE:v0 (auto-composite)
NPHI     .UNKNOWN     UNKNOWN        : NPHI:registros:rC:NONE:v0 (auto-composite)
PEF      .b/elec      UNKNOWN        : PEF:registros:rC:NONE:v0 (auto-composite)
POTA     .UNKNOWN     UNKNOWN        : POTA:registros:rC:NONE:v0 (auto-composite)
RHOB     .g/cm3       UNKNOWN        : RHOB:registros:rC:NONE:v0 (auto-composite)
SP       .mV          UNKNOWN        : SP:registros:rC:NONE:v0 (auto-composite)
THOR     .ppm         UNKNOWN        : THOR:registros:rC:NONE:v0 (auto-composite)
URAN     .ppm         UNKNOWN        : URAN:registros:rC:NONE:v0 (auto-composite)
~A     DEPTH         CALI          CGR         DRHO           DT           GR          ILD          ILM          LLD          LLS         MSFL         NPHI          PEF         POTA         RHOB           SP         THOR         URAN
# ...
   2565.5027       9.0550       9.8550       0.0230      61.4920      26.4874    -999.2500    -999.2500     120.0110     124.3390     954.7500       0.1133       3.0800       0.0010       2.5900       0.0000       1.5300       2.1760
   2565.6550       9.0820      11.8280       0.0470      65.0030      25.0175    -999.2500    -999.2500      98.8290     106.6580     488.9690       0.1145       3.1200       0.0010       2.5920       0.0000       1.0700       2.2230
   2565.8074       9.1090      13.7980       0.0710      68.5000      25.6480    -999.2500    -999.2500      77.7940      89.1280      27.1560       0.1198       3.1600       0.0010       2.5950       0.0000       0.6110       2.2700
   2565.9597       9.0970      15.7660       0.0690      67.2850      27.8215    -999.2500    -999.2500      51.9940      61.9910      27.7130       0.1326       3.2540       0.0020       2.6020       0.0000       0.5440       2.4130
   2566.1123       9.0860      17.4980       0.0670      66.0750      30.4380    -999.2500    -999.2500      26.3690      35.0820      28.2660       0.1461       3.3480       0.0040       2.6080       0.0000       0.4770       2.5560
   2566.2646       9.0860      18.9620       0.0560      60.5280      34.6687    -999.2500    -999.2500      21.5630      28.7480      24.8140       0.1574       3.2820       0.0050       2.6050       0.0000       0.5520       2.6890
   2566.4170       9.0860      19.5340       0.0440      55.0000      39.3444    -999.2500    -999.2500      16.7880      22.4660      21.3910       0.1667       3.2150       0.0070       2.6030       0.0000       0.6260       2.8210
   2566.5693       9.0830      19.1150       0.0250      55.1530      45.5310    -999.2500    -999.2500      19.4010      25.7600      24.9250       0.1642       3.2380       0.0080       2.6100       0.0000       1.1960       3.1380
   2566.7219       9.0810      17.7040       0.0070      55.3060      51.0559    -999.2500    -999.2500      21.9960      29.0280      28.4310       0.1584       3.2610       0.0090       2.6170       0.0000       1.7650       3.4550
   2566.8743       9.0720      15.2100       0.0070      56.0180      50.3906    -999.2500    -999.2500      43.8510      55.9190     179.0070       0.1427       3.3250       0.0090       2.6380       0.0000       1.6550       3.4470
   2567.0266       9.0630      13.0170       0.0070      56.7280      48.6290    -999.2500    -999.2500      65.5310      82.5940     328.3750       0.1253       3.3900       0.0080       2.6600       0.0000       1.5460       3.4400
   2567.1790       9.0660      11.1450       0.0080      57.7720      45.2129    -999.2500    -999.2500     181.4960     220.1250     309.5510       0.1063       3.4360       0.0050       2.6740       0.0000       1.2630       3.4080
   2567.3313       9.0700       9.7000       0.0090      58.8130      41.9378    -999.2500    -999.2500     296.5460     356.5720     290.8750       0.0881       3.4820       0.0030       2.6890       0.0000       0.9800       3.3770
   2567.4839       9.1320       8.7020       0.0130      58.3120      41.2045    -999.2500    -999.2500     603.7230     705.3010     297.9020       0.0765       3.4660       0.0030       2.7010       0.0000       0.8650       3.3320
   2567.6362       9.1950       7.5910       0.0160      57.8130      40.8205    -999.2500    -999.2500     908.5140    1051.3220     304.8750       0.0671       3.4490       0.0030       2.7120       0.0000       0.7510       3.2860
   2567.7886       9.1130       6.3650       0.0140      58.8010      40.4161    -999.2500    -999.2500    1184.2860    1331.1500     206.5310       0.0666       3.3970       0.0040       2.6950       0.0000       0.6260       3.2310
   2567.9409       9.0310       5.5810       0.0130      59.7860      39.8330    -999.2500    -999.2500    1457.9540    1608.8420     108.9380       0.0676       3.3450       0.0050       2.6790       0.0000       0.5010       3.1770
   2568.0935       9.0380       5.2370       0.0140      62.6810      37.9311    -999.2500    -999.2500    1759.9750    1827.9170     418.0050       0.0709       3.2710       0.0040       2.6850       0.0000       0.3940       3.2530
   2568.2458       9.0460       5.3740       0.0140      65.5680      36.1223    -999.2500    -999.2500    2059.7261    2045.3450     724.7500       0.0748       3.1970       0.0030       2.6920       0.0000       0.2870       3.3290
   2568.3982       9.0670       5.9810       0.0120      67.5180      36.3106    -999.2500    -999.2500    2322.9810    2434.6101     524.2880       0.0801       3.2030       0.0030       2.6780       0.0000       0.3000       3.5270
   2568.5505       9.0880       6.3210       0.0090      69.4630      36.9950    -999.2500    -999.2500    2584.2920    2820.3799     325.6250       0.0847       3.2080       0.0030       2.6650       0.0000       0.3130       3.7250
   2568.7031       9.0990       6.4040       0.0120      70.6250      39.4211    -999.2500    -999.2500    2903.1509    2807.0049     627.2720       0.0833       3.2990       0.0030       2.7100       0.0000       0.3900       3.7200
   2568.8555       9.1090       6.2110       0.0140      71.7830      41.7722    -999.2500    -999.2500    3219.6941    2793.7480     926.2500       0.0807       3.3890       0.0030       2.7550       0.0000       0.4670       3.7150
   2569.0078       9.1090       5.7580       0.0210      73.5680      41.9080    -999.2500    -999.2500    3028.3181    2701.8311     754.1640       0.0747       3.3820       0.0030       2.7530       0.0000       0.4600       3.7040
   2569.1602       9.1090       5.6940       0.0280      75.3470      41.7191    -999.2500    -999.2500    2838.3069    2610.7161     583.5800       0.0693       3.3760       0.0030       2.7500       0.0000       0.4530       3.6930
   2569.3125       9.1090       5.9900       0.0250      90.3270      41.2425    -999.2500    -999.2500    2892.9060    2473.9939     386.9130       0.0728       3.3260       0.0030       2.7310       0.0000       0.4540       3.7190
   2569.4651       9.1090       6.1680       0.0220     105.2500      41.4249    -999.2500    -999.2500    2947.1211    2338.4480     191.9370       0.0770       3.2750       0.0030       2.7130       0.0000       0.4550       3.7450
   2569.6174       9.1090       6.2390       0.0270     105.0930      47.0832    -999.2500    -999.2500    2845.4331    2188.9919     209.1700       0.0773       3.3130       0.0020       2.7330       0.0000       0.6810       4.4220
   2569.7698       9.1090       5.7470       0.0330     104.9370      52.7778    -999.2500    -999.2500    2744.4451    2040.8030     226.2570       0.0770       3.3520       0.0020       2.7530       0.0000       0.9060       5.0980
   2569.9221       9.1090       4.7580       0.0300     105.3560      53.1971    -999.2500    -999.2500    2806.1379    2069.5410     302.4610       0.0750       3.4930       0.0020       2.7480       0.0000       0.8770       5.0240
   2570.0747       9.1090       3.5300       0.0270     105.7730      52.7964    -999.2500    -999.2500    2867.4141    2098.0391     378.0300       0.0730       3.6350       0.0020       2.7430       0.0000       0.8490       4.9500
   2570.2271       9.1090       2.0950       0.0210     121.3510      51.0920    -999.2500    -999.2500    3021.8459    2170.1340     460.4790       0.0731       3.5720       0.0020       2.7300       0.0000       0.7040       4.7640
   2570.3794       9.1090       1.0950       0.0150     136.8750      49.0988    -999.2500    -999.2500    3175.2539    2241.6350     542.2500       0.0736       3.5090       0.0020       2.7170       0.0000       0.5590       4.5790
   2570.5317       9.1090       0.4630       0.0130     130.3950      45.9178    -999.2500    -999.2500    3150.5740    2311.2461     452.7000       0.0755       3.3720       0.0020       2.7240       0.0000       0.3550       4.4800
   2570.6843       9.1090       0.1700       0.0100     123.9370      42.8059    -999.2500    -999.2500    3126.0559    2380.2939     363.8750       0.0779       3.2350       0.0020       2.7300       0.0000       0.1510       4.3820
