#------------------------------------------------------------------------------
#
#   Created by  : [OpenWorks] Log Export Utility (LEXP)
#   Created on  : 2016-05-11 12:13:37
#   Project     : CANT971
#   User        : R5K
#   Interpreter : PEP
#
#------------------------------------------------------------------------------
~VERSION INFORMATION
VERS. 2.0 : CWLS Log ASCII Standard - version 2.0
WRAP.  NO : One line per depth step
~WELL INFORMATION
#MNEMONIC   .UNIT                                           VALUE :DESCRIPTION
#------------------------------------------------------------------------------
STRT        .M                                           735.9406 :START DEPTH
STOP        .M                                          3069.9465 :STOP DEPTH
STEP        .M                                             0.1524 :STEP
NULL        .                                           -999.2500 :NULL VALUE
COMP        .                                   PEMEX EXPL & PROD :COMPANY
WELL        .                                               1085D :WELL
FLD         .                                           CANTARELL :FIELD
LOC         .                                             UNKNOWN :LOCATION
CNTY        .                                      CD. DEL CARMEN :COUNTY
STAT        .                                            CAMPECHE :STATE
CTRY        .                                              MEXICO :COUNTRY
SRVC        .                                             UNKNOWN :SERVICE COMPANY
DATE        .                                             UNKNOWN :LOG DATE
UWI         .                                          3060000781 :UNIQUE WELL ID
XCOORD      .                                       601386.880000 :SURFACE X
YCOORD      .                                      2149875.750000 :SURFACE Y
LAT         .                                           19.441862 :LATITUDE
LON         .                                          -92.034176 :LONGITUDE
ELEV        .M                                            28.0000 :SURFACE ELEV
ELEV_TYPE   .                                                  KB :ELEV TYPE
~CURVE INFORMATION
#MNEMONIC.UNIT        API CODE       : CURVE DESCRIPTION
#------------------------------------------------------------------------------
DEPTH    .M                          : Measured Depth
CALI     .inches      UNKNOWN        : CALI:registros:rC:NONE:v0 (auto-composite)
CGR      .API         UNKNOWN        : CGR:registros:rC:NONE:v0 (auto-composite)
DRHO     .g/cm3       UNKNOWN        : DRHO:registros:rC:NONE:v0 (auto-composite)
DT       .UNKNOWN     UNKNOWN        : DT:registros:rC:NONE:v0 (auto-composite)
GR       .API         UNKNOWN        : GR:registros:rC:NONE:v0 (auto-composite)
ILD      .ohm.m       UNKNOWN        : ILD:registros:rC:NONE:v0 (auto-composite)
ILM      .ohm.m       UNKNOWN        : ILM:registros:rC:NONE:v0 (auto-composite)
LLD      .ohm.m       UNKNOWN        : LLD:registros:rC:NONE:v0 (auto-composite)
LLS      .ohm.m       UNKNOWN        : LLS:registros:rC:NONE:v0 (auto-composite)
MSFL     .ohm.m       UNKNOWN        : MSFL:registros:rC:NONE:v0 (auto-composite)
NPHI     .UNKNOWN     UNKNOWN        : NPHI:registros:rC:NONE:v0 (auto-composite)
PEF      .b/elec      UNKNOWN        : PEF:registros:rC:NONE:v0 (auto-composite)
POTA     .UNKNOWN     UNKNOWN        : POTA:registros:rC:NONE:v0 (auto-composite)
RHOB     .g/cm3       UNKNOWN        : RHOB:registros:rC:NONE:v0 (auto-composite)
SP       .mV          UNKNOWN        : SP:registros:rC:NONE:v0 (auto-composite)
THOR     .ppm         UNKNOWN        : THOR:registros:rC:NONE:v0 (auto-composite)
URAN     .ppm         UNKNOWN        : URAN:registros:rC:NONE:v0 (auto-composite)
~A     DEPTH         CALI          CGR         DRHO           DT           GR          ILD          ILM          LLD          LLS         MSFL         NPHI          PEF         POTA         RHOB           SP         THOR         URAN
# ...
   2677.5166       9.5230       7.1150       0.0400      53.4690      45.9849    -999.2500    -999.2500     497.2750     474.9820     474.4230       0.0404       3.5360       0.0020       2.8180       0.0000       0.5220       2.5960
   2677.6689       9.5230       4.9390       0.0410      53.8130      36.1182    -999.2500    -999.2500     527.9980     503.2650     176.6920       0.0409       3.6300       0.0010       2.8120       0.0000       0.6260       2.1120
   2677.8215       9.5230       3.9780       0.0580      53.6750      30.4462    -999.2500    -999.2500     574.6800     547.2520     101.7290       0.0408       3.9530       0.0010       2.7820       0.0000       0.9070       2.2040
   2677.9739       9.5230       3.6350       0.0760      53.5380      27.5168    -999.2500    -999.2500     621.0410     590.9370      27.2810       0.0417       4.2770       0.0000       2.7510       0.0000       1.1870       2.2970
   2678.1262       9.5230       4.2200       0.0830      53.1750      26.9075    -999.2500    -999.2500     598.2390     569.3020      30.2740       0.0458       4.0540       0.0000       2.6930       0.0000       1.1540       2.5150
   2678.2786       9.5230       4.5450       0.0910      52.8130      27.3878    -999.2500    -999.2500     575.5900     547.8120      33.2460       0.0531       3.8300       0.0000       2.6340       0.0000       1.1210       2.7330
   2678.4309       9.5230       4.4880       0.0980      53.0660      28.1362    -999.2500    -999.2500     495.7740     468.7130      51.2700       0.0645       3.6640       0.0010       2.7340       0.0000       0.8380       3.0590
   2678.5835       9.5230       4.2940       0.1050      53.3180      30.0674    -999.2500    -999.2500     416.4860     390.1370      69.1750       0.0740       3.4970       0.0010       2.8350       0.0000       0.5560       3.3840
   2678.7358       9.5090       3.9070       0.0640      54.1920      34.5211    -999.2500    -999.2500     361.5250     348.2470     599.0570       0.0748       3.4570       0.0010       2.8160       0.0000       0.7960       3.5970
   2678.8882       9.4950       3.7660       0.0230      55.0630      37.8810    -999.2500    -999.2500     306.9200     306.6280    1125.5000       0.0686       3.4180       0.0010       2.7970       0.0000       1.0360       3.8100
   2679.0405       9.4860       3.9700       0.0250      55.0400      36.1888    -999.2500    -999.2500     382.1560     373.9140     827.8110       0.0543       3.4340       0.0020       2.8090       0.0000       0.9930       3.4940
   2679.1931       9.4770       5.0390       0.0270      55.0160      34.4860    -999.2500    -999.2500     456.9130     440.7710     532.0180       0.0418       3.4510       0.0020       2.8220       0.0000       0.9510       3.1790
   2679.3455       9.4940       7.3010       0.0360      53.9440      37.7707    -999.2500    -999.2500     339.8960     329.3060     305.9670       0.0417       3.4650       0.0040       2.7930       0.0000       0.7590       3.2270
   2679.4978       9.5110       9.9630       0.0440      52.8750      42.8097    -999.2500    -999.2500     223.6090     218.7140      81.6880       0.0455       3.4790       0.0050       2.7640       0.0000       0.5670       3.2750
   2679.6501       9.5170      13.1630       0.0510      53.8450      46.9719    -999.2500    -999.2500     252.4190     242.1810     210.4020       0.0460       3.4710       0.0060       2.7680       0.0000       0.6120       3.4080
   2679.8027       9.5230      15.0000       0.0580      54.8130      49.4609    -999.2500    -999.2500     281.0530     265.4670     338.1250       0.0450       3.4630       0.0070       2.7720       0.0000       0.6570       3.5410
   2679.9551       9.5230      15.0380       0.0600      54.5630      48.9362    -999.2500    -999.2500     333.2680     312.8910     301.1100       0.0438       3.3980       0.0070       2.7980       0.0000       0.7410       3.4200
   2680.1074       9.5230      13.3230       0.0630      54.3130      46.1608    -999.2500    -999.2500     385.1710     359.9560     264.3750       0.0411       3.3320       0.0060       2.8240       0.0000       0.8240       3.3000
   2680.2598       9.5230       9.3450       0.0580      54.7310      41.1466    -999.2500    -999.2500     436.9350     397.2490     313.0560       0.0353       3.4040       0.0040       2.8330       0.0000       0.7160       3.1030
   2680.4121       9.5230       6.2220       0.0540      55.1470      35.8943    -999.2500    -999.2500     488.3950     434.2630     361.3750       0.0301       3.4750       0.0010       2.8430       0.0000       0.6090       2.9070
   2680.5647       9.5230       4.1760       0.0510      56.8510      32.2874    -999.2500    -999.2500     421.6170     382.7770     246.4850       0.0294       3.6190       0.0020       2.8400       0.0000       0.4980       3.0150
   2680.7170       9.5230       3.4780       0.0470      58.5500      32.0608    -999.2500    -999.2500     355.2230     331.6680     132.4370       0.0316       3.7640       0.0030       2.8370       0.0000       0.3870       3.1220
   2680.8694       9.5260       4.4540       0.0360      59.3390      38.0264    -999.2500    -999.2500     320.9140     304.3990     218.7730       0.0359       3.7160       0.0030       2.8240       0.0000       0.5000       3.6480
   2681.0217       9.5290       5.5360       0.0240      60.1250      44.2925    -999.2500    -999.2500     286.7980     277.3260     304.4880       0.0385       3.6680       0.0030       2.8110       0.0000       0.6130       4.1730
   2681.1743       9.5300       6.7470       0.0250      59.2150      45.1061    -999.2500    -999.2500     312.4060     297.3070     977.3770       0.0351       3.6120       0.0020       2.8030       0.0000       0.9880       3.7370
   2681.3267       9.5310       7.4970       0.0270      58.3070      44.2077    -999.2500    -999.2500     337.8320     317.1460    1645.5000       0.0319       3.5550       0.0010       2.7960       0.0000       1.3630       3.3010
   2681.4790       9.5450       7.7000       0.0450      56.8080      44.8055    -999.2500    -999.2500     266.1780     254.3160     903.0030       0.0350       3.4840       0.0010       2.7980       0.0000       1.5250       4.6900
   2681.6313       9.5600       8.0970       0.0620      55.3130      47.8279    -999.2500    -999.2500     195.0220     191.9220     165.6670       0.0394       3.4140       0.0010       2.8000       0.0000       1.6860       6.0780
   2681.7837       9.5770       8.7220       0.0830      57.0030      54.9161    -999.2500    -999.2500     163.5330     165.4780     107.1340       0.0402       3.3100       0.0020       2.7690       0.0000       1.4080       5.4210
   2681.9363       9.5940       9.0610       0.1050      58.6870      59.8034    -999.2500    -999.2500     132.2600     139.2150      49.0000       0.0408       3.2050       0.0020       2.7380       0.0000       1.1300       4.7640
   2682.0886       9.6210       9.0770       0.0980      58.4760      55.6536    -999.2500    -999.2500     153.7110     162.8790      52.3990       0.0447       3.3390       0.0020       2.7720       0.0000       0.7490       5.0090
   2682.2410       9.6480       8.3510       0.0910      58.2660      50.0283    -999.2500    -999.2500     175.0190     186.3850      55.7760       0.0498       3.4730       0.0020       2.8050       0.0000       0.3690       5.2530
   2682.3933       9.5850       6.8000       0.0500      57.4750      50.0285    -999.2500    -999.2500     186.9540     200.6720      81.2740       0.0542       3.3780       0.0020       2.7920       0.0000       0.4290       5.4920
   2682.5459       9.5230       6.1140       0.0090      56.6870      52.5960    -999.2500    -999.2500     198.8110     214.8650     106.6040       0.0557       3.2830       0.0020       2.7790       0.0000       0.4880       5.7310
   2682.6982       9.5230       6.3730       0.0110      58.0750      55.3997    -999.2500    -999.2500     228.8260     241.0340     245.6880       0.0514       3.3220       0.0020       2.7990       0.0000       0.7060       4.9400
