#------------------------------------------------------------------------------
#
#   Created by  : [OpenWorks] Log Export Utility (LEXP)
#   Created on  : 2016-05-11 12:13:38
#   Project     : CANT971
#   User        : R5K
#   Interpreter : PEP
#
#------------------------------------------------------------------------------
~VERSION INFORMATION
VERS. 2.0 : CWLS Log ASCII Standard - version 2.0
WRAP. YES : Mulitple lines per depth step
~WELL INFORMATION
#MNEMONIC   .UNIT                                           VALUE :DESCRIPTION
#------------------------------------------------------------------------------
STRT        .M                                           689.1525 :START DEPTH
STOP        .M                                          2872.1301 :STOP DEPTH
STEP        .M                                             0.1524 :STEP
NULL        .                                           -999.2500 :NULL VALUE
COMP        .                                   PEMEX EXPL & PROD :COMPANY
WELL        .                                                1087 :WELL
FLD         .                                           CANTARELL :FIELD
LOC         .                                             UNKNOWN :LOCATION
CNTY        .                                      CD. DEL CARMEN :COUNTY
STAT        .                                            CAMPECHE :STATE
CTRY        .                                              MEXICO :COUNTRY
SRVC        .                                             UNKNOWN :SERVICE COMPANY
DATE        .                                             UNKNOWN :LOG DATE
UWI         .                                          3060000754 :UNIQUE WELL ID
XCOORD      .                                       601390.242000 :SURFACE X
YCOORD      .                                      2149875.824000 :SURFACE Y
LAT         .                                           19.441862 :LATITUDE
LON         .                                          -92.034144 :LONGITUDE
ELEV        .M                                            28.0000 :SURFACE ELEV
ELEV_TYPE   .                                                  KB :ELEV TYPE
~CURVE INFORMATION
#MNEMONIC.UNIT        API CODE       : CURVE DESCRIPTION
#------------------------------------------------------------------------------
DEPTH    .M                          : Measured Depth
CALI     .inches      UNKNOWN        : CALI:registros:rC:NONE:v0 (auto-composite)
CGR      .API         UNKNOWN        : CGR:registros:rC:NONE:v0 (auto-composite)
DRHO     .g/cm3       UNKNOWN        : DRHO:registros:rC:NONE:v0 (auto-composite)
DT       .UNKNOWN     UNKNOWN        : DT:registros:rC:NONE:v0 (auto-composite)
GR       .API         UNKNOWN        : GR:registros:rC:NONE:v0 (auto-composite)
GR-LWD   .UNKNOWN     UNKNOWN        : GR-LWD:registros:rC:NONE:v0 (auto-composite)
ILD      .ohm.m       UNKNOWN        : ILD:registros:rC:NONE:v0 (auto-composite)
ILM      .ohm.m       UNKNOWN        : ILM:registros:rC:NONE:v0 (auto-composite)
LLD      .ohm.m       UNKNOWN        : LLD:registros:rC:NONE:v0 (auto-composite)
LLD-LWD  .UNKNOWN     UNKNOWN        : LLD-LWD:registros:rC:NONE:v0 (auto-composite)
LLS      .ohm.m       UNKNOWN        : LLS:registros:rC:NONE:v0 (auto-composite)
LLS-LWD  .UNKNOWN     UNKNOWN        : LLS-LWD:registros:rC:NONE:v0 (auto-composite)
MSFL     .ohm.m       UNKNOWN        : MSFL:registros:rC:NONE:v0 (auto-composite)
NPHI     .v/v_decimal UNKNOWN        : NPHI:registros:rC:NONE:v0 (auto-composite)
PEF      .UNKNOWN     UNKNOWN        : PEF:registros:rC:NONE:v0 (auto-composite)
POTA     .UNKNOWN     UNKNOWN        : POTA:registros:rC:NONE:v0 (auto-composite)
RHOB     .g/cm3       UNKNOWN        : RHOB:registros:rC:NONE:v0 (auto-composite)
THOR     .ppm         UNKNOWN        : THOR:registros:rC:NONE:v0 (auto-composite)
URAN     .ppm         UNKNOWN        : URAN:registros:rC:NONE:v0 (auto-composite)
~A
# ...
   2399.3853
       8.7190       5.4980      -0.0190      55.2210      25.0630    -999.2500
    -999.2500    -999.2500     105.3930    -999.2500      91.8230    -999.2500
     314.6250       0.0811       3.2290       0.0010       2.7160       0.9530
       2.3810
   2399.5378
       8.7500       4.9637      -0.0180      55.4001      24.0745    -999.2500
    -999.2500    -999.2500      88.6205    -999.2500      77.1867    -999.2500
     309.6163       0.0815       3.2670       0.0010       2.7050       0.8640
       2.3260
   2399.6902
       8.7810       4.4300      -0.0170      55.5790      23.0870    -999.2500
    -999.2500    -999.2500      71.8660    -999.2500      62.5660    -999.2500
     304.6130       0.0814       3.3050       0.0010       2.6940       0.7750
       2.2710
   2399.8425
       8.7225       3.8687      -0.0165      56.8006      22.1881    -999.2500
    -999.2500    -999.2500      64.2249    -999.2500      56.3171    -999.2500
     225.4876       0.0836       3.3310       0.0010       2.7020       0.6770
       2.2325
   2399.9949
       8.6640       3.3080      -0.0160      58.0210      21.2900    -999.2500
    -999.2500    -999.2500      56.5910    -999.2500      50.0740    -999.2500
     146.4370       0.0874       3.3570       0.0010       2.7100       0.5790
       2.1940
   2400.1472
       8.7225       3.7842      -0.0165      59.7887      21.7617    -999.2500
    -999.2500    -999.2500      60.5596    -999.2500      53.2863    -999.2500
     229.0649       0.0911       3.2565       0.0010       2.7140       0.6465
       2.1905
   2400.2998
       8.7810       4.2600      -0.0170      61.5550      22.2330    -999.2500
    -999.2500    -999.2500      64.5250    -999.2500      56.4960    -999.2500
     311.6250       0.0945       3.1560       0.0010       2.7180       0.7140
       2.1870
   2400.4521
       8.7615       3.9709      -0.0185      62.3278      22.0839    -999.2500
    -999.2500    -999.2500      63.7852    -999.2500      55.8953    -999.2500
     230.3208       0.0929       3.2730       0.0005       2.7120       0.7815
       2.2030
   2400.6045
       8.7420       3.6820      -0.0200      63.1000      21.9350    -999.2500
    -999.2500    -999.2500      63.0460    -999.2500      55.2950    -999.2500
     149.0730       0.0877       3.3900       0.0000       2.7060       0.8490
       2.2190
   2400.7568
       8.7455       3.9841      -0.0165      59.8291      24.4297    -999.2500
    -999.2500    -999.2500      64.6630    -999.2500      55.9297    -999.2500
      89.9102       0.0790       3.4245       0.0010       2.7120       0.6209
       2.4871
   2400.9094
       8.7490       4.2860      -0.0130      56.5600      26.9230    -999.2500
    -999.2500    -999.2500      66.2790    -999.2500      56.5640    -999.2500
      30.7810       0.0680       3.4590       0.0020       2.7180       0.3930
       2.7550
   2401.0618
       8.7860       8.1924      -0.0090      55.4297      34.8713    -999.2500
    -999.2500    -999.2500      57.2210    -999.2500      48.7043    -999.2500
     145.9785       0.0620       3.3885       0.0040       2.6955       0.5095
       3.2471
   2401.2141
       8.8230      12.0970      -0.0050      54.3000      42.8160    -999.2500
    -999.2500    -999.2500      48.1670    -999.2500      40.8480    -999.2500
     261.1250       0.0595       3.3180       0.0060       2.6730       0.6260
       3.7390
   2401.3665
       8.8620      12.8326       0.0000      55.4502      44.3752    -999.2500
    -999.2500    -999.2500      39.6306    -999.2500      33.7139    -999.2500
     155.8608       0.0557       3.2050       0.0060       2.6825       0.6650
       3.8390
   2401.5190
       8.9010      13.5680       0.0050      56.6000      45.9340    -999.2500
    -999.2500    -999.2500      31.0970    -999.2500      26.5820    -999.2500
      50.6300       0.0509       3.0920       0.0060       2.6920       0.7040
       3.9390
   2401.6714
       8.9660      14.6691       0.0090      56.5060      48.0077    -999.2500
    -999.2500    -999.2500      28.0282    -999.2500      23.3162    -999.2500
      28.2604       0.0535       3.4465       0.0065       2.7250       0.8130
       4.0575
   2401.8237
       9.0310      15.7700       0.0130      56.4120      50.0810    -999.2500
    -999.2500    -999.2500      24.9600    -999.2500      20.0510    -999.2500
       5.8950       0.0612       3.8010       0.0070       2.7580       0.9220
       4.1760
   2401.9761
       9.4765      16.4340       0.0045      56.1060      51.7471    -999.2500
    -999.2500    -999.2500      26.1275    -999.2500      21.1755    -999.2500
     242.3929       0.0577       4.0260       0.0075       2.7195       1.0435
       4.2980
   2402.1284
       9.9220      17.0980      -0.0040      55.8000      53.4130    -999.2500
    -999.2500    -999.2500      27.2950    -999.2500      22.3000    -999.2500
     478.8750       0.0470       4.2510       0.0080       2.6810       1.1650
       4.4200
   2402.2810
       9.4220      17.9000      -0.0070      57.9634      56.3473    -999.2500
    -999.2500    -999.2500      41.6386    -999.2500      29.9904    -999.2500
     267.4592       0.0457       4.3110       0.0080       2.6745       1.2895
       4.6795
   2402.4333
       8.9220      18.7020      -0.0100      60.1270      59.2770    -999.2500
    -999.2500    -999.2500      55.9600    -999.2500      37.6690    -999.2500
      56.0310       0.0504       4.3710       0.0080       2.6680       1.4140
       4.9390
   2402.5857
       8.9255      23.2096      -0.0080      63.5632      67.5153    -999.2500
    -999.2500    -999.2500      48.1875    -999.2500      33.2168    -999.2500
      33.9355       0.0648       4.2735       0.0095       2.6715       1.9450
       5.3920
   2402.7380
       8.9290      27.7180      -0.0060      67.0000      75.7420    -999.2500
    -999.2500    -999.2500      40.4260    -999.2500      28.7710    -999.2500
      11.8360       0.0851       4.1760       0.0110       2.6750       2.4760
       5.8450
   2402.8906
       8.9845      28.8508      -0.0050      66.3396      77.6682    -999.2500
    -999.2500    -999.2500      45.8340    -999.2500      30.9889    -999.2500
      18.8749       0.0889       4.0550       0.0110       2.6430       2.6480
       5.9415
   2403.0430
       9.0400      29.9840      -0.0040      65.6800      79.5920    -999.2500
    -999.2500    -999.2500      51.2350    -999.2500      33.2040    -999.2500
      25.9160       0.0825       3.9340       0.0110       2.6110       2.8200
       6.0380
   2403.1953
       9.1100      30.7748      -0.0020      62.4881      80.6866    -999.2500
    -999.2500    -999.2500      50.4756    -999.2500      32.0658    -999.2500
      48.3281       0.0847       3.9910       0.0115       2.6175       2.9310
       6.0750
   2403.3477
       9.1800      31.5660       0.0000      59.3000      81.7800    -999.2500
    -999.2500    -999.2500      49.7170    -999.2500      30.9290    -999.2500
      70.7500       0.0920       4.0480       0.0120       2.6240       3.0420
       6.1120
   2403.5002
       9.1095      29.6585       0.0020      63.2255      78.6674    -999.2500
    -999.2500    -999.2500      38.8103    -999.2500      23.6857    -999.2500
      49.5845       0.1092       4.1726       0.0115       2.6515       2.7834
       5.9654
   2403.6526
       9.0390      27.7530       0.0040      67.1470      75.5580    -999.2500
    -999.2500    -999.2500      27.9150    -999.2500      16.4500    -999.2500
      28.4410       0.1323       4.2970       0.0110       2.6790       2.5250
       5.8190
   2403.8049
       9.0425      25.6570       0.0055      71.8256      67.7644    -999.2500
    -999.2500    -999.2500      25.0872    -999.2500      14.8568    -999.2500
      17.4790       0.1940       3.8728       0.0120       2.6725       1.5045
       5.1252
   2403.9573
       9.0460      23.5630       0.0070      76.5000      59.9780    -999.2500
    -999.2500    -999.2500      22.2620    -999.2500      13.2650    -999.2500
       6.5270       0.2777       3.4490       0.0130       2.6660       0.4850
       4.4320
