#------------------------------------------------------------------------------
#
#   Created by  : [OpenWorks] Log Export Utility (LEXP)
#   Created on  : 2016-05-11 12:13:38
#   Project     : CANT971
#   User        : R5K
#   Interpreter : PEP
#
#------------------------------------------------------------------------------
~VERSION INFORMATION
VERS. 2.0 : CWLS Log ASCII Standard - version 2.0
WRAP. YES : Mulitple lines per depth step
~WELL INFORMATION
#MNEMONIC   .UNIT                                           VALUE :DESCRIPTION
#------------------------------------------------------------------------------
STRT        .M                                           689.1525 :START DEPTH
STOP        .M                                          2872.1301 :STOP DEPTH
STEP        .M                                             0.1524 :STEP
NULL        .                                           -999.2500 :NULL VALUE
COMP        .                                   PEMEX EXPL & PROD :COMPANY
WELL        .                                                1087 :WELL
FLD         .                                           CANTARELL :FIELD
LOC         .                                             UNKNOWN :LOCATION
CNTY        .                                      CD. DEL CARMEN :COUNTY
STAT        .                                            CAMPECHE :STATE
CTRY        .                                              MEXICO :COUNTRY
SRVC        .                                             UNKNOWN :SERVICE COMPANY
DATE        .                                             UNKNOWN :LOG DATE
UWI         .                                          3060000754 :UNIQUE WELL ID
XCOORD      .                                       601390.242000 :SURFACE X
YCOORD      .                                      2149875.824000 :SURFACE Y
LAT         .                                           19.441862 :LATITUDE
LON         .                                          -92.034144 :LONGITUDE
ELEV        .M                                            28.0000 :SURFACE ELEV
ELEV_TYPE   .                                                  KB :ELEV TYPE
~CURVE INFORMATION
#MNEMONIC.UNIT        API CODE       : CURVE DESCRIPTION
#------------------------------------------------------------------------------
DEPTH    .M                          : Measured Depth
CALI     .inches      UNKNOWN        : CALI:registros:rC:NONE:v0 (auto-composite)
CGR      .API         UNKNOWN        : CGR:registros:rC:NONE:v0 (auto-composite)
DRHO     .g/cm3       UNKNOWN        : DRHO:registros:rC:NONE:v0 (auto-composite)
DT       .UNKNOWN     UNKNOWN        : DT:registros:rC:NONE:v0 (auto-composite)
GR       .API         UNKNOWN        : GR:registros:rC:NONE:v0 (auto-composite)
GR-LWD   .UNKNOWN     UNKNOWN        : GR-LWD:registros:rC:NONE:v0 (auto-composite)
ILD      .ohm.m       UNKNOWN        : ILD:registros:rC:NONE:v0 (auto-composite)
ILM      .ohm.m       UNKNOWN        : ILM:registros:rC:NONE:v0 (auto-composite)
LLD      .ohm.m       UNKNOWN        : LLD:registros:rC:NONE:v0 (auto-composite)
LLD-LWD  .UNKNOWN     UNKNOWN        : LLD-LWD:registros:rC:NONE:v0 (auto-composite)
LLS      .ohm.m       UNKNOWN        : LLS:registros:rC:NONE:v0 (auto-composite)
LLS-LWD  .UNKNOWN     UNKNOWN        : LLS-LWD:registros:rC:NONE:v0 (auto-composite)
MSFL     .ohm.m       UNKNOWN        : MSFL:registros:rC:NONE:v0 (auto-composite)
NPHI     .v/v_decimal UNKNOWN        : NPHI:registros:rC:NONE:v0 (auto-composite)
PEF      .UNKNOWN     UNKNOWN        : PEF:registros:rC:NONE:v0 (auto-composite)
POTA     .UNKNOWN     UNKNOWN        : POTA:registros:rC:NONE:v0 (auto-composite)
RHOB     .g/cm3       UNKNOWN        : RHOB:registros:rC:NONE:v0 (auto-composite)
THOR     .ppm         UNKNOWN        : THOR:registros:rC:NONE:v0 (auto-composite)
URAN     .ppm         UNKNOWN        : URAN:registros:rC:NONE:v0 (auto-composite)
~A
# ...
   2356.8657
       9.0470       1.5616      -0.0005      49.0501      19.0896    -999.2500
    -999.2500    -999.2500   26232.4609    -999.2500   14776.8193    -999.2500
    2000.5000       0.0441       3.1435       0.0010       2.7500      -0.1266
       2.2041
   2357.0181
       9.0470       1.1890       0.0010      49.2000      16.3880    -999.2500
    -999.2500    -999.2500   33390.4492    -999.2500   18588.1641    -999.2500
    2000.5000       0.0420       3.0840       0.0000       2.7520       0.1220
       1.9830
   2357.1704
       9.0470       1.5422       0.0020      49.0464      16.5501    -999.2500
    -999.2500    -999.2500   27935.7168    -999.2500   16038.8945    -999.2500
    2000.5000       0.0394       3.1445       0.0000       2.7550       0.2526
       1.8860
   2357.3230
       9.0470       1.8950       0.0030      48.8930      16.7120    -999.2500
    -999.2500    -999.2500   22485.9316    -999.2500   13491.9385    -999.2500
    2000.5000       0.0398       3.2050       0.0000       2.7580       0.3830
       1.7890
   2357.4753
       9.0470       3.4271       0.0020      47.5960      19.3210    -999.2500
    -999.2500    -999.2500   17359.1992    -999.2500   10516.8076    -999.2500
    1940.9768       0.0408       3.3210       0.0005       2.7570       0.7016
       1.9276
   2357.6277
       9.0470       4.9580       0.0010      46.3000      21.9280    -999.2500
    -999.2500    -999.2500   12236.4707    -999.2500    7544.0000    -999.2500
    1881.5000       0.0433       3.4370       0.0010       2.7560       1.0200
       2.0660
   2357.7800
       9.0470       8.8438      -0.0010      47.6464      28.3511    -999.2500
    -999.2500    -999.2500   11123.4385    -999.2500    6780.1431    -999.2500
    1883.0005       0.0461       3.3220       0.0025       2.7550       1.3156
       2.3746
   2357.9326
       9.0470      12.7270      -0.0030      48.9920      34.7700    -999.2500
    -999.2500    -999.2500   10011.1367    -999.2500    6016.7871    -999.2500
    1884.5000       0.0538       3.2070       0.0040       2.7540       1.6110
       2.6830
   2358.0850
       9.0740       9.6957      -0.0010      49.8202      30.8230    -999.2500
    -999.2500    -999.2500   10656.8213    -999.2500    6425.1294    -999.2500
    1731.4924       0.0624       3.2170       0.0030       2.7585       1.2009
       2.5715
   2358.2373
       9.1010       6.6660       0.0010      50.6480      26.8780    -999.2500
    -999.2500    -999.2500   11302.1631    -999.2500    6833.2549    -999.2500
    1578.5660       0.0849       3.2270       0.0020       2.7630       0.7910
       2.4600
   2358.3896
       9.1330       5.5708      -0.0000      52.7414      25.3947    -999.2500
    -999.2500    -999.2500   10401.8916    -999.2500    6663.6182    -999.2500
     809.0337       0.1100       3.1930       0.0020       2.7235       0.6355
       2.4130
   2358.5422
       9.1650       4.4760      -0.0010      54.8340      23.9120    -999.2500
    -999.2500    -999.2500    9501.9844    -999.2500    6494.0498    -999.2500
      39.8130       0.1325       3.1590       0.0020       2.6840       0.4800
       2.3660
   2358.6946
       9.1725       3.5089      -0.0060      58.4175      22.2853    -999.2500
    -999.2500    -999.2500    8794.5498    -999.2500    6002.0557    -999.2500
      43.2560       0.1547       3.1410       0.0015       2.5830       0.3300
       2.2635
   2358.8469
       9.1800       2.5420      -0.0110      62.0000      20.6590    -999.2500
    -999.2500    -999.2500    8087.3120    -999.2500    5510.1992    -999.2500
      46.6980       0.1281       3.1230       0.0010       2.4820       0.1800
       2.1610
   2358.9993
       9.1800       1.4369      -0.0175      61.8065      19.4564    -999.2500
    -999.2500    -999.2500    7371.6299    -999.2500    5037.1113    -999.2500
     186.1722       0.0937       3.1730       0.0005       2.4430       0.1100
       2.1740
   2359.1516
       9.1800       0.3320      -0.0240      61.6130      18.2540    -999.2500
    -999.2500    -999.2500    6656.0581    -999.2500    4564.0962    -999.2500
     325.6250       0.0949       3.2230       0.0000       2.4040       0.0400
       2.1870
   2359.3042
       9.3910      -0.3540      -0.0065      59.4630      17.2365    -999.2500
    -999.2500    -999.2500    7105.5249    -999.2500    5031.1831    -999.2500
     278.4928       0.1017       3.2215       0.0000       2.3915      -0.0375
       2.1315
   2359.4565
       9.6020      -1.0400       0.0110      57.3130      16.2190    -999.2500
    -999.2500    -999.2500    7554.9790    -999.2500    5498.2568    -999.2500
     231.3620       0.1190       3.2200       0.0000       2.3790      -0.1150
       2.0760
   2359.6089
       9.4865      -2.1169       0.0320      56.5125      15.0756    -999.2500
    -999.2500    -999.2500    9507.9551    -999.2500    6554.9233    -999.2500
     129.5690       0.1380       3.1520      -0.0005       2.3460      -0.1975
       2.0795
   2359.7612
       9.3710      -3.1940       0.0530      55.7120      13.9320    -999.2500
    -999.2500    -999.2500   11461.1221    -999.2500    7611.6929    -999.2500
      27.7660       0.1082       3.0840      -0.0010       2.3130      -0.2800
       2.0830
   2359.9138
       9.2405      -1.9096       0.0625      55.6059      15.9924    -999.2500
    -999.2500    -999.2500    8677.4756    -999.2500    5913.7246    -999.2500
    1014.0231       0.0715       3.0985      -0.0005       2.4055      -0.3035
       2.1780
   2360.0662
       9.1100      -0.6250       0.0720      55.5000      18.0500    -999.2500
    -999.2500    -999.2500    5897.6670    -999.2500    4218.0972    -999.2500
    2000.5000       0.0600       3.1130       0.0000       2.4980      -0.3270
       2.2730
   2360.2185
       9.0550       3.1118       0.0460      55.9503      25.9444    -999.2500
    -999.2500    -999.2500    5229.5669    -999.2500    3772.9153    -999.2500
    1127.0588       0.0519       3.2275       0.0010       2.6420       0.3189
       2.7784
   2360.3708
       9.0000       6.8500       0.0200      56.4000      33.8290    -999.2500
    -999.2500    -999.2500    4562.3032    -999.2500    3328.2910    -999.2500
     253.3130       0.0530       3.3420       0.0020       2.7860       0.9650
       3.2840
   2360.5234
       9.0155       9.1600       0.0075      55.9708      40.5768    -999.2500
    -999.2500    -999.2500    5761.3364    -999.2500    4114.5996    -999.2500
     462.0940       0.0552       3.3395       0.0025       2.7810       1.2604
       3.8234
   2360.6758
       9.0310      11.4710      -0.0050      55.5420      47.3170    -999.2500
    -999.2500    -999.2500    6959.0181    -999.2500    4900.0220    -999.2500
     670.9740       0.0539       3.3370       0.0030       2.7760       1.5560
       4.3630
   2360.8281
       9.0280       8.3519      -0.0075      53.1698      39.9343    -999.2500
    -999.2500    -999.2500   22047.0879    -999.2500   12403.1572    -999.2500
    1171.5637       0.0521       3.3135       0.0010       2.7625       1.4110
       3.8447
   2360.9805
       9.0250       5.2310      -0.0100      50.8000      32.5590    -999.2500
    -999.2500    -999.2500   37120.0508    -999.2500   19898.7793    -999.2500
    1672.4540       0.0532       3.2900      -0.0010       2.7490       1.2660
       3.3260
   2361.1328
       9.0125       2.7639      -0.0085      50.9176      26.8320    -999.2500
    -999.2500    -999.2500   31669.7676    -999.2500   16976.4199    -999.2500
    1836.5490       0.0547       3.2515      -0.0005       2.7555       0.6672
       2.9293
   2361.2854
       9.0000       0.2990      -0.0070      51.0350      21.1100    -999.2500
    -999.2500    -999.2500   26224.2637    -999.2500   14056.6230    -999.2500
    2000.5000       0.0539       3.2130       0.0000       2.7620       0.0690
       2.5330
   2361.4377
       9.0030      -0.5198      -0.0060      52.1679      19.5429    -999.2500
    -999.2500    -999.2500   17790.6172    -999.2500    9497.1416    -999.2500
    2000.5000       0.0528       3.2725       0.0000       2.7610      -0.1286
       2.4420
