#------------------------------------------------------------------------------
#
#   Created by  : [OpenWorks] Log Export Utility (LEXP)
#   Created on  : 2016-05-11 12:13:38
#   Project     : CANT971
#   User        : R5K
#   Interpreter : PEP
#
#------------------------------------------------------------------------------
~VERSION INFORMATION
VERS. 2.0 : CWLS Log ASCII Standard - version 2.0
WRAP. YES : Mulitple lines per depth step
~WELL INFORMATION
#MNEMONIC   .UNIT                                           VALUE :DESCRIPTION
#------------------------------------------------------------------------------
STRT        .M                                           689.1525 :START DEPTH
STOP        .M                                          2872.1301 :STOP DEPTH
STEP        .M                                             0.1524 :STEP
NULL        .                                           -999.2500 :NULL VALUE
COMP        .                                   PEMEX EXPL & PROD :COMPANY
WELL        .                                                1087 :WELL
FLD         .                                           CANTARELL :FIELD
LOC         .                                             UNKNOWN :LOCATION
CNTY        .                                      CD. DEL CARMEN :COUNTY
STAT        .                                            CAMPECHE :STATE
CTRY        .                                              MEXICO :COUNTRY
SRVC        .                                             UNKNOWN :SERVICE COMPANY
DATE        .                                             UNKNOWN :LOG DATE
UWI         .                                          3060000754 :UNIQUE WELL ID
XCOORD      .                                       601390.242000 :SURFACE X
YCOORD      .                                      2149875.824000 :SURFACE Y
LAT         .                                           19.441862 :LATITUDE
LON         .                                          -92.034144 :LONGITUDE
ELEV        .M                                            28.0000 :SURFACE ELEV
ELEV_TYPE   .                                                  KB :ELEV TYPE
~CURVE INFORMATION
#MNEMONIC.UNIT        API CODE       : CURVE DESCRIPTION
#------------------------------------------------------------------------------
DEPTH    .M                          : Measured Depth
CALI     .inches      UNKNOWN        : CALI:registros:rC:NONE:v0 (auto-composite)
CGR      .API         UNKNOWN        : CGR:registros:rC:NONE:v0 (auto-composite)
DRHO     .g/cm3       UNKNOWN        : DRHO:registros:rC:NONE:v0 (auto-composite)
DT       .UNKNOWN     UNKNOWN        : DT:registros:rC:NONE:v0 (auto-composite)
GR       .API         UNKNOWN        : GR:registros:rC:NONE:v0 (auto-composite)
GR-LWD   .UNKNOWN     UNKNOWN        : GR-LWD:registros:rC:NONE:v0 (auto-composite)
ILD      .ohm.m       UNKNOWN        : ILD:registros:rC:NONE:v0 (auto-composite)
ILM      .ohm.m       UNKNOWN        : ILM:registros:rC:NONE:v0 (auto-composite)
LLD      .ohm.m       UNKNOWN        : LLD:registros:rC:NONE:v0 (auto-composite)
LLD-LWD  .UNKNOWN     UNKNOWN        : LLD-LWD:registros:rC:NONE:v0 (auto-composite)
LLS      .ohm.m       UNKNOWN        : LLS:registros:rC:NONE:v0 (auto-composite)
LLS-LWD  .UNKNOWN     UNKNOWN        : LLS-LWD:registros:rC:NONE:v0 (auto-composite)
MSFL     .ohm.m       UNKNOWN        : MSFL:registros:rC:NONE:v0 (auto-composite)
NPHI     .v/v_decimal UNKNOWN        : NPHI:registros:rC:NONE:v0 (auto-composite)
PEF      .UNKNOWN     UNKNOWN        : PEF:registros:rC:NONE:v0 (auto-composite)
POTA     .UNKNOWN     UNKNOWN        : POTA:registros:rC:NONE:v0 (auto-composite)
RHOB     .g/cm3       UNKNOWN        : RHOB:registros:rC:NONE:v0 (auto-composite)
THOR     .ppm         UNKNOWN        : THOR:registros:rC:NONE:v0 (auto-composite)
URAN     .ppm         UNKNOWN        : URAN:registros:rC:NONE:v0 (auto-composite)
~A
# ...
   2144.2678
    -999.2500    -999.2500    -999.2500      70.7260      26.6720    -999.2500
       1.3504       1.4172       0.1860    -999.2500       0.0970    -999.2500
       0.1370       0.4500    -999.2500    -999.2500    -999.2500    -999.2500
    -999.2500
   2144.4202
    -999.2500    -999.2500    -999.2500      70.5705      29.7432    -999.2500
       1.2529       1.3624       0.1940    -999.2500       0.1520    -999.2500
       0.1415       0.4500    -999.2500    -999.2500    -999.2500    -999.2500
    -999.2500
   2144.5725
    -999.2500    -999.2500    -999.2500      70.4150      32.8130    -999.2500
       1.1410       1.2835       0.2020    -999.2500       0.2070    -999.2500
       0.1460       0.4500    -999.2500    -999.2500    -999.2500    -999.2500
    -999.2500
   2144.7249
    -999.2500    -999.2500    -999.2500      67.2570      31.5703    -999.2500
       1.0634       1.1378       0.3710    -999.2500       0.1720    -999.2500
       0.1465       0.4500    -999.2500    -999.2500    -999.2500    -999.2500
    -999.2500
   2144.8774
    -999.2500    -999.2500    -999.2500      64.1000      30.3280    -999.2500
       1.0363       1.0196       0.5400    -999.2500       0.1370    -999.2500
       0.1470       0.4500    -999.2500    -999.2500    -999.2500    -999.2500
    -999.2500
   2145.0298
    -999.2500    -999.2500    -999.2500      67.4003      30.5365    -999.2500
       1.0528       0.9957       0.5335    -999.2500       0.1345    -999.2500
       0.1465       0.5100    -999.2500    -999.2500    -999.2500    -999.2500
    -999.2500
   2145.1821
     -48.0790     -48.0790      -0.2500      70.7000      30.7450    -999.2500
       1.0748       1.0756       0.5270    -999.2500       0.1320    -999.2500
       0.1460       0.8632     -48.0790     -48.0790     -48.0790     -48.0790
     -48.0790
   2145.3345
     -19.9743      -8.5013      -0.6350      70.6045      35.1582    -999.2500
       1.0649       1.1568       0.3150    -999.2500       0.1395    -999.2500
       0.1650       1.0989     -11.1839     -24.0330     -23.0414     -22.3794
     -23.5214
   2145.4868
       8.1280      31.0730      -1.0200      70.5090      39.5710    -999.2500
       1.0545       1.1820       0.1030    -999.2500       0.1470    -999.2500
       0.1840       0.7831      25.7080       0.0110       1.9940       3.3180
       1.0340
   2145.6394
       8.3295      29.6505      -1.0190      67.2546      37.5160    -999.2500
       1.1213       1.1933       0.1100    -999.2500       0.1475    -999.2500
       0.1745       0.5232      28.1430       0.0100       1.9595       3.2425
       0.9570
   2145.7917
       8.5310      28.2280      -1.0180      64.0000      35.4610    -999.2500
       1.2340       1.2272       0.1170    -999.2500       0.1480    -999.2500
       0.1650       0.5161      30.5780       0.0090       1.9250       3.1670
       0.8800
   2145.9441
       8.5270      29.1024      -1.0310      67.7497      36.5489    -999.2500
       1.3287       1.2706       0.1220    -999.2500       0.1460    -999.2500
       0.2260       0.5136      30.3990       0.0090       1.8810       3.4055
       0.9060
   2146.0964
       8.5230      29.9770      -1.0440      71.5000      37.6370    -999.2500
       1.3791       1.3239       0.1270    -999.2500       0.1440    -999.2500
       0.2870       0.5313      30.2200       0.0090       1.8370       3.6440
       0.9320
   2146.2490
       8.5270      28.8747      -1.0435      67.3473      36.2171    -999.2500
       1.3795       1.3832       0.1330    -999.2500       0.1490    -999.2500
       0.2400       0.5416      29.4196       0.0085       1.8505       3.7255
       0.8935
   2146.4014
       8.5310      27.7720      -1.0430      63.2000      34.7990    -999.2500
       1.3433       1.3947       0.1390    -999.2500       0.1540    -999.2500
       0.1930       0.5197      28.6190       0.0080       1.8640       3.8070
       0.8550
   2146.5537
       8.5270      28.6203      -1.0275      64.1506      37.5907    -999.2500
       1.3306       1.3451       0.1460    -999.2500       0.1530    -999.2500
       0.2405       0.5033      26.8569       0.0080       1.9015       3.8430
       1.0915
   2146.7061
       8.5230      29.4690      -1.0120      65.1000      40.3790    -999.2500
       1.3718       1.3061       0.1530    -999.2500       0.1520    -999.2500
       0.2880       0.5088      25.0940       0.0080       1.9390       3.8790
       1.3280
   2146.8586
       8.5270      28.9436      -1.0025      64.2996      39.3434    -999.2500
       1.4261       1.3365       0.1640    -999.2500       0.1480    -999.2500
       0.2400       0.5192      26.7346       0.0080       1.9730       3.8390
       1.2660
   2147.0110
       8.5310      28.4180      -0.9930      63.5000      38.3090    -999.2500
       1.4680       1.4125       0.1750    -999.2500       0.1440    -999.2500
       0.1920       0.5484      28.3760       0.0080       2.0070       3.7990
       1.2040
   2147.1633
       8.5040      28.6999      -1.0210      63.9322      38.7292    -999.2500
       1.4961       1.4660       0.5747    -999.2500       0.1425    -999.2500
       0.2105       0.6394      29.8905       0.0080       1.9335       3.8620
       1.2200
   2147.3157
       8.4770      28.9820      -1.0490      64.3640      39.1490    -999.2500
       1.5058       1.5122       0.9740    -999.2500       0.1410    -999.2500
       0.2290       0.9669      31.4060       0.0080       1.8600       3.9250
       1.2360
   2147.4680
       8.4925      27.4791      -1.0595      67.5833      38.6338    -999.2500
       1.5086       1.5474       1.0765    -999.2500       0.1215    -999.2500
       0.2195       1.3712      26.0021       0.0075       1.8815       3.6986
       1.3525
   2147.6206
       8.5080      25.9750      -1.0700      70.8000      38.1190    -999.2500
       1.5217       1.5481       1.1790    -999.2500       0.1020    -999.2500
       0.2100       2.0601      20.5940       0.0070       1.9030       3.4720
       1.4690
   2147.7729
       8.5040      26.2459      -1.0465      67.6234      38.4271    -999.2500
       1.5232       1.5271       1.2650    -999.2500       0.0855    -999.2500
       0.1975       2.6097      28.1215       0.0075       1.9840       3.4730
       1.4780
   2147.9253
       8.5000      26.5170      -1.0230      64.4490      38.7350    -999.2500
       1.5115       1.5077       1.3510    -999.2500       0.0690    -999.2500
       0.1850       2.6557      35.6560       0.0080       2.0650       3.4740
       1.4870
   2148.0776
       8.4960      26.0557      -1.0160      60.9045      37.7767    -999.2500
       1.5125       1.4802       1.2965    -999.2500       0.1190    -999.2500
       0.2245       2.6782      30.2448       0.0080       2.0530       3.3716
       1.4265
   2148.2302
       8.4920      25.5940      -1.0090      57.3620      36.8190    -999.2500
       1.5274       1.4446       1.2420    -999.2500       0.1690    -999.2500
       0.2640       2.6185      24.8280       0.0080       2.0410       3.2690
       1.3660
   2148.3826
       8.4960      25.2217      -0.9970      57.1310      36.2904    -999.2500
       1.5400       1.4578      60.0917    -999.2500       0.3165    -999.2500
       0.2165       2.5562      25.3592       0.0075       1.9900       3.2610
       1.3470
   2148.5349
       8.5000      24.8490      -0.9850      56.9000      35.7620    -999.2500
       1.5574       1.5122     118.9160    -999.2500       0.4640    -999.2500
       0.1690       2.4852      25.8910       0.0070       1.9390       3.2530
       1.3280
   2148.6873
       8.5080      25.7104      -0.9780      61.5007      36.7762    -999.2500
       1.5723       1.5728      60.3505    -999.2500       0.5725    -999.2500
       0.1980       2.4348      22.9629       0.0075       1.9560       3.3979
       1.3475
   2148.8398
       8.5160      26.5730      -0.9710      66.1000      37.7900    -999.2500
       1.5739       1.6258       1.8030    -999.2500       0.6810    -999.2500
       0.2270       2.4522      20.0310       0.0080       1.9730       3.5430
       1.3670
