#------------------------------------------------------------------------------
#
#   Created by  : [OpenWorks] Log Export Utility (LEXP)
#   Created on  : 2016-05-11 12:13:38
#   Project     : CANT971
#   User        : R5K
#   Interpreter : PEP
#
#------------------------------------------------------------------------------
~VERSION INFORMATION
VERS. 2.0 : CWLS Log ASCII Standard - version 2.0
WRAP. YES : Mulitple lines per depth step
~WELL INFORMATION
#MNEMONIC   .UNIT                                           VALUE :DESCRIPTION
#------------------------------------------------------------------------------
STRT        .M                                           689.1525 :START DEPTH
STOP        .M                                          2872.1301 :STOP DEPTH
STEP        .M                                             0.1524 :STEP
NULL        .                                           -999.2500 :NULL VALUE
COMP        .                                   PEMEX EXPL & PROD :COMPANY
WELL        .                                                1087 :WELL
FLD         .                                           CANTARELL :FIELD
LOC         .                                             UNKNOWN :LOCATION
CNTY        .                                      CD. DEL CARMEN :COUNTY
STAT        .                                            CAMPECHE :STATE
CTRY        .                                              MEXICO :COUNTRY
SRVC        .                                             UNKNOWN :SERVICE COMPANY
DATE        .                                             UNKNOWN :LOG DATE
UWI         .                                          3060000754 :UNIQUE WELL ID
XCOORD      .                                       601390.242000 :SURFACE X
YCOORD      .                                      2149875.824000 :SURFACE Y
LAT         .                                           19.441862 :LATITUDE
LON         .                                          -92.034144 :LONGITUDE
ELEV        .M                                            28.0000 :SURFACE ELEV
ELEV_TYPE   .                                                  KB :ELEV TYPE
~CURVE INFORMATION
#MNEMONIC.UNIT        API CODE       : CURVE DESCRIPTION
#------------------------------------------------------------------------------
DEPTH    .M                          : Measured Depth
CALI     .inches      UNKNOWN        : CALI:registros:rC:NONE:v0 (auto-composite)
CGR      .API         UNKNOWN        : CGR:registros:rC:NONE:v0 (auto-composite)
DRHO     .g/cm3       UNKNOWN        : DRHO:registros:rC:NONE:v0 (auto-composite)
DT       .UNKNOWN     UNKNOWN        : DT:registros:rC:NONE:v0 (auto-composite)
GR       .API         UNKNOWN        : GR:registros:rC:NONE:v0 (auto-composite)
GR-LWD   .UNKNOWN     UNKNOWN        : GR-LWD:registros:rC:NONE:v0 (auto-composite)
ILD      .ohm.m       UNKNOWN        : ILD:registros:rC:NONE:v0 (auto-composite)
ILM      .ohm.m       UNKNOWN        : ILM:registros:rC:NONE:v0 (auto-composite)
LLD      .ohm.m       UNKNOWN        : LLD:registros:rC:NONE:v0 (auto-composite)
LLD-LWD  .UNKNOWN     UNKNOWN        : LLD-LWD:registros:rC:NONE:v0 (auto-composite)
LLS      .ohm.m       UNKNOWN        : LLS:registros:rC:NONE:v0 (auto-composite)
LLS-LWD  .UNKNOWN     UNKNOWN        : LLS-LWD:registros:rC:NONE:v0 (auto-composite)
MSFL     .ohm.m       UNKNOWN        : MSFL:registros:rC:NONE:v0 (auto-composite)
NPHI     .v/v_decimal UNKNOWN        : NPHI:registros:rC:NONE:v0 (auto-composite)
PEF      .UNKNOWN     UNKNOWN        : PEF:registros:rC:NONE:v0 (auto-composite)
POTA     .UNKNOWN     UNKNOWN        : POTA:registros:rC:NONE:v0 (auto-composite)
RHOB     .g/cm3       UNKNOWN        : RHOB:registros:rC:NONE:v0 (auto-composite)
THOR     .ppm         UNKNOWN        : THOR:registros:rC:NONE:v0 (auto-composite)
URAN     .ppm         UNKNOWN        : URAN:registros:rC:NONE:v0 (auto-composite)
~A
# ...
   2229.3069
       9.0470       0.3040      -0.0170      61.8000      29.7950    -999.2500
    -999.2500    -999.2500     918.5110    -999.2500     504.5130    -999.2500
     853.7500       0.1968       3.0450       0.0010       2.6920      -0.1800
       3.5510
   2229.4592
       9.0435       0.3310      -0.0145      61.9931      30.0171    -999.2500
    -999.2500    -999.2500     909.8386    -999.2500     497.9153    -999.2500
     915.7707       0.1783       3.1999       0.0010       2.7385      -0.1755
       3.5940
   2229.6118
       9.0400       0.3580      -0.0120      62.1860      30.2390    -999.2500
    -999.2500    -999.2500     901.1720    -999.2500     491.3220    -999.2500
     977.7500       0.1781       3.3550       0.0010       2.7850      -0.1710
       3.6370
   2229.7642
       9.0120       1.3820      -0.0135      62.9432      35.1978    -999.2500
    -999.2500    -999.2500     827.4731    -999.2500     435.6284    -999.2500
     715.9918       0.1885       3.3525       0.0010       2.7770      -0.0371
       4.1152
   2229.9165
       8.9840       2.4070      -0.0150      63.7000      40.1540    -999.2500
    -999.2500    -999.2500     753.8140    -999.2500     379.9650    -999.2500
     454.3750       0.1929       3.3500       0.0010       2.7690       0.0970
       4.5940
   2230.0688
       8.9920       2.1329      -0.0140      63.1014      39.7904    -999.2500
    -999.2500    -999.2500     791.2808    -999.2500     396.9875    -999.2500
     478.3155       0.1939       3.2885       0.0010       2.7330       0.0565
       4.5835
   2230.2214
       9.0000       1.8590      -0.0130      62.5030      39.4270    -999.2500
    -999.2500    -999.2500     828.7320    -999.2500     414.0030    -999.2500
     502.2460       0.1890       3.2270       0.0010       2.6970       0.0160
       4.5730
   2230.3738
       8.9685       0.4168      -0.0105      60.4752      37.2972    -999.2500
    -999.2500    -999.2500    1072.6884    -999.2500     522.7767    -999.2500
    1108.9608       0.1809       3.2285       0.0005       2.6980      -0.1205
       4.5290
   2230.5261
       8.9370      -1.0250      -0.0080      58.4480      35.1680    -999.2500
    -999.2500    -999.2500    1316.5740    -999.2500     631.5190    -999.2500
    1715.5000       0.1744       3.2300       0.0000       2.6990      -0.2570
       4.4850
   2230.6785
       8.9840      -0.9490      -0.0060      57.0274      35.2205    -999.2500
    -999.2500    -999.2500    1267.6575    -999.2500     609.6852    -999.2500
    1605.1849       0.1687       3.2155       0.0000       2.7025      -0.3425
       4.4350
   2230.8308
       9.0310      -0.8730      -0.0040      55.6070      35.2730    -999.2500
    -999.2500    -999.2500    1218.7490    -999.2500     587.8550    -999.2500
    1494.8879       0.1680       3.2010       0.0000       2.7060      -0.4280
       4.3850
   2230.9834
       8.9765      -0.3785      -0.0030      54.7535      35.9060    -999.2500
    -999.2500    -999.2500    1014.1821    -999.2500     495.7112    -999.2500
    1212.4381       0.1700       3.2225       0.0010       2.7125      -0.3990
       4.4090
   2231.1357
       8.9220       0.1160      -0.0020      53.9000      36.5390    -999.2500
    -999.2500    -999.2500     809.6230    -999.2500     403.5710    -999.2500
     929.9990       0.1719       3.2440       0.0020       2.7190      -0.3700
       4.4330
   2231.2881
       8.9805       1.0315      -0.0025      54.0840      37.9714    -999.2500
    -999.2500    -999.2500     813.4838    -999.2500     409.2588    -999.2500
     741.1328       0.1736       3.3165       0.0015       2.7370      -0.2660
       4.5095
   2231.4404
       9.0390       1.9470      -0.0030      54.2680      39.4040    -999.2500
    -999.2500    -999.2500     817.3450    -999.2500     414.9470    -999.2500
     552.2500       0.1681       3.3890       0.0010       2.7550      -0.1620
       4.5860
   2231.5930
       8.9920       1.9350      -0.0035      55.4348      40.0099    -999.2500
    -999.2500    -999.2500     851.9585    -999.2500     445.8154    -999.2500
     775.2263       0.1589       3.3440       0.0010       2.7475      -0.0685
       4.6515
   2231.7454
       8.9450       1.9230      -0.0040      56.6000      40.6150    -999.2500
    -999.2500    -999.2500     886.5240    -999.2500     476.6410    -999.2500
     998.2500       0.1453       3.2990       0.0010       2.7400       0.0250
       4.7170
   2231.8977
       8.9565       1.2361      -0.0050      55.4993      39.3562    -999.2500
    -999.2500    -999.2500     808.9440    -999.2500     439.3600    -999.2500
     910.7493       0.1296       3.1750       0.0010       2.7425      -0.0885
       4.6435
   2232.0500
       8.9680       0.5490      -0.0060      54.4000      38.0990    -999.2500
    -999.2500    -999.2500     731.4620    -999.2500     402.1260    -999.2500
     823.2190       0.1350       3.0510       0.0010       2.7450      -0.2020
       4.5700
   2232.2026
       8.9990       3.2039      -0.0055      54.9173      41.5980    -999.2500
    -999.2500    -999.2500     562.9306    -999.2500     317.6800    -999.2500
     647.7127       0.1507       3.1400       0.0020       2.7540       0.0654
       4.6725
   2232.3550
       9.0300       5.8600      -0.0050      55.4340      45.0930    -999.2500
    -999.2500    -999.2500     394.5910    -999.2500     233.3300    -999.2500
     472.1250       0.1754       3.2290       0.0030       2.7630       0.3330
       4.7750
   2232.5073
       9.0385       3.9636      -0.0100      58.6686      41.8504    -999.2500
    -999.2500    -999.2500     323.9293    -999.2500     200.4574    -999.2500
     354.1923       0.2044       3.1690       0.0025       2.7515       0.0676
       4.6115
   2232.6597
       9.0470       2.0660      -0.0150      61.9000      38.6110    -999.2500
    -999.2500    -999.2500     253.3390    -999.2500     167.6180    -999.2500
     236.1900       0.2094       3.1090       0.0020       2.7400      -0.1980
       4.4480
   2232.8120
       8.9845       2.1990      -0.0135      61.8275      38.8051    -999.2500
    -999.2500    -999.2500     253.5761    -999.2500     171.8214    -999.2500
     150.8412       0.2030       3.1335       0.0020       2.7100      -0.1575
       4.4555
   2232.9646
       8.9220       2.3320      -0.0120      61.7550      38.9990    -999.2500
    -999.2500    -999.2500     253.8130    -999.2500     176.0210    -999.2500
      65.5680       0.1876       3.1580       0.0020       2.6800      -0.1170
       4.4630
   2233.1169
       8.9220       4.8799      -0.0155      61.4324      42.4398    -999.2500
    -999.2500    -999.2500     245.6679    -999.2500     172.2491    -999.2500
      52.3570       0.1680       3.2809       0.0025       2.6580       0.0749
       4.5075
   2233.2693
       8.9220       7.4300      -0.0190      61.1100      45.8780    -999.2500
    -999.2500    -999.2500     237.5290    -999.2500     168.4800    -999.2500
      39.1560       0.1503       3.4040       0.0030       2.6360       0.2670
       4.5520
   2233.4216
       8.9220       7.3415      -0.0175      60.3908      45.7915    -999.2500
    -999.2500    -999.2500     241.7143    -999.2500     170.5962    -999.2500
     121.8858       0.1333       3.4040       0.0030       2.6410       0.5109
       4.6165
   2233.5742
       8.9220       7.2530      -0.0160      59.6720      45.7050    -999.2500
    -999.2500    -999.2500     245.8970    -999.2500     172.7110    -999.2500
     204.5630       0.1353       3.4040       0.0030       2.6460       0.7550
       4.6810
   2233.7266
       8.9220       6.3705      -0.0165      58.2356      43.9075    -999.2500
    -999.2500    -999.2500     272.5213    -999.2500     187.5008    -999.2500
     165.6466       0.1453       3.3625       0.0025       2.6615       0.6645
       4.5696
   2233.8789
       8.9220       5.4870      -0.0170      56.8000      42.1110    -999.2500
    -999.2500    -999.2500     299.1320    -999.2500     202.2830    -999.2500
     126.7500       0.1402       3.3210       0.0020       2.6770       0.5740
       4.4580
