#------------------------------------------------------------------------------
#
#   Created by  : [OpenWorks] Log Export Utility (LEXP)
#   Created on  : 2016-05-11 12:13:38
#   Project     : CANT971
#   User        : R5K
#   Interpreter : PEP
#
#------------------------------------------------------------------------------
~VERSION INFORMATION
VERS. 2.0 : CWLS Log ASCII Standard - version 2.0
WRAP. YES : Mulitple lines per depth step
~WELL INFORMATION
#MNEMONIC   .UNIT                                           VALUE :DESCRIPTION
#------------------------------------------------------------------------------
STRT        .M                                           689.1525 :START DEPTH
STOP        .M                                          2872.1301 :STOP DEPTH
STEP        .M                                             0.1524 :STEP
NULL        .                                           -999.2500 :NULL VALUE
COMP        .                                   PEMEX EXPL & PROD :COMPANY
WELL        .                                                1087 :WELL
FLD         .                                           CANTARELL :FIELD
LOC         .                                             UNKNOWN :LOCATION
CNTY        .                                      CD. DEL CARMEN :COUNTY
STAT        .                                            CAMPECHE :STATE
CTRY        .                                              MEXICO :COUNTRY
SRVC        .                                             UNKNOWN :SERVICE COMPANY
DATE        .                                             UNKNOWN :LOG DATE
UWI         .                                          3060000754 :UNIQUE WELL ID
XCOORD      .                                       601390.242000 :SURFACE X
YCOORD      .                                      2149875.824000 :SURFACE Y
LAT         .                                           19.441862 :LATITUDE
LON         .                                          -92.034144 :LONGITUDE
ELEV        .M                                            28.0000 :SURFACE ELEV
ELEV_TYPE   .                                                  KB :ELEV TYPE
~CURVE INFORMATION
#MNEMONIC.UNIT        API CODE       : CURVE DESCRIPTION
#------------------------------------------------------------------------------
DEPTH    .M                          : Measured Depth
CALI     .inches      UNKNOWN        : CALI:registros:rC:NONE:v0 (auto-composite)
CGR      .API         UNKNOWN        : CGR:registros:rC:NONE:v0 (auto-composite)
DRHO     .g/cm3       UNKNOWN        : DRHO:registros:rC:NONE:v0 (auto-composite)
DT       .UNKNOWN     UNKNOWN        : DT:registros:rC:NONE:v0 (auto-composite)
GR       .API         UNKNOWN        : GR:registros:rC:NONE:v0 (auto-composite)
GR-LWD   .UNKNOWN     UNKNOWN        : GR-LWD:registros:rC:NONE:v0 (auto-composite)
ILD      .ohm.m       UNKNOWN        : ILD:registros:rC:NONE:v0 (auto-composite)
ILM      .ohm.m       UNKNOWN        : ILM:registros:rC:NONE:v0 (auto-composite)
LLD      .ohm.m       UNKNOWN        : LLD:registros:rC:NONE:v0 (auto-composite)
LLD-LWD  .UNKNOWN     UNKNOWN        : LLD-LWD:registros:rC:NONE:v0 (auto-composite)
LLS      .ohm.m       UNKNOWN        : LLS:registros:rC:NONE:v0 (auto-composite)
LLS-LWD  .UNKNOWN     UNKNOWN        : LLS-LWD:registros:rC:NONE:v0 (auto-composite)
MSFL     .ohm.m       UNKNOWN        : MSFL:registros:rC:NONE:v0 (auto-composite)
NPHI     .v/v_decimal UNKNOWN        : NPHI:registros:rC:NONE:v0 (auto-composite)
PEF      .UNKNOWN     UNKNOWN        : PEF:registros:rC:NONE:v0 (auto-composite)
POTA     .UNKNOWN     UNKNOWN        : POTA:registros:rC:NONE:v0 (auto-composite)
RHOB     .g/cm3       UNKNOWN        : RHOB:registros:rC:NONE:v0 (auto-composite)
THOR     .ppm         UNKNOWN        : THOR:registros:rC:NONE:v0 (auto-composite)
URAN     .ppm         UNKNOWN        : URAN:registros:rC:NONE:v0 (auto-composite)
~A
# ...
   2290.7241
       9.0470       0.6969      -0.0130      60.3556      36.0934    -999.2500
    -999.2500    -999.2500    1146.7458    -999.2500     394.3620    -999.2500
     159.3662       0.0931       3.3070      -0.0005       2.6905       0.2859
       4.2059
   2290.8765
       8.9220       1.2410      -0.0180      59.5120      38.8270    -999.2500
    -999.2500    -999.2500    1271.7460    -999.2500     411.3920    -999.2500
     178.5560       0.0856       3.2980       0.0000       2.6870       0.5430
       4.4480
   2291.0288
       8.9360       1.8573      -0.0175      58.0553      36.6545    -999.2500
    -999.2500    -999.2500    1236.6086    -999.2500     403.2132    -999.2500
     258.3775       0.0814       3.2885       0.0015       2.6955       0.2801
       4.1781
   2291.1814
       8.9500       2.4740      -0.0170      56.6000      34.4840    -999.2500
    -999.2500    -999.2500    1201.5040    -999.2500     395.0420    -999.2500
     338.1250       0.0787       3.2790       0.0030       2.7040       0.0170
       3.9080
   2291.3337
       9.0180       0.8112      -0.0160      57.2683      29.8962    -999.2500
    -999.2500    -999.2500    1031.4059    -999.2500     361.3920    -999.2500
     288.2825       0.0824       3.3795       0.0025       2.7225      -0.2759
       3.5466
   2291.4861
       9.0860      -0.8530      -0.0150      57.9360      25.3120    -999.2500
    -999.2500    -999.2500     861.4440    -999.2500     327.7690    -999.2500
     238.4800       0.0891       3.4800       0.0020       2.7410      -0.5690
       3.1850
   2291.6384
       9.0115      -0.5769      -0.0190      60.5689      25.7772    -999.2500
    -999.2500    -999.2500     895.8406    -999.2500     354.8612    -999.2500
     169.7167       0.0963       3.4655       0.0015       2.7290      -0.4280
       3.2080
   2291.7910
       8.9370      -0.3010      -0.0230      63.2000      26.2420    -999.2500
    -999.2500    -999.2500     930.2140    -999.2500     381.9350    -999.2500
     101.0000       0.1037       3.4510       0.0010       2.7170      -0.2870
       3.2310
   2291.9434
       8.9840      -1.5248      -0.0215      62.2702      23.6803    -999.2500
    -999.2500    -999.2500     843.1415    -999.2500     356.4425    -999.2500
     228.8477       0.1077       3.4290       0.0005       2.6750      -0.4125
       3.0680
   2292.0957
       9.0310      -2.7480      -0.0200      61.3410      21.1200    -999.2500
    -999.2500    -999.2500     756.1170    -999.2500     330.9640    -999.2500
     356.6250       0.1101       3.4070       0.0000       2.6330      -0.5380
       2.9050
   2292.2480
       8.9960      -1.8773      -0.0165      60.0047      22.8904    -999.2500
    -999.2500    -999.2500     589.5115    -999.2500     275.2376    -999.2500
     201.5140       0.1122       3.2785      -0.0005       2.6345      -0.2874
       3.0145
   2292.4006
       8.9610      -1.0070      -0.0130      58.6690      24.6600    -999.2500
    -999.2500    -999.2500     422.9770    -999.2500     219.5350    -999.2500
      46.4690       0.1141       3.1500      -0.0010       2.6360      -0.0370
       3.1240
   2292.5530
       8.9835       0.3157      -0.0090      58.0529      27.7970    -999.2500
    -999.2500    -999.2500     423.4806    -999.2500     220.2906    -999.2500
      50.5626       0.1115       3.1760      -0.0005       2.6380       0.2435
       3.3450
   2292.7053
       9.0060       1.6380      -0.0050      57.4370      30.9330    -999.2500
    -999.2500    -999.2500     423.9840    -999.2500     221.0460    -999.2500
      54.6550       0.1072       3.2020       0.0000       2.6400       0.5240
       3.5660
   2292.8577
       9.0265       6.6834      -0.0060      56.6684      39.2302    -999.2500
    -999.2500    -999.2500     434.1559    -999.2500     226.2455    -999.2500
      65.2034       0.1081       3.2600       0.0025       2.6435       0.5995
       3.9615
   2293.0100
       9.0470      11.7280      -0.0070      55.9000      47.5260    -999.2500
    -999.2500    -999.2500     444.3260    -999.2500     231.4440    -999.2500
      75.7500       0.1109       3.3180       0.0050       2.6470       0.6750
       4.3570
   2293.1626
       9.0550      10.6370      -0.0065      58.0501      46.3315    -999.2500
    -999.2500    -999.2500     463.4780    -999.2500     240.9832    -999.2500
      70.6564       0.1140       3.3935       0.0045       2.6665       0.6505
       4.3445
   2293.3149
       9.0630       9.5460      -0.0060      60.2000      45.1370    -999.2500
    -999.2500    -999.2500     482.6290    -999.2500     250.5220    -999.2500
      65.5630       0.1170       3.4690       0.0040       2.6860       0.6260
       4.3320
   2293.4673
       9.0240       4.7077      -0.0060      50.5504      39.0902    -999.2500
    -999.2500    -999.2500     559.4260    -999.2500     284.0882    -999.2500
     104.0380       0.1133       3.4285       0.0025       2.7035       0.1730
       4.2495
   2293.6196
       8.9850      -0.1310      -0.0060      40.9000      33.0430    -999.2500
    -999.2500    -999.2500     636.2290    -999.2500     317.6570    -999.2500
     142.5160       0.1070       3.3880       0.0010       2.7210      -0.2800
       4.1670
   2293.7722
       8.9220       0.6704      -0.0055      44.3324      34.4895    -999.2500
    -999.2500    -999.2500     805.9843    -999.2500     380.3329    -999.2500
     317.9277       0.0981       3.3435       0.0015       2.7160      -0.2490
       4.0970
   2293.9246
       8.8590       1.4720      -0.0050      47.7600      35.9340    -999.2500
    -999.2500    -999.2500     975.5020    -999.2500     442.9210    -999.2500
     493.3750       0.0881       3.2990       0.0020       2.7110      -0.2180
       4.0270
   2294.0769
       9.2069       2.3279      -0.0025      55.9722      34.0698    -999.2500
    -999.2500    -999.2500    1231.5364    -999.2500     532.4349    -999.2500
     464.1368       0.0957       3.2640       0.0020       2.7055       0.0035
       3.8875
   2294.2292
       9.5550       3.1840       0.0000      64.1740      32.2080    -999.2500
    -999.2500    -999.2500    1487.2450    -999.2500     621.8350    -999.2500
     434.8890       0.1095       3.2290       0.0020       2.7000       0.2250
       3.7480
   2294.3818
       9.2036       4.0473      -0.0020      70.3405      32.7893    -999.2500
    -999.2500    -999.2500    2595.0654    -999.2500     974.9583    -999.2500
     403.8255       0.1159       3.1835       0.0025       2.6925       0.1950
       3.6155
   2294.5342
       8.8520       4.9110      -0.0040      76.5000      33.3700    -999.2500
    -999.2500    -999.2500    3701.6140    -999.2500    1327.6760    -999.2500
     372.7480       0.1198       3.1380       0.0030       2.6850       0.1650
       3.4830
   2294.6865
       8.8705       4.1757      -0.0065      74.8397      32.1514    -999.2500
    -999.2500    -999.2500    3655.3350    -999.2500    1313.9551    -999.2500
     349.5627       0.1215       3.1180       0.0025       2.6675      -0.1199
       3.4145
   2294.8389
       8.8890       3.4400      -0.0090      73.1810      30.9340    -999.2500
    -999.2500    -999.2500    3609.1030    -999.2500    1300.2480    -999.2500
     326.3640       0.1224       3.0980       0.0020       2.6500      -0.4050
       3.3460
   2294.9912
       8.9055       1.3682      -0.0075      68.6385      26.9857    -999.2500
    -999.2500    -999.2500    2828.1096    -999.2500     927.4098    -999.2500
     245.6838       0.1246       3.1075       0.0010       2.6360      -0.3990
       3.1181
   2295.1438
       8.9220      -0.7050      -0.0060      64.1000      23.0410    -999.2500
    -999.2500    -999.2500    2047.8170    -999.2500     554.9060    -999.2500
     165.0760       0.1271       3.1170       0.0000       2.6220      -0.3930
       2.8900
   2295.2961
       8.9725      -0.0888      -0.0010      64.5767      23.9168    -999.2500
    -999.2500    -999.2500    1624.0347    -999.2500     570.0554    -999.2500
      96.2770       0.1294       3.1950       0.0005       2.6110      -0.2775
       2.9215
