#------------------------------------------------------------------------------
#
#   Created by  : [OpenWorks] Log Export Utility (LEXP)
#   Created on  : 2016-05-11 12:13:38
#   Project     : CANT971
#   User        : R5K
#   Interpreter : PEP
#
#------------------------------------------------------------------------------
~VERSION INFORMATION
VERS. 2.0 : CWLS Log ASCII Standard - version 2.0
WRAP. YES : Mulitple lines per depth step
~WELL INFORMATION
#MNEMONIC   .UNIT                                           VALUE :DESCRIPTION
#------------------------------------------------------------------------------
STRT        .M                                           689.1525 :START DEPTH
STOP        .M                                          2872.1301 :STOP DEPTH
STEP        .M                                             0.1524 :STEP
NULL        .                                           -999.2500 :NULL VALUE
COMP        .                                   PEMEX EXPL & PROD :COMPANY
WELL        .                                                1087 :WELL
FLD         .                                           CANTARELL :FIELD
LOC         .                                             UNKNOWN :LOCATION
CNTY        .                                      CD. DEL CARMEN :COUNTY
STAT        .                                            CAMPECHE :STATE
CTRY        .                                              MEXICO :COUNTRY
SRVC        .                                             UNKNOWN :SERVICE COMPANY
DATE        .                                             UNKNOWN :LOG DATE
UWI         .                                          3060000754 :UNIQUE WELL ID
XCOORD      .                                       601390.242000 :SURFACE X
YCOORD      .                                      2149875.824000 :SURFACE Y
LAT         .                                           19.441862 :LATITUDE
LON         .                                          -92.034144 :LONGITUDE
ELEV        .M                                            28.0000 :SURFACE ELEV
ELEV_TYPE   .                                                  KB :ELEV TYPE
~CURVE INFORMATION
#MNEMONIC.UNIT        API CODE       : CURVE DESCRIPTION
#------------------------------------------------------------------------------
DEPTH    .M                          : Measured Depth
CALI     .inches      UNKNOWN        : CALI:registros:rC:NONE:v0 (auto-composite)
CGR      .API         UNKNOWN        : CGR:registros:rC:NONE:v0 (auto-composite)
DRHO     .g/cm3       UNKNOWN        : DRHO:registros:rC:NONE:v0 (auto-composite)
DT       .UNKNOWN     UNKNOWN        : DT:registros:rC:NONE:v0 (auto-composite)
GR       .API         UNKNOWN        : GR:registros:rC:NONE:v0 (auto-composite)
GR-LWD   .UNKNOWN     UNKNOWN        : GR-LWD:registros:rC:NONE:v0 (auto-composite)
ILD      .ohm.m       UNKNOWN        : ILD:registros:rC:NONE:v0 (auto-composite)
ILM      .ohm.m       UNKNOWN        : ILM:registros:rC:NONE:v0 (auto-composite)
LLD      .ohm.m       UNKNOWN        : LLD:registros:rC:NONE:v0 (auto-composite)
LLD-LWD  .UNKNOWN     UNKNOWN        : LLD-LWD:registros:rC:NONE:v0 (auto-composite)
LLS      .ohm.m       UNKNOWN        : LLS:registros:rC:NONE:v0 (auto-composite)
LLS-LWD  .UNKNOWN     UNKNOWN        : LLS-LWD:registros:rC:NONE:v0 (auto-composite)
MSFL     .ohm.m       UNKNOWN        : MSFL:registros:rC:NONE:v0 (auto-composite)
NPHI     .v/v_decimal UNKNOWN        : NPHI:registros:rC:NONE:v0 (auto-composite)
PEF      .UNKNOWN     UNKNOWN        : PEF:registros:rC:NONE:v0 (auto-composite)
POTA     .UNKNOWN     UNKNOWN        : POTA:registros:rC:NONE:v0 (auto-composite)
RHOB     .g/cm3       UNKNOWN        : RHOB:registros:rC:NONE:v0 (auto-composite)
THOR     .ppm         UNKNOWN        : THOR:registros:rC:NONE:v0 (auto-composite)
URAN     .ppm         UNKNOWN        : URAN:registros:rC:NONE:v0 (auto-composite)
~A
# ...
   2205.6848
       9.0350       3.2460      -0.0080      60.8409      51.0765    -999.2500
    -999.2500    -999.2500     241.8470    -999.2500     158.9114    -999.2500
     487.3695       0.0857       3.4155       0.0010       2.7560       0.0984
       5.8215
   2205.8374
       9.0230       3.2090      -0.0040      62.8900      51.0090    -999.2500
    -999.2500    -999.2500     219.5900    -999.2500     150.5240    -999.2500
     217.4370       0.0968       3.4110       0.0010       2.7540       0.3600
       5.8180
   2205.9897
       9.0255       2.8412      -0.0080      64.2455      50.3758    -999.2500
    -999.2500    -999.2500     200.7502    -999.2500     141.0931    -999.2500
     332.0725       0.1167       3.3830       0.0010       2.7395       0.3355
       5.7860
   2206.1421
       9.0280       2.4730      -0.0120      65.6000      49.7430    -999.2500
    -999.2500    -999.2500     181.9240    -999.2500     131.6690    -999.2500
     446.6250       0.1318       3.3550       0.0010       2.7250       0.3110
       5.7540
   2206.2944
       9.0460       1.4055      -0.0105      65.2914      48.0760    -999.2500
    -999.2500    -999.2500     147.9833    -999.2500     109.9780    -999.2500
     241.1104       0.1301       3.4020       0.0005       2.6965       0.1791
       5.6810
   2206.4470
       9.0640       0.3370      -0.0090      64.9830      46.4100    -999.2500
    -999.2500    -999.2500     114.0630    -999.2500      88.3000    -999.2500
      35.7190       0.1279       3.4490       0.0000       2.6680       0.0470
       5.6080
   2206.5994
       9.1060      -1.1826       0.0035      63.6127      43.9044    -999.2500
    -999.2500    -999.2500     115.1118    -999.2500      89.1517    -999.2500
      65.6166       0.1240       3.4175      -0.0005       2.6435      -0.1664
       5.4881
   2206.7517
       9.1480      -2.7040       0.0160      62.2430      41.4000    -999.2500
    -999.2500    -999.2500     116.1600    -999.2500      90.0030    -999.2500
      95.5000       0.1235       3.3860      -0.0010       2.6190      -0.3800
       5.3680
   2206.9041
       9.1875      -2.4605       0.0150      61.8944      41.7331    -999.2500
    -999.2500    -999.2500     125.5196    -999.2500      97.4728    -999.2500
      76.0121       0.1341       3.2165      -0.0005       2.6200      -0.3750
       5.3790
   2207.0566
       9.2270      -2.2170       0.0140      61.5460      42.0660    -999.2500
    -999.2500    -999.2500     134.8760    -999.2500     104.9400    -999.2500
      56.5310       0.1427       3.0470       0.0000       2.6210      -0.3700
       5.3900
   2207.2090
       9.1995      -0.1943       0.0110      60.5229      45.5054    -999.2500
    -999.2500    -999.2500     162.1470    -999.2500     125.7853    -999.2500
     223.9717       0.1451       3.0665       0.0005       2.6340      -0.1065
       5.4605
   2207.3613
       9.1720       1.8280       0.0080      59.5000      48.9440    -999.2500
    -999.2500    -999.2500     189.4120    -999.2500     146.6260    -999.2500
     391.3750       0.1442       3.0860       0.0010       2.6470       0.1570
       5.5310
   2207.5137
       9.2580       1.5770      -0.0035      63.0502      48.9140    -999.2500
    -999.2500    -999.2500     206.4628    -999.2500     156.4225    -999.2500
     316.4023       0.1333       3.0115       0.0015       2.6850       0.0550
       5.7730
   2207.6660
       9.3440       1.3260      -0.0150      66.6000      48.8840    -999.2500
    -999.2500    -999.2500     223.5120    -999.2500     166.2180    -999.2500
     241.4370       0.1248       2.9370       0.0020       2.7230      -0.0470
       6.0150
   2207.8186
       9.2620       0.0920      -0.0150      66.4550      48.5005    -999.2500
    -999.2500    -999.2500     235.1573    -999.2500     169.7814    -999.2500
     268.2806       0.1238       2.9520       0.0020       2.7250      -0.5320
       6.0055
   2207.9709
       9.1800      -1.1420      -0.0150      66.3100      48.1170    -999.2500
    -999.2500    -999.2500     246.8030    -999.2500     173.3450    -999.2500
     295.1250       0.1213       2.9670       0.0020       2.7270      -1.0170
       5.9960
   2208.1233
       9.1800      -2.3689      -0.0140      65.2586      46.3361    -999.2500
    -999.2500    -999.2500     274.2534    -999.2500     189.9177    -999.2500
     287.8506       0.1146       3.0290       0.0010       2.7255      -1.0135
       5.9285
   2208.2756
       9.1800      -3.5960      -0.0130      64.2070      44.5550    -999.2500
    -999.2500    -999.2500     301.7080    -999.2500     206.4930    -999.2500
     280.5750       0.1089       3.0910       0.0000       2.7240      -1.0100
       5.8610
   2208.4282
       9.1605      -3.4610      -0.0105      59.8506      44.7256    -999.2500
    -999.2500    -999.2500     343.8003    -999.2500     233.4753    -999.2500
     175.4587       0.1060       3.3315       0.0000       2.7170      -0.9920
       5.8830
   2208.5806
       9.1410      -3.3260      -0.0080      55.5000      44.8960    -999.2500
    -999.2500    -999.2500     385.8370    -999.2500     260.4220    -999.2500
      70.3130       0.1016       3.5720       0.0000       2.7100      -0.9740
       5.9050
   2208.7329
       9.3595      -2.6076      -0.0080      55.5690      46.2028    -999.2500
    -999.2500    -999.2500     384.6988    -999.2500     259.8391    -999.2500
      77.8025       0.0928       3.5575       0.0005       2.7015      -0.9545
       5.8995
   2208.8853
       9.5780      -1.8890      -0.0080      55.6380      47.5080    -999.2500
    -999.2500    -999.2500     383.5620    -999.2500     259.2570    -999.2500
      85.2950       0.0862       3.5430       0.0010       2.6930      -0.9350
       5.8940
   2209.0378
       9.3241      -0.4944      -0.0100      56.1768      47.5060    -999.2500
    -999.2500    -999.2500     368.7681    -999.2500     250.1801    -999.2500
     221.1740       0.0855       3.3770       0.0015       2.6970      -0.8925
       5.8545
   2209.1902
       9.0700       0.9010      -0.0120      56.7150      47.5040    -999.2500
    -999.2500    -999.2500     353.9900    -999.2500     241.1130    -999.2500
     357.1250       0.0830       3.2110       0.0020       2.7010      -0.8500
       5.8150
   2209.3425
       9.4489       0.8610      -0.0115      58.2357      47.4040    -999.2500
    -999.2500    -999.2500     291.5515    -999.2500     200.2797    -999.2500
     346.3175       0.0759       3.2755       0.0020       2.7285      -0.7275
       5.7365
   2209.4949
       9.8280       0.8210      -0.0110      59.7550      47.3040    -999.2500
    -999.2500    -999.2500     229.1720    -999.2500     159.4850    -999.2500
     335.5030       0.0731       3.3400       0.0020       2.7560      -0.6050
       5.6580
   2209.6472
       9.4651       0.4282      -0.0100      62.7287      46.6717    -999.2500
    -999.2500    -999.2500     231.1528    -999.2500     160.7105    -999.2500
     226.8945       0.0812       3.2580       0.0015       2.7405      -0.5300
       5.6290
   2209.7998
       9.1020       0.0350      -0.0090      65.7000      46.0400    -999.2500
    -999.2500    -999.2500     233.1320    -999.2500     161.9350    -999.2500
     118.3750       0.0881       3.1760       0.0010       2.7250      -0.4550
       5.6000
   2209.9521
       9.1075       2.2500      -0.0065      65.0758      49.3497    -999.2500
    -999.2500    -999.2500     249.9824    -999.2500     172.6812    -999.2500
     232.9147       0.0922       3.1880       0.0015       2.7255      -0.1232
       5.7329
   2210.1045
       9.1130       4.4670      -0.0040      64.4520      52.6570    -999.2500
    -999.2500    -999.2500     266.8210    -999.2500     183.4200    -999.2500
     347.3750       0.0939       3.2000       0.0020       2.7260       0.2090
       5.8660
   2210.2568
       9.1360       4.2531      -0.0085      61.5752      50.8080    -999.2500
    -999.2500    -999.2500     259.3149    -999.2500     177.4278    -999.2500
     213.0243       0.0896       3.2620       0.0020       2.7285       0.0416
       5.7695
