#------------------------------------------------------------------------------
#
#   Created by  : [OpenWorks] Log Export Utility (LEXP)
#   Created on  : 2016-05-11 12:13:38
#   Project     : CANT971
#   User        : R5K
#   Interpreter : PEP
#
#------------------------------------------------------------------------------
~VERSION INFORMATION
VERS. 2.0 : CWLS Log ASCII Standard - version 2.0
WRAP. YES : Mulitple lines per depth step
~WELL INFORMATION
#MNEMONIC   .UNIT                                           VALUE :DESCRIPTION
#------------------------------------------------------------------------------
STRT        .M                                           689.1525 :START DEPTH
STOP        .M                                          2872.1301 :STOP DEPTH
STEP        .M                                             0.1524 :STEP
NULL        .                                           -999.2500 :NULL VALUE
COMP        .                                   PEMEX EXPL & PROD :COMPANY
WELL        .                                                1087 :WELL
FLD         .                                           CANTARELL :FIELD
LOC         .                                             UNKNOWN :LOCATION
CNTY        .                                      CD. DEL CARMEN :COUNTY
STAT        .                                            CAMPECHE :STATE
CTRY        .                                              MEXICO :COUNTRY
SRVC        .                                             UNKNOWN :SERVICE COMPANY
DATE        .                                             UNKNOWN :LOG DATE
UWI         .                                          3060000754 :UNIQUE WELL ID
XCOORD      .                                       601390.242000 :SURFACE X
YCOORD      .                                      2149875.824000 :SURFACE Y
LAT         .                                           19.441862 :LATITUDE
LON         .                                          -92.034144 :LONGITUDE
ELEV        .M                                            28.0000 :SURFACE ELEV
ELEV_TYPE   .                                                  KB :ELEV TYPE
~CURVE INFORMATION
#MNEMONIC.UNIT        API CODE       : CURVE DESCRIPTION
#------------------------------------------------------------------------------
DEPTH    .M                          : Measured Depth
CALI     .inches      UNKNOWN        : CALI:registros:rC:NONE:v0 (auto-composite)
CGR      .API         UNKNOWN        : CGR:registros:rC:NONE:v0 (auto-composite)
DRHO     .g/cm3       UNKNOWN        : DRHO:registros:rC:NONE:v0 (auto-composite)
DT       .UNKNOWN     UNKNOWN        : DT:registros:rC:NONE:v0 (auto-composite)
GR       .API         UNKNOWN        : GR:registros:rC:NONE:v0 (auto-composite)
GR-LWD   .UNKNOWN     UNKNOWN        : GR-LWD:registros:rC:NONE:v0 (auto-composite)
ILD      .ohm.m       UNKNOWN        : ILD:registros:rC:NONE:v0 (auto-composite)
ILM      .ohm.m       UNKNOWN        : ILM:registros:rC:NONE:v0 (auto-composite)
LLD      .ohm.m       UNKNOWN        : LLD:registros:rC:NONE:v0 (auto-composite)
LLD-LWD  .UNKNOWN     UNKNOWN        : LLD-LWD:registros:rC:NONE:v0 (auto-composite)
LLS      .ohm.m       UNKNOWN        : LLS:registros:rC:NONE:v0 (auto-composite)
LLS-LWD  .UNKNOWN     UNKNOWN        : LLS-LWD:registros:rC:NONE:v0 (auto-composite)
MSFL     .ohm.m       UNKNOWN        : MSFL:registros:rC:NONE:v0 (auto-composite)
NPHI     .v/v_decimal UNKNOWN        : NPHI:registros:rC:NONE:v0 (auto-composite)
PEF      .UNKNOWN     UNKNOWN        : PEF:registros:rC:NONE:v0 (auto-composite)
POTA     .UNKNOWN     UNKNOWN        : POTA:registros:rC:NONE:v0 (auto-composite)
RHOB     .g/cm3       UNKNOWN        : RHOB:registros:rC:NONE:v0 (auto-composite)
THOR     .ppm         UNKNOWN        : THOR:registros:rC:NONE:v0 (auto-composite)
URAN     .ppm         UNKNOWN        : URAN:registros:rC:NONE:v0 (auto-composite)
~A
# ...
   2460.8025
       0.0000       5.7979       0.0000       0.0000      20.1540    -999.2500
    -999.2500    -999.2500       6.3280    -999.2500    5381.1143    -999.2500
     285.0847       0.2087       0.0000       0.0026       0.0000       0.3124
       1.6460
   2460.9548
       0.0000       6.1272       0.0000       0.0000      20.1405    -999.2500
    -999.2500    -999.2500       6.3280    -999.2500    9811.2334    -999.2500
     414.6250       0.2079       0.0000       0.0027       0.0000       0.3179
       1.6067
   2461.1074
       0.0000       5.7838       0.0000       0.0000      19.3221    -999.2500
    -999.2500    -999.2500       6.3280    -999.2500    9811.2334    -999.2500
     239.1176       0.1985       0.0000       0.0023       0.0000       0.4139
       1.5523
   2461.2598
       0.0000       6.3852       0.0000       0.0000      19.8431    -999.2500
    -999.2500    -999.2500       6.3280    -999.2500    9811.2334    -999.2500
      63.5630       0.1974       0.0000       0.0026       0.0000       0.4312
       1.5430
   2461.4121
       0.0000       4.5425       0.0000       0.0000      17.2826    -999.2500
    -999.2500    -999.2500       6.3280    -999.2500    9811.2334    -999.2500
      88.6830       0.1931       0.0000       0.0020       0.0000       0.2613
       1.4607
   2461.5645
       0.0000       6.2833       0.0000       0.0000      19.7536    -999.2500
    -999.2500    -999.2500       6.3280    -999.2500    9811.2334    -999.2500
     113.8130       0.1861       0.0000       0.0024       0.0000       0.4851
       1.5445
   2461.7170
       0.0000       5.4103       0.0000       0.0000      17.9910    -999.2500
    -999.2500    -999.2500       6.3280    -999.2500    9811.2334    -999.2500
      94.5211       0.1859       0.0000       0.0023       0.0000       0.3277
       1.4425
   2461.8694
       0.0000       4.7626       0.0000       0.0000      16.8776    -999.2500
    -999.2500    -999.2500       6.3280    -999.2500    9811.2334    -999.2500
      75.2500       0.1848       0.0000       0.0022       0.0000       0.2287
       1.3891
   2462.0217
       0.0000       6.7423       0.0000       0.0000      19.3438    -999.2500
    -999.2500    -999.2500       6.3280    -999.2500    9811.2334    -999.2500
     149.8171       0.1795       0.0000       0.0028       0.0000       0.4430
       1.4448
   2462.1741
       0.0000       6.1142       0.0000       0.0000      18.7573    -999.2500
    -999.2500    -999.2500       6.3280    -999.2500    9811.2334    -999.2500
     224.3130       0.1722       0.0000       0.0023       0.0000       0.5094
       1.4496
   2462.3264
       0.0000       8.5926       0.0000       0.0000      22.0320    -999.2500
    -999.2500    -999.2500       6.3280    -999.2500    9811.2334    -999.2500
     217.7003       0.1586       0.0000       0.0022       0.0000       1.1348
       1.5409
   2462.4790
       0.0000       8.8401       0.0000       0.0000      22.5680    -999.2500
    -999.2500    -999.2500       6.3280    -999.2500    9811.2334    -999.2500
     211.0930       0.1556       0.0000       0.0019       0.0000       1.3024
       1.5740
   2462.6313
       0.0000       7.9373       0.0000       0.0000      21.7503    -999.2500
    -999.2500    -999.2500       6.3280    -999.2500    9811.2334    -999.2500
     183.8184       0.1504       0.0000       0.0015       0.0000       1.2455
       1.5838
   2462.7837
       0.0000       8.1232       0.0000       0.0000      22.0500    -999.2500
    -999.2500    -999.2500       6.3280    -999.2500    9811.2334    -999.2500
     156.5630       0.1597       0.0000       0.0018       0.0000       1.1921
       1.5968
   2462.9360
       0.0000       7.0686       0.0000       0.0000      20.6317    -999.2500
    -999.2500    -999.2500       6.3280    -999.2500    9811.2334    -999.2500
     156.8951       0.1580       0.0000       0.0018       0.0000       0.9352
       1.5551
   2463.0886
       0.0000       7.9796       0.0000       0.0000      22.3975    -999.2500
    -999.2500    -999.2500       6.3280    -999.2500    9811.2334    -999.2500
     157.2270       0.1560       0.0000       0.0024       0.0000       0.8878
       1.6531
   2463.2410
       0.0000       8.0421       0.0000       0.0000      22.7456    -999.2500
    -999.2500    -999.2500       6.3280    -999.2500    9811.2334    -999.2500
     159.5285       0.1406       0.0000       0.0025       0.0000       0.8589
       1.6859
   2463.3933
       0.0000       8.1941       0.0000       0.0000      23.2729    -999.2500
    -999.2500    -999.2500       6.3280    -999.2500    9811.2334    -999.2500
     161.8290       0.1306       0.0000       0.0025       0.0000       0.9129
       1.7289
   2463.5457
       0.0000       6.6737       0.0000       0.0000      20.9211    -999.2500
    -999.2500    -999.2500       6.3280    -999.2500    9811.2334    -999.2500
     175.6978       0.1266       0.0000       0.0020       0.0000       0.7461
       1.6336
   2463.6982
       0.0000       7.0965       0.0000       0.0000      21.2157    -999.2500
    -999.2500    -999.2500       6.3280    -999.2500    9811.2334    -999.2500
     189.5620       0.1297       0.0000       0.0023       0.0000       0.7349
       1.6189
   2463.8506
       0.0000       8.3076       0.0000       0.0000      22.8384    -999.2500
    -999.2500    -999.2500       6.3280    -999.2500    9811.2334    -999.2500
     188.8634       0.1380       0.0000       0.0025       0.0000       0.9181
       1.6661
   2464.0029
       0.0000       8.8723       0.0000       0.0000      27.9064    -999.2500
    -999.2500    -999.2500       6.3280    -999.2500    9811.2334    -999.2500
     188.1650       0.1489       0.0000       0.0034       0.0000       0.6974
       2.1824
   2464.1553
       0.0000       7.9679       0.0000       0.0000      26.9224    -999.2500
    -999.2500    -999.2500       6.3280    -999.2500    9811.2334    -999.2500
     184.3783       0.1646       0.0000       0.0029       0.0000       0.6728
       2.1733
   2464.3076
       0.0000      10.7431       0.0000       0.0000      30.5049    -999.2500
    -999.2500    -999.2500       6.3280    -999.2500    9811.2334    -999.2500
     180.5920       0.1760       0.0000       0.0035       0.0000       1.1043
       2.2658
   2464.4602
       0.0000      12.1381       0.0000       0.0000      32.9797    -999.2500
    -999.2500    -999.2500       6.3280    -999.2500    9811.2334    -999.2500
     176.3271       0.1846       0.0000       0.0039       0.0000       1.2519
       2.3896
   2464.6125
       0.0000      11.1036       0.0000       0.0000      31.5358    -999.2500
    -999.2500    -999.2500       6.3280    -999.2500    9811.2334    -999.2500
     172.0620       0.1768       0.0000       0.0039       0.0000       1.0179
       2.3427
   2464.7649
       0.0000      11.2754       0.0000       0.0000      32.4372    -999.2500
    -999.2500    -999.2500       6.3280    -999.2500    9811.2334    -999.2500
     172.0620       0.1684       0.0000       0.0038       0.0000       1.0895
       2.4263
   2464.9172
       0.0000       9.8258       0.0000       0.0000      30.0966    -999.2500
    -999.2500    -999.2500       6.3280    -999.2500    9811.2334    -999.2500
     172.0620       0.1599       0.0000       0.0035       0.0000       0.8845
       2.3242
   2465.0698
    -999.2500       7.2382    -999.2500    -999.2500      26.1762    -999.2500
    -999.2500    -999.2500    -999.2500    -999.2500    -999.2500    -999.2500
    -999.2500       0.1614    -999.2500       0.0028    -999.2500       0.5372
       2.1714
   2465.2222
    -999.2500       7.3934    -999.2500    -999.2500      26.4953    -999.2500
    -999.2500    -999.2500    -999.2500    -999.2500    -999.2500    -999.2500
    -999.2500       0.1716    -999.2500       0.0028    -999.2500       0.5893
       2.1902
   2465.3745
    -999.2500      11.1528    -999.2500    -999.2500      32.7390    -999.2500
    -999.2500    -999.2500    -999.2500    -999.2500    -999.2500    -999.2500
    -999.2500       0.1917    -999.2500       0.0031    -999.2500       1.3435
       2.4750
