#------------------------------------------------------------------------------
#
#   Created by  : [OpenWorks] Log Export Utility (LEXP)
#   Created on  : 2016-05-11 12:13:38
#   Project     : CANT971
#   User        : R5K
#   Interpreter : PEP
#
#------------------------------------------------------------------------------
~VERSION INFORMATION
VERS. 2.0 : CWLS Log ASCII Standard - version 2.0
WRAP. YES : Mulitple lines per depth step
~WELL INFORMATION
#MNEMONIC   .UNIT                                           VALUE :DESCRIPTION
#------------------------------------------------------------------------------
STRT        .M                                           689.1525 :START DEPTH
STOP        .M                                          2872.1301 :STOP DEPTH
STEP        .M                                             0.1524 :STEP
NULL        .                                           -999.2500 :NULL VALUE
COMP        .                                   PEMEX EXPL & PROD :COMPANY
WELL        .                                                1087 :WELL
FLD         .                                           CANTARELL :FIELD
LOC         .                                             UNKNOWN :LOCATION
CNTY        .                                      CD. DEL CARMEN :COUNTY
STAT        .                                            CAMPECHE :STATE
CTRY        .                                              MEXICO :COUNTRY
SRVC        .                                             UNKNOWN :SERVICE COMPANY
DATE        .                                             UNKNOWN :LOG DATE
UWI         .                                          3060000754 :UNIQUE WELL ID
XCOORD      .                                       601390.242000 :SURFACE X
YCOORD      .                                      2149875.824000 :SURFACE Y
LAT         .                                           19.441862 :LATITUDE
LON         .                                          -92.034144 :LONGITUDE
ELEV        .M                                            28.0000 :SURFACE ELEV
ELEV_TYPE   .                                                  KB :ELEV TYPE
~CURVE INFORMATION
#MNEMONIC.UNIT        API CODE       : CURVE DESCRIPTION
#------------------------------------------------------------------------------
DEPTH    .M                          : Measured Depth
CALI     .inches      UNKNOWN        : CALI:registros:rC:NONE:v0 (auto-composite)
CGR      .API         UNKNOWN        : CGR:registros:rC:NONE:v0 (auto-composite)
DRHO     .g/cm3       UNKNOWN        : DRHO:registros:rC:NONE:v0 (auto-composite)
DT       .UNKNOWN     UNKNOWN        : DT:registros:rC:NONE:v0 (auto-composite)
GR       .API         UNKNOWN        : GR:registros:rC:NONE:v0 (auto-composite)
GR-LWD   .UNKNOWN     UNKNOWN        : GR-LWD:registros:rC:NONE:v0 (auto-composite)
ILD      .ohm.m       UNKNOWN        : ILD:registros:rC:NONE:v0 (auto-composite)
ILM      .ohm.m       UNKNOWN        : ILM:registros:rC:NONE:v0 (auto-composite)
LLD      .ohm.m       UNKNOWN        : LLD:registros:rC:NONE:v0 (auto-composite)
LLD-LWD  .UNKNOWN     UNKNOWN        : LLD-LWD:registros:rC:NONE:v0 (auto-composite)
LLS      .ohm.m       UNKNOWN        : LLS:registros:rC:NONE:v0 (auto-composite)
LLS-LWD  .UNKNOWN     UNKNOWN        : LLS-LWD:registros:rC:NONE:v0 (auto-composite)
MSFL     .ohm.m       UNKNOWN        : MSFL:registros:rC:NONE:v0 (auto-composite)
NPHI     .v/v_decimal UNKNOWN        : NPHI:registros:rC:NONE:v0 (auto-composite)
PEF      .UNKNOWN     UNKNOWN        : PEF:registros:rC:NONE:v0 (auto-composite)
POTA     .UNKNOWN     UNKNOWN        : POTA:registros:rC:NONE:v0 (auto-composite)
RHOB     .g/cm3       UNKNOWN        : RHOB:registros:rC:NONE:v0 (auto-composite)
THOR     .ppm         UNKNOWN        : THOR:registros:rC:NONE:v0 (auto-composite)
URAN     .ppm         UNKNOWN        : URAN:registros:rC:NONE:v0 (auto-composite)
~A
# ...
   2441.9050
       6.4610       8.9841       0.1175      65.8000      29.2387    -999.2500
    -999.2500    -999.2500     249.7897    -999.2500     213.5819    -999.2500
     166.1422       0.3097       2.9015       0.0035       2.4015       0.9620
       2.3570
   2442.0574
       6.4610       9.0750       0.1330      65.8000      30.3930    -999.2500
    -999.2500    -999.2500     256.5900    -999.2500     219.1270    -999.2500
      82.9380       0.2604       2.9030       0.0040       2.4540       0.9690
       2.3780
   2442.2097
       6.4610      10.1816       0.1330      65.8000      30.3775    -999.2500
    -999.2500    -999.2500     358.5985    -999.2500     301.0414    -999.2500
      87.0605       0.1973       2.9185       0.0040       2.4425       1.1056
       2.3735
   2442.3621
       6.4610      11.2870       0.1330      65.8000      30.3620    -999.2500
    -999.2500    -999.2500     460.4940    -999.2500     382.8650    -999.2500
      91.1850       0.1727       2.9340       0.0040       2.4310       1.2420
       2.3690
   2442.5146
       6.4610      11.1739       0.1305      65.8000      30.0108    -999.2500
    -999.2500    -999.2500     635.1654    -999.2500     518.9630    -999.2500
     211.8394       0.2367       2.9835       0.0035       2.4310       1.2330
       2.3165
   2442.6670
       6.4610      11.0610       0.1280      65.8000      29.6600    -999.2500
    -999.2500    -999.2500     809.6650    -999.2500     654.9270    -999.2500
     332.3750       0.2868       3.0330       0.0030       2.4310       1.2240
       2.2640
   2442.8193
       6.4610       9.7424       0.1300      65.8000      27.0109    -999.2500
    -999.2500    -999.2500    1057.5553    -999.2500     821.4319    -999.2500
     299.2358       0.3059       3.0075       0.0030       2.4355       1.0534
       2.1019
   2442.9717
       6.4610       8.4250       0.1320      65.8000      24.3640    -999.2500
    -999.2500    -999.2500    1305.2330    -999.2500     987.7940    -999.2500
     266.1250       0.2999       2.9820       0.0030       2.4400       0.8830
       1.9400
   2443.1240
       6.4610       9.8920       0.1320      65.8000      26.3727    -999.2500
    -999.2500    -999.2500    1516.0973    -999.2500    1111.8975    -999.2500
     417.7431       0.2394       2.9855       0.0040       2.4400       0.9045
       2.0060
   2443.2766
       6.4610      11.3580       0.1320      65.8000      28.3800    -999.2500
    -999.2500    -999.2500    1726.8070    -999.2500    1235.9100    -999.2500
     569.2500       0.1877       2.9890       0.0050       2.4400       0.9260
       2.0720
   2443.4290
       6.4610      11.2130       0.1305      65.8000      28.1579    -999.2500
    -999.2500    -999.2500    2241.0427    -999.2500    1520.5879    -999.2500
     442.2740       0.1550       3.0305       0.0050       2.4375       0.7134
       1.9775
   2443.5813
       6.4610      11.0680       0.1290      65.8000      27.9360    -999.2500
    -999.2500    -999.2500    2754.9661    -999.2500    1805.0930    -999.2500
     315.3750       0.1464       3.0720       0.0050       2.4350       0.5010
       1.8830
   2443.7336
       6.5215       9.7082       0.1245      65.8000      25.8975    -999.2500
    -999.2500    -999.2500    2709.7312    -999.2500    1775.0413    -999.2500
     452.8456       0.1880       3.0440       0.0045       2.4205       0.5085
       1.9100
   2443.8862
       6.5820       8.3490       0.1200      65.8000      23.8600    -999.2500
    -999.2500    -999.2500    2664.5181    -999.2500    1745.0040    -999.2500
     590.2500       0.2311       3.0160       0.0040       2.4060       0.5160
       1.9370
   2444.0386
       6.5470       7.7149       0.1120      65.8000      23.2264    -999.2500
    -999.2500    -999.2500    2289.4268    -999.2500    1494.3629    -999.2500
     390.0579       0.2771       3.0175       0.0030       2.3930       0.5900
       1.9125
   2444.1909
       6.5120       7.0810       0.1040      65.8000      22.5930    -999.2500
    -999.2500    -999.2500    1914.4690    -999.2500    1243.8110    -999.2500
     189.9370       0.2957       3.0190       0.0020       2.3800       0.6640
       1.8880
   2444.3433
       6.5150       7.6236       0.1045      65.8000      24.4337    -999.2500
    -999.2500    -999.2500    1675.6949    -999.2500    1059.0092    -999.2500
     294.0430       0.2599       3.0455       0.0020       2.3690       0.7885
       1.9040
   2444.4956
       6.5180       8.1660       0.1050      65.8000      26.2740    -999.2500
    -999.2500    -999.2500    1436.9760    -999.2500     874.2500    -999.2500
     398.1250       0.2470       3.0720       0.0020       2.3580       0.9130
       1.9200
   2444.6482
       6.5465       7.7615       0.1165      65.8000      26.2415    -999.2500
    -999.2500    -999.2500    1449.5146    -999.2500     881.3099    -999.2500
     301.6509       0.2784       3.0680       0.0025       2.3590       0.8950
       2.0730
   2444.8005
       6.5750       7.3570       0.1280      65.8000      26.2090    -999.2500
    -999.2500    -999.2500    1462.0520    -999.2500     888.3690    -999.2500
     205.1870       0.3060       3.0640       0.0030       2.3600       0.8770
       2.2260
   2444.9529
       6.5825       7.3925       0.1280      65.8000      25.8420    -999.2500
    -999.2500    -999.2500    1613.6554    -999.2500     968.9562    -999.2500
     380.9667       0.3262       2.9960       0.0030       2.3700       0.5365
       2.2115
   2445.1052
       6.5900       7.4280       0.1280      65.8000      25.4750    -999.2500
    -999.2500    -999.2500    1765.2620    -999.2500    1049.5450    -999.2500
     556.7500       0.3293       2.9280       0.0030       2.3800       0.1960
       2.1970
   2445.2578
       6.5880       7.7550       0.1220      65.8000      24.3832    -999.2500
    -999.2500    -999.2500    2394.1877    -999.2500    1232.8694    -999.2500
     479.8181       0.3008       2.9660       0.0035       2.3730       0.1985
       2.0625
   2445.4102
       6.5860       8.0820       0.1160      65.8000      23.2930    -999.2500
    -999.2500    -999.2500    3022.1980    -999.2500    1415.9270    -999.2500
     402.8750       0.2629       3.0040       0.0040       2.3660       0.2010
       1.9280
   2445.5625
       6.5860       8.3410       0.1160      65.8000      23.3395    -999.2500
    -999.2500    -999.2500    3011.3408    -999.2500    1411.5756    -999.2500
     405.1627       0.2083       3.0025       0.0045       2.3660       0.2340
       1.8525
   2445.7148
       6.5860       7.2262       0.1160      65.8000      22.4043    -999.2500
    -999.2500    -999.2500    3000.4980    -999.2500    1407.2300    -999.2500
     407.4510       0.2009       3.0010       0.0037       2.3660       0.1665
       1.7403
   2445.8674
       6.5860       7.4664       0.1185      65.8000      23.5119    -999.2500
    -999.2500    -999.2500    2856.9751    -999.2500    1352.3219    -999.2500
     454.5664       0.1921       2.9895       0.0034       2.3680       0.3780
       1.8397
   2446.0198
       6.5860       6.0019       0.1210      65.8000      21.9351    -999.2500
    -999.2500    -999.2500    2713.6250    -999.2500    1297.4800    -999.2500
     501.6250       0.2019       2.9780       0.0025       2.3700       0.3910
       1.8268
   2446.1721
       6.5800       4.8269       0.1275      65.8000      20.6243    -999.2500
    -999.2500    -999.2500    2218.9805    -999.2500    1098.8234    -999.2500
     497.5453       0.2138       2.9000       0.0018       2.3795       0.3924
       1.8113
   2446.3245
       6.5740       5.5337       0.1340      65.8000      21.7502    -999.2500
    -999.2500    -999.2500    1724.8690    -999.2500     900.3810    -999.2500
     493.4700       0.2301       2.8220       0.0020       2.3890       0.4791
       1.8593
   2446.4768
       6.5750       4.7823       0.1275      65.8000      20.6745    -999.2500
    -999.2500    -999.2500    1154.9028    -999.2500     603.2324    -999.2500
     452.7691       0.2316       2.8240       0.0022       2.3885       0.2413
       1.8222
