#------------------------------------------------------------------------------
#
#   Created by  : [OpenWorks] Log Export Utility (LEXP)
#   Created on  : 2016-05-11 12:13:38
#   Project     : CANT971
#   User        : R5K
#   Interpreter : PEP
#
#------------------------------------------------------------------------------
~VERSION INFORMATION
VERS. 2.0 : CWLS Log ASCII Standard - version 2.0
WRAP. YES : Mulitple lines per depth step
~WELL INFORMATION
#MNEMONIC   .UNIT                                           VALUE :DESCRIPTION
#------------------------------------------------------------------------------
STRT        .M                                           689.1525 :START DEPTH
STOP        .M                                          2872.1301 :STOP DEPTH
STEP        .M                                             0.1524 :STEP
NULL        .                                           -999.2500 :NULL VALUE
COMP        .                                   PEMEX EXPL & PROD :COMPANY
WELL        .                                                1087 :WELL
FLD         .                                           CANTARELL :FIELD
LOC         .                                             UNKNOWN :LOCATION
CNTY        .                                      CD. DEL CARMEN :COUNTY
STAT        .                                            CAMPECHE :STATE
CTRY        .                                              MEXICO :COUNTRY
SRVC        .                                             UNKNOWN :SERVICE COMPANY
DATE        .                                             UNKNOWN :LOG DATE
UWI         .                                          3060000754 :UNIQUE WELL ID
XCOORD      .                                       601390.242000 :SURFACE X
YCOORD      .                                      2149875.824000 :SURFACE Y
LAT         .                                           19.441862 :LATITUDE
LON         .                                          -92.034144 :LONGITUDE
ELEV        .M                                            28.0000 :SURFACE ELEV
ELEV_TYPE   .                                                  KB :ELEV TYPE
~CURVE INFORMATION
#MNEMONIC.UNIT        API CODE       : CURVE DESCRIPTION
#------------------------------------------------------------------------------
DEPTH    .M                          : Measured Depth
CALI     .inches      UNKNOWN        : CALI:registros:rC:NONE:v0 (auto-composite)
CGR      .API         UNKNOWN        : CGR:registros:rC:NONE:v0 (auto-composite)
DRHO     .g/cm3       UNKNOWN        : DRHO:registros:rC:NONE:v0 (auto-composite)
DT       .UNKNOWN     UNKNOWN        : DT:registros:rC:NONE:v0 (auto-composite)
GR       .API         UNKNOWN        : GR:registros:rC:NONE:v0 (auto-composite)
GR-LWD   .UNKNOWN     UNKNOWN        : GR-LWD:registros:rC:NONE:v0 (auto-composite)
ILD      .ohm.m       UNKNOWN        : ILD:registros:rC:NONE:v0 (auto-composite)
ILM      .ohm.m       UNKNOWN        : ILM:registros:rC:NONE:v0 (auto-composite)
LLD      .ohm.m       UNKNOWN        : LLD:registros:rC:NONE:v0 (auto-composite)
LLD-LWD  .UNKNOWN     UNKNOWN        : LLD-LWD:registros:rC:NONE:v0 (auto-composite)
LLS      .ohm.m       UNKNOWN        : LLS:registros:rC:NONE:v0 (auto-composite)
LLS-LWD  .UNKNOWN     UNKNOWN        : LLS-LWD:registros:rC:NONE:v0 (auto-composite)
MSFL     .ohm.m       UNKNOWN        : MSFL:registros:rC:NONE:v0 (auto-composite)
NPHI     .v/v_decimal UNKNOWN        : NPHI:registros:rC:NONE:v0 (auto-composite)
PEF      .UNKNOWN     UNKNOWN        : PEF:registros:rC:NONE:v0 (auto-composite)
POTA     .UNKNOWN     UNKNOWN        : POTA:registros:rC:NONE:v0 (auto-composite)
RHOB     .g/cm3       UNKNOWN        : RHOB:registros:rC:NONE:v0 (auto-composite)
THOR     .ppm         UNKNOWN        : THOR:registros:rC:NONE:v0 (auto-composite)
URAN     .ppm         UNKNOWN        : URAN:registros:rC:NONE:v0 (auto-composite)
~A
# ...
   2248.2046
       9.1800      -0.4810      -0.0120      61.3660      37.5660    -999.2500
    -999.2500    -999.2500     981.9390    -999.2500     278.3120    -999.2500
     132.8130       0.1244       3.2770       0.0010       2.6540      -0.5610
       4.8520
   2248.3569
       9.1800      -0.1911      -0.0155      62.5335      37.7811    -999.2500
    -999.2500    -999.2500    1045.5238    -999.2500     290.0832    -999.2500
     143.6901       0.1205       3.2430       0.0010       2.6320      -0.4530
       4.7385
   2248.5093
       9.1800       0.0990      -0.0190      63.7000      37.9960    -999.2500
    -999.2500    -999.2500    1109.0520    -999.2500     301.8440    -999.2500
     154.5750       0.1076       3.2090       0.0010       2.6100      -0.3450
       4.6250
   2248.6616
       9.1800      -1.2324      -0.0190      62.7556      36.6580    -999.2500
    -999.2500    -999.2500    1383.7810    -999.2500     362.1735    -999.2500
     258.3146       0.0943       3.2215       0.0005       2.6180      -0.4130
       4.5130
   2248.8142
       9.1800      -2.5650      -0.0190      61.8120      35.3210    -999.2500
    -999.2500    -999.2500    1658.3000    -999.2500     422.4570    -999.2500
     361.9750       0.0834       3.2340       0.0000       2.6260      -0.4810
       4.4010
   2248.9666
       9.1800      -1.6639      -0.0185      59.9054      31.9624    -999.2500
    -999.2500    -999.2500    3442.5569    -999.2500     910.5607    -999.2500
     834.4006       0.0725       3.2300       0.0010       2.6500      -0.6879
       4.0592
   2249.1189
       9.1800      -0.7620      -0.0180      58.0000      28.6060    -999.2500
    -999.2500    -999.2500    5225.6758    -999.2500    1398.3530    -999.2500
    1306.5250       0.0713       3.2260       0.0020       2.6740      -0.8950
       3.7170
   2249.2712
       9.1800      -0.9200      -0.0165      58.5106      26.2794    -999.2500
    -999.2500    -999.2500    4826.8818    -999.2500    1326.3885    -999.2500
    1653.6014       0.0703       3.2180       0.0015       2.6955      -0.8910
       3.4174
   2249.4238
       9.1800      -1.0780      -0.0150      59.0210      23.9540    -999.2500
    -999.2500    -999.2500    4428.2920    -999.2500    1254.4611    -999.2500
    2000.5000       0.0740       3.2100       0.0010       2.7170      -0.8870
       3.1180
   2249.5762
       9.1800      -1.6646      -0.0140      59.9782      24.2191    -999.2500
    -999.2500    -999.2500    3376.3696    -999.2500    1000.7825    -999.2500
    1955.7139       0.0777       3.1860      -0.0000       2.7135      -0.7755
       3.1625
   2249.7285
       9.1800      -2.2510      -0.0130      60.9350      24.4840    -999.2500
    -999.2500    -999.2500    2324.8540    -999.2500     747.2020    -999.2500
    1910.9449       0.0684       3.1620      -0.0010       2.7100      -0.6640
       3.2070
   2249.8809
       9.4690      -2.0760      -0.0095      61.8181      25.3116    -999.2500
    -999.2500    -999.2500    1571.9020    -999.2500     512.2253    -999.2500
     987.5392       0.0587       3.0635      -0.0010       2.6925      -0.4490
       3.3475
   2250.0334
       9.7580      -1.9010      -0.0060      62.7010      26.1390    -999.2500
    -999.2500    -999.2500     819.1470    -999.2500     277.3100    -999.2500
      64.3750       0.0436       2.9650      -0.0010       2.6750      -0.2340
       3.4880
   2250.1858
      11.6621      -1.0139       0.0070      69.9010      26.9606    -999.2500
    -999.2500    -999.2500     488.6250    -999.2500     166.5415    -999.2500
     148.6622       0.0284       2.9710      -0.0005       2.6030      -0.1835
       3.4715
   2250.3381
      13.5660      -0.1270       0.0200      77.1000      27.7820    -999.2500
    -999.2500    -999.2500     158.1480    -999.2500      55.7880    -999.2500
     232.9380       0.0282       2.9770       0.0000       2.5310      -0.1330
       3.4550
   2250.4905
      17.1035      -2.4175       0.0555      76.4040      22.3110    -999.2500
    -999.2500    -999.2500     158.6065    -999.2500      56.2670    -999.2500
     120.8904       0.0284       2.9555      -0.0015       2.4350      -0.1255
       3.2880
   2250.6428
      20.6410      -4.7080       0.0910      75.7080      16.8400    -999.2500
    -999.2500    -999.2500     159.0650    -999.2500      56.7460    -999.2500
       8.8440       0.1070       2.9340      -0.0030       2.3390      -0.1180
       3.1210
   2250.7954
      18.6331      -1.6772       0.0805      72.1033      19.5633    -999.2500
    -999.2500    -999.2500     190.8212    -999.2500      68.2513    -999.2500
      14.1512       0.1866       2.8410      -0.0025       2.3360       0.1715
       2.8585
   2250.9478
      16.6250       1.3540       0.0700      68.5040      22.2870    -999.2500
    -999.2500    -999.2500     222.5810    -999.2500      79.7580    -999.2500
      19.4590       0.1838       2.7480      -0.0020       2.3330       0.4610
       2.5960
   2251.1001
      13.0259       1.0150       0.0450      63.6987      21.7691    -999.2500
    -999.2500    -999.2500     623.7151    -999.2500     208.6380    -999.2500
      78.2929       0.1810       2.8085      -0.0010       2.3630       0.3725
       2.5500
   2251.2524
       9.4260       0.6760       0.0200      58.9000      21.2510    -999.2500
    -999.2500    -999.2500    1024.9460    -999.2500     337.5490    -999.2500
     137.1410       0.1261       2.8690       0.0000       2.3930       0.2840
       2.5040
   2251.4050
       9.3655       2.0203       0.0055      64.4534      26.0785    -999.2500
    -999.2500    -999.2500     999.6044    -999.2500     327.9626    -999.2500
     402.8358       0.0717       2.9970       0.0005       2.4890       0.3055
       2.9274
   2251.5574
       9.3050       3.3650      -0.0090      70.0000      30.9000    -999.2500
    -999.2500    -999.2500     974.2940    -999.2500     318.3880    -999.2500
     668.6280       0.0636       3.1250       0.0010       2.5850       0.3270
       3.3510
   2251.7097
       9.3440       2.5222      -0.0085      64.1468      30.1746    -999.2500
    -999.2500    -999.2500     868.5669    -999.2500     280.3384    -999.2500
    1334.4000       0.0557       3.2365       0.0010       2.6815       0.2615
       3.3000
   2251.8621
       9.3830       1.6790      -0.0080      58.3000      29.4500    -999.2500
    -999.2500    -999.2500     762.9570    -999.2500     242.3310    -999.2500
    2000.5000       0.0617       3.3480       0.0010       2.7780       0.1960
       3.2490
   2252.0146
       9.3515       2.1294      -0.0085      74.7081      28.1624    -999.2500
    -999.2500    -999.2500     651.4036    -999.2500     206.5554    -999.2500
    1546.6613       0.0676       3.3175       0.0015       2.7740       0.0301
       3.1380
   2252.1670
       9.3200       2.5800      -0.0090      91.1000      26.8760    -999.2500
    -999.2500    -999.2500     539.9600    -999.2500     170.8150    -999.2500
    1093.2690       0.0770       3.2870       0.0020       2.7700      -0.1360
       3.0270
   2252.3193
       9.3415       2.2721      -0.0100      73.8426      25.4999    -999.2500
    -999.2500    -999.2500     541.3291    -999.2500     179.7013    -999.2500
     716.4244       0.0863       3.1795       0.0015       2.7500      -0.1120
       2.8621
   2252.4717
       9.3630       1.9640      -0.0110      56.6000      24.1250    -999.2500
    -999.2500    -999.2500     542.6970    -999.2500     188.5800    -999.2500
     339.9030       0.0946       3.0720       0.0010       2.7300      -0.0880
       2.6970
   2252.6240
       9.4315       1.0554      -0.0085      59.6476      21.0209    -999.2500
    -999.2500    -999.2500     475.2668    -999.2500     167.1942    -999.2500
     234.4253       0.1032       3.1005       0.0010       2.6910      -0.1370
       2.4301
   2252.7766
       9.5000       0.1460      -0.0060      62.6930      17.9190    -999.2500
    -999.2500    -999.2500     407.8860    -999.2500     145.8240    -999.2500
     129.0250       0.1235       3.1290       0.0010       2.6520      -0.1860
       2.1630
