#------------------------------------------------------------------------------
#
#   Created by  : [OpenWorks] Log Export Utility (LEXP)
#   Created on  : 2016-05-11 12:13:38
#   Project     : CANT971
#   User        : R5K
#   Interpreter : PEP
#
#------------------------------------------------------------------------------
~VERSION INFORMATION
VERS. 2.0 : CWLS Log ASCII Standard - version 2.0
WRAP. YES : Mulitple lines per depth step
~WELL INFORMATION
#MNEMONIC   .UNIT                                           VALUE :DESCRIPTION
#------------------------------------------------------------------------------
STRT        .M                                           689.1525 :START DEPTH
STOP        .M                                          2872.1301 :STOP DEPTH
STEP        .M                                             0.1524 :STEP
NULL        .                                           -999.2500 :NULL VALUE
COMP        .                                   PEMEX EXPL & PROD :COMPANY
WELL        .                                                1087 :WELL
FLD         .                                           CANTARELL :FIELD
LOC         .                                             UNKNOWN :LOCATION
CNTY        .                                      CD. DEL CARMEN :COUNTY
STAT        .                                            CAMPECHE :STATE
CTRY        .                                              MEXICO :COUNTRY
SRVC        .                                             UNKNOWN :SERVICE COMPANY
DATE        .                                             UNKNOWN :LOG DATE
UWI         .                                          3060000754 :UNIQUE WELL ID
XCOORD      .                                       601390.242000 :SURFACE X
YCOORD      .                                      2149875.824000 :SURFACE Y
LAT         .                                           19.441862 :LATITUDE
LON         .                                          -92.034144 :LONGITUDE
ELEV        .M                                            28.0000 :SURFACE ELEV
ELEV_TYPE   .                                                  KB :ELEV TYPE
~CURVE INFORMATION
#MNEMONIC.UNIT        API CODE       : CURVE DESCRIPTION
#------------------------------------------------------------------------------
DEPTH    .M                          : Measured Depth
CALI     .inches      UNKNOWN        : CALI:registros:rC:NONE:v0 (auto-composite)
CGR      .API         UNKNOWN        : CGR:registros:rC:NONE:v0 (auto-composite)
DRHO     .g/cm3       UNKNOWN        : DRHO:registros:rC:NONE:v0 (auto-composite)
DT       .UNKNOWN     UNKNOWN        : DT:registros:rC:NONE:v0 (auto-composite)
GR       .API         UNKNOWN        : GR:registros:rC:NONE:v0 (auto-composite)
GR-LWD   .UNKNOWN     UNKNOWN        : GR-LWD:registros:rC:NONE:v0 (auto-composite)
ILD      .ohm.m       UNKNOWN        : ILD:registros:rC:NONE:v0 (auto-composite)
ILM      .ohm.m       UNKNOWN        : ILM:registros:rC:NONE:v0 (auto-composite)
LLD      .ohm.m       UNKNOWN        : LLD:registros:rC:NONE:v0 (auto-composite)
LLD-LWD  .UNKNOWN     UNKNOWN        : LLD-LWD:registros:rC:NONE:v0 (auto-composite)
LLS      .ohm.m       UNKNOWN        : LLS:registros:rC:NONE:v0 (auto-composite)
LLS-LWD  .UNKNOWN     UNKNOWN        : LLS-LWD:registros:rC:NONE:v0 (auto-composite)
MSFL     .ohm.m       UNKNOWN        : MSFL:registros:rC:NONE:v0 (auto-composite)
NPHI     .v/v_decimal UNKNOWN        : NPHI:registros:rC:NONE:v0 (auto-composite)
PEF      .UNKNOWN     UNKNOWN        : PEF:registros:rC:NONE:v0 (auto-composite)
POTA     .UNKNOWN     UNKNOWN        : POTA:registros:rC:NONE:v0 (auto-composite)
RHOB     .g/cm3       UNKNOWN        : RHOB:registros:rC:NONE:v0 (auto-composite)
THOR     .ppm         UNKNOWN        : THOR:registros:rC:NONE:v0 (auto-composite)
URAN     .ppm         UNKNOWN        : URAN:registros:rC:NONE:v0 (auto-composite)
~A
# ...
   2333.2437
       8.9840      -0.7350      -0.0080      53.8000      15.0300    -999.2500
    -999.2500    -999.2500   16448.0625    -999.2500    9982.0029    -999.2500
    1712.5000       0.0931       3.1700       0.0000       2.5710      -0.1670
       1.9490
   2333.3962
       8.9530      -0.2966      -0.0090      54.6455      15.1881    -999.2500
    -999.2500    -999.2500   18470.4199    -999.2500   10740.5771    -999.2500
    1453.3585       0.0855       3.1360       0.0005       2.5970      -0.2300
       1.9110
   2333.5486
       8.9220       0.1420      -0.0100      55.4900      15.3460    -999.2500
    -999.2500    -999.2500   20490.5703    -999.2500   11498.3232    -999.2500
    1194.5000       0.0809       3.1020       0.0010       2.6230      -0.2930
       1.8730
   2333.7009
       8.9565       0.0395      -0.0090      56.1323      14.9553    -999.2500
    -999.2500    -999.2500   25438.4570    -999.2500   12154.5439    -999.2500
    1597.6946       0.0803       3.1085       0.0010       2.6620      -0.2865
       1.8270
   2333.8533
       8.9910      -0.0630      -0.0080      56.7740      14.5650    -999.2500
    -999.2500    -999.2500   30381.5684    -999.2500   12810.1309    -999.2500
    2000.5000       0.0811       3.1150       0.0010       2.7010      -0.2800
       1.7810
   2334.0056
       9.0150       0.3277      -0.0065      56.8870      15.3328    -999.2500
    -999.2500    -999.2500   30300.2051    -999.2500   11659.0742    -999.2500
    1989.6255       0.0838       3.1405       0.0010       2.7005      -0.2045
       1.8265
   2334.1582
       9.0390       0.7180      -0.0050      57.0000      16.1000    -999.2500
    -999.2500    -999.2500   30218.9102    -999.2500   10508.9854    -999.2500
    1978.7600       0.0871       3.1660       0.0010       2.7000      -0.1290
       1.8720
   2334.3105
       9.0455       0.5744      -0.0065      57.1020      15.8974    -999.2500
    -999.2500    -999.2500   35063.0117    -999.2500   11059.1299    -999.2500
    1563.4817       0.0913       3.1310       0.0010       2.6915      -0.2130
       1.8650
   2334.4629
       9.0520       0.4310      -0.0080      57.2040      15.6950    -999.2500
    -999.2500    -999.2500   39903.6484    -999.2500   11608.8809    -999.2500
    1148.5000       0.1104       3.0960       0.0010       2.6830      -0.2970
       1.8580
   2334.6152
       9.0535      -0.5918      -0.0100      57.7522      14.2496    -999.2500
    -999.2500    -999.2500   39787.6953    -999.2500   12200.7559    -999.2500
    1411.8451       0.1484       3.1105       0.0005       2.6870      -0.2935
       1.8065
   2334.7678
       9.0550      -1.6140      -0.0120      58.3000      12.8050    -999.2500
    -999.2500    -999.2500   39671.8086    -999.2500   12792.2822    -999.2500
    1675.0350       0.1692       3.1250       0.0000       2.6910      -0.2900
       1.7550
   2334.9202
       9.0785      -1.1059      -0.0090      58.1635      13.4987    -999.2500
    -999.2500    -999.2500   37496.7383    -999.2500   11898.0908    -999.2500
    1837.8053       0.1685       3.0985       0.0000       2.6760      -0.2375
       1.7775
   2335.0725
       9.1020      -0.5980      -0.0060      58.0270      14.1920    -999.2500
    -999.2500    -999.2500   35322.6797    -999.2500   11004.3145    -999.2500
    2000.5000       0.1524       3.0720       0.0000       2.6610      -0.1850
       1.8000
   2335.2249
       9.0990      -0.1819      -0.0070      57.3149      15.2567    -999.2500
    -999.2500    -999.2500   22257.5898    -999.2500    7816.7090    -999.2500
    2000.5000       0.1173       3.0830       0.0000       2.6615      -0.0750
       1.8575
   2335.3774
       9.0960       0.2340      -0.0080      56.6030      16.3210    -999.2500
    -999.2500    -999.2500    9196.9219    -999.2500    4630.1821    -999.2500
    2000.5000       0.0906       3.0940       0.0000       2.6620       0.0350
       1.9150
   2335.5298
       9.0755      -0.4001      -0.0130      55.6514      16.0680    -999.2500
    -999.2500    -999.2500    5558.6733    -999.2500    3070.6558    -999.2500
    1967.9966       0.0739       3.1015      -0.0005       2.6610       0.0225
       1.9680
   2335.6821
       9.0550      -1.0340      -0.0180      54.7000      15.8150    -999.2500
    -999.2500    -999.2500    1921.1980    -999.2500    1511.4611    -999.2500
    1935.5000       0.0679       3.1090      -0.0010       2.6600       0.0100
       2.0210
   2335.8345
       9.8870      -0.7955      -0.0140      54.8025      16.3080    -999.2500
    -999.2500    -999.2500    1388.9403    -999.2500    1199.3579    -999.2500
    1968.0015       0.0745       3.0635      -0.0005       2.6765       0.0380
       2.0670
   2335.9868
      10.7190      -0.5570      -0.0100      54.9050      16.8010    -999.2500
    -999.2500    -999.2500     856.7290    -999.2500     887.2820    -999.2500
    2000.5000       0.0836       3.0180       0.0000       2.6930       0.0660
       2.1130
   2336.1394
      10.4990      -0.4365      -0.0055      56.6345      17.1220    -999.2500
    -999.2500    -999.2500    1039.6794    -999.2500    1081.0348    -999.2500
    1514.1733       0.0955       3.0465       0.0000       2.6890       0.0520
       2.1375
   2336.2917
      10.2790      -0.3160      -0.0010      58.3640      17.4430    -999.2500
    -999.2500    -999.2500    1222.6370    -999.2500    1274.7950    -999.2500
    1027.8280       0.1017       3.0750       0.0000       2.6850       0.0380
       2.1620
   2336.4441
       9.8325      -0.1660      -0.0020      60.1819      17.8205    -999.2500
    -999.2500    -999.2500    1565.6824    -999.2500    1575.1359    -999.2500
     654.0072       0.1016       3.1255       0.0000       2.6730      -0.0045
       2.1895
   2336.5964
       9.3860      -0.0160      -0.0030      62.0000      18.1980    -999.2500
    -999.2500    -999.2500    1908.7841    -999.2500    1875.5260    -999.2500
     280.1250       0.0974       3.1760       0.0000       2.6610      -0.0470
       2.2170
   2336.7490
       9.2165      -0.3744      -0.0050      59.4153      17.1158    -999.2500
    -999.2500    -999.2500    3277.4834    -999.2500    2605.8015    -999.2500
     649.2291       0.0887       3.1630       0.0005       2.6475      -0.2535
       2.1565
   2336.9014
       9.0470      -0.7330      -0.0070      56.8340      16.0350    -999.2500
    -999.2500    -999.2500    4644.3872    -999.2500    3335.1189    -999.2500
    1018.4400       0.0834       3.1500       0.0010       2.6340      -0.4600
       2.0960
   2337.0537
       9.0495      -0.4930      -0.0055      54.0153      16.1926    -999.2500
    -999.2500    -999.2500    8998.3281    -999.2500    4576.2100    -999.2500
    1481.1914       0.0817       3.1860       0.0010       2.6470      -0.4260
       2.0670
   2337.2061
       9.0520      -0.2530      -0.0040      51.2000      16.3500    -999.2500
    -999.2500    -999.2500   13347.1064    -999.2500    5815.8301    -999.2500
    1944.1350       0.0824       3.2220       0.0010       2.6600      -0.3920
       2.0380
   2337.3586
       9.1315      -0.4285      -0.0025      52.2721      16.6236    -999.2500
    -999.2500    -999.2500   26616.9531    -999.2500   14478.8184    -999.2500
    1972.3325       0.0857       3.3140       0.0005       2.6720      -0.3075
       2.0840
   2337.5110
       9.2110      -0.6040      -0.0010      53.3430      16.8970    -999.2500
    -999.2500    -999.2500   39872.7227    -999.2500   23132.6152    -999.2500
    2000.5000       0.0873       3.4060       0.0000       2.6840      -0.2230
       2.1300
   2337.6633
       9.1525      -0.8559      -0.0020      53.9948      17.4002    -999.2500
    -999.2500    -999.2500   38800.9141    -999.2500   20216.4395    -999.2500
    1891.9492       0.0871       3.3195       0.0000       2.6820      -0.1885
       2.2315
   2337.8157
       9.0940      -1.1080      -0.0030      54.6460      17.9030    -999.2500
    -999.2500    -999.2500   37730.1094    -999.2500   17302.9902    -999.2500
    1783.5000       0.0858       3.2330       0.0000       2.6800      -0.1540
       2.3330
