#------------------------------------------------------------------------------
#
#   Created by  : [OpenWorks] Log Export Utility (LEXP)
#   Created on  : 2016-05-11 12:13:38
#   Project     : CANT971
#   User        : R5K
#   Interpreter : PEP
#
#------------------------------------------------------------------------------
~VERSION INFORMATION
VERS. 2.0 : CWLS Log ASCII Standard - version 2.0
WRAP. YES : Mulitple lines per depth step
~WELL INFORMATION
#MNEMONIC   .UNIT                                           VALUE :DESCRIPTION
#------------------------------------------------------------------------------
STRT        .M                                           689.1525 :START DEPTH
STOP        .M                                          2872.1301 :STOP DEPTH
STEP        .M                                             0.1524 :STEP
NULL        .                                           -999.2500 :NULL VALUE
COMP        .                                   PEMEX EXPL & PROD :COMPANY
WELL        .                                                1087 :WELL
FLD         .                                           CANTARELL :FIELD
LOC         .                                             UNKNOWN :LOCATION
CNTY        .                                      CD. DEL CARMEN :COUNTY
STAT        .                                            CAMPECHE :STATE
CTRY        .                                              MEXICO :COUNTRY
SRVC        .                                             UNKNOWN :SERVICE COMPANY
DATE        .                                             UNKNOWN :LOG DATE
UWI         .                                          3060000754 :UNIQUE WELL ID
XCOORD      .                                       601390.242000 :SURFACE X
YCOORD      .                                      2149875.824000 :SURFACE Y
LAT         .                                           19.441862 :LATITUDE
LON         .                                          -92.034144 :LONGITUDE
ELEV        .M                                            28.0000 :SURFACE ELEV
ELEV_TYPE   .                                                  KB :ELEV TYPE
~CURVE INFORMATION
#MNEMONIC.UNIT        API CODE       : CURVE DESCRIPTION
#------------------------------------------------------------------------------
DEPTH    .M                          : Measured Depth
CALI     .inches      UNKNOWN        : CALI:registros:rC:NONE:v0 (auto-composite)
CGR      .API         UNKNOWN        : CGR:registros:rC:NONE:v0 (auto-composite)
DRHO     .g/cm3       UNKNOWN        : DRHO:registros:rC:NONE:v0 (auto-composite)
DT       .UNKNOWN     UNKNOWN        : DT:registros:rC:NONE:v0 (auto-composite)
GR       .API         UNKNOWN        : GR:registros:rC:NONE:v0 (auto-composite)
GR-LWD   .UNKNOWN     UNKNOWN        : GR-LWD:registros:rC:NONE:v0 (auto-composite)
ILD      .ohm.m       UNKNOWN        : ILD:registros:rC:NONE:v0 (auto-composite)
ILM      .ohm.m       UNKNOWN        : ILM:registros:rC:NONE:v0 (auto-composite)
LLD      .ohm.m       UNKNOWN        : LLD:registros:rC:NONE:v0 (auto-composite)
LLD-LWD  .UNKNOWN     UNKNOWN        : LLD-LWD:registros:rC:NONE:v0 (auto-composite)
LLS      .ohm.m       UNKNOWN        : LLS:registros:rC:NONE:v0 (auto-composite)
LLS-LWD  .UNKNOWN     UNKNOWN        : LLS-LWD:registros:rC:NONE:v0 (auto-composite)
MSFL     .ohm.m       UNKNOWN        : MSFL:registros:rC:NONE:v0 (auto-composite)
NPHI     .v/v_decimal UNKNOWN        : NPHI:registros:rC:NONE:v0 (auto-composite)
PEF      .UNKNOWN     UNKNOWN        : PEF:registros:rC:NONE:v0 (auto-composite)
POTA     .UNKNOWN     UNKNOWN        : POTA:registros:rC:NONE:v0 (auto-composite)
RHOB     .g/cm3       UNKNOWN        : RHOB:registros:rC:NONE:v0 (auto-composite)
THOR     .ppm         UNKNOWN        : THOR:registros:rC:NONE:v0 (auto-composite)
URAN     .ppm         UNKNOWN        : URAN:registros:rC:NONE:v0 (auto-composite)
~A
# ...
   2418.2830
       8.8050       3.2120      -0.0080      60.7880      23.4270    -999.2500
    -999.2500    -999.2500    1364.6479    -999.2500    1400.6560    -999.2500
     807.7720       0.0922       3.1800       0.0000       2.5960       0.4970
       2.2300
   2418.4353
       8.8050       7.0249      -0.0145      56.7914      36.2058    -999.2500
    -999.2500    -999.2500     744.0643    -999.2500     766.0942    -999.2500
     492.0056       0.0856       3.3695       0.0000       2.5960       0.6630
       3.4353
   2418.5876
       8.8050      10.8390      -0.0210      52.8000      48.9680    -999.2500
    -999.2500    -999.2500     124.2830    -999.2500     132.3530    -999.2500
     176.1420       0.0788       3.5590       0.0000       2.5960       0.8290
       4.6410
   2418.7402
       8.8635      10.8375      -0.0210      52.8140      48.9625    -999.2500
    -999.2500    -999.2500     124.2900    -999.2500     132.3725    -999.2500
     110.0794       0.0752       3.5585       0.0025       2.6135       0.6639
       4.6405
   2418.8926
       8.9220      10.8360      -0.0210      52.8280      48.9570    -999.2500
    -999.2500    -999.2500     124.2970    -999.2500     132.3920    -999.2500
      44.0940       0.0720       3.5580       0.0050       2.6310       0.4990
       4.6400
   2419.0449
       8.8555       9.6494      -0.0165      56.3764      40.6327    -999.2500
    -999.2500    -999.2500     126.2765    -999.2500     137.6793    -999.2500
     187.0590       0.0806       3.3504       0.0040       2.7000       0.5000
       3.7710
   2419.1973
       8.7890       8.4640      -0.0120      59.9210      32.3170    -999.2500
    -999.2500    -999.2500     128.2540    -999.2500     142.9610    -999.2500
     329.8750       0.0906       3.1430       0.0030       2.7690       0.5010
       2.9030
   2419.3496
       8.7970      10.2693      -0.0095      65.2629      34.6055    -999.2500
    -999.2500    -999.2500     211.3331    -999.2500     233.6501    -999.2500
     203.8172       0.1048       3.1430       0.0040       2.7690       0.8146
       2.9620
   2419.5022
       8.8050      12.0730      -0.0070      70.6000      36.8920    -999.2500
    -999.2500    -999.2500     294.3360    -999.2500     324.2560    -999.2500
      77.8750       0.1195       3.1430       0.0050       2.7690       1.1280
       3.0210
   2419.6545
       8.7970      12.0700      -0.0070      68.7493      36.8835    -999.2500
    -999.2500    -999.2500     263.6439    -999.2500     285.7688    -999.2500
     141.2441       0.1196       3.2335       0.0050       2.6960       1.1280
       3.0205
   2419.8069
       8.7890      12.0670      -0.0070      66.9000      36.8750    -999.2500
    -999.2500    -999.2500     232.9760    -999.2500     247.3120    -999.2500
     204.5630       0.1183       3.3240       0.0050       2.6230       1.1280
       3.0200
   2419.9592
       8.7890      11.6594      -0.0120      66.9105      35.6706    -999.2500
    -999.2500    -999.2500     233.2216    -999.2500     247.5296    -999.2500
     171.4890       0.1171       3.3240       0.0045       2.6230       0.9269
       2.9230
   2420.1118
       8.7890      11.2520      -0.0170      66.9210      34.4670    -999.2500
    -999.2500    -999.2500     233.4670    -999.2500     247.7470    -999.2500
     138.4370       0.1158       3.3240       0.0040       2.6230       0.7260
       2.8260
   2420.2642
       8.7890       9.4315      -0.0155      68.2113      32.7300    -999.2500
    -999.2500    -999.2500     268.9606    -999.2500     278.5838    -999.2500
     345.1494       0.1137       3.3115       0.0035       2.6255       0.7260
       2.7210
   2420.4165
       8.7890       7.6120      -0.0140      69.5010      30.9940    -999.2500
    -999.2500    -999.2500     304.4350    -999.2500     309.4040    -999.2500
     551.7500       0.1115       3.2990       0.0030       2.6280       0.7260
       2.6160
   2420.5688
       8.7890       7.6155      -0.0140      70.9508      29.3507    -999.2500
    -999.2500    -999.2500     576.6600    -999.2500     552.2079    -999.2500
     550.9908       0.1035       3.1515       0.0030       2.6490       0.7275
       2.5305
   2420.7214
       8.7890       7.6190      -0.0140      72.4000      27.7080    -999.2500
    -999.2500    -999.2500     848.7720    -999.2500     794.9110    -999.2500
     550.2320       0.0951       3.0040       0.0030       2.6700       0.7290
       2.4450
   2420.8738
       8.7890       7.9580      -0.0160      72.3885      25.7237    -999.2500
    -999.2500    -999.2500     811.9391    -999.2500     732.5810    -999.2500
     485.3926       0.0988       3.0050       0.0030       2.6780       0.7630
       2.0249
   2421.0261
       8.7890       8.2970      -0.0180      72.3770      23.7400    -999.2500
    -999.2500    -999.2500     775.1170    -999.2500     670.2690    -999.2500
     420.5720       0.1034       3.0060       0.0030       2.6860       0.7970
       1.6050
   2421.1785
       8.7890       9.4496      -0.0160      63.8378      23.7690    -999.2500
    -999.2500    -999.2500     775.4780    -999.2500     670.5550    -999.2500
     248.9594       0.0968       3.1555       0.0040       2.6930       0.9800
       1.6055
   2421.3308
       8.7890      10.6020      -0.0140      55.3000      23.7980    -999.2500
    -999.2500    -999.2500     775.8390    -999.2500     670.8410    -999.2500
      77.3750       0.0894       3.3050       0.0050       2.7000       1.1630
       1.6060
   2421.4834
       8.7890      12.3405      -0.0155      55.3030      26.0894    -999.2500
    -999.2500    -999.2500     859.9545    -999.2500     749.6021    -999.2500
      78.2465       0.0758       3.1810       0.0050       2.6840       1.3260
       1.6730
   2421.6357
       8.7890      14.0790      -0.0170      55.3060      28.3770    -999.2500
    -999.2500    -999.2500     943.9320    -999.2500     828.2340    -999.2500
      79.1180       0.0619       3.0570       0.0050       2.6680       1.4890
       1.7400
   2421.7881
       8.7890      15.5484      -0.0170      55.5030      35.7736    -999.2500
    -999.2500    -999.2500     933.6177    -999.2500     819.7346    -999.2500
     347.4223       0.0644       3.0575       0.0050       2.6690       1.7910
       2.4610
   2421.9404
       8.7890      17.0180      -0.0170      55.7000      43.1590    -999.2500
    -999.2500    -999.2500     923.3190    -999.2500     811.2480    -999.2500
     615.7500       0.0678       3.0580       0.0050       2.6700       2.0930
       3.1820
   2422.0930
       8.7890      16.9940      -0.0135      56.4505      43.0519    -999.2500
    -999.2500    -999.2500     571.0979    -999.2500     510.6948    -999.2500
     608.4838       0.0683       3.1145       0.0050       2.7095       2.0830
       3.1720
   2422.2454
       8.7890      16.9700      -0.0100      57.2000      42.9450    -999.2500
    -999.2500    -999.2500     219.3660    -999.2500     210.5590    -999.2500
     601.2160       0.0687       3.1710       0.0050       2.7490       2.0730
       3.1620
   2422.3977
       8.8165      22.4041      -0.0105      56.4495      50.1996    -999.2500
    -999.2500    -999.2500     169.9183    -999.2500     165.5236    -999.2500
     352.8685       0.0769       3.1885       0.0065       2.7720       2.9324
       3.3825
   2422.5500
       8.8440      27.8400      -0.0110      55.7000      57.4450    -999.2500
    -999.2500    -999.2500     120.5330    -999.2500     120.5450    -999.2500
     104.4370       0.0854       3.2060       0.0080       2.7950       3.7920
       3.6030
   2422.7026
       8.8165      27.7014      -0.0105      55.8156      57.2594    -999.2500
    -999.2500    -999.2500     108.0734    -999.2500     108.7963    -999.2500
     114.9745       0.1008       3.3461       0.0060       2.7950       3.7720
       3.5975
   2422.8550
       8.7890      27.5630      -0.0100      55.9310      57.0740    -999.2500
    -999.2500    -999.2500      95.6280    -999.2500      97.0610    -999.2500
     125.5000       0.1165       3.4860       0.0040       2.7950       3.7520
       3.5920
