#------------------------------------------------------------------------------
#
#   Created by  : [OpenWorks] Log Export Utility (LEXP)
#   Created on  : 2016-05-11 12:13:38
#   Project     : CANT971
#   User        : R5K
#   Interpreter : PEP
#
#------------------------------------------------------------------------------
~VERSION INFORMATION
VERS. 2.0 : CWLS Log ASCII Standard - version 2.0
WRAP. YES : Mulitple lines per depth step
~WELL INFORMATION
#MNEMONIC   .UNIT                                           VALUE :DESCRIPTION
#------------------------------------------------------------------------------
STRT        .M                                           689.1525 :START DEPTH
STOP        .M                                          2872.1301 :STOP DEPTH
STEP        .M                                             0.1524 :STEP
NULL        .                                           -999.2500 :NULL VALUE
COMP        .                                   PEMEX EXPL & PROD :COMPANY
WELL        .                                                1087 :WELL
FLD         .                                           CANTARELL :FIELD
LOC         .                                             UNKNOWN :LOCATION
CNTY        .                                      CD. DEL CARMEN :COUNTY
STAT        .                                            CAMPECHE :STATE
CTRY        .                                              MEXICO :COUNTRY
SRVC        .                                             UNKNOWN :SERVICE COMPANY
DATE        .                                             UNKNOWN :LOG DATE
UWI         .                                          3060000754 :UNIQUE WELL ID
XCOORD      .                                       601390.242000 :SURFACE X
YCOORD      .                                      2149875.824000 :SURFACE Y
LAT         .                                           19.441862 :LATITUDE
LON         .                                          -92.034144 :LONGITUDE
ELEV        .M                                            28.0000 :SURFACE ELEV
ELEV_TYPE   .                                                  KB :ELEV TYPE
~CURVE INFORMATION
#MNEMONIC.UNIT        API CODE       : CURVE DESCRIPTION
#------------------------------------------------------------------------------
DEPTH    .M                          : Measured Depth
CALI     .inches      UNKNOWN        : CALI:registros:rC:NONE:v0 (auto-composite)
CGR      .API         UNKNOWN        : CGR:registros:rC:NONE:v0 (auto-composite)
DRHO     .g/cm3       UNKNOWN        : DRHO:registros:rC:NONE:v0 (auto-composite)
DT       .UNKNOWN     UNKNOWN        : DT:registros:rC:NONE:v0 (auto-composite)
GR       .API         UNKNOWN        : GR:registros:rC:NONE:v0 (auto-composite)
GR-LWD   .UNKNOWN     UNKNOWN        : GR-LWD:registros:rC:NONE:v0 (auto-composite)
ILD      .ohm.m       UNKNOWN        : ILD:registros:rC:NONE:v0 (auto-composite)
ILM      .ohm.m       UNKNOWN        : ILM:registros:rC:NONE:v0 (auto-composite)
LLD      .ohm.m       UNKNOWN        : LLD:registros:rC:NONE:v0 (auto-composite)
LLD-LWD  .UNKNOWN     UNKNOWN        : LLD-LWD:registros:rC:NONE:v0 (auto-composite)
LLS      .ohm.m       UNKNOWN        : LLS:registros:rC:NONE:v0 (auto-composite)
LLS-LWD  .UNKNOWN     UNKNOWN        : LLS-LWD:registros:rC:NONE:v0 (auto-composite)
MSFL     .ohm.m       UNKNOWN        : MSFL:registros:rC:NONE:v0 (auto-composite)
NPHI     .v/v_decimal UNKNOWN        : NPHI:registros:rC:NONE:v0 (auto-composite)
PEF      .UNKNOWN     UNKNOWN        : PEF:registros:rC:NONE:v0 (auto-composite)
POTA     .UNKNOWN     UNKNOWN        : POTA:registros:rC:NONE:v0 (auto-composite)
RHOB     .g/cm3       UNKNOWN        : RHOB:registros:rC:NONE:v0 (auto-composite)
THOR     .ppm         UNKNOWN        : THOR:registros:rC:NONE:v0 (auto-composite)
URAN     .ppm         UNKNOWN        : URAN:registros:rC:NONE:v0 (auto-composite)
~A
# ...
   2314.3462
       8.8850      -1.8940      -0.0150      65.1000      32.2690    -999.2500
    -999.2500    -999.2500    5793.1118    -999.2500    2204.7019    -999.2500
     590.5330       0.0812       3.0630       0.0000       2.6520      -0.3040
       4.1690
   2314.4985
       8.9035      -2.9786      -0.0095      69.9021      29.9100    -999.2500
    -999.2500    -999.2500    5338.1357    -999.2500    2125.8528    -999.2500
     537.9897       0.0820       3.1275       0.0000       2.6900      -0.5609
       4.0086
   2314.6509
       8.9220      -4.0640      -0.0040      74.7000      27.5530    -999.2500
    -999.2500    -999.2500    4883.5542    -999.2500    2047.0720    -999.2500
     485.4920       0.0833       3.1920       0.0000       2.7280      -0.8180
       3.8480
   2314.8032
       8.9220      -2.9231       0.0055      72.0490      28.6219    -999.2500
    -999.2500    -999.2500    4444.1323    -999.2500    1918.0756    -999.2500
     255.6296       0.0893       3.2495      -0.0005       2.7025      -0.6034
       3.8945
   2314.9558
       8.9220      -1.7830       0.0150      69.4000      29.6900    -999.2500
    -999.2500    -999.2500    4005.0371    -999.2500    1789.1750    -999.2500
      25.9380       0.0950       3.3070      -0.0010       2.6770      -0.3890
       3.9410
   2315.1082
       8.9845      -1.9696       0.0135      71.8007      30.4792    -999.2500
    -999.2500    -999.2500    3812.4778    -999.2500    1812.2246    -999.2500
      50.6956       0.0985       3.2980      -0.0010       2.6395      -0.2405
       4.0195
   2315.2605
       9.0470      -2.1560       0.0120      74.2000      31.2680    -999.2500
    -999.2500    -999.2500    3620.0371    -999.2500    1835.2600    -999.2500
      75.4380       0.1022       3.2890      -0.0010       2.6020      -0.0920
       4.0980
   2315.4128
       9.0350      -3.0637       0.0120      69.7489      30.3813    -999.2500
    -999.2500    -999.2500    3652.7600    -999.2500    1883.8905    -999.2500
      61.4186       0.1069       3.2745      -0.0010       2.6175      -0.2035
       4.0480
   2315.5654
       9.0230      -3.9710       0.0120      65.3000      29.4950    -999.2500
    -999.2500    -999.2500    3685.4670    -999.2500    1932.4969    -999.2500
      47.4060       0.1120       3.2600      -0.0010       2.6330      -0.3150
       3.9980
   2315.7178
       9.0305      -3.8205       0.0095      73.8726      25.4328    -999.2500
    -999.2500    -999.2500    3586.7415    -999.2500    1875.1174    -999.2500
      65.1127       0.1197       3.2455      -0.0010       2.6455      -0.5020
       3.5109
   2315.8701
       9.0380      -3.6700       0.0070      82.4420      21.3720    -999.2500
    -999.2500    -999.2500    3488.0520    -999.2500    1817.7590    -999.2500
      82.8130       0.1279       3.2310      -0.0010       2.6580      -0.6890
       3.0240
   2316.0225
       9.0425      -3.0979       0.0015      94.3224      21.9201    -999.2500
    -999.2500    -999.2500    3523.4927    -999.2500    1844.9368    -999.2500
      77.4684       0.1389       3.2085      -0.0005       2.6365      -0.6170
       3.0330
   2316.1750
       9.0470      -2.5260      -0.0040     106.2000      22.4680    -999.2500
    -999.2500    -999.2500    3558.9250    -999.2500    1872.1080    -999.2500
      72.1250       0.1473       3.1860       0.0000       2.6150      -0.5450
       3.0420
   2316.3274
       8.9765      -1.5769      -0.0090      94.1773      23.7571    -999.2500
    -999.2500    -999.2500    3928.4199    -999.2500    2138.1575    -999.2500
      75.7122       0.1380       3.1575       0.0000       2.5755      -0.4460
       3.0835
   2316.4797
       8.9060      -0.6280      -0.0140      82.1560      25.0460    -999.2500
    -999.2500    -999.2500    4297.8721    -999.2500    2404.1760    -999.2500
      79.2990       0.1275       3.1290       0.0000       2.5360      -0.3470
       3.1250
   2316.6321
       8.9140       1.5865      -0.0175      56.1281      27.8975    -999.2500
    -999.2500    -999.2500    5225.6929    -999.2500    3082.7690    -999.2500
     121.5438       0.1096       3.0760       0.0005       2.5475      -0.0635
       3.2025
   2316.7844
       8.9220       3.8010      -0.0210      30.1000      30.7490    -999.2500
    -999.2500    -999.2500    6153.5229    -999.2500    3761.3689    -999.2500
     163.7890       0.0936       3.0230       0.0010       2.5590       0.2200
       3.2800
   2316.9370
       8.8595       3.5085      -0.0195      39.0210      29.9894    -999.2500
    -999.2500    -999.2500    6105.5938    -999.2500    3759.7043    -999.2500
     735.1057       0.0907       3.0370       0.0015       2.6005       0.1265
       3.2230
   2317.0894
       8.7970       3.2160      -0.0180      47.9290      29.2310    -999.2500
    -999.2500    -999.2500    6057.7349    -999.2500    3758.0420    -999.2500
    1306.5000       0.0891       3.0510       0.0020       2.6420       0.0330
       3.1660
   2317.2417
       8.8595       2.8311      -0.0145      58.5406      28.2203    -999.2500
    -999.2500    -999.2500    5822.7192    -999.2500    3634.2812    -999.2500
     996.8625       0.0956       3.1835       0.0020       2.6825      -0.0535
       3.0900
   2317.3940
       8.9220       2.4460      -0.0110      69.1380      27.2110    -999.2500
    -999.2500    -999.2500    5588.0181    -999.2500    3510.6860    -999.2500
     687.1440       0.1006       3.3160       0.0020       2.7230      -0.1400
       3.0140
   2317.5466
       8.8555       2.8149      -0.0135      79.1026      27.5847    -999.2500
    -999.2500    -999.2500    5667.6396    -999.2500    3635.5974    -999.2500
     483.1740       0.0973       3.3020       0.0020       2.6970      -0.1110
       3.0145
   2317.6990
       8.7890       3.1840      -0.0160      89.0550      27.9580    -999.2500
    -999.2500    -999.2500    5747.1641    -999.2500    3760.3569    -999.2500
     279.1250       0.0935       3.2880       0.0020       2.6710      -0.0820
       3.0150
   2317.8513
       8.7940       3.7484      -0.0150      94.2849      28.8455    -999.2500
    -999.2500    -999.2500    5564.7681    -999.2500    3647.7432    -999.2500
     619.8501       0.0873       3.2455       0.0020       2.6780       0.1169
       3.0545
   2318.0037
       8.7990       4.3130      -0.0140      99.5090      29.7320    -999.2500
    -999.2500    -999.2500    5382.5708    -999.2500    3535.2520    -999.2500
     960.7500       0.0846       3.2030       0.0020       2.6850       0.3160
       3.0940
   2318.1560
       8.8450       2.9909      -0.0115     102.1128      27.4829    -999.2500
    -999.2500    -999.2500    5047.1211    -999.2500    3351.3137    -999.2500
     955.1698       0.1013       3.2120       0.0015       2.7055       0.1715
       2.9815
   2318.3086
       8.8910       1.6680      -0.0090     104.7140      25.2360    -999.2500
    -999.2500    -999.2500    4711.9951    -999.2500    3167.5530    -999.2500
     949.5950       0.1157       3.2210       0.0010       2.7260       0.0270
       2.8690
   2318.4609
       8.8400       2.1878      -0.0105     109.0588      26.1499    -999.2500
    -999.2500    -999.2500    4450.9082    -999.2500    2955.6519    -999.2500
     541.6577       0.1182       3.1575       0.0010       2.6985       0.0725
       2.9165
   2318.6133
       8.7890       2.7080      -0.0120     113.4000      27.0630    -999.2500
    -999.2500    -999.2500    4190.0400    -999.2500    2743.9280    -999.2500
     134.0620       0.1189       3.0940       0.0010       2.6710       0.1180
       2.9640
   2318.7656
       8.8435       3.5083      -0.0135     109.8392      28.5255    -999.2500
    -999.2500    -999.2500    4334.7935    -999.2500    2846.7532    -999.2500
     280.6297       0.1109       3.0995       0.0015       2.6515       0.2185
       3.0450
   2318.9182
       8.8980       4.3080      -0.0150     106.2810      29.9870    -999.2500
    -999.2500    -999.2500    4479.4438    -999.2500    2949.5049    -999.2500
     427.0930       0.1047       3.1050       0.0020       2.6320       0.3190
       3.1260
