#------------------------------------------------------------------------------
#
#   Created by  : [OpenWorks] Log Export Utility (LEXP)
#   Created on  : 2016-05-11 12:13:38
#   Project     : CANT971
#   User        : R5K
#   Interpreter : PEP
#
#------------------------------------------------------------------------------
~VERSION INFORMATION
VERS. 2.0 : CWLS Log ASCII Standard - version 2.0
WRAP. YES : Mulitple lines per depth step
~WELL INFORMATION
#MNEMONIC   .UNIT                                           VALUE :DESCRIPTION
#------------------------------------------------------------------------------
STRT        .M                                           689.1525 :START DEPTH
STOP        .M                                          2872.1301 :STOP DEPTH
STEP        .M                                             0.1524 :STEP
NULL        .                                           -999.2500 :NULL VALUE
COMP        .                                   PEMEX EXPL & PROD :COMPANY
WELL        .                                                1087 :WELL
FLD         .                                           CANTARELL :FIELD
LOC         .                                             UNKNOWN :LOCATION
CNTY        .                                      CD. DEL CARMEN :COUNTY
STAT        .                                            CAMPECHE :STATE
CTRY        .                                              MEXICO :COUNTRY
SRVC        .                                             UNKNOWN :SERVICE COMPANY
DATE        .                                             UNKNOWN :LOG DATE
UWI         .                                          3060000754 :UNIQUE WELL ID
XCOORD      .                                       601390.242000 :SURFACE X
YCOORD      .                                      2149875.824000 :SURFACE Y
LAT         .                                           19.441862 :LATITUDE
LON         .                                          -92.034144 :LONGITUDE
ELEV        .M                                            28.0000 :SURFACE ELEV
ELEV_TYPE   .                                                  KB :ELEV TYPE
~CURVE INFORMATION
#MNEMONIC.UNIT        API CODE       : CURVE DESCRIPTION
#------------------------------------------------------------------------------
DEPTH    .M                          : Measured Depth
CALI     .inches      UNKNOWN        : CALI:registros:rC:NONE:v0 (auto-composite)
CGR      .API         UNKNOWN        : CGR:registros:rC:NONE:v0 (auto-composite)
DRHO     .g/cm3       UNKNOWN        : DRHO:registros:rC:NONE:v0 (auto-composite)
DT       .UNKNOWN     UNKNOWN        : DT:registros:rC:NONE:v0 (auto-composite)
GR       .API         UNKNOWN        : GR:registros:rC:NONE:v0 (auto-composite)
GR-LWD   .UNKNOWN     UNKNOWN        : GR-LWD:registros:rC:NONE:v0 (auto-composite)
ILD      .ohm.m       UNKNOWN        : ILD:registros:rC:NONE:v0 (auto-composite)
ILM      .ohm.m       UNKNOWN        : ILM:registros:rC:NONE:v0 (auto-composite)
LLD      .ohm.m       UNKNOWN        : LLD:registros:rC:NONE:v0 (auto-composite)
LLD-LWD  .UNKNOWN     UNKNOWN        : LLD-LWD:registros:rC:NONE:v0 (auto-composite)
LLS      .ohm.m       UNKNOWN        : LLS:registros:rC:NONE:v0 (auto-composite)
LLS-LWD  .UNKNOWN     UNKNOWN        : LLS-LWD:registros:rC:NONE:v0 (auto-composite)
MSFL     .ohm.m       UNKNOWN        : MSFL:registros:rC:NONE:v0 (auto-composite)
NPHI     .v/v_decimal UNKNOWN        : NPHI:registros:rC:NONE:v0 (auto-composite)
PEF      .UNKNOWN     UNKNOWN        : PEF:registros:rC:NONE:v0 (auto-composite)
POTA     .UNKNOWN     UNKNOWN        : POTA:registros:rC:NONE:v0 (auto-composite)
RHOB     .g/cm3       UNKNOWN        : RHOB:registros:rC:NONE:v0 (auto-composite)
THOR     .ppm         UNKNOWN        : THOR:registros:rC:NONE:v0 (auto-composite)
URAN     .ppm         UNKNOWN        : URAN:registros:rC:NONE:v0 (auto-composite)
~A
# ...
   2163.1653
      14.8740      42.7280       0.0300     110.3000      55.8200    -999.2500
       2.7917       2.4533       1.8990    -999.2500       1.5690    -999.2500
       2.6350       1.2933       2.8910       0.0160       2.1310       4.2440
       1.4920
   2163.3176
      14.7026      43.7975       0.0465     114.2013      58.8951    -999.2500
       2.6788       2.4047       1.9005    -999.2500       1.5150    -999.2500
       2.6325       1.0016       2.8925       0.0160       2.1980       4.5554
       1.7864
   2163.4702
      14.5310      44.8680       0.0630     118.1000      61.9680    -999.2500
       2.5511       2.3954       1.9020    -999.2500       1.4610    -999.2500
       2.6300       0.6544       2.8940       0.0160       2.2650       4.8670
       2.0810
   2163.6226
      14.9098      43.1084       0.1010     114.3489      60.0640    -999.2500
       2.4504       2.3632       1.9805    -999.2500       1.6365    -999.2500
       2.4439       0.4560       2.9745       0.0145       2.2645       4.8580
       2.0640
   2163.7749
      15.2890      41.3470       0.1390     110.6000      58.1610    -999.2500
       2.4767       2.3468       2.0590    -999.2500       1.8120    -999.2500
       2.2580       0.4119       3.0550       0.0130       2.2640       4.8490
       2.0470
   2163.9272
      15.2875      41.6988       0.1495     110.6900      59.2912    -999.2500
       2.5936       2.4335       2.3051    -999.2500       1.8090    -999.2500
       2.3495       0.3762       3.2539       0.0130       2.2530       4.9205
       2.1414
   2164.0798
      15.2860      42.0510       0.1600     110.7800      60.4210    -999.2500
       2.7397       2.6453       2.5510    -999.2500       1.8060    -999.2500
       2.4410       0.3489       3.4530       0.0130       2.2420       4.9920
       2.2360
   2164.2322
      15.2260      39.4177       0.1595     114.6151      56.7524    -999.2500
       2.8621       2.8651       2.0009    -999.2500       1.3849    -999.2500
       2.4375       0.3335       3.2626       0.0120       2.2405       4.7751
       2.1106
   2164.3845
      15.1660      36.7810       0.1590     118.4490      53.0850    -999.2500
       2.9436       3.0296       1.4510    -999.2500       0.9640    -999.2500
       2.4340       0.3300       3.0720       0.0110       2.2390       4.5580
       1.9850
   2164.5369
      14.8445      40.4133       0.1305     126.1252      58.4650    -999.2500
       2.9268       3.1466       1.4520    -999.2500       0.9680    -999.2500
       2.2120       0.3479       3.1295       0.0125       2.2245       4.7860
       2.1975
   2164.6892
      14.5230      44.0450       0.1020     133.8000      63.8440    -999.2500
       2.8300       3.0348       1.4530    -999.2500       0.9720    -999.2500
       1.9900       0.3869       3.1870       0.0140       2.2100       5.0140
       2.4100
   2164.8418
      14.5230      44.0220       0.0565     133.6005      63.8145    -999.2500
       2.7400       2.6739       1.8435    -999.2500       1.2180    -999.2500
       2.2920       0.4266       3.1025       0.0140       2.1780       5.0095
       2.4090
   2164.9941
      14.5230      43.9990       0.0110     133.4010      63.7850    -999.2500
       2.5035       2.2679       2.2340    -999.2500       1.4640    -999.2500
       2.5940       0.4669       3.0180       0.0140       2.1460       5.0050
       2.4080
   2165.1465
      14.6910      41.6751       0.0115     124.4508      60.8876    -999.2500
       2.3262       1.9984       1.8505    -999.2500       1.4635    -999.2500
       2.4740       0.4836       3.0210       0.0140       2.1465       4.8450
       2.3385
   2165.2988
      14.8590      39.3510       0.0120     115.5000      57.9900    -999.2500
       2.2520       1.9264       1.4670    -999.2500       1.4630    -999.2500
       2.3540       0.4783       3.0240       0.0140       2.1470       4.6850
       2.2690
   2165.4514
      14.7380      39.3765       0.0570     120.3534      58.0225    -999.2500
       2.2080       1.9787       1.4715    -999.2500       1.4070    -999.2500
       2.4965       0.4582       3.1925       0.0140       2.2305       4.3900
       2.2695
   2165.6038
      14.6170      39.4020       0.1020     125.2000      58.0550    -999.2500
       2.1381       2.0607       1.4760    -999.2500       1.3510    -999.2500
       2.6390       0.4244       3.3610       0.0140       2.3140       4.0950
       2.2700
   2165.7561
      14.6230      41.3287       0.1015     125.0889      60.7296    -999.2500
       2.0505       2.0334       1.7909    -999.2500       1.3535    -999.2500
       2.6385       0.4089       3.3590       0.0155       2.3140       4.0030
       2.3610
   2165.9084
      14.6290      43.2560       0.1010     124.9780      63.4050    -999.2500
       1.9483       1.9531       2.1060    -999.2500       1.3560    -999.2500
       2.6380       0.4097       3.3570       0.0170       2.3140       3.9110
       2.4520
   2166.0610
      14.8205      43.2025       0.0635     119.5859      63.3275    -999.2500
       1.8670       1.8017       2.0430    -999.2500       1.4611    -999.2500
       2.5955       0.4082       3.2890       0.0170       2.3115       3.7935
       2.4495
   2166.2134
      15.0120      43.1490       0.0260     114.2000      63.2500    -999.2500
       1.8157       1.7801       1.9800    -999.2500       1.5660    -999.2500
       2.5530       0.4048       3.2210       0.0170       2.3090       3.6760
       2.4470
   2166.3657
      15.4044      40.0299       0.0270     114.4106      57.9688    -999.2500
       1.8014       1.7902       1.9980    -999.2500       1.4855    -999.2500
       2.6845       0.3714       3.1710       0.0165       2.3450       3.1452
       2.3555
   2166.5181
      15.7970      36.9090       0.0280     114.6210      52.6930    -999.2500
       1.7994       1.8242       2.0160    -999.2500       1.4050    -999.2500
       2.8160       0.3122       3.1210       0.0160       2.3810       2.6140
       2.2640
   2166.6704
      15.3282      36.9235       0.0495     120.7178      52.6945    -999.2500
       1.8005       1.8519       1.8314    -999.2500       1.4055    -999.2500
       2.8095       0.3121       3.0105       0.0160       2.3135       2.6155
       2.0481
   2166.8230
      14.8590      36.9380       0.0710     126.8090      52.6960    -999.2500
       1.8019       1.9042       1.6470    -999.2500       1.4060    -999.2500
       2.8030       0.3619       2.9000       0.0160       2.2460       2.6170
       1.8320
   2166.9753
      15.1249      38.9587       0.0950     128.3356      56.0578    -999.2500
       1.8067       1.9798       1.6530    -999.2500       1.4150    -999.2500
       2.3807       0.3916       2.9950       0.0160       2.2510       3.0368
       2.0379
   2167.1277
      15.3910      40.9810       0.1190     129.8610      59.4170    -999.2500
       1.8111       2.0518       1.6590    -999.2500       1.4240    -999.2500
       1.9580       0.4049       3.0900       0.0160       2.2560       3.4570
       2.2440
   2167.2800
      15.3855      39.4212       0.1185     130.7288      57.2213    -999.2500
       1.8139       2.1046       1.9081    -999.2500       1.5215    -999.2500
       2.1501       0.4313       3.0895       0.0155       2.2555       3.2906
       2.1665
   2167.4326
      15.3800      37.8600       0.1180     131.5960      55.0270    -999.2500
       1.8159       2.1182       2.1570    -999.2500       1.6190    -999.2500
       2.3420       0.4682       3.0890       0.0150       2.2550       3.1240
       2.0890
   2167.5850
      15.2421      37.9435       0.1040     133.0064      55.1545    -999.2500
       1.8188       2.1213       2.0650    -999.2500       1.5480    -999.2500
       2.0949       0.4773       3.0700       0.0150       2.2470       3.2589
       2.0945
   2167.7373
      15.1040      38.0270       0.0900     134.4160      55.2820    -999.2500
       1.8209       2.1221       1.9730    -999.2500       1.4770    -999.2500
       1.8480       0.4643       3.0510       0.0150       2.2390       3.3940
       2.1000
