#------------------------------------------------------------------------------
#
#   Created by  : [OpenWorks] Log Export Utility (LEXP)
#   Created on  : 2016-05-11 12:13:38
#   Project     : CANT971
#   User        : R5K
#   Interpreter : PEP
#
#------------------------------------------------------------------------------
~VERSION INFORMATION
VERS. 2.0 : CWLS Log ASCII Standard - version 2.0
WRAP. YES : Mulitple lines per depth step
~WELL INFORMATION
#MNEMONIC   .UNIT                                           VALUE :DESCRIPTION
#------------------------------------------------------------------------------
STRT        .M                                           689.1525 :START DEPTH
STOP        .M                                          2872.1301 :STOP DEPTH
STEP        .M                                             0.1524 :STEP
NULL        .                                           -999.2500 :NULL VALUE
COMP        .                                   PEMEX EXPL & PROD :COMPANY
WELL        .                                                1087 :WELL
FLD         .                                           CANTARELL :FIELD
LOC         .                                             UNKNOWN :LOCATION
CNTY        .                                      CD. DEL CARMEN :COUNTY
STAT        .                                            CAMPECHE :STATE
CTRY        .                                              MEXICO :COUNTRY
SRVC        .                                             UNKNOWN :SERVICE COMPANY
DATE        .                                             UNKNOWN :LOG DATE
UWI         .                                          3060000754 :UNIQUE WELL ID
XCOORD      .                                       601390.242000 :SURFACE X
YCOORD      .                                      2149875.824000 :SURFACE Y
LAT         .                                           19.441862 :LATITUDE
LON         .                                          -92.034144 :LONGITUDE
ELEV        .M                                            28.0000 :SURFACE ELEV
ELEV_TYPE   .                                                  KB :ELEV TYPE
~CURVE INFORMATION
#MNEMONIC.UNIT        API CODE       : CURVE DESCRIPTION
#------------------------------------------------------------------------------
DEPTH    .M                          : Measured Depth
CALI     .inches      UNKNOWN        : CALI:registros:rC:NONE:v0 (auto-composite)
CGR      .API         UNKNOWN        : CGR:registros:rC:NONE:v0 (auto-composite)
DRHO     .g/cm3       UNKNOWN        : DRHO:registros:rC:NONE:v0 (auto-composite)
DT       .UNKNOWN     UNKNOWN        : DT:registros:rC:NONE:v0 (auto-composite)
GR       .API         UNKNOWN        : GR:registros:rC:NONE:v0 (auto-composite)
GR-LWD   .UNKNOWN     UNKNOWN        : GR-LWD:registros:rC:NONE:v0 (auto-composite)
ILD      .ohm.m       UNKNOWN        : ILD:registros:rC:NONE:v0 (auto-composite)
ILM      .ohm.m       UNKNOWN        : ILM:registros:rC:NONE:v0 (auto-composite)
LLD      .ohm.m       UNKNOWN        : LLD:registros:rC:NONE:v0 (auto-composite)
LLD-LWD  .UNKNOWN     UNKNOWN        : LLD-LWD:registros:rC:NONE:v0 (auto-composite)
LLS      .ohm.m       UNKNOWN        : LLS:registros:rC:NONE:v0 (auto-composite)
LLS-LWD  .UNKNOWN     UNKNOWN        : LLS-LWD:registros:rC:NONE:v0 (auto-composite)
MSFL     .ohm.m       UNKNOWN        : MSFL:registros:rC:NONE:v0 (auto-composite)
NPHI     .v/v_decimal UNKNOWN        : NPHI:registros:rC:NONE:v0 (auto-composite)
PEF      .UNKNOWN     UNKNOWN        : PEF:registros:rC:NONE:v0 (auto-composite)
POTA     .UNKNOWN     UNKNOWN        : POTA:registros:rC:NONE:v0 (auto-composite)
RHOB     .g/cm3       UNKNOWN        : RHOB:registros:rC:NONE:v0 (auto-composite)
THOR     .ppm         UNKNOWN        : THOR:registros:rC:NONE:v0 (auto-composite)
URAN     .ppm         UNKNOWN        : URAN:registros:rC:NONE:v0 (auto-composite)
~A
# ...
   2375.7634
       8.8905       4.0317       0.0000      86.8063      26.5934    -999.2500
    -999.2500    -999.2500    2994.9500    -999.2500    2518.2134    -999.2500
    1815.5320       0.0678       3.1175       0.0015       2.7460       0.5151
       2.7105
   2375.9158
       8.8590       0.0740       0.0000      86.5130      24.0870    -999.2500
    -999.2500    -999.2500    2092.0081    -999.2500    1675.0590    -999.2500
    1630.5000       0.0660       3.2050       0.0000       2.7660       0.1170
       2.8660
   2376.0681
       8.8855       1.2732      -0.0010      81.2035      25.6849    -999.2500
    -999.2500    -999.2500    1429.4945    -999.2500    1136.9142    -999.2500
    1815.4563       0.0662       3.2470       0.0005       2.7765       0.1645
       2.9150
   2376.2205
       8.9120       2.4730      -0.0020      75.9000      27.2810    -999.2500
    -999.2500    -999.2500     767.7290    -999.2500     599.3770    -999.2500
    2000.5000       0.0774       3.2890       0.0010       2.7870       0.2120
       2.9640
   2376.3730
       8.9285       3.6386      -0.0045      80.2022      27.2805    -999.2500
    -999.2500    -999.2500     784.2543    -999.2500     632.0534    -999.2500
    1338.7926       0.0878       3.2330       0.0020       2.7790       0.0604
       2.8499
   2376.5254
       8.9450       4.8030      -0.0070      84.5000      27.2800    -999.2500
    -999.2500    -999.2500     800.7630    -999.2500     664.6970    -999.2500
     677.7500       0.0942       3.1770       0.0030       2.7710      -0.0910
       2.7360
   2376.6777
       8.9355       4.7580      -0.0115      71.5443      27.4401    -999.2500
    -999.2500    -999.2500    1269.6379    -999.2500    1107.1769    -999.2500
    1339.4156       0.1022       3.1490       0.0030       2.7445      -0.0680
       2.7620
   2376.8301
       8.9260       4.7130      -0.0160      58.6000      27.6000    -999.2500
    -999.2500    -999.2500    1738.1010    -999.2500    1549.2679    -999.2500
    2000.5000       0.1174       3.1210       0.0030       2.7180      -0.0450
       2.7880
   2376.9824
       8.8810       1.9955      -0.0140      74.3559      23.8576    -999.2500
    -999.2500    -999.2500    2509.5547    -999.2500    2224.2612    -999.2500
    1071.1183       0.1277       3.1690       0.0020       2.7115      -0.2971
       2.6620
   2377.1350
       8.8360      -0.7200      -0.0120      90.1000      20.1180    -999.2500
    -999.2500    -999.2500    3280.4270    -999.2500    2898.7461    -999.2500
     142.4370       0.1149       3.2170       0.0010       2.7050      -0.5490
       2.5360
   2377.2874
       8.8460       0.0948      -0.0150      88.3259      21.5845    -999.2500
    -999.2500    -999.2500    2157.1921    -999.2500    1921.5735    -999.2500
     255.1914       0.1025       3.2035       0.0005       2.6650      -0.2489
       2.6155
   2377.4397
       8.8560       0.9090      -0.0180      86.5530      23.0500    -999.2500
    -999.2500    -999.2500    1034.6620    -999.2500     945.0140    -999.2500
     367.8750       0.0920       3.1900       0.0000       2.6250       0.0510
       2.6950
   2377.5920
       8.8840       1.7927      -0.0120      75.9963      24.0868    -999.2500
    -999.2500    -999.2500     863.0434    -999.2500     766.2066    -999.2500
     291.8619       0.0859       3.1020       0.0005       2.6300       0.1840
       2.7145
   2377.7446
       8.9120       2.6760      -0.0060      65.4450      25.1230    -999.2500
    -999.2500    -999.2500     691.5110    -999.2500     587.4890    -999.2500
     215.8870       0.0987       3.0140       0.0010       2.6350       0.3170
       2.7340
   2377.8970
       8.9170       3.8987      -0.0005      63.1221      26.3157    -999.2500
    -999.2500    -999.2500     747.3300    -999.2500     618.9319    -999.2500
     171.0601       0.1173       3.0490       0.0015       2.6570       0.3030
       2.7300
   2378.0493
       8.9220       5.1210       0.0050      60.8000      27.5080    -999.2500
    -999.2500    -999.2500     803.1280    -999.2500     650.3630    -999.2500
     126.2500       0.1600       3.0840       0.0020       2.6790       0.2890
       2.7260
   2378.2017
       8.9220       3.7043       0.0045      60.8425      25.5258    -999.2500
    -999.2500    -999.2500    1506.1443    -999.2500    1433.4965    -999.2500
     503.4544       0.1870       3.0655       0.0015       2.6995       0.2635
       2.6565
   2378.3542
       8.9220       2.2880       0.0040      60.8850      23.5440    -999.2500
    -999.2500    -999.2500    2208.9839    -999.2500    2216.4331    -999.2500
     880.5640       0.1493       3.0470       0.0010       2.7200       0.2380
       2.5870
   2378.5066
       8.8555       1.4879      -0.0005      60.9775      21.1684    -999.2500
    -999.2500    -999.2500    2502.2368    -999.2500    2160.4165    -999.2500
    1358.5620       0.1186       3.0520       0.0010       2.7300       0.0860
       2.3955
   2378.6589
       8.7890       0.6880      -0.0050      61.0700      18.7930    -999.2500
    -999.2500    -999.2500    2795.4529    -999.2500    2104.4070    -999.2500
    1836.5000       0.1158       3.0570       0.0010       2.7400      -0.0660
       2.2040
   2378.8113
       8.7890      -0.0515      -0.0065      65.5050      17.3035    -999.2500
    -999.2500    -999.2500    1621.8729    -999.2500    1238.5845    -999.2500
    1403.5145       0.1131       3.0480       0.0005       2.7310      -0.1435
       2.1125
   2378.9636
       8.7890      -0.7910      -0.0080      69.9400      15.8140    -999.2500
    -999.2500    -999.2500     448.2930    -999.2500     372.7620    -999.2500
     970.5290       0.1107       3.0390       0.0000       2.7220      -0.2210
       2.0210
   2379.1162
       8.8455      -1.4390      -0.0135      71.9215      14.7207    -999.2500
    -999.2500    -999.2500     339.2650    -999.2500     293.8648    -999.2500
     685.4389       0.1087       3.0550       0.0000       2.6780      -0.3205
       1.9670
   2379.2686
       8.9020      -2.0870      -0.0190      73.9000      13.6290    -999.2500
    -999.2500    -999.2500     230.3980    -999.2500     215.0840    -999.2500
     400.3130       0.1080       3.0710       0.0000       2.6340      -0.4200
       1.9130
   2379.4209
       9.0800       3.3743      -0.0125      70.3976      30.8181    -999.2500
    -999.2500    -999.2500     327.5305    -999.2500     296.3553    -999.2500
     207.7277       0.1120       3.1750       0.0015       2.5715       0.2964
       3.3388
   2379.5732
       9.2580       8.8370      -0.0060      66.9000      47.9840    -999.2500
    -999.2500    -999.2500     424.5320    -999.2500     377.5170    -999.2500
      15.0940       0.1331       3.2790       0.0030       2.5090       1.0130
       4.7650
   2379.7258
       9.1525      10.1912      -0.0000      68.2673      51.8088    -999.2500
    -999.2500    -999.2500     547.7945    -999.2500     487.3928    -999.2500
      18.0334       0.1552       3.3525       0.0030       2.4690       1.2740
       5.0654
   2379.8782
       9.0470      11.5460       0.0060      69.6330      55.6290    -999.2500
    -999.2500    -999.2500     670.9060    -999.2500     597.1340    -999.2500
      20.9740       0.1810       3.4260       0.0030       2.4290       1.5350
       5.3660
   2380.0305
       9.0550       9.8984       0.0230      71.4675      53.6229    -999.2500
    -999.2500    -999.2500     668.3776    -999.2500     597.0729    -999.2500
     109.9816       0.1949       3.3565       0.0025       2.4310       1.3296
       5.3225
   2380.1829
       9.0630       8.2500       0.0400      73.3000      51.6190    -999.2500
    -999.2500    -999.2500     665.8520    -999.2500     597.0120    -999.2500
     199.0340       0.1686       3.2870       0.0020       2.4330       1.1240
       5.2790
   2380.3352
       8.9990       5.7373       0.0295      72.2995      36.7883    -999.2500
    -999.2500    -999.2500     576.9692    -999.2500     507.7030    -999.2500
     322.5146       0.1460       3.2735       0.0015       2.4890       0.7113
       3.7793
