#------------------------------------------------------------------------------
#
#   Created by  : [OpenWorks] Log Export Utility (LEXP)
#   Created on  : 2016-05-11 12:13:38
#   Project     : CANT971
#   User        : R5K
#   Interpreter : PEP
#
#------------------------------------------------------------------------------
~VERSION INFORMATION
VERS. 2.0 : CWLS Log ASCII Standard - version 2.0
WRAP. YES : Mulitple lines per depth step
~WELL INFORMATION
#MNEMONIC   .UNIT                                           VALUE :DESCRIPTION
#------------------------------------------------------------------------------
STRT        .M                                           689.1525 :START DEPTH
STOP        .M                                          2872.1301 :STOP DEPTH
STEP        .M                                             0.1524 :STEP
NULL        .                                           -999.2500 :NULL VALUE
COMP        .                                   PEMEX EXPL & PROD :COMPANY
WELL        .                                                1087 :WELL
FLD         .                                           CANTARELL :FIELD
LOC         .                                             UNKNOWN :LOCATION
CNTY        .                                      CD. DEL CARMEN :COUNTY
STAT        .                                            CAMPECHE :STATE
CTRY        .                                              MEXICO :COUNTRY
SRVC        .                                             UNKNOWN :SERVICE COMPANY
DATE        .                                             UNKNOWN :LOG DATE
UWI         .                                          3060000754 :UNIQUE WELL ID
XCOORD      .                                       601390.242000 :SURFACE X
YCOORD      .                                      2149875.824000 :SURFACE Y
LAT         .                                           19.441862 :LATITUDE
LON         .                                          -92.034144 :LONGITUDE
ELEV        .M                                            28.0000 :SURFACE ELEV
ELEV_TYPE   .                                                  KB :ELEV TYPE
~CURVE INFORMATION
#MNEMONIC.UNIT        API CODE       : CURVE DESCRIPTION
#------------------------------------------------------------------------------
DEPTH    .M                          : Measured Depth
CALI     .inches      UNKNOWN        : CALI:registros:rC:NONE:v0 (auto-composite)
CGR      .API         UNKNOWN        : CGR:registros:rC:NONE:v0 (auto-composite)
DRHO     .g/cm3       UNKNOWN        : DRHO:registros:rC:NONE:v0 (auto-composite)
DT       .UNKNOWN     UNKNOWN        : DT:registros:rC:NONE:v0 (auto-composite)
GR       .API         UNKNOWN        : GR:registros:rC:NONE:v0 (auto-composite)
GR-LWD   .UNKNOWN     UNKNOWN        : GR-LWD:registros:rC:NONE:v0 (auto-composite)
ILD      .ohm.m       UNKNOWN        : ILD:registros:rC:NONE:v0 (auto-composite)
ILM      .ohm.m       UNKNOWN        : ILM:registros:rC:NONE:v0 (auto-composite)
LLD      .ohm.m       UNKNOWN        : LLD:registros:rC:NONE:v0 (auto-composite)
LLD-LWD  .UNKNOWN     UNKNOWN        : LLD-LWD:registros:rC:NONE:v0 (auto-composite)
LLS      .ohm.m       UNKNOWN        : LLS:registros:rC:NONE:v0 (auto-composite)
LLS-LWD  .UNKNOWN     UNKNOWN        : LLS-LWD:registros:rC:NONE:v0 (auto-composite)
MSFL     .ohm.m       UNKNOWN        : MSFL:registros:rC:NONE:v0 (auto-composite)
NPHI     .v/v_decimal UNKNOWN        : NPHI:registros:rC:NONE:v0 (auto-composite)
PEF      .UNKNOWN     UNKNOWN        : PEF:registros:rC:NONE:v0 (auto-composite)
POTA     .UNKNOWN     UNKNOWN        : POTA:registros:rC:NONE:v0 (auto-composite)
RHOB     .g/cm3       UNKNOWN        : RHOB:registros:rC:NONE:v0 (auto-composite)
THOR     .ppm         UNKNOWN        : THOR:registros:rC:NONE:v0 (auto-composite)
URAN     .ppm         UNKNOWN        : URAN:registros:rC:NONE:v0 (auto-composite)
~A
# ...
   2271.8264
       9.0470      -3.8716      -0.0130      52.6118      29.5303    -999.2500
    -999.2500    -999.2500    6485.0596    -999.2500    1821.2158    -999.2500
    1242.7434       0.0547       3.2125      -0.0005       2.7410      -0.8555
       4.0652
   2271.9790
       9.0470      -3.7010      -0.0130      53.4230      35.1410    -999.2500
    -999.2500    -999.2500    4139.0918    -999.2500    1237.4440    -999.2500
     669.6840       0.0535       3.2510       0.0000       2.7450      -0.8260
       4.7280
   2272.1313
       9.0470      -4.4727      -0.0105      58.1132      33.9956    -999.2500
    -999.2500    -999.2500    2769.9402    -999.2500     847.2966    -999.2500
     422.5265       0.0566       3.4134      -0.0005       2.7500      -0.9524
       4.6825
   2272.2837
       9.0470      -5.2450      -0.0080      62.8000      32.8510    -999.2500
    -999.2500    -999.2500    1401.7531    -999.2500     457.4240    -999.2500
     175.5430       0.0671       3.5760      -0.0010       2.7550      -1.0790
       4.6370
   2272.4360
       9.1800      -4.2562      -0.0090      62.3369      34.6775    -999.2500
    -999.2500    -999.2500     964.4404    -999.2500     320.6329    -999.2500
     144.9191       0.0748       3.5675      -0.0005       2.7335      -0.6474
       4.7390
   2272.5886
       9.3130      -3.2680      -0.0100      61.8740      36.5030    -999.2500
    -999.2500    -999.2500     527.3810    -999.2500     183.9210    -999.2500
     114.3130       0.0780       3.5590       0.0000       2.7120      -0.2160
       4.8410
   2272.7410
       9.2745      -1.9017      -0.0125      60.2241      39.0431    -999.2500
    -999.2500    -999.2500     587.5406    -999.2500     208.0530    -999.2500
     196.4026       0.0723       3.5320       0.0000       2.7135      -0.2500
       4.9835
   2272.8933
       9.2360      -0.5360      -0.0150      58.5750      41.5820    -999.2500
    -999.2500    -999.2500     647.6730    -999.2500     232.1740    -999.2500
     278.4550       0.0518       3.5050       0.0000       2.7150      -0.2840
       5.1260
   2273.0457
       9.1260       1.4828      -0.0135      55.2870      44.7180    -999.2500
    -999.2500    -999.2500    1012.4559    -999.2500     568.6937    -999.2500
    1043.1029       0.0355       3.3355       0.0010       2.7350      -0.1435
       5.2620
   2273.1982
       9.0160       3.5010      -0.0120      52.0000      47.8530    -999.2500
    -999.2500    -999.2500    1377.1190    -999.2500     905.1030    -999.2500
    1807.5000       0.0259       3.1660       0.0020       2.7550      -0.0030
       5.3980
   2273.3506
       9.0275       3.0600      -0.0075      52.3785      47.1279    -999.2500
    -999.2500    -999.2500    1997.4718    -999.2500     891.8747    -999.2500
    1579.0579       0.0199       3.1995       0.0020       2.8025      -0.0675
       5.3635
   2273.5029
       9.0390       2.6190      -0.0030      52.7570      46.4030    -999.2500
    -999.2500    -999.2500    2617.6990    -999.2500     878.6490    -999.2500
    1350.6620       0.0194       3.2330       0.0020       2.8500      -0.1320
       5.3290
   2273.6553
       9.0195       0.8849      -0.0060      53.8975      42.5814    -999.2500
    -999.2500    -999.2500    2261.4348    -999.2500     746.9269    -999.2500
     973.9415       0.0198       3.3205       0.0010       2.8485      -0.2580
       5.0750
   2273.8076
       9.0000      -0.8490      -0.0090      55.0380      38.7600    -999.2500
    -999.2500    -999.2500    1905.1980    -999.2500     615.2150    -999.2500
     597.2500       0.0215       3.4080       0.0000       2.8470      -0.3840
       4.8210
   2273.9602
       9.0050      -3.3159      -0.0085      56.3690      32.5906    -999.2500
    -999.2500    -999.2500    1486.4127    -999.2500     486.6157    -999.2500
    1230.8596       0.0230       3.3955      -0.0005       2.8355      -0.6305
       4.4745
   2274.1125
       9.0100      -5.7830      -0.0080      57.7000      26.4210    -999.2500
    -999.2500    -999.2500    1067.6071    -999.2500     358.0100    -999.2500
    1864.5000       0.0241       3.3830      -0.0010       2.8240      -0.8770
       4.1280
   2274.2649
       9.0245      -4.6771      -0.0075      57.1001      27.3329    -999.2500
    -999.2500    -999.2500     904.3613    -999.2500     318.3870    -999.2500
    1863.6031       0.0253       3.4795      -0.0000       2.8285      -0.8475
       3.9710
   2274.4172
       9.0390      -3.5710      -0.0070      56.5000      28.2450    -999.2500
    -999.2500    -999.2500     741.0870    -999.2500     278.7570    -999.2500
    1862.7061       0.0265       3.5760       0.0010       2.8330      -0.8180
       3.8140
   2274.5698
       9.0285      -1.6903      -0.0090      57.6252      30.1607    -999.2500
    -999.2500    -999.2500     643.9973    -999.2500     259.7296    -999.2500
     989.8589       0.0302       3.5695       0.0010       2.8290      -0.6410
       3.8475
   2274.7222
       9.0180       0.1910      -0.0110      58.7490      32.0740    -999.2500
    -999.2500    -999.2500     547.0340    -999.2500     240.7270    -999.2500
     116.7500       0.0377       3.5630       0.0010       2.8250      -0.4640
       3.8810
   2274.8745
       9.0010      -0.3859      -0.0150      63.0270      31.2960    -999.2500
    -999.2500    -999.2500     480.4634    -999.2500     222.8395    -999.2500
     145.6644       0.0455       3.5300       0.0010       2.8115      -0.4980
       3.8565
   2275.0269
       8.9840      -0.9630      -0.0190      67.3000      30.5190    -999.2500
    -999.2500    -999.2500     413.9710    -999.2500     204.9730    -999.2500
     174.5910       0.0537       3.4970       0.0010       2.7980      -0.5320
       3.8320
   2275.1794
       9.0780       0.4951      -0.0185      65.5491      32.7757    -999.2500
    -999.2500    -999.2500     370.0829    -999.2500     185.0475    -999.2500
     272.7060       0.0596       3.4095       0.0010       2.7820      -0.2506
       3.9290
   2275.3318
       9.1720       1.9540      -0.0180      63.8000      35.0300    -999.2500
    -999.2500    -999.2500     326.2410    -999.2500     165.1430    -999.2500
     370.8750       0.0622       3.3220       0.0010       2.7660       0.0310
       4.0260
   2275.4841
       9.1435       0.6245      -0.0150      64.8505      33.2947    -999.2500
    -999.2500    -999.2500     347.3163    -999.2500     175.2642    -999.2500
     363.7459       0.0611       3.3835       0.0010       2.7515      -0.1010
       3.9765
   2275.6365
       9.1150      -0.7060      -0.0120      65.9000      31.5610    -999.2500
    -999.2500    -999.2500     368.3720    -999.2500     185.3760    -999.2500
     356.6120       0.0551       3.4450       0.0010       2.7370      -0.2330
       3.9270
   2275.7888
       9.0690      -0.5985      -0.0070      65.4688      31.8131    -999.2500
    -999.2500    -999.2500     473.6451    -999.2500     235.4105    -999.2500
     254.6087       0.0523       3.4075       0.0005       2.7500      -0.1535
       3.9450
   2275.9414
       9.0230      -0.4910      -0.0020      65.0380      32.0650    -999.2500
    -999.2500    -999.2500     578.8340    -999.2500     285.4050    -999.2500
     152.6870       0.0538       3.3700       0.0000       2.7630      -0.0740
       3.9630
   2276.0938
       9.0285      -0.9733      -0.0040      61.4678      31.4898    -999.2500
    -999.2500    -999.2500     999.2226    -999.2500     451.1573    -999.2500
     164.9176       0.0554       3.2740      -0.0005       2.7435      -0.1140
       3.9515
   2276.2461
       9.0340      -1.4560      -0.0060      57.9000      30.9150    -999.2500
    -999.2500    -999.2500    1419.3280    -999.2500     616.7980    -999.2500
     177.1400       0.0571       3.1780      -0.0010       2.7240      -0.1540
       3.9400
   2276.3984
       9.0405      -2.8159      -0.0095      62.5513      29.3241    -999.2500
    -999.2500    -999.2500    1336.0142    -999.2500     557.4322    -999.2500
     638.4465       0.0590       3.1935      -0.0010       2.7285      -0.3656
       3.9120
