#------------------------------------------------------------------------------
#
#   Created by  : [OpenWorks] Log Export Utility (LEXP)
#   Created on  : 2016-05-11 12:13:38
#   Project     : CANT971
#   User        : R5K
#   Interpreter : PEP
#
#------------------------------------------------------------------------------
~VERSION INFORMATION
VERS. 2.0 : CWLS Log ASCII Standard - version 2.0
WRAP. YES : Mulitple lines per depth step
~WELL INFORMATION
#MNEMONIC   .UNIT                                           VALUE :DESCRIPTION
#------------------------------------------------------------------------------
STRT        .M                                           689.1525 :START DEPTH
STOP        .M                                          2872.1301 :STOP DEPTH
STEP        .M                                             0.1524 :STEP
NULL        .                                           -999.2500 :NULL VALUE
COMP        .                                   PEMEX EXPL & PROD :COMPANY
WELL        .                                                1087 :WELL
FLD         .                                           CANTARELL :FIELD
LOC         .                                             UNKNOWN :LOCATION
CNTY        .                                      CD. DEL CARMEN :COUNTY
STAT        .                                            CAMPECHE :STATE
CTRY        .                                              MEXICO :COUNTRY
SRVC        .                                             UNKNOWN :SERVICE COMPANY
DATE        .                                             UNKNOWN :LOG DATE
UWI         .                                          3060000754 :UNIQUE WELL ID
XCOORD      .                                       601390.242000 :SURFACE X
YCOORD      .                                      2149875.824000 :SURFACE Y
LAT         .                                           19.441862 :LATITUDE
LON         .                                          -92.034144 :LONGITUDE
ELEV        .M                                            28.0000 :SURFACE ELEV
ELEV_TYPE   .                                                  KB :ELEV TYPE
~CURVE INFORMATION
#MNEMONIC.UNIT        API CODE       : CURVE DESCRIPTION
#------------------------------------------------------------------------------
DEPTH    .M                          : Measured Depth
CALI     .inches      UNKNOWN        : CALI:registros:rC:NONE:v0 (auto-composite)
CGR      .API         UNKNOWN        : CGR:registros:rC:NONE:v0 (auto-composite)
DRHO     .g/cm3       UNKNOWN        : DRHO:registros:rC:NONE:v0 (auto-composite)
DT       .UNKNOWN     UNKNOWN        : DT:registros:rC:NONE:v0 (auto-composite)
GR       .API         UNKNOWN        : GR:registros:rC:NONE:v0 (auto-composite)
GR-LWD   .UNKNOWN     UNKNOWN        : GR-LWD:registros:rC:NONE:v0 (auto-composite)
ILD      .ohm.m       UNKNOWN        : ILD:registros:rC:NONE:v0 (auto-composite)
ILM      .ohm.m       UNKNOWN        : ILM:registros:rC:NONE:v0 (auto-composite)
LLD      .ohm.m       UNKNOWN        : LLD:registros:rC:NONE:v0 (auto-composite)
LLD-LWD  .UNKNOWN     UNKNOWN        : LLD-LWD:registros:rC:NONE:v0 (auto-composite)
LLS      .ohm.m       UNKNOWN        : LLS:registros:rC:NONE:v0 (auto-composite)
LLS-LWD  .UNKNOWN     UNKNOWN        : LLS-LWD:registros:rC:NONE:v0 (auto-composite)
MSFL     .ohm.m       UNKNOWN        : MSFL:registros:rC:NONE:v0 (auto-composite)
NPHI     .v/v_decimal UNKNOWN        : NPHI:registros:rC:NONE:v0 (auto-composite)
PEF      .UNKNOWN     UNKNOWN        : PEF:registros:rC:NONE:v0 (auto-composite)
POTA     .UNKNOWN     UNKNOWN        : POTA:registros:rC:NONE:v0 (auto-composite)
RHOB     .g/cm3       UNKNOWN        : RHOB:registros:rC:NONE:v0 (auto-composite)
THOR     .ppm         UNKNOWN        : THOR:registros:rC:NONE:v0 (auto-composite)
URAN     .ppm         UNKNOWN        : URAN:registros:rC:NONE:v0 (auto-composite)
~A
# ...
   2186.7874
      10.2775      -2.2031      -0.0135      76.0863      66.4731    -999.2500
    -999.2500    -999.2500      16.4621    -999.2500      13.2497    -999.2500
      35.6884       0.2726       3.3550      -0.0005       2.4065      -0.4266
       8.4995
   2186.9397
      10.2100      -0.8970      -0.0130      73.9390      66.6970    -999.2500
    -999.2500    -999.2500      15.1800    -999.2500      12.3510    -999.2500
      13.1410       0.2824       3.3530       0.0000       2.4090      -0.2890
       8.5090
   2187.0920
      10.1415      -0.9775      -0.0060      66.9177      68.5825    -999.2500
    -999.2500    -999.2500      15.2160    -999.2500      12.3690    -999.2500
      13.5446       0.3674       3.2850       0.0000       2.4310      -0.2985
       8.5985
   2187.2446
      10.0730      -1.0580       0.0010      59.9000      70.4670    -999.2500
    -999.2500    -999.2500      15.2520    -999.2500      12.3870    -999.2500
      13.9480       0.4613       3.2170       0.0000       2.4530      -0.3080
       8.6880
   2187.3970
      10.0130      -0.9356       0.0010      59.9745      71.5537    -999.2500
    -999.2500    -999.2500      15.6241    -999.2500      12.6130    -999.2500
     484.4376       0.3955       3.2200       0.0000       2.4810      -0.2940
       8.8139
   2187.5493
       9.9530      -0.8130       0.0010      60.0490      72.6400    -999.2500
    -999.2500    -999.2500      15.9960    -999.2500      12.8390    -999.2500
     954.7500       0.3117       3.2230       0.0000       2.5090      -0.2800
       8.9400
   2187.7017
       9.9530       2.3639       0.0005      61.2657      78.6388    -999.2500
    -999.2500    -999.2500      15.8520    -999.2500      12.6520    -999.2500
     484.9450       0.2460       3.2530       0.0010       2.5515       0.1130
       9.2835
   2187.8542
       9.9530       5.5400       0.0000      62.4820      84.6360    -999.2500
    -999.2500    -999.2500      15.7080    -999.2500      12.4650    -999.2500
      15.2580       0.1821       3.2830       0.0020       2.5940       0.5060
       9.6270
   2188.0066
       9.9570       2.9483      -0.0020      68.1914      81.6213    -999.2500
    -999.2500    -999.2500      16.9421    -999.2500      12.9920    -999.2500
      15.2580       0.1899       3.2595       0.0010       2.5910       0.3085
       9.5755
   2188.1589
       9.9610       0.3570      -0.0040      73.9000      78.6070    -999.2500
    -999.2500    -999.2500      18.1760    -999.2500      13.5190    -999.2500
      15.2580       0.2046       3.2360       0.0000       2.5880       0.1110
       9.5240
   2188.3113
       9.9565       0.7660      -0.0075      73.5000      79.4280    -999.2500
    -999.2500    -999.2500      18.1635    -999.2500      13.5045    -999.2500
      16.4805       0.2148       3.2655       0.0000       2.5595       0.1700
       9.5745
   2188.4636
       9.9520       1.1750      -0.0110      73.1000      80.2490    -999.2500
    -999.2500    -999.2500      18.1510    -999.2500      13.4900    -999.2500
      17.7030       0.2246       3.2950       0.0000       2.5310       0.2290
       9.6250
   2188.6162
       9.9165       7.4871      -0.0110      73.2376      91.5213    -999.2500
    -999.2500    -999.2500      18.0385    -999.2500      13.3380    -999.2500
      16.6526       0.2203       3.2900       0.0020       2.5420       0.9260
      10.2285
   2188.7686
       9.8810      13.8000      -0.0110      73.3750     102.7950    -999.2500
    -999.2500    -999.2500      17.9260    -999.2500      13.1860    -999.2500
      15.6020       0.2149       3.2850       0.0040       2.5530       1.6230
      10.8320
   2188.9209
       9.8725       9.7665      -0.0120      75.2388      97.8986    -999.2500
    -999.2500    -999.2500      17.6110    -999.2500      12.7181    -999.2500
      15.7820       0.2104       3.2390       0.0035       2.5410       0.8361
      10.7270
   2189.0732
       9.8640       5.7320      -0.0130      77.1000      93.0010    -999.2500
    -999.2500    -999.2500      17.2960    -999.2500      12.2500    -999.2500
      15.9620       0.2061       3.1930       0.0030       2.5290       0.0490
      10.6220
   2189.2258
       9.8420       5.8650      -0.0125      76.9719      93.2547    -999.2500
    -999.2500    -999.2500      15.8991    -999.2500      11.0543    -999.2500
      17.8991       0.2135       3.2000       0.0030       2.5310       0.0685
      10.6365
   2189.3782
       9.8200       5.9980      -0.0120      76.8440      93.5080    -999.2500
    -999.2500    -999.2500      14.5040    -999.2500       9.8600    -999.2500
      19.8370       0.2219       3.2070       0.0030       2.5330       0.0880
      10.6510
   2189.5305
       9.8225       7.9585      -0.0090      74.1705      97.9129    -999.2500
    -999.2500    -999.2500      13.2013    -999.2500       8.9090    -999.2500
      26.5263       0.2013       3.2600       0.0035       2.5455       0.3514
      10.9484
   2189.6829
       9.8250       9.9200      -0.0060      71.5000     102.3130    -999.2500
    -999.2500    -999.2500      11.9000    -999.2500       7.9590    -999.2500
      33.2190       0.1789       3.3130       0.0040       2.5580       0.6150
      11.2460
   2189.8352
       9.8640       6.7390       0.0045      71.6121     101.7457    -999.2500
    -999.2500    -999.2500      10.7339    -999.2500       7.0736    -999.2500
      30.8278       0.1566       3.1915       0.0035       2.5675       0.5550
      11.2250
   2189.9878
       9.9030       3.5560       0.0150      71.7240     101.1790    -999.2500
    -999.2500    -999.2500       9.5690    -999.2500       6.1890    -999.2500
      28.4350       0.1344       3.0700       0.0030       2.5770       0.4950
      11.2040
   2190.1401
      10.0619       4.0398       0.0250      73.5628      96.0673    -999.2500
    -999.2500    -999.2500       9.2043    -999.2500       5.8273    -999.2500
      18.7177       0.1605       3.1375       0.0035       2.6135      -0.0663
      10.9141
   2190.2925
      10.2210       4.5240       0.0350      75.4000      90.9600    -999.2500
    -999.2500    -999.2500       8.8400    -999.2500       5.4660    -999.2500
       8.9930       0.1894       3.2050       0.0040       2.6500      -0.6280
      10.6240
   2190.4448
      10.2570       4.2491       0.0325      74.8498      82.7535    -999.2500
    -999.2500    -999.2500       8.3208    -999.2500       5.1964    -999.2500
       7.5345       0.2029       3.2030       0.0040       2.6285      -0.6255
       9.6079
   2190.5974
      10.2930       3.9740       0.0300      74.3000      74.5530    -999.2500
    -999.2500    -999.2500       7.8020    -999.2500       4.9270    -999.2500
       6.0770       0.2157       3.2010       0.0040       2.6070      -0.6230
       8.5910
   2190.7498
      10.3065       5.0839       0.0105      74.3190      80.1492    -999.2500
    -999.2500    -999.2500       7.5449    -999.2500       4.7449    -999.2500
       5.9745       0.2172       3.0596       0.0040       2.6125      -0.2162
       9.1362
   2190.9021
      10.3200       6.1950      -0.0090      74.3380      85.7420    -999.2500
    -999.2500    -999.2500       7.2880    -999.2500       4.5630    -999.2500
       5.8720       0.2181       2.9180       0.0040       2.6180       0.1910
       9.6820
   2191.0544
      10.3160       2.6990      -0.0085      74.5651      80.5283    -999.2500
    -999.2500    -999.2500       7.1000    -999.2500       4.4840    -999.2500
       5.2268       0.2197       3.0114       0.0025       2.6175      -0.1773
       9.4736
   2191.2070
      10.3120      -0.8010      -0.0080      74.7920      75.3170    -999.2500
    -999.2500    -999.2500       6.9120    -999.2500       4.4050    -999.2500
       4.5820       0.2213       3.1050       0.0010       2.6170      -0.5460
       9.2650
   2191.3594
      10.2830      -0.4517      -0.0095      75.5436      75.8721    -999.2500
    -999.2500    -999.2500       6.9205    -999.2500       4.4105    -999.2500
       4.6800       0.2283       3.0915       0.0010       2.6100      -0.5005
       9.2900
