#------------------------------------------------------------------------------
#
#   Created by  : [OpenWorks] Log Export Utility (LEXP)
#   Created on  : 2016-05-11 12:13:39
#   Project     : CANT971
#   User        : R5K
#   Interpreter : PEP
#
#------------------------------------------------------------------------------
~VERSION INFORMATION
VERS. 2.0 : CWLS Log ASCII Standard - version 2.0
WRAP.  NO : One line per depth step
~WELL INFORMATION
#MNEMONIC   .UNIT                                           VALUE :DESCRIPTION
#------------------------------------------------------------------------------
STRT        .M                                          2180.6909 :START DEPTH
STOP        .M                                          2540.6597 :STOP DEPTH
STEP        .M                                             0.1524 :STEP
NULL        .                                           -999.2500 :NULL VALUE
COMP        .                                   PEMEX EXPL & PROD :COMPANY
WELL        .                                                1089 :WELL
FLD         .                                           CANTARELL :FIELD
LOC         .                                             UNKNOWN :LOCATION
CNTY        .                                      CD. DEL CARMEN :COUNTY
STAT        .                                            CAMPECHE :STATE
CTRY        .                                              MEXICO :COUNTRY
SRVC        .                                             UNKNOWN :SERVICE COMPANY
DATE        .                                             UNKNOWN :LOG DATE
UWI         .                                          3060000622 :UNIQUE WELL ID
XCOORD      .                                       601390.114000 :SURFACE X
YCOORD      .                                      2149872.463000 :SURFACE Y
LAT         .                                           19.441832 :LATITUDE
LON         .                                          -92.034145 :LONGITUDE
ELEV        .M                                            28.0000 :SURFACE ELEV
ELEV_TYPE   .                                                  KB :ELEV TYPE
~CURVE INFORMATION
#MNEMONIC.UNIT        API CODE       : CURVE DESCRIPTION
#------------------------------------------------------------------------------
DEPTH    .M                          : Measured Depth
CALI     .inches      UNKNOWN        : CALI:Import:rC:NONE:v0 (auto-composite)
DRHO     .g/cm3       UNKNOWN        : DRHO:Import:rC:NONE:v0 (auto-composite)
DT       .us/ft       UNKNOWN        : DT:Import:rC:NONE:v0 (auto-composite)
GR       .API         UNKNOWN        : GR:Import:rC:NONE:v0 (auto-composite)
ILD      .ohm.m       UNKNOWN        : ILD:Import:rC:NONE:v0 (auto-composite)
ILM      .ohm.m       UNKNOWN        : ILM:Import:rC:NONE:v0 (auto-composite)
LLD      .ohm.m       UNKNOWN        : LLD:Import:rC:NONE:v0 (auto-composite)
LLS      .ohm.m       UNKNOWN        : LLS:Import:rC:NONE:v0 (auto-composite)
MSFL     .ohm.m       UNKNOWN        : MSFL:Import:rC:NONE:v0 (auto-composite)
NPHI     .v/v_decimal UNKNOWN        : NPHI:Import:rC:NONE:v0 (auto-composite)
PEF      .b/elec      UNKNOWN        : PEF:Import:rC:NONE:v0 (auto-composite)
RHOB     .g/cm3       UNKNOWN        : RHOB:Import:rC:NONE:v0 (auto-composite)
~A     DEPTH         CALI         DRHO           DT           GR          ILD          ILM          LLD          LLS         MSFL         NPHI          PEF         RHOB
# ...
   2378.2014       6.6895       0.0346      82.7674      63.0666       0.2000       0.0000     422.2292     286.5058     101.4426       0.0876       3.6575       2.6448
   2378.3538       6.6850       0.0453      82.4210      67.2036       0.2000       0.0000     338.6843     232.7013      97.5907       0.0849       3.4806       2.6602
   2378.5061       6.6855       0.0511      74.4864      70.3449       0.2000       0.0000     270.8639     185.9108      91.5676       0.0791       3.3236       2.6914
   2378.6584       6.6860       0.0479      66.5580      71.7904       0.2000       0.0000     231.0582     156.0807      92.1821       0.0768       3.2572       2.7172
   2378.8110       6.6925       0.0369      69.5097      70.8690       0.2000       0.0000     214.8972     140.9181      99.2272       0.0781       3.2717       2.7359
   2378.9634       6.6990       0.0261      72.4590      70.3084       0.2000       0.0000     227.1319     144.6445     117.3405       0.0823       3.3222       2.7374
   2379.1157       6.7690       0.0164      72.0834      70.2407       0.2000       0.0000     261.8693     163.4744     144.6363       0.0887       3.3947       2.7246
   2379.2681       6.8390       0.0178      71.7080      70.6203       0.2000       0.0000     352.7435     214.3903     154.5633       0.0906       3.4766       2.7096
   2379.4204       6.7615       0.0289      65.1674      71.5979       0.2000       0.0000     490.6534     291.8881     147.7573       0.0882       3.5640       2.6945
   2379.5730       6.6840       0.0511      58.6320      71.4111       0.2000       0.0000     671.3176     392.6477     138.6721       0.0833       3.6195       2.6952
   2379.7253       6.6840       0.0820      58.7656      69.7006       0.2000       0.0000     883.6451     510.5106     129.7621       0.0767       3.6463       2.7097
   2379.8777       6.6840       0.0994      58.8990      69.7995       0.2000       0.0000     912.8823     523.0556     134.7803       0.0726       3.5920       2.7399
   2380.0300       6.6840       0.1043      62.4920      72.2164       0.2000       0.0000     780.1307     442.5647     151.7869       0.0707       3.4715       2.7817
   2380.1826       6.6840       0.0832      66.0820      73.5419       0.2000       0.0000     702.6112     387.9692     166.6922       0.0708       3.3627       2.7842
   2380.3350       6.7280       0.0416      65.5678      73.4988       0.2000       0.0000     692.1954     367.0017     178.2982       0.0722       3.2724       2.7517
   2380.4873       6.7720       0.0154      65.0540      72.2666       0.2000       0.0000     686.3171     356.4109     172.1820       0.0722       3.2321       2.7321
   2380.6396       6.7705       0.0047      61.1664      69.5745       0.2000       0.0000     676.0029     350.3650     151.6868       0.0707       3.2313       2.7274
   2380.7922       6.7690      -0.0010      57.2820      69.5086       0.2000       0.0000     672.5095     354.2997     167.1461       0.0701       3.2482       2.7259
   2380.9446       6.7330      -0.0044      56.7023      72.5992       0.2000       0.0000     675.1279     365.8401     213.6972       0.0707       3.2748       2.7253
   2381.0969       6.6970      -0.0061      56.1230      74.6249       0.2000       0.0000     691.3187     381.0513     221.8719       0.0698       3.2492       2.7279
   2381.2493       6.7120      -0.0067      56.6737      75.3974       0.2000       0.0000     717.7288     398.3190     195.4280       0.0678       3.1802       2.7330
   2381.4016       6.7270      -0.0059      57.2240      74.0997       0.2000       0.0000     658.4956     366.4923     164.8905       0.0650       3.1740       2.7422
   2381.5542       6.7110      -0.0040      57.1830      70.4165       0.2000       0.0000     530.4958     295.6802     135.1412       0.0619       3.2222       2.7544
   2381.7065       6.6950      -0.0013      57.1420      66.0240       0.2000       0.0000     413.8125     231.6113     120.2781       0.0617       3.2582       2.7587
   2381.8589       6.6955       0.0021      56.1146      60.8314       0.2000       0.0000     313.7736     177.2325     116.9486       0.0640       3.2785       2.7566
   2382.0112       6.6960       0.0038      55.0880      57.2433       0.2000       0.0000     261.7665     148.3642     117.9831       0.0662       3.3196       2.7533
   2382.1638       6.7420       0.0040      55.1305      55.4275       0.2000       0.0000     244.6691     137.9433     121.0844       0.0683       3.3783       2.7499
   2382.3162       6.7880       0.0040      55.1730      56.2423       0.2000       0.0000     254.1843     143.0422     120.7591       0.0707       3.4183       2.7442
   2382.4685       6.7770       0.0040      55.5242      59.9024       0.2000       0.0000     279.9535     157.8238     117.6404       0.0735       3.4427       2.7369
   2382.6208       6.7660       0.0043      55.8750      62.5044       0.2000       0.0000     327.7610     187.0666     152.1071       0.0742       3.4833       2.7277
   2382.7734       6.7845       0.0047      56.3317      63.9858       0.2000       0.0000     390.1502     225.9817     214.6690       0.0734       3.5375       2.7174
   2382.9258       6.8030       0.0044      56.7880      63.7958       0.2000       0.0000     409.0817     240.6716     206.7428       0.0718       3.5965       2.7139
   2383.0781       6.8010       0.0035      57.4363      61.8722       0.2000       0.0000     395.0322     236.8269     144.7868       0.0697       3.6579       2.7157
   2383.2305       6.7990       0.0056      58.0840      62.2598       0.2000       0.0000     376.3467     230.1919     110.2322       0.0686       3.7053       2.7089
   2383.3828       6.7860       0.0098      61.1294      64.9944       0.2000       0.0000     357.6780     223.4338     100.7314       0.0683       3.7422       2.6952
   2383.5354       6.7730       0.0151      64.1720      67.5054       0.2000       0.0000     341.2070     214.8160      99.6807       0.0686       3.6593       2.6932
   2383.6877       6.7885       0.0210      62.2927      69.7939       0.2000       0.0000     326.2422     204.8886     102.1024       0.0691       3.4929       2.7000
   2383.8401       6.8040       0.0254      60.4150      70.3284       0.2000       0.0000     288.4428     181.1941     105.6985       0.0674       3.3250       2.7226
   2383.9924       6.7575       0.0285      66.6628      69.1548       0.2000       0.0000     234.7158     148.1109     109.7712       0.0639       3.1640       2.7554
   2384.1450       6.7110       0.0222      72.9050      68.3413       0.2000       0.0000     213.2432     134.4212     112.3909       0.0641       3.1397       2.7711
   2384.2974       6.7410       0.0096      71.8725      67.8711       0.2000       0.0000     215.1354     134.7637     113.9783       0.0670       3.2072       2.7743
   2384.4497       6.7710       0.0023      70.8410      65.7634       0.2000       0.0000     252.1756     155.1070     114.4791       0.0726       3.3887       2.7490
   2384.6021       6.7340      -0.0008      62.6427      62.1269       0.2000       0.0000     310.5664     187.5330     114.3471       0.0798       3.6377       2.7058
   2384.7546       6.6970      -0.0001      54.4520      59.8581       0.2000       0.0000     360.8006     217.0364     175.1803       0.0815       3.8290       2.6831
   2384.9070       6.7035       0.0026      54.5686      58.8400       0.2000       0.0000     403.7249     243.5101     275.9021       0.0793       3.9761       2.6756
   2385.0593       6.7100       0.0041      54.6850      58.3206       0.2000       0.0000     537.5749     319.5723     278.6321       0.0781       3.9013       2.6782
   2385.2117       6.7530       0.0047      55.8060      58.2480       0.2000       0.0000     730.7504     427.9042     214.5582       0.0776       3.6869       2.6860
   2385.3640       6.7960       0.0044      56.9260      58.8621       0.2000       0.0000     860.0062     496.6182     158.5081       0.0755       3.6154       2.6928
