#------------------------------------------------------------------------------
#
#   Created by  : [OpenWorks] Log Export Utility (LEXP)
#   Created on  : 2016-05-11 12:13:39
#   Project     : CANT971
#   User        : R5K
#   Interpreter : PEP
#
#------------------------------------------------------------------------------
~VERSION INFORMATION
VERS. 2.0 : CWLS Log ASCII Standard - version 2.0
WRAP.  NO : One line per depth step
~WELL INFORMATION
#MNEMONIC   .UNIT                                           VALUE :DESCRIPTION
#------------------------------------------------------------------------------
STRT        .M                                          2180.6909 :START DEPTH
STOP        .M                                          2540.6597 :STOP DEPTH
STEP        .M                                             0.1524 :STEP
NULL        .                                           -999.2500 :NULL VALUE
COMP        .                                   PEMEX EXPL & PROD :COMPANY
WELL        .                                                1089 :WELL
FLD         .                                           CANTARELL :FIELD
LOC         .                                             UNKNOWN :LOCATION
CNTY        .                                      CD. DEL CARMEN :COUNTY
STAT        .                                            CAMPECHE :STATE
CTRY        .                                              MEXICO :COUNTRY
SRVC        .                                             UNKNOWN :SERVICE COMPANY
DATE        .                                             UNKNOWN :LOG DATE
UWI         .                                          3060000622 :UNIQUE WELL ID
XCOORD      .                                       601390.114000 :SURFACE X
YCOORD      .                                      2149872.463000 :SURFACE Y
LAT         .                                           19.441832 :LATITUDE
LON         .                                          -92.034145 :LONGITUDE
ELEV        .M                                            28.0000 :SURFACE ELEV
ELEV_TYPE   .                                                  KB :ELEV TYPE
~CURVE INFORMATION
#MNEMONIC.UNIT        API CODE       : CURVE DESCRIPTION
#------------------------------------------------------------------------------
DEPTH    .M                          : Measured Depth
CALI     .inches      UNKNOWN        : CALI:Import:rC:NONE:v0 (auto-composite)
DRHO     .g/cm3       UNKNOWN        : DRHO:Import:rC:NONE:v0 (auto-composite)
DT       .us/ft       UNKNOWN        : DT:Import:rC:NONE:v0 (auto-composite)
GR       .API         UNKNOWN        : GR:Import:rC:NONE:v0 (auto-composite)
ILD      .ohm.m       UNKNOWN        : ILD:Import:rC:NONE:v0 (auto-composite)
ILM      .ohm.m       UNKNOWN        : ILM:Import:rC:NONE:v0 (auto-composite)
LLD      .ohm.m       UNKNOWN        : LLD:Import:rC:NONE:v0 (auto-composite)
LLS      .ohm.m       UNKNOWN        : LLS:Import:rC:NONE:v0 (auto-composite)
MSFL     .ohm.m       UNKNOWN        : MSFL:Import:rC:NONE:v0 (auto-composite)
NPHI     .v/v_decimal UNKNOWN        : NPHI:Import:rC:NONE:v0 (auto-composite)
PEF      .b/elec      UNKNOWN        : PEF:Import:rC:NONE:v0 (auto-composite)
RHOB     .g/cm3       UNKNOWN        : RHOB:Import:rC:NONE:v0 (auto-composite)
~A     DEPTH         CALI         DRHO           DT           GR          ILD          ILM          LLD          LLS         MSFL         NPHI          PEF         RHOB
# ...
   2509.8750       6.5945       0.0302     161.7700      54.9164       0.2000       0.0000     720.8637     477.5533      88.5154       0.1233       4.9803       2.6860
   2510.0273       6.6100       0.0249     157.4960      52.4615       0.2000       0.0000     594.5208     378.3633      87.7804       0.1271       5.7846       2.6624
   2510.1797       6.6015       0.0167     143.0079      49.8848       0.2000       0.0000     459.8730     275.9072      88.7445       0.1315       6.6495       2.6264
   2510.3320       6.5930       0.0096     128.5740      50.1046       0.2000       0.0000     400.1411     230.0861      89.7269       0.1339       6.3469       2.5887
   2510.4846       6.6015       0.0030     118.7035      51.5784       0.2000       0.0000     368.1424     205.1277      90.6579       0.1355       5.6142       2.5506
   2510.6370       6.6100       0.0026     108.8700      52.9410       0.2000       0.0000     372.1643     187.0755     104.4460       0.1365       5.2710       2.5287
   2510.7893       6.7318       0.0044     109.1315      54.2550       0.2000       0.0000     388.1867     170.7868     122.8619       0.1374       5.0808       2.5127
   2510.9417       6.8530       0.0046     109.3920      58.6122       0.2000       0.0000     549.4200     254.1708     204.5980       0.1576       5.2846       2.4736
   2511.0942       6.7703       0.0042     137.9873      64.2680       0.2000       0.0000     761.4221     372.6089     308.4907       0.1845       5.6225       2.4261
   2511.2466       6.6880       0.0040     166.4750      65.2220       0.2000       0.0000     719.5306     376.0247     256.9594       0.1882       5.2272       2.4203
   2511.3989       6.7286       0.0040     160.7783      64.2194       0.2000       0.0000     588.6711     338.8080     151.1927       0.1837       4.5748       2.4291
   2511.5513       6.7690       0.0054     155.1030      61.1290       0.2000       0.0000     487.4233     287.5593     116.6817       0.1638       4.2496       2.4722
   2511.7036       6.6838       0.0075     157.9955      57.1917       0.2000       0.0000     398.7865     232.7434     107.8651       0.1389       4.0427       2.5264
   2511.8562       6.5990       0.0106     160.8770      55.5411       0.2000       0.0000     352.5777     191.4589     111.4407       0.1224       4.1776       2.5693
   2512.0085       6.6015       0.0140     154.5550      54.7946       0.2000       0.0000     319.9754     154.6812     118.4127       0.1087       4.4224       2.6082
   2512.1609       6.6040       0.0138     148.2570      55.3788       0.2000       0.0000     360.7199     162.0728     135.9814       0.1002       4.7144       2.6049
   2512.3132       6.6461       0.0124     144.2795      56.4757       0.2000       0.0000     424.9391     183.6993     156.9030       0.0934       5.0188       2.5879
   2512.4658       6.6880       0.0109     140.3170      58.3560       0.2000       0.0000     633.8728     266.5809     243.5337       0.0911       5.1787       2.5609
   2512.6182       6.7597       0.0094     141.3870      60.5302       0.2000       0.0000     887.7753     368.3975     350.7755       0.0902       5.2924       2.5310
   2512.7705       6.8310       0.0124     142.4530      60.7136       0.2000       0.0000    1154.0223     476.3379     611.7189       0.0919       5.0634       2.5438
   2512.9229       6.9137       0.0168     130.2979      60.1697       0.2000       0.0000    1423.0233     585.7272     920.0804       0.0943       4.7287       2.5699
   2513.0754       6.9960       0.0149     118.1890      57.4462       0.2000       0.0000    1482.4569     615.4877     699.3672       0.0980       4.4872       2.5879
   2513.2278       6.8521       0.0110     113.0893      53.9475       0.2000       0.0000    1478.0991     620.9909     317.1949       0.1020       4.2767       2.6031
   2513.3801       6.7090       0.0135     108.0090      52.7460       0.2000       0.0000    1227.6632     517.4911     306.2227       0.1037       4.0826       2.6254
   2513.5325       6.6514       0.0179     103.9678      52.3394       0.2000       0.0000     905.0281     381.9242     409.6751       0.1047       3.8927       2.6498
   2513.6848       6.5940       0.0159      99.9420      53.2691       0.2000       0.0000     783.0859     330.2426     326.1409       0.1046       3.8569       2.6740
   2513.8374       6.5785       0.0120      93.2562      54.6488       0.2000       0.0000     721.1604     303.6854     186.0093       0.1043       3.8661       2.6980
   2513.9897       6.5630       0.0095      86.5960      53.3325       0.2000       0.0000     751.8871     318.1040     313.4736       0.0983       3.8646       2.7041
   2514.1421       6.5635       0.0075      82.3193      51.1337       0.2000       0.0000     808.0178     343.7844     518.6440       0.0907       3.8593       2.7049
   2514.2944       6.5640       0.0136      78.0590      50.6559       0.2000       0.0000     915.8739     392.1523     692.8196       0.0828       3.8039       2.7069
   2514.4470       6.5640       0.0220      81.2531      50.7255       0.2000       0.0000    1037.7155     446.6523     856.9742       0.0748       3.7345       2.7094
   2514.5994       6.5640       0.0383      84.4350      53.4077       0.2000       0.0000    1036.1458     440.9406     669.4035       0.0727       3.7429       2.7228
   2514.7517       6.5635       0.0567      90.1164      56.8974       0.2000       0.0000    1000.7845     418.7463     386.0776       0.0723       3.7728       2.7392
   2514.9041       6.5630       0.0655      95.7760      59.3167       0.2000       0.0000     867.9371     351.3632     328.3843       0.0735       3.7492       2.7534
   2515.0564       6.5630       0.0716      98.3845      61.4147       0.2000       0.0000     709.5917     272.1736     332.4094       0.0753       3.7108       2.7669
   2515.2090       6.5630       0.0698     100.9830      62.1073       0.2000       0.0000     552.0034     204.8104     241.0774       0.0763       3.7433       2.7738
   2515.3613       6.5630       0.0659     110.6972      62.3906       0.2000       0.0000     394.7453     140.5913     123.9528       0.0771       3.7945       2.7789
   2515.5137       6.5630       0.0575     120.3740      62.8462       0.2000       0.0000     343.8648     118.6534     141.7468       0.0796       3.9024       2.7669
   2515.6660       6.5630       0.0480     117.5741      63.3505       0.2000       0.0000     320.1217     107.4619     194.3000       0.0824       4.0246       2.7505
   2515.8186       6.5630       0.0397     114.7850      62.8070       0.2000       0.0000     448.4608     145.7612     235.9859       0.0845       4.2289       2.7074
   2515.9709       6.5630       0.0317     112.0577      61.9763       0.2000       0.0000     614.4170     196.2741     274.6197       0.0863       4.4536       2.6575
   2516.1233       6.5630       0.0253     109.3410      61.6776       0.2000       0.0000     852.6455     267.9505     289.4380       0.0892       4.6016       2.6266
   2516.2756       6.5630       0.0193     104.2531      61.5202       0.2000       0.0000    1108.0515     344.6436     298.4891       0.0923       4.7308       2.6004
   2516.4282       6.5630       0.0189      99.1850      61.1407       0.2000       0.0000    1090.5156     337.9137     310.0266       0.0921       4.7685       2.5984
   2516.5806       6.5630       0.0198     100.9109      60.7041       0.2000       0.0000    1008.3342     311.4292     322.1921       0.0912       4.7849       2.6022
   2516.7329       6.5630       0.0180     102.6300      60.7595       0.2000       0.0000     807.1058     249.2703     350.3537       0.0881       4.5821       2.6099
   2516.8853       6.5640       0.0155     107.3777      60.9375       0.2000       0.0000     578.8011     179.0007     382.2234       0.0845       4.3285       2.6183
   2517.0376       6.5650       0.0117     112.1070      60.4084       0.2000       0.0000     523.6827     160.4519     297.8978       0.0796       4.0984       2.6403
