#------------------------------------------------------------------------------
#
#   Created by  : [OpenWorks] Log Export Utility (LEXP)
#   Created on  : 2016-05-11 12:13:39
#   Project     : CANT971
#   User        : R5K
#   Interpreter : PEP
#
#------------------------------------------------------------------------------
~VERSION INFORMATION
VERS. 2.0 : CWLS Log ASCII Standard - version 2.0
WRAP.  NO : One line per depth step
~WELL INFORMATION
#MNEMONIC   .UNIT                                           VALUE :DESCRIPTION
#------------------------------------------------------------------------------
STRT        .M                                          2180.6909 :START DEPTH
STOP        .M                                          2540.6597 :STOP DEPTH
STEP        .M                                             0.1524 :STEP
NULL        .                                           -999.2500 :NULL VALUE
COMP        .                                   PEMEX EXPL & PROD :COMPANY
WELL        .                                                1089 :WELL
FLD         .                                           CANTARELL :FIELD
LOC         .                                             UNKNOWN :LOCATION
CNTY        .                                      CD. DEL CARMEN :COUNTY
STAT        .                                            CAMPECHE :STATE
CTRY        .                                              MEXICO :COUNTRY
SRVC        .                                             UNKNOWN :SERVICE COMPANY
DATE        .                                             UNKNOWN :LOG DATE
UWI         .                                          3060000622 :UNIQUE WELL ID
XCOORD      .                                       601390.114000 :SURFACE X
YCOORD      .                                      2149872.463000 :SURFACE Y
LAT         .                                           19.441832 :LATITUDE
LON         .                                          -92.034145 :LONGITUDE
ELEV        .M                                            28.0000 :SURFACE ELEV
ELEV_TYPE   .                                                  KB :ELEV TYPE
~CURVE INFORMATION
#MNEMONIC.UNIT        API CODE       : CURVE DESCRIPTION
#------------------------------------------------------------------------------
DEPTH    .M                          : Measured Depth
CALI     .inches      UNKNOWN        : CALI:Import:rC:NONE:v0 (auto-composite)
DRHO     .g/cm3       UNKNOWN        : DRHO:Import:rC:NONE:v0 (auto-composite)
DT       .us/ft       UNKNOWN        : DT:Import:rC:NONE:v0 (auto-composite)
GR       .API         UNKNOWN        : GR:Import:rC:NONE:v0 (auto-composite)
ILD      .ohm.m       UNKNOWN        : ILD:Import:rC:NONE:v0 (auto-composite)
ILM      .ohm.m       UNKNOWN        : ILM:Import:rC:NONE:v0 (auto-composite)
LLD      .ohm.m       UNKNOWN        : LLD:Import:rC:NONE:v0 (auto-composite)
LLS      .ohm.m       UNKNOWN        : LLS:Import:rC:NONE:v0 (auto-composite)
MSFL     .ohm.m       UNKNOWN        : MSFL:Import:rC:NONE:v0 (auto-composite)
NPHI     .v/v_decimal UNKNOWN        : NPHI:Import:rC:NONE:v0 (auto-composite)
PEF      .b/elec      UNKNOWN        : PEF:Import:rC:NONE:v0 (auto-composite)
RHOB     .g/cm3       UNKNOWN        : RHOB:Import:rC:NONE:v0 (auto-composite)
~A     DEPTH         CALI         DRHO           DT           GR          ILD          ILM          LLD          LLS         MSFL         NPHI          PEF         RHOB
# ...
   2407.4622       6.6960      -0.0046      66.2591      58.5838       0.2000       0.0000    1004.0704     486.9337     106.6399       0.0857       3.3492       2.6592
   2407.6145       6.6900      -0.0073      62.8490      60.4204       0.2000       0.0000     846.0439     415.5071      98.2406       0.0814       3.2776       2.6647
   2407.7668       6.6980      -0.0094      61.1418      62.2797       0.2000       0.0000     660.3499     328.6301      92.8265       0.0766       3.2257       2.6680
   2407.9194       6.7060      -0.0063      59.4370      63.2214       0.2000       0.0000     549.3849     272.8629     110.0007       0.0728       3.4360       2.6740
   2408.0718       6.8021      -0.0022      59.5901      64.0846       0.2000       0.0000     467.5515     229.7352     130.1551       0.0697       3.7134       2.6782
   2408.2241       6.8980       0.0031      59.7430      65.7413       0.2000       0.0000     546.9912     259.0970     137.3067       0.0711       4.1895       2.6578
   2408.3765       7.3935       0.0082      61.2331      67.4608       0.2000       0.0000     671.9744     306.0287     156.0247       0.0748       4.6628       2.6319
   2408.5288       7.8880       0.0094      62.7210      66.2298       0.2000       0.0000     950.5621     392.7671     315.9377       0.0922       4.7296       2.5978
   2408.6814       7.4085       0.0093      62.3682      64.7830       0.2000       0.0000    1274.2172     499.4183     490.7739       0.1110       4.6864       2.5651
   2408.8337       6.9300       0.0029      62.0160      63.7586       0.2000       0.0000    1757.6897     725.8083     559.7173       0.1188       4.3185       2.5591
   2408.9861       7.0306      -0.0043      60.4824      62.7624       0.2000       0.0000    2213.9414     939.0319     589.0406       0.1257       3.9259       2.5546
   2409.1384       7.1310      -0.0093      58.9510      64.4557       0.2000       0.0000    2157.2888     832.8229     441.2773       0.1441       3.8579       2.5193
   2409.2910       7.1105      -0.0134      59.2722      66.3136       0.2000       0.0000    1976.0138     666.3425     271.3022       0.1619       3.8537       2.4817
   2409.4434       7.0900      -0.0149      59.5930      67.8005       0.2000       0.0000    1549.0906     493.8610     192.9932       0.1565       3.8775       2.4745
   2409.5957       7.0024      -0.0154      58.6848      69.2668       0.2000       0.0000    1113.7317     333.5355     138.0830       0.1462       3.9009       2.4774
   2409.7480       6.9150      -0.0117      57.7780      67.7391       0.2000       0.0000     981.7192     281.8892     135.5733       0.1312       3.8784       2.5156
   2409.9006       6.8324      -0.0074      57.9081      66.0632       0.2000       0.0000     920.2296     253.7407     141.6517       0.1174       3.8569       2.5556
   2410.0530       6.7500      -0.0046      58.0380      63.8777       0.2000       0.0000     966.2532     250.5963     138.8040       0.1178       3.9089       2.5601
   2410.2053       6.7175      -0.0022      58.5964      61.6699       0.2000       0.0000    1048.6462     262.4062     133.5829       0.1207       3.9532       2.5585
   2410.3577       6.6850      -0.0000      59.1540      61.8150       0.2000       0.0000    1250.8105     349.6208     123.1246       0.1212       3.8408       2.5604
   2410.5100       6.6850       0.0018      58.0787      62.0496       0.2000       0.0000    1436.8716     437.4625     111.8703       0.1207       3.7084       2.5670
   2410.6626       6.6850       0.0029      57.0050      63.8565       0.2000       0.0000    1355.8739     432.0868     101.8631       0.1162       3.6392       2.6023
   2410.8149       6.7050       0.0036      58.0418      65.7144       0.2000       0.0000    1187.8651     395.1643      92.7962       0.1120       3.5919       2.6371
   2410.9673       6.7250       0.0016      59.0770      72.0466       0.2000       0.0000     769.6149     262.8631      88.5475       0.1134       3.6132       2.6328
   2411.1196       6.7190       0.0001      64.7888      78.4990       0.2000       0.0000     351.9163     127.7974      85.6277       0.1175       3.6371       2.6230
   2411.2722       6.7130       0.0054      70.4920      89.0106       0.2000       0.0000     233.8768      87.9719      85.4826       0.1318       3.5960       2.6244
   2411.4246       6.7200       0.0121      70.4855      99.6090       0.2000       0.0000     178.0437      68.4516      86.5672       0.1487       3.5376       2.6249
   2411.5769       6.7270       0.0204      70.4790     106.6909       0.2000       0.0000     164.4002      65.5876      92.0511       0.1695       3.4473       2.6068
   2411.7292       6.7770       0.0275      69.8195     113.7168       0.2000       0.0000     168.4000      69.4146     118.4955       0.1897       3.3598       2.5832
   2411.8818       6.8270       0.0265      69.1610     116.9665       0.2000       0.0000     230.1764      94.4374     263.3262       0.2017       3.3242       2.5478
   2412.0342       6.8220       0.0237      65.6018     120.1764       0.2000       0.0000     321.7303     127.6551     408.1040       0.2106       3.2983       2.5152
   2412.1865       6.8170       0.0195      62.0480     108.0246       0.2000       0.0000     522.0896     185.3916     431.0219       0.2102       3.2731       2.5105
   2412.3389       6.7965       0.0154      62.7050      95.7940       0.2000       0.0000     710.6168     237.7325     415.8315       0.2060       3.2336       2.5156
   2412.4912       6.7760       0.0130      63.3610      86.0181       0.2000       0.0000     725.3613     236.0656     315.8873       0.1910       3.1156       2.5456
   2412.6438       6.7525       0.0116      66.2718      76.2654       0.2000       0.0000     695.9096     220.4601     210.6730       0.1727       3.0122       2.5821
   2412.7961       6.7290       0.0135      69.1780      70.7153       0.2000       0.0000     601.9398     183.6879     158.4358       0.1474       3.0601       2.6284
   2412.9485       6.7070       0.0156      72.7993      65.2040       0.2000       0.0000     514.9891     148.6465     123.6717       0.1239       3.1736       2.6704
   2413.1008       6.6850       0.0155      76.4150      63.3171       0.2000       0.0000     523.7019     142.1021     127.8311       0.1161       3.4781       2.6811
   2413.2534       6.6480       0.0146      75.8340      61.4469       0.2000       0.0000     571.2811     147.8862     136.0020       0.1131       3.7779       2.6818
   2413.4058       6.6110       0.0115      75.2540      60.6197       0.2000       0.0000     722.7012     188.2711     128.9571       0.1198       3.8843       2.6616
   2413.5581       6.6130       0.0083      68.9205      59.7722       0.2000       0.0000     890.8619     235.8134     122.1524       0.1265       3.9252       2.6402
   2413.7104       6.6150       0.0070      62.5970      57.9790       0.2000       0.0000    1047.7988     287.1223     129.5975       0.1251       3.8234       2.6319
   2413.8630       6.6240       0.0060      64.8803      56.1774       0.2000       0.0000    1179.1896     331.6623     140.6959       0.1207       3.7156       2.6307
   2414.0154       6.6330       0.0055      67.1600      54.0659       0.2000       0.0000    1203.5341     342.2159     156.5401       0.1087       3.6990       2.6517
   2414.1677       6.6455       0.0055      83.8557      52.0201       0.2000       0.0000    1187.7577     340.7671     164.7358       0.0970       3.7476       2.6735
   2414.3201       6.6580       0.0076     100.5250      51.9920       0.2000       0.0000    1080.7504     313.5840     135.2887       0.0932       4.0109       2.6807
   2414.4724       6.7055       0.0097     100.3689      52.0491       0.2000       0.0000     969.9489     285.7072     105.7597       0.0920       4.2582       2.6827
   2414.6250       6.7530       0.0100     100.2130      54.3326       0.2000       0.0000     914.1406     274.9448     105.2289       0.0959       4.2703       2.6746
