#------------------------------------------------------------------------------
#
#   Created by  : [OpenWorks] Log Export Utility (LEXP)
#   Created on  : 2016-05-11 12:13:39
#   Project     : CANT971
#   User        : R5K
#   Interpreter : PEP
#
#------------------------------------------------------------------------------
~VERSION INFORMATION
VERS. 2.0 : CWLS Log ASCII Standard - version 2.0
WRAP.  NO : One line per depth step
~WELL INFORMATION
#MNEMONIC   .UNIT                                           VALUE :DESCRIPTION
#------------------------------------------------------------------------------
STRT        .M                                          2180.6909 :START DEPTH
STOP        .M                                          2540.6597 :STOP DEPTH
STEP        .M                                             0.1524 :STEP
NULL        .                                           -999.2500 :NULL VALUE
COMP        .                                   PEMEX EXPL & PROD :COMPANY
WELL        .                                                1089 :WELL
FLD         .                                           CANTARELL :FIELD
LOC         .                                             UNKNOWN :LOCATION
CNTY        .                                      CD. DEL CARMEN :COUNTY
STAT        .                                            CAMPECHE :STATE
CTRY        .                                              MEXICO :COUNTRY
SRVC        .                                             UNKNOWN :SERVICE COMPANY
DATE        .                                             UNKNOWN :LOG DATE
UWI         .                                          3060000622 :UNIQUE WELL ID
XCOORD      .                                       601390.114000 :SURFACE X
YCOORD      .                                      2149872.463000 :SURFACE Y
LAT         .                                           19.441832 :LATITUDE
LON         .                                          -92.034145 :LONGITUDE
ELEV        .M                                            28.0000 :SURFACE ELEV
ELEV_TYPE   .                                                  KB :ELEV TYPE
~CURVE INFORMATION
#MNEMONIC.UNIT        API CODE       : CURVE DESCRIPTION
#------------------------------------------------------------------------------
DEPTH    .M                          : Measured Depth
CALI     .inches      UNKNOWN        : CALI:Import:rC:NONE:v0 (auto-composite)
DRHO     .g/cm3       UNKNOWN        : DRHO:Import:rC:NONE:v0 (auto-composite)
DT       .us/ft       UNKNOWN        : DT:Import:rC:NONE:v0 (auto-composite)
GR       .API         UNKNOWN        : GR:Import:rC:NONE:v0 (auto-composite)
ILD      .ohm.m       UNKNOWN        : ILD:Import:rC:NONE:v0 (auto-composite)
ILM      .ohm.m       UNKNOWN        : ILM:Import:rC:NONE:v0 (auto-composite)
LLD      .ohm.m       UNKNOWN        : LLD:Import:rC:NONE:v0 (auto-composite)
LLS      .ohm.m       UNKNOWN        : LLS:Import:rC:NONE:v0 (auto-composite)
MSFL     .ohm.m       UNKNOWN        : MSFL:Import:rC:NONE:v0 (auto-composite)
NPHI     .v/v_decimal UNKNOWN        : NPHI:Import:rC:NONE:v0 (auto-composite)
PEF      .b/elec      UNKNOWN        : PEF:Import:rC:NONE:v0 (auto-composite)
RHOB     .g/cm3       UNKNOWN        : RHOB:Import:rC:NONE:v0 (auto-composite)
~A     DEPTH         CALI         DRHO           DT           GR          ILD          ILM          LLD          LLS         MSFL         NPHI          PEF         RHOB
# ...
   2465.9836       8.9812       0.0322      91.5089      78.9357       0.2000       0.0000       5.2527       3.3475      81.8573       0.3552       4.7022       2.1012
   2466.1362       8.8400       0.0367     104.8180      78.3542       0.2000       0.0000       5.4517       3.5006      81.7551       0.3388       4.5705       2.1418
   2466.2886       8.6582       0.0417     103.4381      77.0510       0.2000       0.0000       5.6180       3.6082      81.4981       0.3257       4.4409       2.1984
   2466.4409       8.4770       0.0466     102.0620      75.6930       0.2000       0.0000       5.7652       3.6987      81.2250       0.3133       4.3142       2.2576
   2466.5933       8.4184       0.0512      98.4120      75.9052       0.2000       0.0000       5.7834       3.7027      81.0805       0.3014       4.2144       2.3121
   2466.7456       8.3600       0.0558      94.7720      76.2276       0.2000       0.0000       5.7925       3.6941      81.0066       0.2904       4.1331       2.3617
   2466.8982       8.1777       0.0603     111.2248      78.7669       0.2000       0.0000       5.9409       3.7159      81.3599       0.2874       4.1747       2.3733
   2467.0505       7.9960       0.0658     127.6320      81.4485       0.2000       0.0000       6.1099       3.7329      81.7410       0.2875       4.2455       2.3734
   2467.2029       8.1848       0.0801     125.5751      80.4017       0.2000       0.0000       6.2316       3.6579      81.6687       0.3027       4.3686       2.3353
   2467.3552       8.3730       0.0946     123.5240      79.1379       0.2000       0.0000       6.3330       3.5655      81.5401       0.3189       4.4766       2.2957
   2467.5078       8.6831       0.0961     118.8470      79.4408       0.2000       0.0000       6.3405       3.4728      81.6456       0.3192       4.3793       2.3018
   2467.6602       8.9920       0.0938     114.1830      79.8259       0.2000       0.0000       6.3275       3.3852      81.7964       0.3180       4.2407       2.3154
   2467.8125       9.2760       0.0816     110.1809      82.1704       0.2000       0.0000       6.2912       3.3367      81.9643       0.3285       4.0756       2.3223
   2467.9648       9.5590       0.0674     106.1900      84.6063       0.2000       0.0000       6.2413       3.2921      82.1287       0.3406       3.9150       2.3257
   2468.1174       9.8530       0.0516     103.8788      86.8727       0.2000       0.0000       6.1222       3.2217      82.2437       0.3491       3.8238       2.3135
   2468.2698      10.1460       0.0373     101.5740      89.1321       0.2000       0.0000       5.9940       3.1451      82.3582       0.3545       3.7578       2.2996
   2468.4221      10.4115       0.0359     102.5674      90.1930       0.2000       0.0000       5.8901       3.0583      82.5355       0.3436       3.7783       2.2932
   2468.5745      10.6760       0.0384     103.5580      91.2117       0.2000       0.0000       5.8059       2.9748      82.7407       0.3303       3.8175       2.2900
   2468.7268      10.8759       0.0501     105.7476      91.1061       0.2000       0.0000       5.8241       2.9271      83.0554       0.3205       3.8735       2.2997
   2468.8794      11.0750       0.0621     107.9310      90.9673       0.2000       0.0000       5.8658       2.8968      83.4048       0.3125       3.9248       2.3107
   2469.0317      10.9392       0.0640     107.5865      91.3351       0.2000       0.0000       5.9378       2.9374      83.8517       0.3126       3.9252       2.3149
   2469.1841      10.8040       0.0628     107.2430      91.7151       0.2000       0.0000       6.0148       3.0014      84.2717       0.3125       3.9039       2.3179
   2469.3364      10.6267       0.0546     107.7312      90.7288       0.2000       0.0000       6.0869       3.1308      84.4116       0.3032       3.8057       2.3205
   2469.4890      10.4500       0.0448     108.2180      89.7172       0.2000       0.0000       6.1466       3.2561      84.4996       0.2937       3.7115       2.3233
   2469.6414      10.3393       0.0326     109.4402      88.8277       0.2000       0.0000       6.1377       3.2839      84.5856       0.2939       3.7256       2.3284
   2469.7937      10.2290       0.0220     110.6590      87.9399       0.2000       0.0000       6.1277       3.2968      84.6531       0.2960       3.7623       2.3334
   2469.9460      10.5231       0.0225     109.9124      87.6868       0.2000       0.0000       6.1841       3.3263      84.6158       0.2988       3.8137       2.3350
   2470.0986      10.8160       0.0273     109.1680      87.4380       0.2000       0.0000       6.2180       3.3450      84.5633       0.3020       3.8653       2.3358
   2470.2510      10.8020       0.0445     107.7199      85.5078       0.2000       0.0000       6.0595       3.2866      84.5340       0.3064       3.9025       2.3355
   2470.4033      10.7880       0.0646     106.2760      83.5780       0.2000       0.0000       5.8956       3.2339      84.4899       0.3100       3.9396       2.3378
   2470.5557      10.6192       0.0881     105.1454      82.0202       0.2000       0.0000       5.8926       3.2884      84.3441       0.3085       3.9903       2.3551
   2470.7080      10.4510       0.1099     104.0180      80.4787       0.2000       0.0000       5.9416       3.3742      84.2322       0.3026       4.0451       2.3754
   2470.8606      10.5888       0.1196     103.0041      80.4371       0.2000       0.0000       6.1054       3.5191      84.3901       0.2778       4.1081       2.3973
   2471.0129      10.7260       0.1258     101.9930      80.4059       0.2000       0.0000       6.2641       3.6646      84.6148       0.2490       4.1648       2.4165
   2471.1653      11.0772       0.1249     100.6886      81.1554       0.2000       0.0000       6.2926       3.7583      84.9246       0.2167       4.1812       2.4220
   2471.3176      11.4270       0.1234      99.3880      81.9208       0.2000       0.0000       6.3245       3.8589      85.1523       0.1890       4.1683       2.4273
   2471.4702      10.9436       0.1240      98.3455      83.5315       0.2000       0.0000       6.4876       4.0378      84.9109       0.1864       4.0505       2.4434
   2471.6226      10.4620       0.1216      97.3060      85.1038       0.2000       0.0000       6.6286       4.2037      84.6518       0.1898       3.9184       2.4660
   2471.7749       9.5232       0.1035      96.4382      85.0973       0.2000       0.0000       6.5576       4.2455      84.7049       0.1996       3.8077       2.5098
   2471.9272       8.5880       0.0812      95.5730      85.0220       0.2000       0.0000       6.4643       4.2710      84.8100       0.2109       3.7704       2.5461
   2472.0798       8.0289       0.0536      95.7227      82.6403       0.2000       0.0000       6.4448       4.3254      84.8915       0.2232       4.0446       2.5312
   2472.2322       7.4720       0.0293      95.8720      80.2899       0.2000       0.0000       6.3962       4.3461      84.9399       0.2353       4.4278       2.4962
   2472.3845       7.7686       0.0234      94.4039      78.8261       0.2000       0.0000       6.1627       4.1980      84.8639       0.2455       5.0394       2.4131
   2472.5369       8.0640       0.0225      92.9400      77.3639       0.2000       0.0000       5.9371       4.0298      84.7948       0.2570       5.6832       2.3205
   2472.6892       8.6506       0.0283      90.6061      75.9427       0.2000       0.0000       5.8868       3.9071      84.8508       0.2750       6.2864       2.2243
   2472.8418       9.2350       0.0351      88.2790      74.6282       0.2000       0.0000       5.8463       3.8097      85.3205       0.2953       6.7561       2.1405
   2472.9941       9.7265       0.0412      87.1018      75.5937       0.2000       0.0000       5.7166       3.7802      87.3840       0.3204       6.7162       2.1084
   2473.1465      10.2160       0.0479      85.9280      76.4542       0.2000       0.0000       6.0089       4.1604     100.5097       0.3446       6.4874       2.0988
