#------------------------------------------------------------------------------
#
#   Created by  : [OpenWorks] Log Export Utility (LEXP)
#   Created on  : 2016-05-11 12:13:39
#   Project     : CANT971
#   User        : R5K
#   Interpreter : PEP
#
#------------------------------------------------------------------------------
~VERSION INFORMATION
VERS. 2.0 : CWLS Log ASCII Standard - version 2.0
WRAP.  NO : One line per depth step
~WELL INFORMATION
#MNEMONIC   .UNIT                                           VALUE :DESCRIPTION
#------------------------------------------------------------------------------
STRT        .M                                          2180.6909 :START DEPTH
STOP        .M                                          2540.6597 :STOP DEPTH
STEP        .M                                             0.1524 :STEP
NULL        .                                           -999.2500 :NULL VALUE
COMP        .                                   PEMEX EXPL & PROD :COMPANY
WELL        .                                                1089 :WELL
FLD         .                                           CANTARELL :FIELD
LOC         .                                             UNKNOWN :LOCATION
CNTY        .                                      CD. DEL CARMEN :COUNTY
STAT        .                                            CAMPECHE :STATE
CTRY        .                                              MEXICO :COUNTRY
SRVC        .                                             UNKNOWN :SERVICE COMPANY
DATE        .                                             UNKNOWN :LOG DATE
UWI         .                                          3060000622 :UNIQUE WELL ID
XCOORD      .                                       601390.114000 :SURFACE X
YCOORD      .                                      2149872.463000 :SURFACE Y
LAT         .                                           19.441832 :LATITUDE
LON         .                                          -92.034145 :LONGITUDE
ELEV        .M                                            28.0000 :SURFACE ELEV
ELEV_TYPE   .                                                  KB :ELEV TYPE
~CURVE INFORMATION
#MNEMONIC.UNIT        API CODE       : CURVE DESCRIPTION
#------------------------------------------------------------------------------
DEPTH    .M                          : Measured Depth
CALI     .inches      UNKNOWN        : CALI:Import:rC:NONE:v0 (auto-composite)
DRHO     .g/cm3       UNKNOWN        : DRHO:Import:rC:NONE:v0 (auto-composite)
DT       .us/ft       UNKNOWN        : DT:Import:rC:NONE:v0 (auto-composite)
GR       .API         UNKNOWN        : GR:Import:rC:NONE:v0 (auto-composite)
ILD      .ohm.m       UNKNOWN        : ILD:Import:rC:NONE:v0 (auto-composite)
ILM      .ohm.m       UNKNOWN        : ILM:Import:rC:NONE:v0 (auto-composite)
LLD      .ohm.m       UNKNOWN        : LLD:Import:rC:NONE:v0 (auto-composite)
LLS      .ohm.m       UNKNOWN        : LLS:Import:rC:NONE:v0 (auto-composite)
MSFL     .ohm.m       UNKNOWN        : MSFL:Import:rC:NONE:v0 (auto-composite)
NPHI     .v/v_decimal UNKNOWN        : NPHI:Import:rC:NONE:v0 (auto-composite)
PEF      .b/elec      UNKNOWN        : PEF:Import:rC:NONE:v0 (auto-composite)
RHOB     .g/cm3       UNKNOWN        : RHOB:Import:rC:NONE:v0 (auto-composite)
~A     DEPTH         CALI         DRHO           DT           GR          ILD          ILM          LLD          LLS         MSFL         NPHI          PEF         RHOB
# ...
   2414.7773       6.7480       0.0099      93.0868      56.6016       0.2000       0.0000     887.4396     273.3498     111.2422       0.1001       4.1953       2.6665
   2414.9297       6.7430       0.0095      85.9720      58.5417       0.2000       0.0000     940.2184     296.9070     122.5566       0.1016       3.9365       2.6660
   2415.0820       6.7115       0.0084      86.3618      60.3671       0.2000       0.0000    1034.2827     335.7603     132.6593       0.1030       3.7026       2.6664
   2415.2346       6.6800       0.0048      86.7510      59.8839       0.2000       0.0000    1235.9556     417.6257     134.0224       0.1064       3.7037       2.6639
   2415.3870       6.6800       0.0012      92.1053      59.4981       0.2000       0.0000    1415.0828     493.9196     177.5409       0.1092       3.7418       2.6613
   2415.5393       6.6800      -0.0011      97.4510      60.8692       0.2000       0.0000    1431.9642     518.7701     391.4041       0.1084       3.7582       2.6605
   2415.6917       6.6810      -0.0030      95.4414      62.2273       0.2000       0.0000    1380.1102     518.6017     588.4398       0.1061       3.7442       2.6607
   2415.8442       6.6820      -0.0046      93.4350      63.3738       0.2000       0.0000    1179.8436     459.1746     604.6526       0.1007       3.6299       2.6632
   2415.9966       6.6830      -0.0056      94.0190      64.3188       0.2000       0.0000     964.5779     390.4385     545.1061       0.0947       3.5321       2.6671
   2416.1489       6.6840      -0.0044      94.6020      62.2699       0.2000       0.0000     791.2774     326.3851     327.0794       0.0897       3.5609       2.6740
   2416.3013       6.6900      -0.0016     100.0915      60.3368       0.2000       0.0000     659.4805     276.3761     126.6848       0.0863       3.6005       2.6805
   2416.4536       6.6960       0.0061     105.5720      59.9818       0.2000       0.0000     648.7549     273.5031      91.9736       0.0882       3.5967       2.6832
   2416.6062       6.7355       0.0154     104.3345      59.4683       0.2000       0.0000     675.3729     286.0036      95.7980       0.0920       3.5877       2.6842
   2416.7585       6.7750       0.0275     103.0990      56.9577       0.2000       0.0000     755.9959     322.4356     129.7688       0.0986       3.5877       2.6818
   2416.9109       6.8481       0.0387      97.6335      54.5643       0.2000       0.0000     874.7299     374.5056     158.4556       0.1040       3.6296       2.6808
   2417.0632       6.9210       0.0455      92.1770      53.5406       0.2000       0.0000    1089.1941     464.7724     150.8454       0.1038       3.8087       2.6866
   2417.2158       6.9015       0.0483      85.6816      52.7003       0.2000       0.0000    1293.9429     550.2237     136.4842       0.1023       3.9716       2.6905
   2417.3682       6.8820       0.0401      79.1970      53.8579       0.2000       0.0000    1410.0509     597.2202     121.3944       0.1002       4.0010       2.6843
   2417.5205       6.7919       0.0300      83.7608      55.0160       0.2000       0.0000    1468.3047     620.5406     108.5153       0.0978       3.9864       2.6748
   2417.6729       6.7020       0.0195      88.3170      56.1806       0.2000       0.0000    1391.5381     589.8557     103.1941       0.0950       3.9077       2.6606
   2417.8254       6.7150       0.0103      88.1368      57.3299       0.2000       0.0000    1279.7806     544.5910      99.2181       0.0921       3.8142       2.6490
   2417.9778       6.7280       0.0050      87.9570      58.3335       0.2000       0.0000    1134.6047     484.1412      95.2139       0.0897       3.7108       2.6481
   2418.1301       6.7260       0.0012      77.9466      59.2391       0.2000       0.0000     988.6020     423.2039      95.6880       0.0879       3.6174       2.6517
   2418.2825       6.7240      -0.0007      67.9530      59.2602       0.2000       0.0000     858.7507     369.2448     109.8103       0.0879       3.5603       2.6628
   2418.4348       6.7040      -0.0018      68.0876      59.0945       0.2000       0.0000     759.9896     328.0679     127.7972       0.0889       3.5525       2.6724
   2418.5874       6.6840      -0.0020      68.2220      57.3389       0.2000       0.0000     744.7855     321.0660     149.9731       0.0914       3.6717       2.6735
   2418.7397       6.6980      -0.0020      76.4384      55.7321       0.2000       0.0000     773.7440     329.1498     163.4517       0.0937       3.7605       2.6707
   2418.8921       6.7120      -0.0020      84.6410      55.3250       0.2000       0.0000     887.4897     363.3073     149.5489       0.0952       3.6956       2.6613
   2419.0444       6.7495      -0.0019      82.6463      54.8969       0.2000       0.0000     997.2438     394.3791     138.4263       0.0971       3.6027       2.6518
   2419.1970       6.7870      -0.0015      80.6550      54.3073       0.2000       0.0000    1053.0955     403.6342     148.9193       0.1007       3.5082       2.6453
   2419.3494       6.8135      -0.0011      74.2866      53.8158       0.2000       0.0000    1098.9982     410.3555     174.3052       0.1022       3.4358       2.6430
   2419.5017       6.8400      -0.0010      67.9290      54.0379       0.2000       0.0000    1144.0195     420.7643     230.2070       0.0973       3.4245       2.6507
   2419.6541       6.9131       0.0006      68.1697      54.4519       0.2000       0.0000    1182.4143     432.0695     275.4521       0.0918       3.4103       2.6632
   2419.8064       6.9860       0.0064      68.4100      56.1959       0.2000       0.0000    1203.4177     444.0183     277.4628       0.0880       3.3596       2.6839
   2419.9590       6.9745       0.0116      69.9028      57.5995       0.2000       0.0000    1200.6185     448.8370     260.2039       0.0870       3.3312       2.6963
   2420.1113       6.9630       0.0137      71.3930      56.7508       0.2000       0.0000    1143.5112     434.7055     212.3991       0.0926       3.3780       2.6837
   2420.2637       6.9280       0.0151      78.4341      55.8281       0.2000       0.0000    1055.4219     406.7875     167.7270       0.0982       3.4402       2.6696
   2420.4160       6.8930       0.0161      85.4630      54.4374       0.2000       0.0000     912.6284     352.1527     144.9875       0.1003       3.5075       2.6627
   2420.5686       6.9631       0.0155      84.6638      53.9860       0.2000       0.0000     771.4725     296.9011     146.5409       0.1005       3.5573       2.6619
   2420.7209       7.0330       0.0107      83.8660      59.2182       0.2000       0.0000     657.8747     251.6272     199.1764       0.0975       3.5614       2.6729
   2420.8733       7.0235       0.0064      74.5294      64.2302       0.2000       0.0000     575.0659     219.4972     234.2766       0.0950       3.5631       2.6810
   2421.0256       7.0140       0.0054      65.2090      67.9645       0.2000       0.0000     555.7150     215.2305     204.3096       0.0954       3.5787       2.6771
   2421.1782       7.0320       0.0041      66.1278      70.9760       0.2000       0.0000     572.6712     222.5896     164.3395       0.0964       3.5920       2.6680
   2421.3306       7.0500       0.0010      67.0450      69.9648       0.2000       0.0000     649.7055     246.0185     127.8275       0.0973       3.5940       2.6518
   2421.4829       7.0425      -0.0014      79.4929      68.5232       0.2000       0.0000     705.6055     259.9959     100.4015       0.0989       3.6150       2.6369
   2421.6353       7.0350      -0.0009      91.9190      64.7799       0.2000       0.0000     687.2600     245.2150      92.9337       0.1020       3.6851       2.6283
   2421.7876       7.0380       0.0043      90.9521      61.2650       0.2000       0.0000     648.3693     224.7796     112.8752       0.1042       3.8301       2.6212
   2421.9402       7.0410       0.0186      89.9870      58.9249       0.2000       0.0000     592.3022     202.9604     187.4266       0.1041       4.1263       2.6150
