#------------------------------------------------------------------------------
#
#   Created by  : [OpenWorks] Log Export Utility (LEXP)
#   Created on  : 2016-05-11 12:13:39
#   Project     : CANT971
#   User        : R5K
#   Interpreter : PEP
#
#------------------------------------------------------------------------------
~VERSION INFORMATION
VERS. 2.0 : CWLS Log ASCII Standard - version 2.0
WRAP.  NO : One line per depth step
~WELL INFORMATION
#MNEMONIC   .UNIT                                           VALUE :DESCRIPTION
#------------------------------------------------------------------------------
STRT        .M                                          2180.6909 :START DEPTH
STOP        .M                                          2540.6597 :STOP DEPTH
STEP        .M                                             0.1524 :STEP
NULL        .                                           -999.2500 :NULL VALUE
COMP        .                                   PEMEX EXPL & PROD :COMPANY
WELL        .                                                1089 :WELL
FLD         .                                           CANTARELL :FIELD
LOC         .                                             UNKNOWN :LOCATION
CNTY        .                                      CD. DEL CARMEN :COUNTY
STAT        .                                            CAMPECHE :STATE
CTRY        .                                              MEXICO :COUNTRY
SRVC        .                                             UNKNOWN :SERVICE COMPANY
DATE        .                                             UNKNOWN :LOG DATE
UWI         .                                          3060000622 :UNIQUE WELL ID
XCOORD      .                                       601390.114000 :SURFACE X
YCOORD      .                                      2149872.463000 :SURFACE Y
LAT         .                                           19.441832 :LATITUDE
LON         .                                          -92.034145 :LONGITUDE
ELEV        .M                                            28.0000 :SURFACE ELEV
ELEV_TYPE   .                                                  KB :ELEV TYPE
~CURVE INFORMATION
#MNEMONIC.UNIT        API CODE       : CURVE DESCRIPTION
#------------------------------------------------------------------------------
DEPTH    .M                          : Measured Depth
CALI     .inches      UNKNOWN        : CALI:Import:rC:NONE:v0 (auto-composite)
DRHO     .g/cm3       UNKNOWN        : DRHO:Import:rC:NONE:v0 (auto-composite)
DT       .us/ft       UNKNOWN        : DT:Import:rC:NONE:v0 (auto-composite)
GR       .API         UNKNOWN        : GR:Import:rC:NONE:v0 (auto-composite)
ILD      .ohm.m       UNKNOWN        : ILD:Import:rC:NONE:v0 (auto-composite)
ILM      .ohm.m       UNKNOWN        : ILM:Import:rC:NONE:v0 (auto-composite)
LLD      .ohm.m       UNKNOWN        : LLD:Import:rC:NONE:v0 (auto-composite)
LLS      .ohm.m       UNKNOWN        : LLS:Import:rC:NONE:v0 (auto-composite)
MSFL     .ohm.m       UNKNOWN        : MSFL:Import:rC:NONE:v0 (auto-composite)
NPHI     .v/v_decimal UNKNOWN        : NPHI:Import:rC:NONE:v0 (auto-composite)
PEF      .b/elec      UNKNOWN        : PEF:Import:rC:NONE:v0 (auto-composite)
RHOB     .g/cm3       UNKNOWN        : RHOB:Import:rC:NONE:v0 (auto-composite)
~A     DEPTH         CALI         DRHO           DT           GR          ILD          ILM          LLD          LLS         MSFL         NPHI          PEF         RHOB
# ...
   2458.6685       6.6705      -0.0098      82.0691      55.2883       0.2000       0.0000     224.3215     221.2486     111.2158       0.0978       3.7469       2.6217
   2458.8208       6.6730      -0.0108      80.1860      54.2461       0.2000       0.0000     201.9044     202.8241     101.4160       0.0820       3.7101       2.6194
   2458.9734       6.6715      -0.0094      81.8396      52.8334       0.2000       0.0000     186.5586     191.3173     162.4936       0.0674       3.8041       2.6466
   2459.1257       6.6700      -0.0074      83.4890      51.3299       0.2000       0.0000     172.8276     181.3978     239.8227       0.0530       3.9281       2.6804
   2459.2781       6.6715      -0.0054      81.1495      48.8464       0.2000       0.0000     174.9845     186.7739     274.4330       0.0520       3.8755       2.7040
   2459.4304       6.6730      -0.0034      78.8160      46.1308       0.2000       0.0000     180.6799     195.5561     299.3804       0.0538       3.7833       2.7250
   2459.5830       6.6750      -0.0013      82.4067      43.9508       0.2000       0.0000     171.8884     186.5979     221.2453       0.0625       3.6254       2.7342
   2459.7354       6.6770       0.0007      85.9880      41.8934       0.2000       0.0000     159.9200     173.7572     120.6925       0.0727       3.4533       2.7408
   2459.8877       6.6790       0.0014      84.2057      42.3368       0.2000       0.0000     147.3759     161.1975     114.0026       0.0796       3.5001       2.7395
   2460.0400       6.6810       0.0019      82.4280      43.3329       0.2000       0.0000     134.7260     148.7176     127.3758       0.0858       3.5935       2.7365
   2460.1926       6.6920       0.0028      77.4910      42.2411       0.2000       0.0000     138.4761     153.1141     142.8290       0.0878       3.6691       2.7265
   2460.3450       6.7030       0.0038      72.5670      40.7041       0.2000       0.0000     145.5953     160.9760     158.6099       0.0890       3.7407       2.7150
   2460.4973       6.7010       0.0044      68.6954      39.0523       0.2000       0.0000     155.8546     171.7605     151.2154       0.0908       3.9041       2.7013
   2460.6497       6.6990       0.0049      64.8340      37.3769       0.2000       0.0000     166.7380     183.1247     139.1429       0.0927       4.0860       2.6873
   2460.8020       6.6915       0.0037      65.0202      35.7630       0.2000       0.0000     162.7868     178.9518     121.4212       0.0946       4.3262       2.6641
   2460.9546       6.6840       0.0022      65.2060      34.1613       0.2000       0.0000     155.9444     171.7511     102.6302       0.0965       4.5776       2.6390
   2461.1069       6.6840       0.0016      65.7117      33.9404       0.2000       0.0000     142.0161     154.8775     304.4410       0.0963       4.5561       2.6237
   2461.2593       6.6840       0.0011      66.2160      33.9825       0.2000       0.0000     126.7502     136.1756     547.7259       0.0956       4.4812       2.6102
   2461.4116       6.6850       0.0018      66.1880      36.3793       0.2000       0.0000     114.4698     121.2785     649.8876       0.0928       4.1773       2.6199
   2461.5642       6.6860       0.0028      66.1600      39.2072       0.2000       0.0000     102.8477     107.2300     721.9083       0.0895       3.8313       2.6340
   2461.7166       6.6905       0.0034      64.6830      42.2909       0.2000       0.0000      99.7504     104.9417     483.3296       0.0853       3.6373       2.6552
   2461.8689       6.6950       0.0039      63.2100      45.4196       0.2000       0.0000      98.5664     105.1518     189.8573       0.0809       3.4743       2.6776
   2462.0212       6.7000       0.0040      63.6776      46.4857       0.2000       0.0000     116.4465     122.6523     158.8278       0.0776       3.4669       2.6930
   2462.1738       6.7050       0.0040      64.1440      47.2041       0.2000       0.0000     138.3325     143.8019     180.9858       0.0745       3.4897       2.7067
   2462.3262       6.7075       0.0027      65.5974      45.0246       0.2000       0.0000     178.1247     181.9385     357.9150       0.0721       3.5511       2.7029
   2462.4785       6.7100       0.0012      67.0470      42.3771       0.2000       0.0000     220.5100     222.4874     567.1911       0.0697       3.6199       2.6958
   2462.6309       6.7295       0.0002      69.1788      42.6366       0.2000       0.0000     231.4394     231.3964     883.0179       0.0629       3.6907       2.6863
   2462.7832       6.7490      -0.0008      71.3050      43.3450       0.2000       0.0000     236.6110     234.4239    1200.8901       0.0556       3.7610       2.6767
   2462.9358       6.7720       0.0025      73.2701      43.0961       0.2000       0.0000     248.3614     241.2848     957.6141       0.0594       3.8055       2.6807
   2463.0881       6.7950       0.0070      75.2300      42.7061       0.2000       0.0000     262.2459     249.6484     620.6022       0.0654       3.8438       2.6863
   2463.2405       6.8005       0.0228      77.1321      42.8114       0.2000       0.0000     299.2635     278.3328     613.9866       0.0764       3.8486       2.6700
   2463.3928       6.8060       0.0411      79.0290      42.9864       0.2000       0.0000     338.2848     308.7740     668.1011       0.0880       3.8500       2.6501
   2463.5454       6.8200       0.0633      80.4699      44.3962       0.2000       0.0000     322.5754     291.0588     678.3828       0.0922       3.9174       2.6466
   2463.6978       6.8340       0.0857      81.9070      45.9714       0.2000       0.0000     294.6285     262.6792     669.1036       0.0947       3.9923       2.6480
   2463.8501       6.8761       0.0948      78.2085      46.8095       0.2000       0.0000     226.6324     201.0452     429.8311       0.0875       3.9730       2.6891
   2464.0024       6.9180       0.1002      74.5200      47.5540       0.2000       0.0000     153.9810     135.7455     159.4532       0.0786       3.9255       2.7366
   2464.1550       6.9085       0.0849      62.7220      46.3973       0.2000       0.0000     134.7242     118.4291     115.8466       0.0727       3.6879       2.7631
   2464.3074       6.8990       0.0655      50.9560      45.0117       0.2000       0.0000     125.7990     110.4300     115.2806       0.0680       3.4266       2.7828
   2464.4597       6.8539       0.0392      52.8921      43.4186       0.2000       0.0000     121.4498     107.0850     121.2007       0.0701       3.3564       2.7552
   2464.6121       6.8090       0.0129      54.8230      41.8019       0.2000       0.0000     115.6718     102.5526     126.6803       0.0738       3.3423       2.7191
   2464.7644       6.8200       0.0053      56.8422      44.8857       0.2000       0.0000      75.3446      66.8816     107.0512       0.0791       3.6297       2.6910
   2464.9170       6.8310       0.0016      58.8560      48.4747       0.2000       0.0000      30.7481      27.2987      84.1502       0.0878       3.9762       2.6567
   2465.0693       7.1451       0.0010      61.4771      55.4443       0.2000       0.0000      15.9487      13.6979      80.7526       0.1409       4.3637       2.5159
   2465.2217       7.4580       0.0014      64.0910      62.7555       0.2000       0.0000       7.3157       5.5118      81.0465       0.2026       4.7395       2.3572
   2465.3740       8.2960       0.0070      67.3565      68.2610       0.2000       0.0000       5.6240       3.8655      81.4688       0.2691       4.8672       2.2279
   2465.5266       9.1310       0.0135      70.6130      73.5955       0.2000       0.0000       5.2556       3.4666      81.8851       0.3330       4.9387       2.1112
   2465.6790       9.1270       0.0205      74.3932      76.5364       0.2000       0.0000       5.1399       3.3153      81.9450       0.3551       4.8947       2.0806
   2465.8313       9.1230       0.0273      78.1630      79.2655       0.2000       0.0000       5.0904       3.2285      81.9328       0.3672       4.8243       2.0699
