#------------------------------------------------------------------------------
#
#   Created by  : [OpenWorks] Log Export Utility (LEXP)
#   Created on  : 2016-05-11 12:13:39
#   Project     : CANT971
#   User        : R5K
#   Interpreter : PEP
#
#------------------------------------------------------------------------------
~VERSION INFORMATION
VERS. 2.0 : CWLS Log ASCII Standard - version 2.0
WRAP.  NO : One line per depth step
~WELL INFORMATION
#MNEMONIC   .UNIT                                           VALUE :DESCRIPTION
#------------------------------------------------------------------------------
STRT        .M                                          2180.6909 :START DEPTH
STOP        .M                                          2540.6597 :STOP DEPTH
STEP        .M                                             0.1524 :STEP
NULL        .                                           -999.2500 :NULL VALUE
COMP        .                                   PEMEX EXPL & PROD :COMPANY
WELL        .                                                1089 :WELL
FLD         .                                           CANTARELL :FIELD
LOC         .                                             UNKNOWN :LOCATION
CNTY        .                                      CD. DEL CARMEN :COUNTY
STAT        .                                            CAMPECHE :STATE
CTRY        .                                              MEXICO :COUNTRY
SRVC        .                                             UNKNOWN :SERVICE COMPANY
DATE        .                                             UNKNOWN :LOG DATE
UWI         .                                          3060000622 :UNIQUE WELL ID
XCOORD      .                                       601390.114000 :SURFACE X
YCOORD      .                                      2149872.463000 :SURFACE Y
LAT         .                                           19.441832 :LATITUDE
LON         .                                          -92.034145 :LONGITUDE
ELEV        .M                                            28.0000 :SURFACE ELEV
ELEV_TYPE   .                                                  KB :ELEV TYPE
~CURVE INFORMATION
#MNEMONIC.UNIT        API CODE       : CURVE DESCRIPTION
#------------------------------------------------------------------------------
DEPTH    .M                          : Measured Depth
CALI     .inches      UNKNOWN        : CALI:Import:rC:NONE:v0 (auto-composite)
DRHO     .g/cm3       UNKNOWN        : DRHO:Import:rC:NONE:v0 (auto-composite)
DT       .us/ft       UNKNOWN        : DT:Import:rC:NONE:v0 (auto-composite)
GR       .API         UNKNOWN        : GR:Import:rC:NONE:v0 (auto-composite)
ILD      .ohm.m       UNKNOWN        : ILD:Import:rC:NONE:v0 (auto-composite)
ILM      .ohm.m       UNKNOWN        : ILM:Import:rC:NONE:v0 (auto-composite)
LLD      .ohm.m       UNKNOWN        : LLD:Import:rC:NONE:v0 (auto-composite)
LLS      .ohm.m       UNKNOWN        : LLS:Import:rC:NONE:v0 (auto-composite)
MSFL     .ohm.m       UNKNOWN        : MSFL:Import:rC:NONE:v0 (auto-composite)
NPHI     .v/v_decimal UNKNOWN        : NPHI:Import:rC:NONE:v0 (auto-composite)
PEF      .b/elec      UNKNOWN        : PEF:Import:rC:NONE:v0 (auto-composite)
RHOB     .g/cm3       UNKNOWN        : RHOB:Import:rC:NONE:v0 (auto-composite)
~A     DEPTH         CALI         DRHO           DT           GR          ILD          ILM          LLD          LLS         MSFL         NPHI          PEF         RHOB
# ...
   2341.6252    -999.2500    -999.2500    -999.2500      39.2881       8.1246       9.6948    -999.2500    -999.2500    -999.2500    -999.2500    -999.2500    -999.2500
   2341.7778    -999.2500    -999.2500    -999.2500      38.9407       9.3649      10.9957    -999.2500    -999.2500    -999.2500    -999.2500    -999.2500    -999.2500
   2341.9302    -999.2500    -999.2500    -999.2500      40.3857       9.9942      11.9307    -999.2500    -999.2500    -999.2500    -999.2500    -999.2500    -999.2500
   2342.0825    -999.2500    -999.2500    -999.2500      42.3298      10.4534      12.7639    -999.2500    -999.2500    -999.2500    -999.2500    -999.2500    -999.2500
   2342.2349    -999.2500    -999.2500    -999.2500      43.5250      10.5948      13.1396    -999.2500    -999.2500    -999.2500    -999.2500    -999.2500    -999.2500
   2342.3872    -999.2500    -999.2500    -999.2500      44.5181      10.6505      13.3917    -999.2500    -999.2500    -999.2500    -999.2500    -999.2500    -999.2500
   2342.5398    -999.2500    -999.2500    -999.2500      43.3311      10.9024      13.7532    -999.2500    -999.2500    -999.2500    -999.2500    -999.2500    -999.2500
   2342.6921    -999.2500    -999.2500    -999.2500      41.5740      11.2057      14.1432    -999.2500    -999.2500    -999.2500    -999.2500    -999.2500    -999.2500
   2342.8445    -999.2500    -999.2500    -999.2500      41.2506      11.4682      14.4548    -999.2500    -999.2500    -999.2500    -999.2500    -999.2500    -999.2500
   2342.9968    -999.2500    -999.2500    -999.2500      41.2902      11.7204      14.7466    -999.2500    -999.2500    -999.2500    -999.2500    -999.2500    -999.2500
   2343.1494    -999.2500    -999.2500    -999.2500      42.4649      11.9125      14.5101    -999.2500    -999.2500    -999.2500    -999.2500    -999.2500    -999.2500
   2343.3018    -999.2500    -999.2500    -999.2500      43.9177      12.0900      14.1441    -999.2500    -999.2500    -999.2500    -999.2500    -999.2500    -999.2500
   2343.4541    -999.2500    -999.2500    -999.2500      44.5786      12.1990      14.0825    -999.2500    -999.2500    -999.2500    -999.2500    -999.2500    -999.2500
   2343.6064    -999.2500    -999.2500    -999.2500      45.0518      12.2917      14.0930    -999.2500    -999.2500    -999.2500    -999.2500    -999.2500    -999.2500
   2343.7590    -999.2500    -999.2500    -999.2500      43.3386      12.3836      14.0579    -999.2500    -999.2500    -999.2500    -999.2500    -999.2500    -999.2500
   2343.9114    -999.2500    -999.2500    -999.2500      41.1248      12.4754      14.0123    -999.2500    -999.2500    -999.2500    -999.2500    -999.2500    -999.2500
   2344.0637    -999.2500    -999.2500    -999.2500      40.4814      12.5507      13.9170    -999.2500    -999.2500    -999.2500    -999.2500    -999.2500    -999.2500
   2344.2161    -999.2500    -999.2500    -999.2500      40.1851      12.6224      13.8107    -999.2500    -999.2500    -999.2500    -999.2500    -999.2500    -999.2500
   2344.3684    -999.2500    -999.2500    -999.2500      40.3747      12.5966      13.5292    -999.2500    -999.2500    -999.2500    -999.2500    -999.2500    -999.2500
   2344.5210    -999.2500    -999.2500    -999.2500      40.6680      12.5500      13.2104    -999.2500    -999.2500    -999.2500    -999.2500    -999.2500    -999.2500
   2344.6733    -999.2500    -999.2500    -999.2500      40.6897      12.4854      12.8662    -999.2500    -999.2500    -999.2500    -999.2500    -999.2500    -999.2500
   2344.8257    -999.2500    -999.2500    -999.2500      40.6556      12.4173      12.5168    -999.2500    -999.2500    -999.2500    -999.2500    -999.2500    -999.2500
   2344.9780    -999.2500    -999.2500    -999.2500      41.7413      12.3817      12.3845    -999.2500    -999.2500    -999.2500    -999.2500    -999.2500    -999.2500
   2345.1306    -999.2500    -999.2500    -999.2500      43.0488      12.3527      12.2953    -999.2500    -999.2500    -999.2500    -999.2500    -999.2500    -999.2500
   2345.2830    -999.2500       0.2500    -999.2500      41.7130      12.3063      12.2515       0.2000       0.2000       0.2000      -1.5000       0.0000       0.9500
   2345.4353    -999.2500       0.2500    -999.2500      39.8737      12.2567      12.2164       0.2000       0.2000       0.2000      -1.5000       0.0000       0.9500
   2345.5876    -999.2500       0.2500    -999.2500      42.4529      12.2651      12.2165       0.2000       0.2000       0.2000      -1.5000       0.0000       0.9500
   2345.7402    -999.2500       0.2500    -999.2500      45.8413      12.2842      12.2230       0.2000       0.2000       0.2000      -1.5000       0.0000       0.9500
   2345.8926    -999.2500       0.2500    -999.2500      45.4348      12.3173      12.1848       0.2000       0.2000       0.2000      -1.5000       0.0000       0.9500
   2346.0449    -999.2500       0.2500    -999.2500      44.3609      12.3529      12.1387       0.2000       0.2000       0.2000      -1.5000       0.0000       0.9500
   2346.1973    -999.2500       0.2500    -999.2500      44.1846      12.3692      12.1281       0.2000       0.2000       0.2000      -1.5000       0.0000       0.9500
   2346.3496    -999.2500       0.2500    -999.2500      44.1595      12.3822      12.1236       0.2000       0.2000       0.2000      -1.5000       0.0000       0.9500
   2346.5022    -999.2500       0.2500    -999.2500      44.1918      12.4341      12.0962       0.2000       0.2000       0.2000      -1.5000       0.0000       0.9500
   2346.6545    -999.2500       0.2445    4001.0000      44.2334      12.4922      12.0652       0.2671       0.4732       1.0885      -1.4851       0.0000       0.9611
   2346.8069    -999.2500       0.0329    2200.4397      47.8840      12.7983      12.2716       2.8372      10.9392      35.1240      -0.9138       0.0000       1.3843
   2346.9592    -999.2500      -0.2112     400.0000      52.0921      13.1427      12.5147       5.7846      23.0651      74.3946      -0.2547       0.0000       1.8725
   2347.1118    -999.2500      -0.2500     400.0000      50.7357      13.6789      13.2131       5.6910      26.6231      80.7719      -0.1500       0.0000       1.9500
   2347.2642    -999.2500      -0.2500     400.0000      48.5584      14.2434      13.9786       5.0458      28.4980      80.9406      -0.1500       0.0000       1.9500
   2347.4165    -999.2500      -0.2500     400.0000      48.6952      14.9182      14.7186       4.9648      28.7034      81.1214      -0.1500       0.0000       1.9500
   2347.5688     -29.6490      -0.2500    -999.2500      49.1574      15.6085      15.4551       5.1912      28.6275      81.2947      -0.1500       0.0000       1.9500
   2347.7214     -14.8246      -0.2500    -999.2500      48.8296      16.3775      15.9452      10.0277      29.3670      81.2433      -0.1500       0.0000       1.9500
   2347.8738       0.0000      -0.2627    -999.2500      48.3959      17.1571      16.4024      15.2719      30.2795      81.1491      -0.1415       4.4499       1.9561
   2348.0261       3.2535      -0.5341    -999.2500      49.2908      18.0002      16.7302      11.2843      31.6121      81.0461       0.0404      99.5046       2.0870
   2348.1785       6.5070      -0.8405    -999.2500      50.3546      18.8515      17.0415       5.7982      33.0388      80.9617       0.2463     216.4009       2.2351
   2348.3308       6.5955      -0.8894    -999.2500      50.3876      19.7519      17.6061       4.8960      34.7298      81.2501       0.2913     418.4825       2.2674
   2348.4834       6.6840      -0.8899    -999.2500      50.2963      20.6583      18.2011       4.8200      36.2207      81.6307       0.3053     619.3214       2.2772
   2348.6357       6.6840      -0.8904    -999.2500      51.3801      21.8198      19.2224       4.1315      33.6267      82.3841       0.3051     539.8732       2.2759
   2348.7881    -999.2500      -0.8910    -999.2500      52.5978      23.0104      20.2922       3.3413      30.4931      83.0995       0.3022     531.8450       2.2724
