#------------------------------------------------------------------------------
#
#   Created by  : [OpenWorks] Log Export Utility (LEXP)
#   Created on  : 2016-05-11 12:13:39
#   Project     : CANT971
#   User        : R5K
#   Interpreter : PEP
#
#------------------------------------------------------------------------------
~VERSION INFORMATION
VERS. 2.0 : CWLS Log ASCII Standard - version 2.0
WRAP.  NO : One line per depth step
~WELL INFORMATION
#MNEMONIC   .UNIT                                           VALUE :DESCRIPTION
#------------------------------------------------------------------------------
STRT        .M                                          2180.6909 :START DEPTH
STOP        .M                                          2540.6597 :STOP DEPTH
STEP        .M                                             0.1524 :STEP
NULL        .                                           -999.2500 :NULL VALUE
COMP        .                                   PEMEX EXPL & PROD :COMPANY
WELL        .                                                1089 :WELL
FLD         .                                           CANTARELL :FIELD
LOC         .                                             UNKNOWN :LOCATION
CNTY        .                                      CD. DEL CARMEN :COUNTY
STAT        .                                            CAMPECHE :STATE
CTRY        .                                              MEXICO :COUNTRY
SRVC        .                                             UNKNOWN :SERVICE COMPANY
DATE        .                                             UNKNOWN :LOG DATE
UWI         .                                          3060000622 :UNIQUE WELL ID
XCOORD      .                                       601390.114000 :SURFACE X
YCOORD      .                                      2149872.463000 :SURFACE Y
LAT         .                                           19.441832 :LATITUDE
LON         .                                          -92.034145 :LONGITUDE
ELEV        .M                                            28.0000 :SURFACE ELEV
ELEV_TYPE   .                                                  KB :ELEV TYPE
~CURVE INFORMATION
#MNEMONIC.UNIT        API CODE       : CURVE DESCRIPTION
#------------------------------------------------------------------------------
DEPTH    .M                          : Measured Depth
CALI     .inches      UNKNOWN        : CALI:Import:rC:NONE:v0 (auto-composite)
DRHO     .g/cm3       UNKNOWN        : DRHO:Import:rC:NONE:v0 (auto-composite)
DT       .us/ft       UNKNOWN        : DT:Import:rC:NONE:v0 (auto-composite)
GR       .API         UNKNOWN        : GR:Import:rC:NONE:v0 (auto-composite)
ILD      .ohm.m       UNKNOWN        : ILD:Import:rC:NONE:v0 (auto-composite)
ILM      .ohm.m       UNKNOWN        : ILM:Import:rC:NONE:v0 (auto-composite)
LLD      .ohm.m       UNKNOWN        : LLD:Import:rC:NONE:v0 (auto-composite)
LLS      .ohm.m       UNKNOWN        : LLS:Import:rC:NONE:v0 (auto-composite)
MSFL     .ohm.m       UNKNOWN        : MSFL:Import:rC:NONE:v0 (auto-composite)
NPHI     .v/v_decimal UNKNOWN        : NPHI:Import:rC:NONE:v0 (auto-composite)
PEF      .b/elec      UNKNOWN        : PEF:Import:rC:NONE:v0 (auto-composite)
RHOB     .g/cm3       UNKNOWN        : RHOB:Import:rC:NONE:v0 (auto-composite)
~A     DEPTH         CALI         DRHO           DT           GR          ILD          ILM          LLD          LLS         MSFL         NPHI          PEF         RHOB
# ...
   2531.8206    -999.2500       0.2074      65.1434      50.7883       0.2000       0.0000     115.9501      51.8601      85.4951       0.2220       5.0122       2.4811
   2531.9729    -999.2500       0.2487      65.0810      50.8083       0.2000       0.0000     115.9210      51.8756      85.2788       0.2222       5.0293       2.5115
   2532.1252    -999.2500       0.2809      65.1176      50.7083       0.2000       0.0000     115.9100      51.8949      85.1262       0.2219       5.0847       2.5418
   2532.2778    -999.2500       0.2850      65.1540      48.9717       0.2000       0.0000     115.9713      51.9242      85.2789       0.2201       5.2934       2.5443
   2532.4302    -999.2500       0.2852      65.1430      47.3969       0.2000       0.0000     116.0143      51.9383      85.4594       0.2188       5.4848       2.5429
   2532.5825    -999.2500       0.2899      65.1320      47.8571       0.2000       0.0000     115.9496      51.8932      85.5474       0.2196       5.5223       2.5452
   2532.7349    -999.2500       0.2948      65.1801      48.4133       0.2000       0.0000     115.8953      51.8444      85.5615       0.2208       5.5141       2.5481
   2532.8872    -999.2500       0.2977      65.2280      50.0907       0.2000       0.0000     115.9418      51.8187      85.3825       0.2218       5.4466       2.5507
   2533.0398    -999.2500       0.2994      65.2155      51.6241       0.2000       0.0000     111.6619      49.8719      82.0475       0.2227       5.3999       2.5523
   2533.1921    -999.2500       0.2983      65.2030      51.5900       0.2000       0.0000      93.0991      41.5952      68.4494       0.2227       5.4565       2.5508
   2533.3445    -999.2500       0.2965      65.1870      51.4167       0.2000       0.0000      68.6517      30.7024      50.5451       0.2225       5.4968       2.5481
   2533.4968    -999.2500       0.2937      65.1710      49.8246       0.2000       0.0000      33.6137      15.0894      24.7812       0.2222       5.4256       2.5435
   2533.6494    -999.2500       0.2909      65.1930      47.8405       0.2000       0.0000       4.5834       2.1533       3.4247       0.2221       5.3132       2.5396
   2533.8018    -999.2500       0.2888      65.2150      42.1059       0.2000       0.0000       0.2000       0.2000       0.2000       0.2222       5.1356       2.5390
   2533.9541    -999.2500       0.2861      97.3006      35.0946       0.2000       0.0000       0.2000       0.2000       0.2000       0.2223       4.9882       2.5384
   2534.1064    -999.2500       0.2810     129.2490      16.5740       0.2000       0.0000       0.2000       0.2000       0.2000       0.2221       4.9688       2.5362
   2534.2590    -999.2500       0.2756     240.8625       0.0000       0.2000       0.0000       0.2000       0.2000       0.2000       0.2219       4.9798       2.5329
   2534.4114    -999.2500       0.2705     351.9980       0.0000       0.2000       0.0000       0.2000       0.2000       0.2000       0.2216       5.0129       2.5268
   2534.5637    -999.2500       0.2666     376.0506       0.0000       0.2000       0.0000       0.2000       0.2000       0.2000       0.2210       5.0669       2.5213
   2534.7161    -999.2500       0.2660    -999.2500       0.0000       0.2000       0.0000       0.2000       0.2000       0.2000       0.2192       5.1696       2.5188
   2534.8684    -999.2500       0.2655    -999.2500       0.0000       0.2000       0.0000       0.2000       0.2000       0.2000       0.2179       5.3093       2.5164
   2535.0210    -999.2500       0.2637    -999.2500       0.0000       0.2000       0.0000       0.2000       0.2000       0.2000       0.2185       5.5285       2.5131
   2535.1733    -999.2500       0.2633    -999.2500       0.0000       0.2000       0.0000       0.2000       0.2000       0.2000       0.2197       5.7062       2.5107
   2535.3257    -999.2500       0.2671    -999.2500       0.0000       0.2000       0.0000       0.2000       0.2000       0.2000       0.2215       5.7301       2.5117
   2535.4780    -999.2500       0.2725    -999.2500       0.0000       0.2000       0.0000       0.2000       0.2000       0.2000       0.2236       5.6292       2.5151
   2535.6306    -999.2500       0.2806    -999.2500       0.0000       0.2000       0.0000       0.2000       0.2000       0.2000       0.2265       5.2666       2.5238
   2535.7830    -999.2500       0.2884    -999.2500       0.0000       0.2000       0.0000       0.2000       0.2000       0.2000       0.2290       4.9927       2.5336
   2535.9353    -999.2500       0.2942    -999.2500       0.0000       0.2000       0.0000       0.2000       0.2000       0.2000       0.2304       5.0708       2.5444
   2536.0876    -999.2500       0.2980    -999.2500       0.0000       0.2000       0.0000       0.2000       0.2000       0.2000       0.2314       5.2011       2.5522
   2536.2402    -999.2500       0.2973    -999.2500       0.0000       0.2000       0.0000       0.2000       0.2000       0.2000       0.2315       5.3055       2.5517
   2536.3926    -999.2500       0.2957    -999.2500       0.0000       0.2000       0.0000       0.2000       0.2000       0.2000       0.2315       5.3750       2.5496
   2536.5449    -999.2500       0.2937    -999.2500       0.0000       0.2000       0.0000       0.2000       0.2000       0.2000       0.2315       5.3692       2.5471
   2536.6973    -999.2500       0.2903    -999.2500       0.0000       0.2000       0.0000       0.2000       0.2000       0.2000       0.2315       5.3312       2.5428
   2536.8496    -999.2500       0.2834    -999.2500       0.0000       0.2000       0.0000       0.2000       0.2000       0.2000       0.2315       5.2466       2.5340
   2537.0022    -999.2500       0.2765    -999.2500       0.0000       0.2000       0.0000       0.2000       0.2000       0.2000       0.2315       5.1735       2.5254
   2537.1545    -999.2500       0.2712    -999.2500       0.0000       0.2000       0.0000       0.2000       0.2000       0.2000       0.2315       5.1472       2.5185
   2537.3069    -999.2500       0.2691    -999.2500       0.0000       0.2000       0.0000       0.2000       0.2000       0.2000       0.2315       5.1392       2.5162
   2537.4592    -999.2500       0.2734    -999.2500       0.0000       0.2000       0.0000       0.2000       0.2000       0.2000       0.2315       5.1547       2.5241
   2537.6118    -999.2500       0.2785    -999.2500       0.0000       0.2000       0.0000       0.2000       0.2000       0.2000       0.2315       5.1471       2.5318
   2537.7642    -999.2500       0.2827    -999.2500       0.0000       0.2000       0.0000       0.2000       0.2000       0.2000       0.2315       5.0778       2.5355
   2537.9165    -999.2500       0.2835    -999.2500       0.0000       0.2000       0.0000       0.2000       0.2000       0.2000       0.2315       5.0436       2.5351
   2538.0688    -999.2500       0.2772    -999.2500       0.0000       0.2000       0.0000       0.2000       0.2000       0.2000       0.2315       5.1123       2.5268
   2538.2214    -999.2500       0.2707    -999.2500       0.0000       0.2000       0.0000       0.2000       0.2000       0.2000       0.2315       5.1924       2.5185
   2538.3738    -999.2500       0.2663    -999.2500       0.0000       0.2000       0.0000       0.2000       0.2000       0.2000       0.2315       5.2575       2.5125
   2538.5261    -999.2500       0.2644    -999.2500       0.0000       0.2000       0.0000       0.2000       0.2000       0.2000       0.2315       5.3021       2.5098
   2538.6785    -999.2500       0.2671    -999.2500       0.0000       0.2000       0.0000       0.2000       0.2000       0.2000       0.2315       5.3079       2.5128
   2538.8308    -999.2500       0.2718    -999.2500       0.0000       0.2000       0.0000       0.2000       0.2000       0.2000       0.2315       5.3179       2.5180
   2538.9834    -999.2500       0.2789    -999.2500       0.0000       0.2000       0.0000       0.2000       0.2000       0.2000       0.2315       5.3509       2.5261
