#------------------------------------------------------------------------------
#
#   Created by  : [OpenWorks] Log Export Utility (LEXP)
#   Created on  : 2016-05-11 12:13:39
#   Project     : CANT971
#   User        : R5K
#   Interpreter : PEP
#
#------------------------------------------------------------------------------
~VERSION INFORMATION
VERS. 2.0 : CWLS Log ASCII Standard - version 2.0
WRAP.  NO : One line per depth step
~WELL INFORMATION
#MNEMONIC   .UNIT                                           VALUE :DESCRIPTION
#------------------------------------------------------------------------------
STRT        .M                                          2180.6909 :START DEPTH
STOP        .M                                          2540.6597 :STOP DEPTH
STEP        .M                                             0.1524 :STEP
NULL        .                                           -999.2500 :NULL VALUE
COMP        .                                   PEMEX EXPL & PROD :COMPANY
WELL        .                                                1089 :WELL
FLD         .                                           CANTARELL :FIELD
LOC         .                                             UNKNOWN :LOCATION
CNTY        .                                      CD. DEL CARMEN :COUNTY
STAT        .                                            CAMPECHE :STATE
CTRY        .                                              MEXICO :COUNTRY
SRVC        .                                             UNKNOWN :SERVICE COMPANY
DATE        .                                             UNKNOWN :LOG DATE
UWI         .                                          3060000622 :UNIQUE WELL ID
XCOORD      .                                       601390.114000 :SURFACE X
YCOORD      .                                      2149872.463000 :SURFACE Y
LAT         .                                           19.441832 :LATITUDE
LON         .                                          -92.034145 :LONGITUDE
ELEV        .M                                            28.0000 :SURFACE ELEV
ELEV_TYPE   .                                                  KB :ELEV TYPE
~CURVE INFORMATION
#MNEMONIC.UNIT        API CODE       : CURVE DESCRIPTION
#------------------------------------------------------------------------------
DEPTH    .M                          : Measured Depth
CALI     .inches      UNKNOWN        : CALI:Import:rC:NONE:v0 (auto-composite)
DRHO     .g/cm3       UNKNOWN        : DRHO:Import:rC:NONE:v0 (auto-composite)
DT       .us/ft       UNKNOWN        : DT:Import:rC:NONE:v0 (auto-composite)
GR       .API         UNKNOWN        : GR:Import:rC:NONE:v0 (auto-composite)
ILD      .ohm.m       UNKNOWN        : ILD:Import:rC:NONE:v0 (auto-composite)
ILM      .ohm.m       UNKNOWN        : ILM:Import:rC:NONE:v0 (auto-composite)
LLD      .ohm.m       UNKNOWN        : LLD:Import:rC:NONE:v0 (auto-composite)
LLS      .ohm.m       UNKNOWN        : LLS:Import:rC:NONE:v0 (auto-composite)
MSFL     .ohm.m       UNKNOWN        : MSFL:Import:rC:NONE:v0 (auto-composite)
NPHI     .v/v_decimal UNKNOWN        : NPHI:Import:rC:NONE:v0 (auto-composite)
PEF      .b/elec      UNKNOWN        : PEF:Import:rC:NONE:v0 (auto-composite)
RHOB     .g/cm3       UNKNOWN        : RHOB:Import:rC:NONE:v0 (auto-composite)
~A     DEPTH         CALI         DRHO           DT           GR          ILD          ILM          LLD          LLS         MSFL         NPHI          PEF         RHOB
# ...
   2356.2556       6.7310      -0.8892      67.3790      39.8590      57.6155      25.2066       0.3898       0.9429      79.1502       0.2361      36.4729       2.3707
   2356.4082       6.7720      -0.8695      67.3790      39.9112      57.5989      25.2085       0.6584       0.9647      80.1449       0.2285      48.4439       2.3964
   2356.5605       6.7910      -0.8054      67.4070      41.8473      57.5668      25.1934       1.9169       2.9890      84.0166       0.2147      50.6445       2.4376
   2356.7129       6.8100      -0.7238      67.4350      43.8464      57.5372      25.1784       3.6541       5.8314      89.1094       0.2021      47.9383       2.4718
   2356.8652       6.9575      -0.6031      67.4950      47.3817      57.5688      25.1634       6.6422      10.5715      97.1220       0.1990      32.1180       2.4644
   2357.0178       7.1050      -0.4681      67.5550      50.8061      57.5923      25.1492      10.4472      16.5062     103.1620       0.1970      16.1960       2.4456
   2357.1702       7.8496      -0.3046      72.2027      51.8599      57.4435      25.1527      16.6453      25.8903      99.0045       0.1927       9.5864       2.4118
   2357.3225       8.5940      -0.1428      76.8490      52.8544      57.2977      25.1569      24.3783      37.6455      93.9549       0.1848       5.4176       2.4033
   2357.4749       8.9225      -0.0092      86.0384      52.7215      57.2125      25.1749      36.4402      56.2648      92.6922       0.1651       4.2736       2.5060
   2357.6272       9.2510       0.0887      95.2250      52.5518      57.1330      25.1917      47.2435      72.6632      92.6444       0.1468       3.7873       2.6113
   2357.7798       9.2780       0.0697      98.0199      51.7517      57.1516      25.1872      50.2017      75.7575      94.6179       0.1427       3.7173       2.6495
   2357.9321       9.3050       0.0337     100.8140      51.1273      57.1797      25.1824      52.2968      77.4423      99.4479       0.1411       3.7576       2.6692
   2358.0845       9.3050       0.0129     112.6529      53.2333      57.3561      25.1724      56.4388      82.8088     113.5597       0.1400       3.9293       2.6655
   2358.2368       9.3050      -0.0026     124.4880      55.3221      57.5018      25.1620      61.7868      89.4367     128.3616       0.1381       4.0704       2.6566
   2358.3894       9.3050      -0.0088     113.4092      57.1654      57.2090      25.1475      70.1488      98.2069     139.5622       0.1331       4.0143       2.6446
   2358.5417       9.3050      -0.0118     102.3340      58.8459      56.9518      25.1349      74.5543     100.8112     143.3422       0.1279       3.9173       2.6369
   2358.6941       9.3155      -0.0093     102.3770      58.3932      57.1598      25.1474      63.0739      80.2993     123.2177       0.1246       3.8017       2.6459
   2358.8464       9.3260      -0.0058     102.4200      57.8391      57.3661      25.1591      51.3896      59.9701     102.0980       0.1223       3.8286       2.6570
   2358.9990       9.3255      -0.0028     106.4802      56.0549      57.5505      25.1606      48.8373      54.5724      92.3616       0.1221       4.3544       2.6651
   2359.1514       9.3250       0.0020     110.5390      54.4891      57.6999      25.1620      51.0367      55.2448      87.7357       0.1275       5.3293       2.6719
   2359.3037       9.3095       0.0125     104.1509      55.3864      57.4533      25.1620      63.6058      67.2029      93.2924       0.1498       7.5056       2.6764
   2359.4561       9.2940       0.0261      97.7650      56.4790      57.2272      25.1608      82.4838      85.9099     115.0318       0.1697       9.3300       2.6805
   2359.6084       9.2450       0.0465      97.9510      59.6288      57.2177      25.1467     115.7663     119.9134     183.3291       0.1716       9.3083       2.6854
   2359.7610       9.1960       0.0641      98.1370      62.8415      57.2319      25.1339     137.4928     145.3836     236.3624       0.1640       8.6089       2.6840
   2359.9133       8.4734       0.0693     109.0535      66.6761      57.4805      25.1329     114.7415     135.4287     215.2284       0.1367       6.8099       2.6621
   2360.0657       7.7510       0.0705     119.9660      69.8852      57.6492      25.1291      87.6599     120.4342     179.8726       0.1105       5.1136       2.6492
   2360.2180       7.3959       0.0660     119.6129      67.2839      57.0747      25.0995      71.8799     109.5402     141.7973       0.0992       4.3434       2.6753
   2360.3706       7.0410       0.0565     119.2600      64.8696      56.5928      25.0744      65.2515     100.0351     116.7776       0.0927       3.8723       2.6997
   2360.5229       7.0505       0.0351     106.9492      64.0946      56.9227      25.0885      79.9666      92.4496     132.2079       0.0930       3.7993       2.6978
   2360.6753       7.0600       0.0158      94.6430      63.4880      57.1887      25.1026      94.7422      87.2018     168.7715       0.0945       3.7879       2.6891
   2360.8276       7.0595       0.0090      91.4889      64.2776      56.9260      25.1177      98.4845      87.7911     245.9589       0.0957       3.7475       2.6737
   2360.9802       7.0590       0.0061      88.3360      64.8104      56.7225      25.1344      98.6956      87.4384     286.0679       0.0972       3.6935       2.6630
   2361.1326       7.0030       0.0078      84.8523      63.3265      56.9837      25.1645      94.4426      81.4383     199.8272       0.0993       3.6155       2.6691
   2361.2849       6.9470       0.0097      81.3700      62.2057      57.2350      25.1928      88.1860      73.6558     114.4729       0.1015       3.5575       2.6792
   2361.4373       6.9475       0.0100      74.0205      63.7944      57.4124      25.2078      78.5640      63.7137      94.2370       0.1029       3.5671       2.6927
   2361.5896       6.9480       0.0097      66.6740      65.5912      57.5788      25.2192      68.0835      53.6656      88.4133       0.1049       3.6683       2.6969
   2361.7422       7.4241       0.0089      72.0841      68.8663      57.6666      25.2047      56.9090      44.3840      90.3104       0.1086       3.9852       2.6746
   2361.8945       7.9000       0.0075      77.4920      71.3846      57.6884      25.1882      49.4857      38.2457      98.1220       0.1162       4.2776       2.6287
   2362.0469       7.8950       0.0052      72.6760      68.7783      57.2637      25.1586      52.3884      40.1272     118.0148       0.1333       4.4031       2.5327
   2362.1992       7.8900       0.0038      67.8620      66.2872      56.9080      25.1351      62.3653      48.0709     129.5588       0.1487       4.4097       2.4553
   2362.3518       7.7430       0.0053      67.9425      64.5416      56.9978      25.1512      85.9078      68.0207     113.9323       0.1555       4.1854       2.4488
   2362.5042       7.5960       0.0060      68.0230      62.7144      53.1068      23.4092     102.6392      82.7713      97.3541       0.1540       3.9657       2.4662
   2362.6565       7.2764       0.0036      70.3385      60.3823      24.5945      10.7936      95.9775      78.9220      90.5412       0.1352       3.8616       2.5122
   2362.8088       6.9570       0.0036      72.6530      58.1416       0.2000       0.0000      82.7289      69.1529      87.3690       0.1179       3.7956       2.5543
   2362.9614       6.9180       0.0113      80.6772      56.4427       0.2000       0.0000      63.4032      52.8624      88.9386       0.1123       3.7733       2.5738
   2363.1138       6.8790       0.0199      88.6980      55.2177       0.2000       0.0000      45.5022      37.6027      90.2875       0.1120       3.7093       2.5831
   2363.2661       6.8795       0.0276      88.4644      56.6856       0.2000       0.0000      33.5401      27.5297      89.1000       0.1202       3.5253       2.5772
   2363.4185       6.8800       0.0355      88.2310      58.0882       0.2000       0.0000      25.2217      20.6419      87.5616       0.1299       3.3978       2.5785
