#------------------------------------------------------------------------------
#
#   Created by  : [OpenWorks] Log Export Utility (LEXP)
#   Created on  : 2016-05-11 12:13:39
#   Project     : CANT971
#   User        : R5K
#   Interpreter : PEP
#
#------------------------------------------------------------------------------
~VERSION INFORMATION
VERS. 2.0 : CWLS Log ASCII Standard - version 2.0
WRAP.  NO : One line per depth step
~WELL INFORMATION
#MNEMONIC   .UNIT                                           VALUE :DESCRIPTION
#------------------------------------------------------------------------------
STRT        .M                                          2180.6909 :START DEPTH
STOP        .M                                          2540.6597 :STOP DEPTH
STEP        .M                                             0.1524 :STEP
NULL        .                                           -999.2500 :NULL VALUE
COMP        .                                   PEMEX EXPL & PROD :COMPANY
WELL        .                                                1089 :WELL
FLD         .                                           CANTARELL :FIELD
LOC         .                                             UNKNOWN :LOCATION
CNTY        .                                      CD. DEL CARMEN :COUNTY
STAT        .                                            CAMPECHE :STATE
CTRY        .                                              MEXICO :COUNTRY
SRVC        .                                             UNKNOWN :SERVICE COMPANY
DATE        .                                             UNKNOWN :LOG DATE
UWI         .                                          3060000622 :UNIQUE WELL ID
XCOORD      .                                       601390.114000 :SURFACE X
YCOORD      .                                      2149872.463000 :SURFACE Y
LAT         .                                           19.441832 :LATITUDE
LON         .                                          -92.034145 :LONGITUDE
ELEV        .M                                            28.0000 :SURFACE ELEV
ELEV_TYPE   .                                                  KB :ELEV TYPE
~CURVE INFORMATION
#MNEMONIC.UNIT        API CODE       : CURVE DESCRIPTION
#------------------------------------------------------------------------------
DEPTH    .M                          : Measured Depth
CALI     .inches      UNKNOWN        : CALI:Import:rC:NONE:v0 (auto-composite)
DRHO     .g/cm3       UNKNOWN        : DRHO:Import:rC:NONE:v0 (auto-composite)
DT       .us/ft       UNKNOWN        : DT:Import:rC:NONE:v0 (auto-composite)
GR       .API         UNKNOWN        : GR:Import:rC:NONE:v0 (auto-composite)
ILD      .ohm.m       UNKNOWN        : ILD:Import:rC:NONE:v0 (auto-composite)
ILM      .ohm.m       UNKNOWN        : ILM:Import:rC:NONE:v0 (auto-composite)
LLD      .ohm.m       UNKNOWN        : LLD:Import:rC:NONE:v0 (auto-composite)
LLS      .ohm.m       UNKNOWN        : LLS:Import:rC:NONE:v0 (auto-composite)
MSFL     .ohm.m       UNKNOWN        : MSFL:Import:rC:NONE:v0 (auto-composite)
NPHI     .v/v_decimal UNKNOWN        : NPHI:Import:rC:NONE:v0 (auto-composite)
PEF      .b/elec      UNKNOWN        : PEF:Import:rC:NONE:v0 (auto-composite)
RHOB     .g/cm3       UNKNOWN        : RHOB:Import:rC:NONE:v0 (auto-composite)
~A     DEPTH         CALI         DRHO           DT           GR          ILD          ILM          LLD          LLS         MSFL         NPHI          PEF         RHOB
# ...
   2517.1902       6.5785       0.0077     115.9049      59.7091       0.2000       0.0000     507.8338     153.6338     187.4978       0.0744       3.8744       2.6653
   2517.3425       6.5920       0.0037     119.6880      60.7111       0.2000       0.0000     477.8553     143.4777     204.9924       0.0733       3.9197       2.6769
   2517.4949       6.6271      -0.0003     111.7690      62.1093       0.2000       0.0000     444.4954     132.5066     250.9317       0.0729       4.0245       2.6854
   2517.6472       6.6620      -0.0010     103.8810      61.5618       0.2000       0.0000     324.6706      97.4652     250.5771       0.0727       4.2143       2.6850
   2517.7998       6.6124      -0.0010      88.1773      60.5767       0.2000       0.0000     186.5049      57.3195     240.1507       0.0725       4.4218       2.6824
   2517.9521       6.5630       0.0027      72.5350      59.7000       0.2000       0.0000     171.6243      53.6753     479.1342       0.0766       4.3915       2.6927
   2518.1045       6.5635       0.0072      80.6003      58.8467       0.2000       0.0000     182.7421      57.7270     770.5980       0.0816       4.3111       2.7057
   2518.2568       6.5640       0.0084      88.6340      58.6352       0.2000       0.0000     176.0652      55.0606     539.0911       0.1080       4.6639       2.6635
   2518.4094       6.6156       0.0089      84.4989      58.5580       0.2000       0.0000     165.6725      50.9987     200.8369       0.1388       5.1051       2.6100
   2518.5618       6.6670       0.0136      80.3800      57.3836       0.2000       0.0000     117.3240      36.3255     125.7668       0.1387       5.6445       2.4682
   2518.7141       6.8901       0.0191      86.6328      55.9880       0.2000       0.0000      61.2979      19.5026     102.8129       0.1323       6.2051       2.3086
   2518.8665       7.1120       0.0414      92.8610      53.9815       0.2000       0.0000      56.6316      18.6638     111.9711       0.1118       6.4975       2.1897
   2519.0188       7.4594       0.0669      95.6801      51.8564       0.2000       0.0000      61.7768      20.8780     127.1787       0.0886       6.7386       2.0787
   2519.1714       7.8050       0.1006      98.4880      49.9320       0.2000       0.0000      72.3656      25.1869     131.0361       0.0907       6.6129       2.0833
   2519.3237       7.7990       0.1354     100.0471      48.0450       0.2000       0.0000      83.8198      29.8372     132.5692       0.0977       6.4157       2.1100
   2519.4761       7.7930       0.1435     101.6000      48.0475       0.2000       0.0000      75.6444      28.0145     112.7387       0.1166       5.9633       2.1506
   2519.6284       7.7198       0.1465     122.2368      48.3889       0.2000       0.0000      63.7460      24.9443      89.1386       0.1375       5.4645       2.1945
   2519.7810       7.6470       0.1474     142.7920      49.4338       0.2000       0.0000      53.2010      20.8275      88.2230       0.1319       5.1296       2.2966
   2519.9333       7.4410       0.1483     167.0831      50.5999       0.2000       0.0000      43.0621      16.5651      92.6780       0.1221       4.8321       2.4098
   2520.0857       7.2360       0.1652     191.2780      50.0778       0.2000       0.0000      41.6888      15.4262     154.4129       0.1593       4.9046       2.5151
   2520.2380       7.1443       0.1843     206.2903      49.2772       0.2000       0.0000      43.0273      15.2220     228.7627       0.2055       5.0540       2.6147
   2520.3906       7.0530       0.1620     221.2430      48.5744       0.2000       0.0000      87.5829      29.1115     374.0341       0.2521       5.4691       2.5429
   2520.5430       7.3012       0.1318     256.4234      47.8871       0.2000       0.0000     141.2051      45.9913     523.8680       0.2959       5.9151       2.4407
   2520.6953       7.5480       0.0945     291.4640      47.9852       0.2000       0.0000     227.4341      74.6088     382.1570       0.2519       5.7268       2.4036
   2520.8477       7.7465       0.0565     290.3793      48.2017       0.2000       0.0000     317.4615     104.6800     190.7605       0.1916       5.4053       2.3819
   2521.0000       7.9440       0.0370     289.2990      48.9472       0.2000       0.0000     339.0286     112.5698     162.9319       0.1427       4.7270       2.4392
   2521.1526       7.7013       0.0216     267.2811      49.7689       0.2000       0.0000     347.1767     116.0012     166.4269       0.0973       3.9965       2.5119
   2521.3049       7.4600       0.0238     245.3510      51.2981       0.2000       0.0000     343.6761     112.9722     180.4479       0.0813       3.6161       2.6011
   2521.4573       7.0133       0.0292     223.3014      52.9244       0.2000       0.0000     338.7381     108.8975     197.4723       0.0712       3.3156       2.6908
   2521.6096       6.5690       0.0326     201.3400      53.3275       0.2000       0.0000     350.5227     108.7300     236.1680       0.0681       3.3059       2.7258
   2521.7622       6.5725       0.0353     236.7419      53.5712       0.2000       0.0000     366.2538     109.6643     277.3789       0.0663       3.3503       2.7488
   2521.9146       6.5760       0.0315     272.0020      53.2500       0.2000       0.0000     397.6022     117.6222     289.4874       0.0660       3.3805       2.7432
   2522.0669       6.5720       0.0264     257.2169      52.8590       0.2000       0.0000     433.4986     127.4670     297.8265       0.0661       3.4077       2.7320
   2522.2192       6.5680       0.0193     242.4910      51.2990       0.2000       0.0000     496.8505     146.9188     336.4630       0.0675       3.4281       2.7184
   2522.3718       6.5770       0.0121     213.5955      49.6021       0.2000       0.0000     563.2953     167.6814     379.6657       0.0693       3.4435       2.7057
   2522.5242       6.5860       0.0114     184.8160      50.1593       0.2000       0.0000     596.9356     180.5624     404.8372       0.0704       3.4025       2.7134
   2522.6765       6.5755       0.0119     147.3025      50.9659       0.2000       0.0000     622.0982     191.2577     437.4116       0.0715       3.3527       2.7244
   2522.8289       6.5650       0.0124     109.9400      52.0372       0.2000       0.0000     613.0316     191.4905     625.0575       0.0723       3.3297       2.7283
   2522.9812       6.5750       0.0134      88.8540      53.1361       0.2000       0.0000     596.5817     189.3347     809.5200       0.0729       3.3165       2.7308
   2523.1338       6.5850       0.0207      67.8530      51.6358       0.2000       0.0000     567.6677     181.6185     564.0602       0.0728       3.3680       2.7333
   2523.2861       6.5840       0.0292      72.2910      49.8812       0.2000       0.0000     539.4938     173.6129     254.9711       0.0726       3.4314       2.7355
   2523.4385       6.5830       0.0378      76.7110      48.8090       0.2000       0.0000     549.6731     174.9946     157.6177       0.0723       3.4926       2.7351
   2523.5908       6.5820       0.0458      79.8849      47.7994       0.2000       0.0000     565.3530     177.9903     105.5046       0.0721       3.5488       2.7334
   2523.7434       6.5810       0.0484      83.0460      48.7676       0.2000       0.0000     561.4200     179.2557     115.7527       0.0742       3.5538       2.7243
   2523.8958       6.5850       0.0494      87.6233      49.9046       0.2000       0.0000     562.4548     183.8139     156.9592       0.0773       3.5528       2.7134
   2524.0481       6.5890       0.0458      92.1820      50.0033       0.2000       0.0000     655.9766     227.1899     405.7812       0.0874       3.5889       2.6991
   2524.2004       6.6045       0.0421      88.3237      50.0199       0.2000       0.0000     770.6669     278.9113     709.1096       0.0986       3.6333       2.6844
   2524.3530       6.6200       0.0457      84.4810      51.0548       0.2000       0.0000     923.7313     341.3044    1168.9532       0.1080       3.6897       2.6741
