#------------------------------------------------------------------------------
#
#   Created by  : [OpenWorks] Log Export Utility (LEXP)
#   Created on  : 2016-05-11 12:13:39
#   Project     : CANT971
#   User        : R5K
#   Interpreter : PEP
#
#------------------------------------------------------------------------------
~VERSION INFORMATION
VERS. 2.0 : CWLS Log ASCII Standard - version 2.0
WRAP.  NO : One line per depth step
~WELL INFORMATION
#MNEMONIC   .UNIT                                           VALUE :DESCRIPTION
#------------------------------------------------------------------------------
STRT        .M                                          2180.6909 :START DEPTH
STOP        .M                                          2540.6597 :STOP DEPTH
STEP        .M                                             0.1524 :STEP
NULL        .                                           -999.2500 :NULL VALUE
COMP        .                                   PEMEX EXPL & PROD :COMPANY
WELL        .                                                1089 :WELL
FLD         .                                           CANTARELL :FIELD
LOC         .                                             UNKNOWN :LOCATION
CNTY        .                                      CD. DEL CARMEN :COUNTY
STAT        .                                            CAMPECHE :STATE
CTRY        .                                              MEXICO :COUNTRY
SRVC        .                                             UNKNOWN :SERVICE COMPANY
DATE        .                                             UNKNOWN :LOG DATE
UWI         .                                          3060000622 :UNIQUE WELL ID
XCOORD      .                                       601390.114000 :SURFACE X
YCOORD      .                                      2149872.463000 :SURFACE Y
LAT         .                                           19.441832 :LATITUDE
LON         .                                          -92.034145 :LONGITUDE
ELEV        .M                                            28.0000 :SURFACE ELEV
ELEV_TYPE   .                                                  KB :ELEV TYPE
~CURVE INFORMATION
#MNEMONIC.UNIT        API CODE       : CURVE DESCRIPTION
#------------------------------------------------------------------------------
DEPTH    .M                          : Measured Depth
CALI     .inches      UNKNOWN        : CALI:Import:rC:NONE:v0 (auto-composite)
DRHO     .g/cm3       UNKNOWN        : DRHO:Import:rC:NONE:v0 (auto-composite)
DT       .us/ft       UNKNOWN        : DT:Import:rC:NONE:v0 (auto-composite)
GR       .API         UNKNOWN        : GR:Import:rC:NONE:v0 (auto-composite)
ILD      .ohm.m       UNKNOWN        : ILD:Import:rC:NONE:v0 (auto-composite)
ILM      .ohm.m       UNKNOWN        : ILM:Import:rC:NONE:v0 (auto-composite)
LLD      .ohm.m       UNKNOWN        : LLD:Import:rC:NONE:v0 (auto-composite)
LLS      .ohm.m       UNKNOWN        : LLS:Import:rC:NONE:v0 (auto-composite)
MSFL     .ohm.m       UNKNOWN        : MSFL:Import:rC:NONE:v0 (auto-composite)
NPHI     .v/v_decimal UNKNOWN        : NPHI:Import:rC:NONE:v0 (auto-composite)
PEF      .b/elec      UNKNOWN        : PEF:Import:rC:NONE:v0 (auto-composite)
RHOB     .g/cm3       UNKNOWN        : RHOB:Import:rC:NONE:v0 (auto-composite)
~A     DEPTH         CALI         DRHO           DT           GR          ILD          ILM          LLD          LLS         MSFL         NPHI          PEF         RHOB
# ...
   2363.5708       6.8905       0.0444      78.3653      59.1355       0.2000       0.0000      23.0527      19.1314      86.2506       0.1396       3.4539       2.6030
   2363.7234       6.9010       0.0508      68.5040      60.1142       0.2000       0.0000      25.5135      21.4196      86.7978       0.1544       3.6807       2.6052
   2363.8757       6.9380       0.0509      68.9251      60.7339       0.2000       0.0000      36.1969      30.3211      91.5486       0.1810       4.2281       2.5468
   2364.0281       6.9750       0.0547      69.3460      61.4986       0.2000       0.0000      50.6522      41.7735      95.2571       0.2045       4.7962       2.4856
   2364.1804       6.9725       0.0699      78.3371      62.9956       0.2000       0.0000      70.3765      56.3707      94.9331       0.2162       5.2838       2.4428
   2364.3330       6.9700       0.0833      87.3240      64.2294       0.2000       0.0000      88.5649      69.5138      96.3998       0.2136       5.4822       2.4291
   2364.4854       6.9185       0.0887      88.0817      64.1848       0.2000       0.0000     101.3994      78.2825     103.3876       0.1841       5.0735       2.4728
   2364.6377       6.8670       0.0864      88.8390      64.1822       0.2000       0.0000     107.4924      82.0082     107.4581       0.1514       4.5778       2.5310
   2364.7900       6.8110       0.0708      97.6401      64.3767       0.2000       0.0000     100.9972      76.4581     103.1057       0.1217       4.1242       2.5990
   2364.9426       6.7550       0.0508     106.4370      64.1743       0.2000       0.0000      94.3687      70.6788      98.6221       0.0993       3.7569       2.6505
   2365.0950       6.7560       0.0270     105.9004      62.1775       0.2000       0.0000      92.0999      67.8364      96.9665       0.0908       3.5577       2.6631
   2365.2473       6.7570       0.0092     105.3640      60.8053       0.2000       0.0000     101.8579      72.2678     118.6496       0.0885       3.4903       2.6686
   2365.3997       6.7755       0.0052      95.1750      62.1589       0.2000       0.0000     135.0531      90.7702     187.8286       0.0939       3.6368       2.6728
   2365.5520       6.7940       0.0061      84.9910      63.4922       0.2000       0.0000     157.7964     103.7506     220.0927       0.0974       3.8309       2.6824
   2365.7046       6.8015       0.0118      82.8995      64.7399       0.2000       0.0000     151.0368     100.5490     160.6315       0.0944       4.0466       2.7035
   2365.8569       6.8090       0.0156      80.8090      65.0041       0.2000       0.0000     139.2113      94.5775     106.2236       0.0912       4.1566       2.7166
   2366.0093       6.8090       0.0140      74.1948      61.2567       0.2000       0.0000     127.4274      88.6453      93.5121       0.0901       4.0483       2.7100
   2366.1616       6.8090       0.0121      67.5840      58.2987       0.2000       0.0000     125.3614      88.6254      92.9256       0.0906       3.9528       2.6965
   2366.3142       6.8080       0.0114      67.8581      58.4556       0.2000       0.0000     142.2495     100.1327     101.9546       0.0936       3.9555       2.6760
   2366.4666       6.8070       0.0107      68.1320      58.9485       0.2000       0.0000     166.8416     117.5273     114.1474       0.0965       3.9752       2.6618
   2366.6189       6.7935       0.0098      74.9002      60.7252       0.2000       0.0000     200.0304     142.4537     129.2794       0.0982       3.9952       2.6614
   2366.7712       6.7800       0.0093      81.6650      62.5072       0.2000       0.0000     233.8958     167.8183     141.6403       0.0963       3.9203       2.6708
   2366.9238       6.7625       0.0096      81.6420      64.3089       0.2000       0.0000     266.2524     191.5720     147.8571       0.0883       3.6673       2.6940
   2367.0762       6.7450       0.0087      81.6190      65.8404       0.2000       0.0000     304.1151     218.8758     163.5266       0.0806       3.4383       2.7156
   2367.2285       6.7220       0.0051      81.1519      66.4018       0.2000       0.0000     352.6809     253.2901     198.5069       0.0756       3.3081       2.7299
   2367.3809       6.6990       0.0024      80.6850      67.1135       0.2000       0.0000     400.6578     286.7868     210.0642       0.0717       3.2555       2.7401
   2367.5332       6.6915       0.0020      79.0626      68.3483       0.2000       0.0000     444.2640     316.4312     173.4701       0.0690       3.3126       2.7455
   2367.6858       6.6840       0.0017      77.4410      69.7957       0.2000       0.0000     450.0952     320.6340     140.8276       0.0656       3.3183       2.7497
   2367.8381       6.6840       0.0008      65.8319      71.9614       0.2000       0.0000     390.6843     281.1694     129.4675       0.0606       3.2005       2.7533
   2367.9905       6.6840      -0.0004      54.2290      72.9934       0.2000       0.0000     322.9141     237.5917     117.9625       0.0571       3.1443       2.7560
   2368.1428       6.6840      -0.0019      54.3105      70.3073       0.2000       0.0000     259.9671     199.8081      99.9150       0.0567       3.2313       2.7572
   2368.2954       6.6840      -0.0025      54.3920      69.3730       0.2000       0.0000     212.8886     172.3716      90.6255       0.0577       3.3391       2.7594
   2368.4478       6.7235      -0.0018      54.3750      74.0192       0.2000       0.0000     191.3769     160.8412      98.0662       0.0603       3.4408       2.7636
   2368.6001       6.7630      -0.0008      54.3580      77.9212       0.2000       0.0000     169.5894     146.7704     101.9003       0.0627       3.4666       2.7637
   2368.7524       6.7615       0.0002      54.0374      79.5194       0.2000       0.0000     140.2144     124.0298      95.0202       0.0642       3.3673       2.7564
   2368.9050       6.7600       0.0007      53.7170      79.3963       0.2000       0.0000     113.8251     102.9479      88.9860       0.0670       3.2888       2.7434
   2369.0574       6.7390       0.0004      52.1846      74.0928       0.2000       0.0000      94.4247      86.9829      87.2867       0.0725       3.2789       2.7231
   2369.2097       6.7180       0.0013      50.6530      69.7650       0.2000       0.0000      81.0262      75.7901      86.9377       0.0789       3.3051       2.7008
   2369.3621       6.7020       0.0044      50.6530      68.2927       0.2000       0.0000      75.4076      70.9024      87.5916       0.0863       3.3712       2.6775
   2369.5144       6.6860       0.0086      50.6530      66.6375       0.2000       0.0000      79.3090      73.5808      87.8714       0.0951       3.4210       2.6524
   2369.6670       6.7105       0.0139      50.8125      64.4618       0.2000       0.0000      96.0950      86.4678      87.2990       0.1058       3.4345       2.6252
   2369.8193       6.7350       0.0205      50.9720      62.8496       0.2000       0.0000     124.4080     106.9934     114.7028       0.1147       3.4320       2.6126
   2369.9717       6.7095       0.0287      53.1026      62.7989       0.2000       0.0000     167.1665     136.6579     185.5189       0.1203       3.4140       2.6228
   2370.1240       6.6840       0.0304      55.2320      63.1532       0.2000       0.0000     222.6351     176.7000     228.1711       0.1236       3.3778       2.6228
   2370.2766       6.6840       0.0216      57.0230      64.6000       0.2000       0.0000     293.6914     230.1418     217.1863       0.1242       3.3180       2.6018
   2370.4290       6.6840       0.0140      58.8130      66.1912       0.2000       0.0000     336.7365     261.7227     192.2806       0.1192       3.2293       2.5893
   2370.5813       6.7280       0.0108      62.8122      68.1619       0.2000       0.0000     334.5301     257.6783     159.8566       0.1064       3.1032       2.5948
   2370.7336       6.7720       0.0098      66.8090      69.7060       0.2000       0.0000     327.5615     250.2570     139.3265       0.0924       3.0707       2.6249
