#------------------------------------------------------------------------------
#
#   Created by  : [OpenWorks] Log Export Utility (LEXP)
#   Created on  : 2016-05-11 12:13:39
#   Project     : CANT971
#   User        : R5K
#   Interpreter : PEP
#
#------------------------------------------------------------------------------
~VERSION INFORMATION
VERS. 2.0 : CWLS Log ASCII Standard - version 2.0
WRAP.  NO : One line per depth step
~WELL INFORMATION
#MNEMONIC   .UNIT                                           VALUE :DESCRIPTION
#------------------------------------------------------------------------------
STRT        .M                                          2180.6909 :START DEPTH
STOP        .M                                          2540.6597 :STOP DEPTH
STEP        .M                                             0.1524 :STEP
NULL        .                                           -999.2500 :NULL VALUE
COMP        .                                   PEMEX EXPL & PROD :COMPANY
WELL        .                                                1089 :WELL
FLD         .                                           CANTARELL :FIELD
LOC         .                                             UNKNOWN :LOCATION
CNTY        .                                      CD. DEL CARMEN :COUNTY
STAT        .                                            CAMPECHE :STATE
CTRY        .                                              MEXICO :COUNTRY
SRVC        .                                             UNKNOWN :SERVICE COMPANY
DATE        .                                             UNKNOWN :LOG DATE
UWI         .                                          3060000622 :UNIQUE WELL ID
XCOORD      .                                       601390.114000 :SURFACE X
YCOORD      .                                      2149872.463000 :SURFACE Y
LAT         .                                           19.441832 :LATITUDE
LON         .                                          -92.034145 :LONGITUDE
ELEV        .M                                            28.0000 :SURFACE ELEV
ELEV_TYPE   .                                                  KB :ELEV TYPE
~CURVE INFORMATION
#MNEMONIC.UNIT        API CODE       : CURVE DESCRIPTION
#------------------------------------------------------------------------------
DEPTH    .M                          : Measured Depth
CALI     .inches      UNKNOWN        : CALI:Import:rC:NONE:v0 (auto-composite)
DRHO     .g/cm3       UNKNOWN        : DRHO:Import:rC:NONE:v0 (auto-composite)
DT       .us/ft       UNKNOWN        : DT:Import:rC:NONE:v0 (auto-composite)
GR       .API         UNKNOWN        : GR:Import:rC:NONE:v0 (auto-composite)
ILD      .ohm.m       UNKNOWN        : ILD:Import:rC:NONE:v0 (auto-composite)
ILM      .ohm.m       UNKNOWN        : ILM:Import:rC:NONE:v0 (auto-composite)
LLD      .ohm.m       UNKNOWN        : LLD:Import:rC:NONE:v0 (auto-composite)
LLS      .ohm.m       UNKNOWN        : LLS:Import:rC:NONE:v0 (auto-composite)
MSFL     .ohm.m       UNKNOWN        : MSFL:Import:rC:NONE:v0 (auto-composite)
NPHI     .v/v_decimal UNKNOWN        : NPHI:Import:rC:NONE:v0 (auto-composite)
PEF      .b/elec      UNKNOWN        : PEF:Import:rC:NONE:v0 (auto-composite)
RHOB     .g/cm3       UNKNOWN        : RHOB:Import:rC:NONE:v0 (auto-composite)
~A     DEPTH         CALI         DRHO           DT           GR          ILD          ILM          LLD          LLS         MSFL         NPHI          PEF         RHOB
# ...
   2429.4077       6.7431       0.0057      62.5987      33.0921       0.2000       0.0000     283.2137     114.0786     240.3065       0.0798       4.3815       2.6876
   2429.5601       6.8010       0.0076      62.3190      33.8611       0.2000       0.0000     403.3132     156.0818     287.5634       0.0879       5.0199       2.6586
   2429.7124       7.0318       0.0121      61.0913      34.9095       0.2000       0.0000     555.4491     209.9110     365.5162       0.0970       5.3912       2.6334
   2429.8650       7.2620       0.0200      59.8660      36.6120       0.2000       0.0000     731.4996     272.5654     484.0756       0.1064       5.3580       2.6200
   2430.0173       7.2204       0.0278      60.5251      37.9442       0.2000       0.0000     944.2341     348.4505     650.5221       0.1103       5.0793       2.6221
   2430.1697       7.1790       0.0345      61.1830      38.4310       0.2000       0.0000    1200.7644     440.0886     872.2437       0.1064       4.5591       2.6427
   2430.3220       6.9312       0.0364      66.9426      38.1689       0.2000       0.0000    1469.2795     531.1090     950.6945       0.0980       4.1194       2.6665
   2430.4746       6.6840       0.0324      72.6910      36.2383       0.2000       0.0000    1744.1558     617.9158     828.2008       0.0853       3.8379       2.6906
   2430.6270       6.6900       0.0250      72.3487      34.9113       0.2000       0.0000    1775.4990     612.0627     617.0701       0.0740       3.6307       2.7048
   2430.7793       6.6960       0.0145      72.0070      34.8962       0.2000       0.0000    1490.6765     487.2572     332.9377       0.0657       3.4857       2.7064
   2430.9316       6.6945       0.0067      67.7563      34.4879       0.2000       0.0000    1189.7788     364.4315     150.4605       0.0595       3.4220       2.7117
   2431.0842       6.6930       0.0030      63.5140      33.2452       0.2000       0.0000     934.0569     268.8226     112.5580       0.0555       3.4490       2.7246
   2431.2366       6.6885       0.0022      69.7016      32.1560       0.2000       0.0000     807.4144     217.9158     119.8643       0.0580       3.5768       2.7226
   2431.3889       6.6840       0.0043      75.8770      31.3850       0.2000       0.0000     832.3829     217.1616     154.4529       0.0683       3.8125       2.7008
   2431.5413       6.6875       0.0058      74.4766      30.7397       0.2000       0.0000     993.4667     253.3696     200.3156       0.0831       3.9852       2.6672
   2431.6936       6.6910       0.0060      73.0790      30.3486       0.2000       0.0000    1291.5709     324.9971     254.5913       0.1022       4.0587       2.6233
   2431.8462       6.7045       0.0062      68.1806      30.1493       0.2000       0.0000    1619.0660     404.6675     400.8399       0.1123       3.9754       2.6034
   2431.9985       6.7180       0.0067      63.2920      30.3288       0.2000       0.0000    1956.3313     487.3864     656.6377       0.1110       3.7220       2.6144
   2432.1509       6.7150       0.0065      58.0087      30.8243       0.2000       0.0000    2270.6274     563.7950     885.2780       0.1044       3.4904       2.6381
   2432.3032       6.7120       0.0057      52.7360      31.9297       0.2000       0.0000    2555.7812     632.1286    1060.7384       0.0935       3.3171       2.6708
   2432.4558       6.7060       0.0042      53.1399      32.6437       0.2000       0.0000    2740.5012     673.9440    1058.5514       0.0856       3.2513       2.6935
   2432.6082       6.7000       0.0023      53.5430      32.6196       0.2000       0.0000    2813.6313     686.3755     859.7304       0.0820       3.2998       2.7031
   2432.7605       6.6960       0.0009      59.1581      32.2594       0.2000       0.0000    2759.6230     659.1139     610.5540       0.0800       3.3307       2.7066
   2432.9128       6.6920       0.0003      64.7620      31.2798       0.2000       0.0000    2580.1907     591.7159     339.6783       0.0793       3.3206       2.7053
   2433.0654       6.6960      -0.0002      64.0193      30.8435       0.2000       0.0000    2324.8186     512.5251     342.8046       0.0804       3.2561       2.7020
   2433.2178       6.7000      -0.0007      63.2780      31.3854       0.2000       0.0000    2006.8969     427.3564     657.3862       0.0832       3.1379       2.6972
   2433.3701       6.7125      -0.0014      60.8891      31.5855       0.2000       0.0000    1780.0498     373.9580     732.9547       0.0855       3.0819       2.6918
   2433.5225       6.7250      -0.0023      58.5050      31.1840       0.2000       0.0000    1665.2307     356.8462     489.4474       0.0871       3.1042       2.6858
   2433.6748       6.7370      -0.0033      64.7613      30.6002       0.2000       0.0000    1692.6738     385.9344     494.4790       0.0876       3.1700       2.6824
   2433.8274       6.7490      -0.0043      71.0050      29.7028       0.2000       0.0000    1855.1649     458.8698     823.6127       0.0871       3.2699       2.6820
   2433.9797       6.7270      -0.0047      69.6116      29.4241       0.2000       0.0000    2012.0287     530.1807     970.7661       0.0879       3.3660       2.6780
   2434.1321       6.7050      -0.0043      68.2210      30.1861       0.2000       0.0000    2140.0898     592.3339     868.8325       0.0903       3.4523       2.6696
   2434.2844       6.7060      -0.0040      64.4957      30.8095       0.2000       0.0000    2075.2939     612.7075     673.5425       0.0907       3.5368       2.6606
   2434.4370       6.7070      -0.0040      60.7780      31.2051       0.2000       0.0000    1812.8901     590.7538     421.2752       0.0889       3.6211       2.6515
   2434.5894       6.7360      -0.0040      58.4336      31.4394       0.2000       0.0000    1528.5485     556.3677     245.1680       0.0862       3.6943       2.6496
   2434.7417       6.7650      -0.0040      56.0940      31.4143       0.2000       0.0000    1252.5331     515.8729     156.1138       0.0829       3.7562       2.6550
   2434.8940       6.7590      -0.0028      56.7392      31.6257       0.2000       0.0000    1085.8030     488.6856     116.5215       0.0840       3.8613       2.6574
   2435.0466       6.7530      -0.0005      57.3830      32.2093       0.2000       0.0000    1028.5782     475.9590     113.3278       0.0894       4.0117       2.6555
   2435.1990       6.7190       0.0023      64.8302      33.1872       0.2000       0.0000     993.3412     463.0778     182.6932       0.0977       4.2162       2.6381
   2435.3513       6.6850       0.0052      72.2620      34.7724       0.2000       0.0000     963.0780     447.7924     318.7953       0.1082       4.4682       2.6058
   2435.5037       6.7426       0.0073      66.3199      34.7544       0.2000       0.0000    1189.5548     506.2278     655.1149       0.1112       4.4717       2.5950
   2435.6560       6.8000       0.0084      60.3900      32.3220       0.2000       0.0000    1666.8240     637.2579    1177.4703       0.1069       4.2248       2.6074
   2435.8086       6.7985       0.0078      64.5253      30.3852       0.2000       0.0000    2261.5625     795.0248    1335.1632       0.1033       3.9719       2.6282
   2435.9609       6.7970       0.0055      68.6520      29.1785       0.2000       0.0000    2933.6885     968.1750    1115.3832       0.1016       3.7495       2.6536
   2436.1133       6.7579       0.0022      68.4498      28.8705       0.2000       0.0000    5072.4141    1552.6536     863.7656       0.0995       3.6088       2.6663
   2436.2656       6.7190      -0.0017      68.2480      29.8580       0.2000       0.0000    8588.6309    2524.3896     636.9141       0.0967       3.5411       2.6662
   2436.4182       6.7215      -0.0040      68.9312      30.7550       0.2000       0.0000   11685.6182    3451.3540     463.8836       0.0916       3.4986       2.6662
   2436.5706       6.7240      -0.0047      69.6130      31.5240       0.2000       0.0000   14194.7969    4280.8467     337.5594       0.0842       3.4690       2.6679
