#------------------------------------------------------------------------------
#
#   Created by  : [OpenWorks] Log Export Utility (LEXP)
#   Created on  : 2016-05-11 12:13:39
#   Project     : CANT971
#   User        : R5K
#   Interpreter : PEP
#
#------------------------------------------------------------------------------
~VERSION INFORMATION
VERS. 2.0 : CWLS Log ASCII Standard - version 2.0
WRAP.  NO : One line per depth step
~WELL INFORMATION
#MNEMONIC   .UNIT                                           VALUE :DESCRIPTION
#------------------------------------------------------------------------------
STRT        .M                                          2180.6909 :START DEPTH
STOP        .M                                          2540.6597 :STOP DEPTH
STEP        .M                                             0.1524 :STEP
NULL        .                                           -999.2500 :NULL VALUE
COMP        .                                   PEMEX EXPL & PROD :COMPANY
WELL        .                                                1089 :WELL
FLD         .                                           CANTARELL :FIELD
LOC         .                                             UNKNOWN :LOCATION
CNTY        .                                      CD. DEL CARMEN :COUNTY
STAT        .                                            CAMPECHE :STATE
CTRY        .                                              MEXICO :COUNTRY
SRVC        .                                             UNKNOWN :SERVICE COMPANY
DATE        .                                             UNKNOWN :LOG DATE
UWI         .                                          3060000622 :UNIQUE WELL ID
XCOORD      .                                       601390.114000 :SURFACE X
YCOORD      .                                      2149872.463000 :SURFACE Y
LAT         .                                           19.441832 :LATITUDE
LON         .                                          -92.034145 :LONGITUDE
ELEV        .M                                            28.0000 :SURFACE ELEV
ELEV_TYPE   .                                                  KB :ELEV TYPE
~CURVE INFORMATION
#MNEMONIC.UNIT        API CODE       : CURVE DESCRIPTION
#------------------------------------------------------------------------------
DEPTH    .M                          : Measured Depth
CALI     .inches      UNKNOWN        : CALI:Import:rC:NONE:v0 (auto-composite)
DRHO     .g/cm3       UNKNOWN        : DRHO:Import:rC:NONE:v0 (auto-composite)
DT       .us/ft       UNKNOWN        : DT:Import:rC:NONE:v0 (auto-composite)
GR       .API         UNKNOWN        : GR:Import:rC:NONE:v0 (auto-composite)
ILD      .ohm.m       UNKNOWN        : ILD:Import:rC:NONE:v0 (auto-composite)
ILM      .ohm.m       UNKNOWN        : ILM:Import:rC:NONE:v0 (auto-composite)
LLD      .ohm.m       UNKNOWN        : LLD:Import:rC:NONE:v0 (auto-composite)
LLS      .ohm.m       UNKNOWN        : LLS:Import:rC:NONE:v0 (auto-composite)
MSFL     .ohm.m       UNKNOWN        : MSFL:Import:rC:NONE:v0 (auto-composite)
NPHI     .v/v_decimal UNKNOWN        : NPHI:Import:rC:NONE:v0 (auto-composite)
PEF      .b/elec      UNKNOWN        : PEF:Import:rC:NONE:v0 (auto-composite)
RHOB     .g/cm3       UNKNOWN        : RHOB:Import:rC:NONE:v0 (auto-composite)
~A     DEPTH         CALI         DRHO           DT           GR          ILD          ILM          LLD          LLS         MSFL         NPHI          PEF         RHOB
# ...
   2392.8318       6.7705       0.0134      56.5762      90.5384       0.2000       0.0000     985.7784     384.2287     116.8190       0.0655       3.4098       2.7267
   2392.9841       6.7750       0.0120      55.0690      91.1582       0.2000       0.0000     764.6675     299.1797     107.8108       0.0636       3.4917       2.7359
   2393.1365       6.7885       0.0105      55.1575      89.2176       0.2000       0.0000     502.4533     195.2787     101.3354       0.0605       3.5980       2.7508
   2393.2888       6.8020       0.0086      55.2460      82.1556       0.2000       0.0000     354.0031     136.6827     102.3611       0.0566       3.7491       2.7632
   2393.4414       6.8135       0.0066      55.9494      72.5640       0.2000       0.0000     252.3853      96.8353     106.2515       0.0525       3.9168       2.7744
   2393.5938       6.8250       0.0099      56.6520      64.9359       0.2000       0.0000     216.2798      83.0087     105.7791       0.0611       4.4533       2.6997
   2393.7461       6.9351       0.0152      59.0323      58.2548       0.2000       0.0000     203.9296      78.6118     103.4954       0.0747       5.1330       2.5916
   2393.8984       7.0450       0.0395      61.4100      57.9176       0.2000       0.0000     219.0056      85.6760     103.5004       0.1094       5.8192       2.4814
   2394.0510       7.0275       0.0709      68.5225      60.5676       0.2000       0.0000     243.6566      96.7598     104.4452       0.1517       6.5025       2.3715
   2394.2034       7.0100       0.0958      75.6270      63.1214       0.2000       0.0000     292.7387     117.1304     114.6597       0.1662       5.7747       2.3913
   2394.3557       6.9194       0.1182      69.1993      65.6309       0.2000       0.0000     350.6659     140.8526     128.3122       0.1700       4.5200       2.4595
   2394.5081       6.8290       0.1112      62.7790      65.3282       0.2000       0.0000     334.9495     131.1227     118.8084       0.1607       3.9277       2.5350
   2394.6604       6.7750       0.0937      80.0404      63.7641       0.2000       0.0000     291.9207     109.0094     100.6943       0.1469       3.5964       2.6117
   2394.8130       6.7210       0.0669      97.2820      65.8420       0.2000       0.0000     267.6293      96.7708      93.3702       0.1298       3.5548       2.6487
   2394.9653       6.7240       0.0370      96.8783      69.5137       0.2000       0.0000     250.9089      88.4572      90.1836       0.1115       3.6084       2.6715
   2395.1177       6.7270       0.0204      96.4750      73.0033       0.2000       0.0000     275.3783      93.1296      91.3334       0.1047       3.5992       2.6894
   2395.2700       6.7615       0.0084      93.3377      76.4153       0.2000       0.0000     314.1289     102.2558      93.8809       0.1022       3.5647       2.7062
   2395.4226       6.7960       0.0027      90.2040      74.1928       0.2000       0.0000     377.7834     119.0124     106.8753       0.1058       3.5103       2.6906
   2395.5750       6.7900      -0.0009      83.4881      69.6254       0.2000       0.0000     449.6850     138.2893     123.4461       0.1116       3.4497       2.6639
   2395.7273       6.7840      -0.0019      76.7800      65.3068       0.2000       0.0000     433.8246     133.3192     120.3156       0.1134       3.4359       2.6412
   2395.8796       6.7885      -0.0020      71.8386      61.0892       0.2000       0.0000     387.9951     120.0622     110.4071       0.1139       3.4380       2.6200
   2396.0322       6.7930      -0.0005      66.9030      59.8279       0.2000       0.0000     380.2921     117.1581     134.0830       0.1092       3.5054       2.6070
   2396.1846       6.7755       0.0015      67.4523      59.7357       0.2000       0.0000     386.0150     117.9048     169.0057       0.1028       3.5938       2.5968
   2396.3369       6.7580       0.0157      68.0010      63.2061       0.2000       0.0000     388.0455     118.3501     149.5236       0.0973       4.1166       2.5830
   2396.4893       6.7785       0.0339      72.1760      68.0493       0.2000       0.0000     388.5223     118.6016     112.0486       0.0919       4.7801       2.5681
   2396.6416       6.7990       0.0458      76.3460      67.8605       0.2000       0.0000     363.5094     112.8288     117.9379       0.0922       4.8419       2.5721
   2396.7942       6.7965       0.0555      75.9593      65.7830       0.2000       0.0000     330.4887     105.1590     138.0140       0.0942       4.7095       2.5822
   2396.9465       6.7940       0.0507      75.5730      64.8621       0.2000       0.0000     452.2646     138.7062     173.1909       0.0918       4.2751       2.6231
   2397.0989       6.7455       0.0415      69.2817      64.3638       0.2000       0.0000     622.5380     185.1609     212.7409       0.0879       3.7512       2.6736
   2397.2512       6.6970       0.0316      62.9980      65.0495       0.2000       0.0000     685.1068     200.0553     216.4826       0.0945       3.7039       2.6585
   2397.4038       6.7040       0.0216      64.6990      66.1564       0.2000       0.0000     713.7958     205.0512     209.2244       0.1042       3.8037       2.6234
   2397.5562       6.7110       0.0203      66.3980      66.3185       0.2000       0.0000     644.4881     192.3062     174.2476       0.1017       3.7155       2.6134
   2397.7085       6.7425       0.0217      65.8016      66.1535       0.2000       0.0000     546.6881     174.4824     131.2187       0.0954       3.5681       2.6113
   2397.8608       6.7740       0.0254      65.2060      66.0497       0.2000       0.0000     512.7798     174.5354     119.8421       0.0931       3.6899       2.6251
   2398.0134       6.7720       0.0299      66.4012      65.9665       0.2000       0.0000     498.0904     179.9070     117.8640       0.0921       3.8912       2.6434
   2398.1658       6.7700       0.0298      67.5950      64.6325       0.2000       0.0000     480.0909     181.4499     123.6620       0.0966       4.0172       2.6373
   2398.3181       6.7615       0.0283      67.4289      62.8889       0.2000       0.0000     460.7631     181.8062     131.5043       0.1026       4.1204       2.6243
   2398.4705       6.7530       0.0253      67.2630      62.5011       0.2000       0.0000     397.3651     162.4653     123.7933       0.1043       3.8863       2.6239
   2398.6228       6.7385       0.0219      66.1758      62.5447       0.2000       0.0000     321.6821     137.6437     111.7011       0.1046       3.5586       2.6271
   2398.7754       6.7240       0.0117      65.0900      66.1653       0.2000       0.0000     310.2950     133.7780     133.3119       0.1025       3.3989       2.6373
   2398.9277       6.7485      -0.0002      78.6974      70.8917       0.2000       0.0000     316.5951     135.7011     164.2003       0.0997       3.2864       2.6492
   2399.0801       6.7730      -0.0001      92.2880      70.9944       0.2000       0.0000     380.5431     159.6287     158.4598       0.1022       3.2916       2.6342
   2399.2324       6.7650       0.0032      89.2236      69.7090       0.2000       0.0000     459.6208     189.3463     142.7872       0.1061       3.3275       2.6121
   2399.3850       6.7570       0.0035      86.1630      68.3600       0.2000       0.0000     740.6201     295.9802     128.6470       0.1126       3.3829       2.5978
   2399.5374       6.7210       0.0031      91.3453      66.9924       0.2000       0.0000    1073.4736     422.3666     115.0640       0.1198       3.4428       2.5856
   2399.6897       6.6850       0.0065      96.5210      66.5327       0.2000       0.0000    1555.6683     610.5150     122.4763       0.1122       3.4506       2.6081
   2399.8420       6.6860       0.0111      94.9175      66.3297       0.2000       0.0000    2075.3064     814.1711     135.2428       0.1007       3.4453       2.6393
   2399.9946       6.6870       0.0088      93.3160      67.1319       0.2000       0.0000    2078.6509     827.0057     137.9277       0.0882       3.4612       2.6565
