#------------------------------------------------------------------------------
#
#   Created by  : [OpenWorks] Log Export Utility (LEXP)
#   Created on  : 2016-05-11 12:13:39
#   Project     : CANT971
#   User        : R5K
#   Interpreter : PEP
#
#------------------------------------------------------------------------------
~VERSION INFORMATION
VERS. 2.0 : CWLS Log ASCII Standard - version 2.0
WRAP.  NO : One line per depth step
~WELL INFORMATION
#MNEMONIC   .UNIT                                           VALUE :DESCRIPTION
#------------------------------------------------------------------------------
STRT        .M                                          2180.6909 :START DEPTH
STOP        .M                                          2540.6597 :STOP DEPTH
STEP        .M                                             0.1524 :STEP
NULL        .                                           -999.2500 :NULL VALUE
COMP        .                                   PEMEX EXPL & PROD :COMPANY
WELL        .                                                1089 :WELL
FLD         .                                           CANTARELL :FIELD
LOC         .                                             UNKNOWN :LOCATION
CNTY        .                                      CD. DEL CARMEN :COUNTY
STAT        .                                            CAMPECHE :STATE
CTRY        .                                              MEXICO :COUNTRY
SRVC        .                                             UNKNOWN :SERVICE COMPANY
DATE        .                                             UNKNOWN :LOG DATE
UWI         .                                          3060000622 :UNIQUE WELL ID
XCOORD      .                                       601390.114000 :SURFACE X
YCOORD      .                                      2149872.463000 :SURFACE Y
LAT         .                                           19.441832 :LATITUDE
LON         .                                          -92.034145 :LONGITUDE
ELEV        .M                                            28.0000 :SURFACE ELEV
ELEV_TYPE   .                                                  KB :ELEV TYPE
~CURVE INFORMATION
#MNEMONIC.UNIT        API CODE       : CURVE DESCRIPTION
#------------------------------------------------------------------------------
DEPTH    .M                          : Measured Depth
CALI     .inches      UNKNOWN        : CALI:Import:rC:NONE:v0 (auto-composite)
DRHO     .g/cm3       UNKNOWN        : DRHO:Import:rC:NONE:v0 (auto-composite)
DT       .us/ft       UNKNOWN        : DT:Import:rC:NONE:v0 (auto-composite)
GR       .API         UNKNOWN        : GR:Import:rC:NONE:v0 (auto-composite)
ILD      .ohm.m       UNKNOWN        : ILD:Import:rC:NONE:v0 (auto-composite)
ILM      .ohm.m       UNKNOWN        : ILM:Import:rC:NONE:v0 (auto-composite)
LLD      .ohm.m       UNKNOWN        : LLD:Import:rC:NONE:v0 (auto-composite)
LLS      .ohm.m       UNKNOWN        : LLS:Import:rC:NONE:v0 (auto-composite)
MSFL     .ohm.m       UNKNOWN        : MSFL:Import:rC:NONE:v0 (auto-composite)
NPHI     .v/v_decimal UNKNOWN        : NPHI:Import:rC:NONE:v0 (auto-composite)
PEF      .b/elec      UNKNOWN        : PEF:Import:rC:NONE:v0 (auto-composite)
RHOB     .g/cm3       UNKNOWN        : RHOB:Import:rC:NONE:v0 (auto-composite)
~A     DEPTH         CALI         DRHO           DT           GR          ILD          ILM          LLD          LLS         MSFL         NPHI          PEF         RHOB
# ...
   2495.2446       6.5770       0.0024     103.5527      59.3018       0.2000       0.0000     432.4940     455.1781     213.6894       0.1232       4.0483       2.5659
   2495.3970       6.5680       0.0042      95.4800      59.2587       0.2000       0.0000     394.9352     414.4655     201.9245       0.1144       3.9614       2.5980
   2495.5493       6.5725       0.0066      90.2040      58.5609       0.2000       0.0000     332.4792     349.1873     187.3078       0.1110       3.8638       2.6288
   2495.7017       6.5770       0.0073      84.9460      57.4967       0.2000       0.0000     295.0762     313.8021     204.1112       0.1103       3.7922       2.6365
   2495.8540       6.5910       0.0066      93.5637      55.9631       0.2000       0.0000     282.4865     307.3595     248.3669       0.1112       3.7445       2.6244
   2496.0066       6.6050       0.0061     102.1520      56.0871       0.2000       0.0000     280.3011     308.7666     263.7555       0.1117       3.8064       2.6121
   2496.1589       6.6326       0.0060      96.5504      58.2894       0.2000       0.0000     283.8002     313.1893     251.3311       0.1114       3.9581       2.6022
   2496.3113       6.6600       0.0063      90.9680      59.4555       0.2000       0.0000     259.1136     284.8488     213.3268       0.1101       4.0646       2.6010
   2496.4636       6.6385       0.0067      84.4874      59.3497       0.2000       0.0000     210.2358     228.8327     157.4465       0.1080       4.1224       2.6065
   2496.6162       6.6170       0.0082      78.0290      58.5593       0.2000       0.0000     204.8711     217.7332     172.6582       0.1070       4.1417       2.6127
   2496.7686       6.5899       0.0106      73.9906      56.9461       0.2000       0.0000     237.9637     246.6634     248.0742       0.1072       4.1354       2.6187
   2496.9209       6.5630       0.0134      69.9660      55.8769       0.2000       0.0000     298.2975     302.7533     296.5123       0.1090       4.0936       2.6230
   2497.0732       6.5630       0.0164      71.6890      55.4477       0.2000       0.0000     376.0430     376.0080     316.0966       0.1121       4.0261       2.6257
   2497.2258       6.5630       0.0181      73.4060      55.5502       0.2000       0.0000     427.9726     424.3825     275.6464       0.1146       3.9699       2.6271
   2497.3782       6.5630       0.0187      76.5349      56.2651       0.2000       0.0000     457.4442     451.0710     191.1491       0.1166       3.9256       2.6277
   2497.5305       6.5630       0.0163      79.6530      56.5922       0.2000       0.0000     448.9528     441.1478     152.9276       0.1166       3.9745       2.6277
   2497.6829       6.5630       0.0116      78.3067      56.4819       0.2000       0.0000     413.3905     405.1216     155.7594       0.1149       4.0947       2.6273
   2497.8352       6.5630       0.0072      76.9650      56.4492       0.2000       0.0000     395.7043     386.8445     149.1967       0.1137       4.2092       2.6236
   2497.9878       6.5630       0.0031      80.7956      56.5024       0.2000       0.0000     394.6674     385.0138     130.9556       0.1128       4.3116       2.6174
   2498.1401       6.5630       0.0004      84.6130      57.2111       0.2000       0.0000     407.2323     396.1829     124.8602       0.1142       4.2816       2.6098
   2498.2925       6.5630      -0.0013      93.3111      58.6288       0.2000       0.0000     428.2524     415.3762     129.1790       0.1171       4.1532       2.6014
   2498.4448       6.5630      -0.0014     101.9790      59.4637       0.2000       0.0000     425.3671     412.3102     121.8628       0.1223       3.9959       2.5948
   2498.5974       6.5630      -0.0005      92.4209      59.6812       0.2000       0.0000     403.9177     391.9426     104.8475       0.1291       3.8274       2.5895
   2498.7498       6.5630      -0.0020      82.8960      60.6118       0.2000       0.0000     351.4410     339.0323     101.3045       0.1346       3.7551       2.5796
   2498.9021       6.5640      -0.0052      86.4582      62.2817       0.2000       0.0000     278.2540     264.1828     108.5151       0.1390       3.7537       2.5661
   2499.0544       6.5650      -0.0068      90.0080      62.3457       0.2000       0.0000     247.6960     229.0071     134.7267       0.1437       3.8988       2.5623
   2499.2070       6.5725      -0.0070      88.0882      60.7791       0.2000       0.0000     249.6997     224.4047     173.4336       0.1488       4.1415       2.5658
   2499.3594       6.5800      -0.0062      86.1750      60.1576       0.2000       0.0000     267.4394     233.7975     182.3297       0.1522       4.3021       2.5705
   2499.5117       6.5840      -0.0047      80.9048      60.4760       0.2000       0.0000     293.0645     250.0325     169.1264       0.1543       4.3962       2.5755
   2499.6641       6.5880      -0.0047      75.6530      60.5157       0.2000       0.0000     325.8674     272.0047     146.8883       0.1531       4.3630       2.5744
   2499.8164       6.5935      -0.0055      76.1424      60.2840       0.2000       0.0000     362.8679     297.2804     120.5384       0.1498       4.2484       2.5690
   2499.9690       6.5990      -0.0068      76.6300      59.4535       0.2000       0.0000     398.4641     322.6072     108.8949       0.1486       4.1620       2.5584
   2500.1213       6.5810      -0.0083      78.3450      58.0518       0.2000       0.0000     432.7883     347.7113     107.5761       0.1491       4.1021       2.5448
   2500.2737       6.5630      -0.0087      80.0540      57.1751       0.2000       0.0000     451.6604     363.7962     112.4375       0.1500       4.0771       2.5330
   2500.4260       6.5630      -0.0083      83.7615      56.7886       0.2000       0.0000     460.3282     373.8768     120.4762       0.1510       4.0727       2.5228
   2500.5786       6.5630      -0.0074      87.4560      57.0144       0.2000       0.0000     389.6912     313.4849     115.1327       0.1478       4.0793       2.5222
   2500.7310       6.5630      -0.0065      95.4957      57.8000       0.2000       0.0000     268.1610     207.5920     100.7562       0.1420       4.0911       2.5279
   2500.8833       6.5630      -0.0040     103.5070      59.1299       0.2000       0.0000     181.3145     137.7125      96.1991       0.1382       4.0358       2.5423
   2501.0356       6.5635      -0.0007      99.5179      60.9472       0.2000       0.0000     121.3442      95.0903      98.7725       0.1360       3.9369       2.5616
   2501.1882       6.5640       0.0052      95.5430      61.4204       0.2000       0.0000     107.7677      91.2685      98.2750       0.1419       3.9197       2.5726
   2501.3406       6.5710       0.0125      95.5851      60.7155       0.2000       0.0000     121.2655     109.6741      95.2308       0.1528       3.9579       2.5779
   2501.4929       6.5780       0.0230      95.6270      59.5679       0.2000       0.0000     147.2783     133.2433      92.0024       0.1596       4.0418       2.5780
   2501.6453       6.5870       0.0353     119.5239      58.0404       0.2000       0.0000     178.8476     158.1824      88.8716       0.1634       4.1494       2.5754
   2501.7976       6.5960       0.0392     143.3360      55.8940       0.2000       0.0000     188.2664     162.4775      86.6815       0.1631       4.1775       2.5679
   2501.9502       6.6191       0.0379     137.0308      53.2275       0.2000       0.0000     183.6885     154.0416      85.0612       0.1607       4.1552       2.5578
   2502.1025       6.6420       0.0338     130.7480      52.0171       0.2000       0.0000     170.3179     140.4312      85.5804       0.1657       4.1887       2.5431
   2502.2549       6.6620       0.0285     131.1287      52.0046       0.2000       0.0000     152.7542     124.7104      87.3449       0.1751       4.2600       2.5258
   2502.4072       6.6820       0.0268     131.5080      52.7376       0.2000       0.0000     144.9195     116.1977      96.2122       0.1905       4.4078       2.5137
