#------------------------------------------------------------------------------
#
#   Created by  : [OpenWorks] Log Export Utility (LEXP)
#   Created on  : 2016-05-11 12:13:39
#   Project     : CANT971
#   User        : R5K
#   Interpreter : PEP
#
#------------------------------------------------------------------------------
~VERSION INFORMATION
VERS. 2.0 : CWLS Log ASCII Standard - version 2.0
WRAP.  NO : One line per depth step
~WELL INFORMATION
#MNEMONIC   .UNIT                                           VALUE :DESCRIPTION
#------------------------------------------------------------------------------
STRT        .M                                          2180.6909 :START DEPTH
STOP        .M                                          2540.6597 :STOP DEPTH
STEP        .M                                             0.1524 :STEP
NULL        .                                           -999.2500 :NULL VALUE
COMP        .                                   PEMEX EXPL & PROD :COMPANY
WELL        .                                                1089 :WELL
FLD         .                                           CANTARELL :FIELD
LOC         .                                             UNKNOWN :LOCATION
CNTY        .                                      CD. DEL CARMEN :COUNTY
STAT        .                                            CAMPECHE :STATE
CTRY        .                                              MEXICO :COUNTRY
SRVC        .                                             UNKNOWN :SERVICE COMPANY
DATE        .                                             UNKNOWN :LOG DATE
UWI         .                                          3060000622 :UNIQUE WELL ID
XCOORD      .                                       601390.114000 :SURFACE X
YCOORD      .                                      2149872.463000 :SURFACE Y
LAT         .                                           19.441832 :LATITUDE
LON         .                                          -92.034145 :LONGITUDE
ELEV        .M                                            28.0000 :SURFACE ELEV
ELEV_TYPE   .                                                  KB :ELEV TYPE
~CURVE INFORMATION
#MNEMONIC.UNIT        API CODE       : CURVE DESCRIPTION
#------------------------------------------------------------------------------
DEPTH    .M                          : Measured Depth
CALI     .inches      UNKNOWN        : CALI:Import:rC:NONE:v0 (auto-composite)
DRHO     .g/cm3       UNKNOWN        : DRHO:Import:rC:NONE:v0 (auto-composite)
DT       .us/ft       UNKNOWN        : DT:Import:rC:NONE:v0 (auto-composite)
GR       .API         UNKNOWN        : GR:Import:rC:NONE:v0 (auto-composite)
ILD      .ohm.m       UNKNOWN        : ILD:Import:rC:NONE:v0 (auto-composite)
ILM      .ohm.m       UNKNOWN        : ILM:Import:rC:NONE:v0 (auto-composite)
LLD      .ohm.m       UNKNOWN        : LLD:Import:rC:NONE:v0 (auto-composite)
LLS      .ohm.m       UNKNOWN        : LLS:Import:rC:NONE:v0 (auto-composite)
MSFL     .ohm.m       UNKNOWN        : MSFL:Import:rC:NONE:v0 (auto-composite)
NPHI     .v/v_decimal UNKNOWN        : NPHI:Import:rC:NONE:v0 (auto-composite)
PEF      .b/elec      UNKNOWN        : PEF:Import:rC:NONE:v0 (auto-composite)
RHOB     .g/cm3       UNKNOWN        : RHOB:Import:rC:NONE:v0 (auto-composite)
~A     DEPTH         CALI         DRHO           DT           GR          ILD          ILM          LLD          LLS         MSFL         NPHI          PEF         RHOB
# ...
   2444.0381       6.6935       0.0151      56.6334      37.9549       0.2000       0.0000     471.1548     452.8042     920.7103       0.0631       4.0006       2.7408
   2444.1904       6.6840       0.0192      57.4010      37.4677       0.2000       0.0000     439.4290     430.1232    1061.5558       0.0583       3.8487       2.7629
   2444.3430       6.6840       0.0193      57.5291      36.8953       0.2000       0.0000     426.0230     415.5440     957.6125       0.0549       3.8614       2.7752
   2444.4954       6.6840       0.0171      57.6570      36.2536       0.2000       0.0000     423.3102     405.7704     712.7156       0.0525       3.9768       2.7815
   2444.6477       6.6845       0.0137      60.1513      36.1950       0.2000       0.0000     411.1872     383.2034     477.4582       0.0539       4.1299       2.7732
   2444.8000       6.6850       0.0097      62.6400      36.6011       0.2000       0.0000     392.7324     352.7688     258.6607       0.0577       4.2970       2.7567
   2444.9526       6.6835       0.0076      62.3211      37.5031       0.2000       0.0000     395.8733     343.5138     189.6118       0.0619       4.2382       2.7415
   2445.1050       6.6820       0.0065      62.0030      38.7919       0.2000       0.0000     411.8912     347.0266     205.5119       0.0664       4.0485       2.7279
   2445.2573       6.6369       0.0039      60.0953      39.0316       0.2000       0.0000     470.3227     397.0373     197.3677       0.0731       3.9867       2.7076
   2445.4097       6.5920       0.0005      58.1920      38.4702       0.2000       0.0000     551.8633     472.4861     169.4652       0.0810       4.0069       2.6835
   2445.5620       6.6020      -0.0021      55.4098      38.1141       0.2000       0.0000     614.9534     535.9857     169.6870       0.0839       4.0323       2.6611
   2445.7146       6.6120      -0.0042      52.6340      37.9116       0.2000       0.0000     666.0944     590.9812     186.9087       0.0838       4.0547       2.6399
   2445.8669       6.6430      -0.0046      52.8407      39.3188       0.2000       0.0000     697.2302     622.5724     175.2401       0.0826       4.0296       2.6315
   2446.0193       6.6740      -0.0042      53.0470      41.9035       0.2000       0.0000     718.2081     641.9078     146.5842       0.0811       3.9786       2.6302
   2446.1716       6.6735      -0.0037      53.9240      44.1711       0.2000       0.0000     777.3925     686.0117     127.9384       0.0810       3.8728       2.6366
   2446.3242       6.6730      -0.0032      54.7990      46.2114       0.2000       0.0000     857.7664     744.2308     115.7995       0.0817       3.7393       2.6466
   2446.4766       6.6725      -0.0039      56.2487      47.5841       0.2000       0.0000    1028.4917     866.3523     125.8433       0.0815       3.6057       2.6563
   2446.6289       6.6720      -0.0054      57.6950      48.4890       0.2000       0.0000    1245.6887    1021.4003     147.1550       0.0808       3.4736       2.6654
   2446.7812       6.6800      -0.0066      58.9750      48.3695       0.2000       0.0000    1491.1746    1193.9348     161.7836       0.0783       3.4109       2.6722
   2446.9338       6.6880      -0.0076      60.2520      47.5479       0.2000       0.0000    1748.3643    1373.4366     172.2336       0.0748       3.3840       2.6778
   2447.0862       6.7015      -0.0064      59.5297      45.3685       0.2000       0.0000    2039.2352    1576.7057     188.8667       0.0704       3.4058       2.6874
   2447.2385       6.7150      -0.0040      58.8090      42.2784       0.2000       0.0000    2347.0095    1791.9779     208.9238       0.0657       3.4503       2.6993
   2447.3909       6.6995      -0.0008      57.5575      40.6178       0.2000       0.0000    2327.5847    1780.5490     253.7326       0.0627       3.5068       2.7171
   2447.5432       6.6840       0.0026      56.3090      39.8954       0.2000       0.0000    2143.4658    1654.9933     310.7155       0.0606       3.5680       2.7377
   2447.6958       6.6840       0.0032      55.9516      39.0509       0.2000       0.0000    1747.9196    1385.7909     435.4869       0.0606       3.6221       2.7414
   2447.8481       6.6840       0.0024      55.5950      38.1280       0.2000       0.0000    1257.5873    1052.3173     592.9885       0.0614       3.6727       2.7364
   2448.0005       6.6840       0.0024      54.8186      37.5826       0.2000       0.0000     938.1055     826.4621     744.1784       0.0621       3.6524       2.7300
   2448.1528       6.6840       0.0028      54.0440      37.2743       0.2000       0.0000     706.4705     656.2011     890.4608       0.0628       3.5981       2.7235
   2448.3054       6.6840       0.0030      56.9424      38.7437       0.2000       0.0000     533.0511     513.0121     804.2627       0.0647       3.6053       2.7195
   2448.4578       6.6840       0.0030      59.8340      41.3049       0.2000       0.0000     382.5781     379.7767     608.6804       0.0673       3.6433       2.7169
   2448.6101       6.6840       0.0033      59.5812      44.0494       0.2000       0.0000     296.9925     300.4282     434.1375       0.0727       3.7894       2.7101
   2448.7625       6.6840       0.0038      59.3290      46.9039       0.2000       0.0000     240.4492     245.6816     275.2264       0.0792       3.9840       2.7013
   2448.9150       6.6840       0.0047      57.2140      48.4912       0.2000       0.0000     225.5990     229.6586     205.0749       0.0874       4.1469       2.6876
   2449.0674       6.6840       0.0056      55.1040      49.3344       0.2000       0.0000     228.2641     230.0277     174.6279       0.0962       4.2924       2.6719
   2449.2197       6.6840       0.0060      56.4616      48.7643       0.2000       0.0000     252.1861     249.9818     155.3123       0.1031       4.3168       2.6471
   2449.3721       6.6840       0.0060      57.8160      47.3827       0.2000       0.0000     284.7789     277.9128     139.0307       0.1090       4.2876       2.6185
   2449.5244       6.6835       0.0050      61.3662      46.4088       0.2000       0.0000     297.4584     287.8192     133.2988       0.1096       4.1426       2.5927
   2449.6770       6.6830       0.0035      64.9080      45.6639       0.2000       0.0000     300.9644     289.4178     132.0587       0.1081       3.9495       2.5686
   2449.8293       6.6810       0.0034      63.2505      48.0957       0.2000       0.0000     260.9521     250.1180     130.5737       0.1032       3.7275       2.5723
   2449.9817       6.6790       0.0038      61.5970      52.2702       0.2000       0.0000     202.5383     193.5105     128.7737       0.0970       3.4953       2.5881
   2450.1340       6.6800       0.0053      64.0399      58.8111       0.2000       0.0000     153.9772     145.0702     124.8232       0.0923       3.3838       2.6266
   2450.2866       6.6810       0.0073      66.4770      66.6206       0.2000       0.0000     110.4189     100.8695     119.9762       0.0884       3.3237       2.6743
   2450.4390       6.6825       0.0038      72.1503      69.7926       0.2000       0.0000      84.7611      76.1335     108.6675       0.0900       3.3818       2.6879
   2450.5913       6.6840      -0.0019      77.8100      70.5355       0.2000       0.0000      66.2635      59.2403      94.7009       0.0938       3.4868       2.6868
   2450.7437       6.6840      -0.0052      77.4320      72.3831       0.2000       0.0000      52.4753      47.1463      87.1055       0.0956       3.5122       2.6819
   2450.8960       6.6840      -0.0074      77.0550      74.7959       0.2000       0.0000      40.3069      36.6797      82.2225       0.0965       3.5032       2.6760
   2451.0486       6.6890      -0.0076      74.4659      77.0821       0.2000       0.0000      34.9475      32.1461      80.6931       0.0982       3.4920       2.6717
   2451.2009       6.6940      -0.0072      71.8830      79.3049       0.2000       0.0000      32.2314      29.9073      80.3901       0.1003       3.4815       2.6682
