#------------------------------------------------------------------------------
#
#   Created by  : [OpenWorks] Log Export Utility (LEXP)
#   Created on  : 2016-05-11 12:13:39
#   Project     : CANT971
#   User        : R5K
#   Interpreter : PEP
#
#------------------------------------------------------------------------------
~VERSION INFORMATION
VERS. 2.0 : CWLS Log ASCII Standard - version 2.0
WRAP.  NO : One line per depth step
~WELL INFORMATION
#MNEMONIC   .UNIT                                           VALUE :DESCRIPTION
#------------------------------------------------------------------------------
STRT        .M                                          2180.6909 :START DEPTH
STOP        .M                                          2540.6597 :STOP DEPTH
STEP        .M                                             0.1524 :STEP
NULL        .                                           -999.2500 :NULL VALUE
COMP        .                                   PEMEX EXPL & PROD :COMPANY
WELL        .                                                1089 :WELL
FLD         .                                           CANTARELL :FIELD
LOC         .                                             UNKNOWN :LOCATION
CNTY        .                                      CD. DEL CARMEN :COUNTY
STAT        .                                            CAMPECHE :STATE
CTRY        .                                              MEXICO :COUNTRY
SRVC        .                                             UNKNOWN :SERVICE COMPANY
DATE        .                                             UNKNOWN :LOG DATE
UWI         .                                          3060000622 :UNIQUE WELL ID
XCOORD      .                                       601390.114000 :SURFACE X
YCOORD      .                                      2149872.463000 :SURFACE Y
LAT         .                                           19.441832 :LATITUDE
LON         .                                          -92.034145 :LONGITUDE
ELEV        .M                                            28.0000 :SURFACE ELEV
ELEV_TYPE   .                                                  KB :ELEV TYPE
~CURVE INFORMATION
#MNEMONIC.UNIT        API CODE       : CURVE DESCRIPTION
#------------------------------------------------------------------------------
DEPTH    .M                          : Measured Depth
CALI     .inches      UNKNOWN        : CALI:Import:rC:NONE:v0 (auto-composite)
DRHO     .g/cm3       UNKNOWN        : DRHO:Import:rC:NONE:v0 (auto-composite)
DT       .us/ft       UNKNOWN        : DT:Import:rC:NONE:v0 (auto-composite)
GR       .API         UNKNOWN        : GR:Import:rC:NONE:v0 (auto-composite)
ILD      .ohm.m       UNKNOWN        : ILD:Import:rC:NONE:v0 (auto-composite)
ILM      .ohm.m       UNKNOWN        : ILM:Import:rC:NONE:v0 (auto-composite)
LLD      .ohm.m       UNKNOWN        : LLD:Import:rC:NONE:v0 (auto-composite)
LLS      .ohm.m       UNKNOWN        : LLS:Import:rC:NONE:v0 (auto-composite)
MSFL     .ohm.m       UNKNOWN        : MSFL:Import:rC:NONE:v0 (auto-composite)
NPHI     .v/v_decimal UNKNOWN        : NPHI:Import:rC:NONE:v0 (auto-composite)
PEF      .b/elec      UNKNOWN        : PEF:Import:rC:NONE:v0 (auto-composite)
RHOB     .g/cm3       UNKNOWN        : RHOB:Import:rC:NONE:v0 (auto-composite)
~A     DEPTH         CALI         DRHO           DT           GR          ILD          ILM          LLD          LLS         MSFL         NPHI          PEF         RHOB
# ...
   2480.6140       7.2408       0.0460     248.9296      77.3791       0.2000       0.0000      16.8203      14.3812      83.9690       0.2011       3.8676       2.5211
   2480.7666       7.1580       0.0376     239.2960      76.6415       0.2000       0.0000      16.6078      14.1538      83.9890       0.1914       3.7597       2.5429
   2480.9189       7.0708       0.0295     223.4195      76.6556       0.2000       0.0000      16.8876      14.2519      84.0513       0.1865       3.7402       2.5568
   2481.0713       6.9840       0.0227     207.5920      76.6220       0.2000       0.0000      17.2047      14.3628      84.1277       0.1838       3.7362       2.5633
   2481.2236       6.9524       0.0182     176.8955      76.3809       0.2000       0.0000      17.4212      14.3821      84.2181       0.1837       3.7322       2.5575
   2481.3762       6.9210       0.0160     146.2940      75.8989       0.2000       0.0000      17.3443      14.2386      84.2354       0.1847       3.7456       2.5522
   2481.5286       6.8954       0.0174     125.3841      74.4015       0.2000       0.0000      16.7069      13.7967      84.0994       0.1875       3.7941       2.5528
   2481.6809       6.8700       0.0185     104.5390      73.0154       0.2000       0.0000      16.1742      13.4326      83.9301       0.1892       3.8109       2.5531
   2481.8333       6.8480       0.0178      93.6902      72.0829       0.2000       0.0000      16.0432      13.3268      83.7469       0.1883       3.7522       2.5510
   2481.9858       6.8260       0.0169      82.8750      71.7896       0.2000       0.0000      15.9907      13.2715      83.6357       0.1869       3.7414       2.5489
   2482.1382       6.8140       0.0164      76.3829      74.0179       0.2000       0.0000      15.9561      13.2280      83.6695       0.1855       3.8492       2.5478
   2482.2905       6.8020       0.0159      69.9110      76.3543       0.2000       0.0000      15.9689      13.2676      83.7492       0.1845       3.9450       2.5456
   2482.4429       6.8020       0.0154      70.4343      79.1035       0.2000       0.0000      16.0666      13.4626      83.8691       0.1843       3.9782       2.5409
   2482.5952       6.8020       0.0150      70.9560      81.2617       0.2000       0.0000      16.1821      13.6621      83.9874       0.1846       3.9666       2.5367
   2482.7478       6.8055       0.0150      70.8468      81.2321       0.2000       0.0000      16.3033      13.8199      84.0894       0.1853       3.8908       2.5340
   2482.9001       6.8090       0.0153      70.7380      81.3730       0.2000       0.0000      16.2707      13.8289      84.2336       0.1864       3.8013       2.5333
   2483.0525       6.8085       0.0162      70.9819      82.1255       0.2000       0.0000      15.9533      13.5771      84.4607       0.1879       3.7064       2.5362
   2483.2048       6.8080       0.0167      71.2250      83.5750       0.2000       0.0000      15.6498      13.3427      84.6390       0.1890       3.6099       2.5386
   2483.3574       6.8060       0.0164      71.8244      87.4507       0.2000       0.0000      15.4591      13.2200      84.7038       0.1894       3.5124       2.5390
   2483.5098       6.8040       0.0157      72.4220      90.7316       0.2000       0.0000      15.5861      13.3461      84.5890       0.1889       3.4816       2.5377
   2483.6621       6.8005       0.0148      71.9698      92.0034       0.2000       0.0000      16.2396      13.8777      84.1910       0.1873       3.5688       2.5340
   2483.8145       6.7970       0.0143      71.5190      92.1207       0.2000       0.0000      16.8355      14.3910      83.8447       0.1858       3.6403       2.5329
   2483.9668       6.7870       0.0146      70.6336      88.4520       0.2000       0.0000      17.1765      14.7532      83.6714       0.1853       3.6498       2.5366
   2484.1194       6.7770       0.0166      69.7510      85.2669       0.2000       0.0000      17.5995      15.1633      83.5556       0.1844       3.6540       2.5451
   2484.2717       6.7800       0.0212      70.0855      83.6215       0.2000       0.0000      18.2357      15.6995      83.4868       0.1829       3.6670       2.5605
   2484.4241       6.7830       0.0240      70.4190      82.0220       0.2000       0.0000      18.8801      16.2397      83.5707       0.1820       3.7118       2.5709
   2484.5764       6.7900       0.0231      70.3594      80.5642       0.2000       0.0000      19.4778      16.7506      83.8952       0.1824       3.8071       2.5711
   2484.7290       6.7970       0.0208      70.3000      79.6223       0.2000       0.0000      20.0013      17.1801      84.1761       0.1839       3.8763       2.5667
   2484.8813       6.8020       0.0170      69.8813      80.2329       0.2000       0.0000      20.4185      17.4863      84.3205       0.1869       3.8893       2.5575
   2485.0337       6.8070       0.0134      69.4640      81.1092       0.2000       0.0000      20.7228      17.6735      84.2603       0.1901       3.8478       2.5474
   2485.1860       6.8085       0.0102      68.6662      82.7631       0.2000       0.0000      20.8751      17.7034      83.9089       0.1931       3.7341       2.5374
   2485.3386       6.8100       0.0079      67.8710      83.9993       0.2000       0.0000      20.7379      17.5011      83.6210       0.1940       3.6158       2.5309
   2485.4910       6.8115       0.0068      67.0437      84.0464       0.2000       0.0000      20.1866      16.9760      83.5095       0.1916       3.5096       2.5300
   2485.6433       6.8130       0.0074      66.2190      83.8507       0.2000       0.0000      19.4886      16.3455      83.5170       0.1876       3.4396       2.5354
   2485.7957       6.8200       0.0104      66.4033      82.9825       0.2000       0.0000      18.6719      15.6365      83.6634       0.1817       3.4223       2.5490
   2485.9480       6.8270       0.0134      66.5870      81.7110       0.2000       0.0000      18.1624      15.2061      83.7560       0.1787       3.4528       2.5617
   2486.1006       6.8260       0.0156      67.4624      79.3518       0.2000       0.0000      18.1479      15.2170      83.7322       0.1803       3.5427       2.5708
   2486.2529       6.8250       0.0159      68.3350      77.1170       0.2000       0.0000      18.1460      15.2379      83.8633       0.1838       3.6456       2.5722
   2486.4053       6.8150       0.0138      70.4679      75.2090       0.2000       0.0000      18.0403      15.1648      84.2536       0.1888       3.7532       2.5630
   2486.5576       6.8050       0.0115      72.5940      74.2715       0.2000       0.0000      18.3795      15.4499      84.4506       0.1913       3.9323       2.5508
   2486.7102       6.7940       0.0094      80.2127      75.8181       0.2000       0.0000      19.3911      16.2789      84.3031       0.1898       4.2142       2.5370
   2486.8625       6.7830       0.0078      87.8070      77.6465       0.2000       0.0000      20.4174      17.1409      84.1754       0.1879       4.3086       2.5307
   2487.0149       6.7334       0.0067      85.4217      80.1782       0.2000       0.0000      21.3037      17.9199      84.1576       0.1864       4.1095       2.5354
   2487.1672       6.6840       0.0067      83.0440      81.3791       0.2000       0.0000      22.1139      18.5979      84.1429       0.1838       3.8657       2.5467
   2487.3198       6.6845       0.0080      85.2090      79.3448       0.2000       0.0000      22.8497      19.1532      84.1068       0.1797       3.6276       2.5647
   2487.4722       6.6850       0.0087      87.3670      77.7593       0.2000       0.0000      23.1310      19.3369      84.0730       0.1762       3.5009       2.5781
   2487.6245       6.6845       0.0084      89.6878      77.2379       0.2000       0.0000      22.8036      19.0370      84.0471       0.1739       3.5260       2.5839
   2487.7769       6.6840       0.0075      92.0010      77.4350       0.2000       0.0000      22.3003      18.6019      84.0913       0.1734       3.6016       2.5825
