#------------------------------------------------------------------------------
#
#   Created by  : [OpenWorks] Log Export Utility (LEXP)
#   Created on  : 2016-05-11 12:13:40
#   Project     : CANT971
#   User        : R5K
#   Interpreter : PEP
#
#------------------------------------------------------------------------------
~VERSION INFORMATION
VERS. 2.0 : CWLS Log ASCII Standard - version 2.0
WRAP.  NO : One line per depth step
~WELL INFORMATION
#MNEMONIC   .UNIT                                           VALUE :DESCRIPTION
#------------------------------------------------------------------------------
STRT        .M                                          1413.5103 :START DEPTH
STOP        .M                                          2773.8328 :STOP DEPTH
STEP        .M                                             0.1524 :STEP
NULL        .                                           -999.2500 :NULL VALUE
COMP        .                                   PEMEX EXPL & PROD :COMPANY
WELL        .                                               1188D :WELL
FLD         .                                           CANTARELL :FIELD
LOC         .                                             UNKNOWN :LOCATION
CNTY        .                                      CD. DEL CARMEN :COUNTY
STAT        .                                            CAMPECHE :STATE
CTRY        .                                              MEXICO :COUNTRY
SRVC        .                                             UNKNOWN :SERVICE COMPANY
DATE        .                                             UNKNOWN :LOG DATE
UWI         .                                               1188D :UNIQUE WELL ID
XCOORD      .                                       601391.859000 :SURFACE X
YCOORD      .                                      2149874.166000 :SURFACE Y
LAT         .                                           19.441847 :LATITUDE
LON         .                                          -92.034128 :LONGITUDE
ELEV        .M                                            28.0000 :SURFACE ELEV
ELEV_TYPE   .                                                  KB :ELEV TYPE
~CURVE INFORMATION
#MNEMONIC.UNIT        API CODE       : CURVE DESCRIPTION
#------------------------------------------------------------------------------
DEPTH    .M                          : Measured Depth
CALI     .inches      UNKNOWN        : CALI:Import:rC:NONE:v0 (auto-composite)
DRHO     .g/cm3       UNKNOWN        : DRHO:Import:rC:NONE:v0 (auto-composite)
DT       .us/ft       UNKNOWN        : DT:Import:rC:NONE:v0 (auto-composite)
GR       .API         UNKNOWN        : GR:Import:rC:NONE:v0 (auto-composite)
ILD      .ohm.m       UNKNOWN        : ILD:Import:rC:NONE:v0 (auto-composite)
ILM      .ohm.m       UNKNOWN        : ILM:Import:rC:NONE:v0 (auto-composite)
LLD      .ohm.m       UNKNOWN        : LLD:Import:rC:NONE:v0 (auto-composite)
LLS      .ohm.m       UNKNOWN        : LLS:Import:rC:NONE:v0 (auto-composite)
MSFL     .ohm.m       UNKNOWN        : MSFL:Import:rC:NONE:v0 (auto-composite)
NPHI     .v/v_decimal UNKNOWN        : NPHI:Import:rC:NONE:v0 (auto-composite)
PEF      .b/elec      UNKNOWN        : PEF:Import:rC:NONE:v0 (auto-composite)
RHOB     .g/cm3       UNKNOWN        : RHOB:Import:rC:NONE:v0 (auto-composite)
SP       .mV          UNKNOWN        : SP:Import:rC:NONE:v0 (auto-composite)
~A     DEPTH         CALI         DRHO           DT           GR          ILD          ILM          LLD          LLS         MSFL         NPHI          PEF         RHOB           SP
# ...
   2586.9902       5.7850      -0.0055      57.1293      24.5310    -999.2500    -999.2500      18.6620      21.6752      18.3647       0.0896       4.7035       2.5779     668.7500
   2587.1426       5.7850      -0.0060      58.8130      24.3844    -999.2500    -999.2500      18.7840      21.1560      19.2460       0.1100       3.9020       2.5190     668.8311
   2587.2952       5.8035       0.0010      58.7500      24.2380    -999.2500    -999.2500      18.0257      20.0295      41.9138       0.1355       3.9901       2.5420     668.9120
   2587.4475       5.8220       0.0080      58.6870      23.6342    -999.2500    -999.2500      17.2680      18.9040      64.5620       0.1609       4.0780       2.5650     669.0811
   2587.5999       5.8661      -0.0050      59.1876      23.0310    -999.2500    -999.2500      14.3904      15.7148      47.8788       0.1814       4.0400       2.5420     669.2500
   2587.7522       5.9100      -0.0180      59.6870      24.4775    -999.2500    -999.2500      11.5150      12.5280      31.2080       0.2005       4.0020       2.5190     668.9999
   2587.9045       5.9220      -0.0040      62.0401      25.9230    -999.2500    -999.2500       8.8037       9.5646      18.9722       0.2010       3.8123       2.5340     668.7500
   2588.0571       5.9340       0.0100      64.3880      29.9332    -999.2500    -999.2500       6.0940       6.6030       6.7440       0.2005       3.6230       2.5490     668.7500
   2588.2095       5.9340       0.0080      68.2861      33.9410    -999.2500    -999.2500       5.1788       5.3282       5.1031       0.2011       3.6961       2.5465     668.7500
   2588.3618       5.9340       0.0060      72.1760      36.9712    -999.2500    -999.2500       4.2640       4.0540       3.4630       0.2016       3.7690       2.5440     668.7500
   2588.5142       5.9515       0.0020      74.9202      39.9950    -999.2500    -999.2500       4.1170       4.0560       4.3682       0.1997       4.2700       2.5460     668.7500
   2588.6667       5.9690      -0.0020      77.6590      41.9930    -999.2500    -999.2500       3.9700       4.0580       5.2730       0.1970       4.7700       2.5480     668.7500
   2588.8191       5.9515      -0.0050      79.3310      43.9870    -999.2500    -999.2500       3.8540       4.0120       4.7849       0.1815       4.7535       2.5445     668.7500
   2588.9714       5.9340      -0.0080      81.0000      44.3734    -999.2500    -999.2500       3.7380       3.9660       4.2970       0.1662       4.7370       2.5410     668.7500
   2589.1238       5.9340      -0.0040      80.6472      44.7590    -999.2500    -999.2500       4.0840       4.4005       4.6780       0.1692       4.5759       2.5220     668.7500
   2589.2764       5.9340       0.0000      80.2950      45.3525    -999.2500    -999.2500       4.4300       4.8350       5.0590       0.1741       4.4150       2.5030     668.7500
   2589.4287       5.9340      -0.0015      78.0522      45.9450    -999.2500    -999.2500       4.3255       4.6805       4.1290       0.1944       3.9551       2.5070     668.7500
   2589.5811       5.9340      -0.0030      75.8130      46.9733    -999.2500    -999.2500       4.2210       4.5260       3.1990       0.2143       3.4960       2.5110     668.6664
   2589.7334       5.9515      -0.0090      76.1472      48.0000    -999.2500    -999.2500       3.8615       4.2335       3.2850       0.2150       3.5245       2.5065     668.5830
   2589.8857       5.9690      -0.0150      76.4810      47.3150    -999.2500    -999.2500       3.5020       3.9410       3.3710       0.2144       3.5530       2.5020     668.1662
   2590.0383       5.9630      -0.0145      77.7779      46.6310    -999.2500    -999.2500       3.6650       3.9065       3.6650       0.2101       3.6230       2.4685     667.7500
   2590.1907       5.9570      -0.0140      79.0730      42.4222    -999.2500    -999.2500       3.8280       3.8720       3.9590       0.2045       3.6930       2.4350     667.7500
   2590.3430       5.8709      -0.0120      81.0062      38.2190    -999.2500    -999.2500       3.7640       3.7610       3.4706       0.1848       3.7781       2.4525     667.7500
   2590.4954       5.7850      -0.0100      82.9370      38.4191    -999.2500    -999.2500       3.7000       3.6500       2.9820       0.1634       3.8630       2.4700     667.7500
   2590.6479       5.7850      -0.0060      82.5668      38.6190    -999.2500    -999.2500       3.2691       3.2671       4.1567       0.1334       4.0996       2.5681     667.7500
   2590.8003       5.7850      -0.0020      82.1970      39.1223    -999.2500    -999.2500       2.8380       2.8840       5.3320       0.1047       4.3360       2.6660     667.6655
   2590.9526       5.7204      -0.0055      80.2961      39.6250    -999.2500    -999.2500       2.9935       3.0469       3.6985       0.1047       4.3355       2.6550     667.5810
   2591.1050       5.6560      -0.0090      78.3970      39.1848    -999.2500    -999.2500       3.1490       3.2100       2.0640       0.1070       4.3350       2.6440     667.1653
   2591.2576       5.7096      -0.0060      75.6999      38.7450    -999.2500    -999.2500       6.6420       6.4063      11.4264       0.1159       4.2619       2.5959     666.7500
   2591.4099       5.7630      -0.0030      73.0050      37.2024    -999.2500    -999.2500      10.1320       9.6000      20.7810       0.1257       4.1890       2.5480     666.7500
   2591.5623       5.8811      -0.0040      68.9979      35.6610    -999.2500    -999.2500       9.9904       9.4499      19.0924       0.1449       3.9743       2.4629     666.7500
   2591.7146       5.9990      -0.0050      65.0000      33.7908    -999.2500    -999.2500       9.8490       9.3000      17.4050       0.1647       3.7600       2.3780     667.0061
   2591.8669       6.2047       0.0110      65.2678      31.9220    -999.2500    -999.2500       8.9292       8.4462      11.0696       0.1874       3.8526       2.4271     667.2620
   2592.0195       6.4100       0.0270      65.5350      33.1073    -999.2500    -999.2500       8.0100       7.5930       4.7380       0.2112       3.9450       2.4760     667.7562
   2592.1719       6.3955       0.0195      66.3829      34.2920    -999.2500    -999.2500       6.8117       6.4717      11.5816       0.2458       3.5871       2.4254     668.2500
   2592.3242       6.3810       0.0120      67.2290      36.9577    -999.2500    -999.2500       5.6140       5.3510      18.4220       0.2767       3.2300       2.3750     667.9998
   2592.4766       6.3039       0.0150      68.3611      39.6180    -999.2500    -999.2500       5.1469       4.8429      15.3175       0.2460       3.9006       2.3985     667.7500
   2592.6292       6.2270       0.0180      69.4910      41.4353    -999.2500    -999.2500       4.6800       4.3350      12.2140       0.2134       4.5700       2.4220     667.7500
   2592.7815       6.2395       0.0260      72.2975      43.2490    -999.2500    -999.2500       3.9804       3.7089       7.4805       0.2164       4.4329       2.4781     667.7500
   2592.9338       6.2520       0.0340      75.0990      52.1010    -999.2500    -999.2500       3.2810       3.0830       2.7480       0.2228       4.2960       2.5340     667.7500
   2593.0862       6.3506       0.0410      81.1796      60.9370    -999.2500    -999.2500       3.3115       3.1235       2.8945       0.2388       3.7285       2.4835     667.7500
   2593.2388       6.4490       0.0480      87.2500      60.1173    -999.2500    -999.2500       3.3420       3.1640       3.0410       0.2529       3.1620       2.4330     667.7500
   2593.3911       6.4360       0.0675      84.7796      59.2990    -999.2500    -999.2500       3.6575       3.4595       4.5265       0.2345       3.6324       2.4455     667.7500
   2593.5435       6.4230       0.0870      82.3130      54.3021    -999.2500    -999.2500       3.9730       3.7550       6.0120       0.2162       4.1020       2.4580     667.8371
