#------------------------------------------------------------------------------
#
#   Created by  : [OpenWorks] Log Export Utility (LEXP)
#   Created on  : 2016-05-11 12:13:40
#   Project     : CANT971
#   User        : R5K
#   Interpreter : PEP
#
#------------------------------------------------------------------------------
~VERSION INFORMATION
VERS. 2.0 : CWLS Log ASCII Standard - version 2.0
WRAP.  NO : One line per depth step
~WELL INFORMATION
#MNEMONIC   .UNIT                                           VALUE :DESCRIPTION
#------------------------------------------------------------------------------
STRT        .M                                          1413.5103 :START DEPTH
STOP        .M                                          2773.8328 :STOP DEPTH
STEP        .M                                             0.1524 :STEP
NULL        .                                           -999.2500 :NULL VALUE
COMP        .                                   PEMEX EXPL & PROD :COMPANY
WELL        .                                               1188D :WELL
FLD         .                                           CANTARELL :FIELD
LOC         .                                             UNKNOWN :LOCATION
CNTY        .                                      CD. DEL CARMEN :COUNTY
STAT        .                                            CAMPECHE :STATE
CTRY        .                                              MEXICO :COUNTRY
SRVC        .                                             UNKNOWN :SERVICE COMPANY
DATE        .                                             UNKNOWN :LOG DATE
UWI         .                                               1188D :UNIQUE WELL ID
XCOORD      .                                       601391.859000 :SURFACE X
YCOORD      .                                      2149874.166000 :SURFACE Y
LAT         .                                           19.441847 :LATITUDE
LON         .                                          -92.034128 :LONGITUDE
ELEV        .M                                            28.0000 :SURFACE ELEV
ELEV_TYPE   .                                                  KB :ELEV TYPE
~CURVE INFORMATION
#MNEMONIC.UNIT        API CODE       : CURVE DESCRIPTION
#------------------------------------------------------------------------------
DEPTH    .M                          : Measured Depth
CALI     .inches      UNKNOWN        : CALI:Import:rC:NONE:v0 (auto-composite)
DRHO     .g/cm3       UNKNOWN        : DRHO:Import:rC:NONE:v0 (auto-composite)
DT       .us/ft       UNKNOWN        : DT:Import:rC:NONE:v0 (auto-composite)
GR       .API         UNKNOWN        : GR:Import:rC:NONE:v0 (auto-composite)
ILD      .ohm.m       UNKNOWN        : ILD:Import:rC:NONE:v0 (auto-composite)
ILM      .ohm.m       UNKNOWN        : ILM:Import:rC:NONE:v0 (auto-composite)
LLD      .ohm.m       UNKNOWN        : LLD:Import:rC:NONE:v0 (auto-composite)
LLS      .ohm.m       UNKNOWN        : LLS:Import:rC:NONE:v0 (auto-composite)
MSFL     .ohm.m       UNKNOWN        : MSFL:Import:rC:NONE:v0 (auto-composite)
NPHI     .v/v_decimal UNKNOWN        : NPHI:Import:rC:NONE:v0 (auto-composite)
PEF      .b/elec      UNKNOWN        : PEF:Import:rC:NONE:v0 (auto-composite)
RHOB     .g/cm3       UNKNOWN        : RHOB:Import:rC:NONE:v0 (auto-composite)
SP       .mV          UNKNOWN        : SP:Import:rC:NONE:v0 (auto-composite)
~A     DEPTH         CALI         DRHO           DT           GR          ILD          ILM          LLD          LLS         MSFL         NPHI          PEF         RHOB           SP
# ...
   2600.4014       6.7356       0.0675      81.8098      61.3540    -999.2500    -999.2500       3.6060       3.3285       5.6709       0.2868       3.3116       2.3740     668.7500
   2600.5540       6.8520       0.0560      82.6180      62.3344    -999.2500    -999.2500       3.3970       3.1020       5.1700       0.2817       3.4240       2.3680     668.7500
   2600.7063       6.7619       0.0695      84.2609      63.3130    -999.2500    -999.2500       3.0045       2.7615       4.4334       0.2571       3.7573       2.4506     668.7500
   2600.8586       6.6720       0.0830      85.9010      63.2890    -999.2500    -999.2500       2.6120       2.4210       3.6970       0.2336       4.0900       2.5330     668.2496
   2601.0110       6.6720       0.0720      87.2981      63.2650    -999.2500    -999.2500       2.6120       2.4275       4.2820       0.2362       4.0204       2.5245     667.7500
   2601.1636       6.6720       0.0610      88.6930      62.8957    -999.2500    -999.2500       2.6120       2.4340       4.8670       0.2428       3.9510       2.5160     667.7500
   2601.3159       6.7636       0.0400      90.2226      62.5270    -999.2500    -999.2500       3.4270       3.1370       3.9950       0.2572       3.6733       2.4835     667.7500
   2601.4683       6.8550       0.0190      91.7500      57.1815    -999.2500    -999.2500       4.2420       3.8400       3.1230       0.2666       3.3960       2.4510     667.8451
   2601.6206       6.7779       0.0215      87.8723      51.8440    -999.2500    -999.2500       4.2000       3.8190       3.6999       0.2259       3.6197       2.4595     667.9400
   2601.7729       6.7010       0.0240      84.0000      53.1514    -999.2500    -999.2500       4.1580       3.7980       4.2770       0.1845       3.8430       2.4680     668.0951
   2601.9255       6.5124       0.0370      84.5488      54.4570    -999.2500    -999.2500       3.7226       3.4516       3.6736       0.1843       4.2908       2.4645     668.2500
   2602.0779       6.3240       0.0500      85.0970      58.5591    -999.2500    -999.2500       3.2870       3.1050       3.0700       0.1904       4.7380       2.4610     668.5002
   2602.2302       6.3545       0.0780      86.7679      62.6560    -999.2500    -999.2500       3.9163       3.5429       3.2130       0.2046       4.4784       2.4430     668.7500
   2602.3826       6.3850       0.1060      88.4370      61.0416    -999.2500    -999.2500       4.5460       3.9810       3.3560       0.2197       4.2190       2.4250     668.4999
   2602.5352       6.4630       0.1000      87.4165      59.4290    -999.2500    -999.2500       4.5070       3.9640     204.7159       0.2334       3.6787       2.3805     668.2500
   2602.6875       6.5410       0.0940      86.3970      54.0398    -999.2500    -999.2500       4.4680       3.9470     405.8750       0.2483       3.1390       2.3360     668.5001
   2602.8398       6.7533       0.0540      83.1320      48.6560    -999.2500    -999.2500       4.0018       3.6404     233.9401       0.2754       2.8536       2.1117     668.7500
   2602.9922       6.9650       0.0140      79.8750      50.8605    -999.2500    -999.2500       3.5360       3.3340      62.1550       0.2997       2.5690       1.8880     668.4999
   2603.1448       7.4441       0.0290      80.5147      53.0630    -999.2500    -999.2500       3.9837       3.5586      32.4819       0.2924       2.3713       1.9185     668.2500
   2603.2971       7.9220       0.0440      81.1530      52.9119    -999.2500    -999.2500       4.4310       3.7830       2.8310       0.2801       2.1740       1.9490     668.2500
   2603.4495       7.8309       0.0820      83.4541      52.7610    -999.2500    -999.2500       4.3370       3.7405       2.4799       0.2613       2.3071       2.0326     668.2500
   2603.6018       7.7400       0.1200      85.7500      51.1517    -999.2500    -999.2500       4.2430       3.6980       2.1290       0.2429       2.4400       2.1160     668.1529
   2603.7542       7.4802       0.1140      85.6409      49.5460    -999.2500    -999.2500       3.8959       3.4544       2.3896       0.2328       2.8004       2.2101     668.0560
   2603.9067       7.2210       0.1080      85.5320      45.2530    -999.2500    -999.2500       3.5490       3.2110       2.6500       0.2234       3.1600       2.3040     667.6526
   2604.0591       6.9362       0.0805      85.2012      40.9690    -999.2500    -999.2500       3.7105       3.2515       2.2139       0.2109       3.6625       2.4356     667.2500
   2604.2114       6.6520       0.0530      84.8710      41.4014    -999.2500    -999.2500       3.8720       3.2920       1.7780       0.1996       4.1640       2.5670     667.2500
   2604.3638       6.6560       0.0535      84.3295      41.8330    -999.2500    -999.2500       3.7420       3.3585       1.8375       0.2020       4.0799       2.5610     667.2500
   2604.5164       6.6600       0.0540      83.7890      43.5371    -999.2500    -999.2500       3.6120       3.4250       1.8970       0.2076       3.9960       2.5550     667.3476
   2604.6687       6.6660       0.0685      83.0248      45.2380    -999.2500    -999.2500       3.6955       3.4850       2.1180       0.2244       3.6862       2.5220     667.4450
   2604.8210       6.6720       0.0830      82.2620      47.2257    -999.2500    -999.2500       3.7790       3.5450       2.3390       0.2436       3.3770       2.4890     667.7938
   2604.9734       6.8106       0.0830      78.6596      49.2100    -999.2500    -999.2500       4.0920       3.8080       3.1160       0.2693       2.9702       2.3544     668.1420
   2605.1257       6.9490       0.0830      75.0630      50.4044    -999.2500    -999.2500       4.4050       4.0710       3.8930       0.2892       2.5640       2.2200     668.6965
   2605.2783       6.9270       0.0935      76.2224      51.5970    -999.2500    -999.2500       4.2640       3.9170       3.8435       0.2607       3.0684       2.2695     669.2500
   2605.4307       6.9050       0.1040      77.3800      55.5359    -999.2500    -999.2500       4.1230       3.7630       3.7940       0.2296       3.5720       2.3190     669.1514
   2605.5830       6.7494       0.0945      80.0748      59.4690    -999.2500    -999.2500       3.5271       3.1866       3.0561       0.2285       3.5380       2.4041     669.0530
   2605.7354       6.5940       0.0850      82.7660      59.4255    -999.2500    -999.2500       2.9310       2.6100       2.3180       0.2309       3.5040       2.4890     668.6512
   2605.8879       6.6200       0.0600      87.0106      59.3820    -999.2500    -999.2500       3.0580       2.6915       2.3350       0.2273       3.7522       2.4750     668.2500
   2606.0403       6.6460       0.0350      91.2500      57.3147    -999.2500    -999.2500       3.1850       2.7730       2.3520       0.2253       4.0000       2.4610     668.2500
   2606.1926       6.6865       0.0470      86.0597      55.2500    -999.2500    -999.2500       3.7823       3.2304       2.3275       0.2401       3.8584       2.4280     668.2500
   2606.3450       6.7270       0.0590      80.8750      55.8909    -999.2500    -999.2500       4.3800       3.6880       2.3030       0.2552       3.7170       2.3950     668.3495
   2606.4976       6.9106       0.0815      81.2192      56.5310    -999.2500    -999.2500       4.2429       3.5850       2.2435       0.2566       3.3573       2.3535     668.4490
   2606.6499       7.0940       0.1040      81.5630      55.8122    -999.2500    -999.2500       4.1060       3.4820       2.1840       0.2563       2.9980       2.3120     668.6996
   2606.8022       7.0840       0.1110      81.4624      55.0940    -999.2500    -999.2500       3.8644       3.2844       2.2040       0.2583       3.1642       2.2750     668.9500
   2606.9546       7.0740       0.1180      81.3620      56.2040    -999.2500    -999.2500       3.6230       3.0870       2.2240       0.2614       3.3300       2.2380     669.1001
