#------------------------------------------------------------------------------
#
#   Created by  : [OpenWorks] Log Export Utility (LEXP)
#   Created on  : 2016-05-11 12:13:40
#   Project     : CANT971
#   User        : R5K
#   Interpreter : PEP
#
#------------------------------------------------------------------------------
~VERSION INFORMATION
VERS. 2.0 : CWLS Log ASCII Standard - version 2.0
WRAP.  NO : One line per depth step
~WELL INFORMATION
#MNEMONIC   .UNIT                                           VALUE :DESCRIPTION
#------------------------------------------------------------------------------
STRT        .M                                          1413.5103 :START DEPTH
STOP        .M                                          2773.8328 :STOP DEPTH
STEP        .M                                             0.1524 :STEP
NULL        .                                           -999.2500 :NULL VALUE
COMP        .                                   PEMEX EXPL & PROD :COMPANY
WELL        .                                               1188D :WELL
FLD         .                                           CANTARELL :FIELD
LOC         .                                             UNKNOWN :LOCATION
CNTY        .                                      CD. DEL CARMEN :COUNTY
STAT        .                                            CAMPECHE :STATE
CTRY        .                                              MEXICO :COUNTRY
SRVC        .                                             UNKNOWN :SERVICE COMPANY
DATE        .                                             UNKNOWN :LOG DATE
UWI         .                                               1188D :UNIQUE WELL ID
XCOORD      .                                       601391.859000 :SURFACE X
YCOORD      .                                      2149874.166000 :SURFACE Y
LAT         .                                           19.441847 :LATITUDE
LON         .                                          -92.034128 :LONGITUDE
ELEV        .M                                            28.0000 :SURFACE ELEV
ELEV_TYPE   .                                                  KB :ELEV TYPE
~CURVE INFORMATION
#MNEMONIC.UNIT        API CODE       : CURVE DESCRIPTION
#------------------------------------------------------------------------------
DEPTH    .M                          : Measured Depth
CALI     .inches      UNKNOWN        : CALI:Import:rC:NONE:v0 (auto-composite)
DRHO     .g/cm3       UNKNOWN        : DRHO:Import:rC:NONE:v0 (auto-composite)
DT       .us/ft       UNKNOWN        : DT:Import:rC:NONE:v0 (auto-composite)
GR       .API         UNKNOWN        : GR:Import:rC:NONE:v0 (auto-composite)
ILD      .ohm.m       UNKNOWN        : ILD:Import:rC:NONE:v0 (auto-composite)
ILM      .ohm.m       UNKNOWN        : ILM:Import:rC:NONE:v0 (auto-composite)
LLD      .ohm.m       UNKNOWN        : LLD:Import:rC:NONE:v0 (auto-composite)
LLS      .ohm.m       UNKNOWN        : LLS:Import:rC:NONE:v0 (auto-composite)
MSFL     .ohm.m       UNKNOWN        : MSFL:Import:rC:NONE:v0 (auto-composite)
NPHI     .v/v_decimal UNKNOWN        : NPHI:Import:rC:NONE:v0 (auto-composite)
PEF      .b/elec      UNKNOWN        : PEF:Import:rC:NONE:v0 (auto-composite)
RHOB     .g/cm3       UNKNOWN        : RHOB:Import:rC:NONE:v0 (auto-composite)
SP       .mV          UNKNOWN        : SP:Import:rC:NONE:v0 (auto-composite)
~A     DEPTH         CALI         DRHO           DT           GR          ILD          ILM          LLD          LLS         MSFL         NPHI          PEF         RHOB           SP
# ...
   2513.2288       5.6275      -0.0305      66.4615       7.5510    -999.2500    -999.2500      61.6121      73.3777     107.9183       0.0991       5.4108       2.5145     663.4550
   2513.3811       5.6370      -0.0220      66.4230       7.5740    -999.2500    -999.2500      51.3060      65.3790      66.4380       0.0850       6.0350       2.5410     659.7998
   2513.5334       5.6270      -0.0180      65.4758       7.5970    -999.2500    -999.2500      51.4841      65.5251      67.3969       0.0709       6.0230       2.5805     656.1480
   2513.6858       5.6170      -0.0140      64.5310       8.1462    -999.2500    -999.2500      51.6620      65.6710      68.3550       0.0599       6.0110       2.6200     654.4483
   2513.8381       5.6641      -0.0125      63.4147       8.6950    -999.2500    -999.2500      56.1336      69.7234      99.9336       0.0582       5.7011       2.6190     652.7500
   2513.9907       5.7110      -0.0110      62.3010       8.8966    -999.2500    -999.2500      60.6020      73.7730     131.4900       0.0660       5.3920       2.6180     652.7820
   2514.1431       5.6835      -0.0040      59.1471       9.0980    -999.2500    -999.2500      59.8833      72.7002     145.5305       0.0934       4.4950       2.5499     652.8140
   2514.2954       5.6560       0.0030      56.0000       9.6346    -999.2500    -999.2500      59.1650      71.6280     159.5630       0.1230       3.6000       2.4820     653.5989
   2514.4478       5.6600       0.0706      56.2808      10.1700    -999.2500    -999.2500      45.7965      53.3714     152.8565       0.1398       3.7316       2.5025     654.3820
   2514.6003       5.6640       0.1380      56.5610      11.5649    -999.2500    -999.2500      32.4340      35.1230     146.1530       0.1619       3.8630       2.5230     655.9747
   2514.7527       5.9828       0.1375      62.6759      12.9570    -999.2500    -999.2500      19.0928      19.9385      75.7136       0.2136       3.3840       2.5165     657.5640
   2514.9050       6.3010       0.1370      68.7790      27.1487    -999.2500    -999.2500       5.7560       4.7590       5.2970       0.2624       2.9060       2.5100     660.9803
   2515.0574       6.0428       0.0945      71.8317      41.3130    -999.2500    -999.2500       5.4715       4.8550       7.4417       0.2727       3.4260       2.3494     664.3900
   2515.2100       5.7850       0.0520      74.8790      39.2326    -999.2500    -999.2500       5.1870       4.9510       9.5860       0.2625       3.9450       2.1890     665.8568
   2515.3623       5.8691       0.0525      81.9769      37.1560    -999.2500    -999.2500       3.7114       3.7010       9.3170       0.2268       3.8719       2.3401     667.3210
   2515.5146       5.9530       0.0530      89.0630      38.8764    -999.2500    -999.2500       2.2360       2.4510       9.0480       0.1905       3.7990       2.4910     668.0361
   2515.6670       5.9465       0.0520      84.8718      40.5940    -999.2500    -999.2500       2.2380       2.4585       5.5036       0.1781       3.8075       2.4680     668.7500
   2515.8193       5.9400       0.0510      80.6870      40.5730    -999.2500    -999.2500       2.2400       2.4660       1.9590       0.1641       3.8160       2.4450     668.4998
   2515.9719       5.7158       0.0305      81.0938      40.5520    -999.2500    -999.2500       2.2955       2.6555       5.4207       0.1209       5.6243       2.5246     668.2500
   2516.1243       5.4920       0.0100      81.5000      35.9212    -999.2500    -999.2500       2.3510       2.8450       8.8830       0.0785       7.4300       2.6040     668.2500
   2516.2766       5.4920      -0.0035      81.2488      31.2970    -999.2500    -999.2500       2.6814       3.5609       7.5122       0.0685       7.4060       2.6040     668.2500
   2516.4290       5.4920      -0.0170      80.9980      31.9304    -999.2500    -999.2500       3.0120       4.2770       6.1410       0.0689       7.3820       2.6040     668.2500
   2516.5815       5.4920      -0.0230      76.0896      32.5630    -999.2500    -999.2500       4.3972       5.6812     140.3541       0.0708       6.4384       2.6005     668.2500
   2516.7339       5.4920      -0.0290      71.1870      32.2398    -999.2500    -999.2500       5.7830       7.0860     274.6250       0.0721       5.4960       2.5970     668.2230
   2516.8862       5.4920      -0.0350      64.3970      31.9170    -999.2500    -999.2500      45.1870      55.3301     192.3044       0.0700       5.6682       2.5835     668.1960
   2517.0386       5.4920      -0.0410      57.6250      25.9399    -999.2500    -999.2500      84.6130     103.6010     109.9380       0.0675       5.8400       2.5700     667.6547
   2517.1912       5.4920      -0.0405      57.6620      19.9690    -999.2500    -999.2500      84.3064     103.3739     298.2431       0.0672       5.8210       2.5735     667.1140
   2517.3435       5.4920      -0.0400      57.6990      14.1418    -999.2500    -999.2500      84.0000     103.1470     486.3750       0.0738       5.8020       2.5770     665.8049
   2517.4958       5.5841      -0.0345      58.4439       8.3200    -999.2500    -999.2500      78.8635      99.0754     297.6441       0.1011       5.4541       2.5760     664.4970
   2517.6482       5.6760      -0.0290      59.1870       8.3930    -999.2500    -999.2500      73.7310      95.0070     109.0630       0.1284       5.1070       2.5750     662.1226
   2517.8005       5.6194      -0.0190      58.6244       8.4660    -999.2500    -999.2500      68.5218      87.9091     140.3230       0.1347       4.4523       2.5204     659.7500
   2517.9531       5.5630      -0.0090      58.0630       9.6894    -999.2500    -999.2500      63.3160      80.8160     171.5620       0.1341       3.7990       2.4660     659.7935
   2518.1055       5.5640       0.0010      58.3098      10.9120    -999.2500    -999.2500      54.1730      66.7752     164.1895       0.1320       3.8000       2.4695     659.8370
   2518.2578       5.5650       0.0110      58.5560      11.5657    -999.2500    -999.2500      45.0350      52.7420     156.8210       0.1293       3.8010       2.4730     660.6333
   2518.4102       5.6010       0.0045      64.0335      12.2180    -999.2500    -999.2500      25.4389      30.0268      95.1256       0.1265       3.8255       2.4570     661.4280
   2518.5627       5.6370      -0.0020      69.5000      21.7982    -999.2500    -999.2500       5.8510       7.3210      33.4560       0.1163       3.8500       2.4410     662.9460
   2518.7151       5.5644      -0.0020      66.6848      31.3590    -999.2500    -999.2500       6.3516       7.3340      18.5073       0.0812       4.9806       2.5421     664.4610
   2518.8674       5.4920      -0.0020      63.8750      29.9907    -999.2500    -999.2500       6.8520       7.3470       3.5630       0.0504       6.1090       2.6430     666.1536
   2519.0198       5.4920      -0.0010      65.2512      28.6250    -999.2500    -999.2500       6.7055       7.5670       3.6190       0.0589       6.0910       2.6420     667.8430
   2519.1724       5.4920       0.0000      66.6250      29.1960    -999.2500    -999.2500       6.5590       7.7870       3.6750       0.0738       6.0730       2.6410     668.5626
   2519.3247       5.4930       0.0040      66.4123      29.7660    -999.2500    -999.2500       6.6775       8.1500       5.0820       0.0707       5.7848       2.6060     669.2810
   2519.4771       5.4940       0.0080      66.2000      29.5758    -999.2500    -999.2500       6.7960       8.5130       6.4890       0.0639       5.4970       2.5710     669.5317
   2519.6294       5.5285       0.0300      61.3463      29.3860    -999.2500    -999.2500      11.8053      15.3677     230.0475       0.0626       5.2703       2.6180     669.7820
   2519.7817       5.5630       0.0520      56.5000      22.7975    -999.2500    -999.2500      16.8150      22.2230     453.6250       0.0641       5.0440       2.6650     670.0162
