#------------------------------------------------------------------------------
#
#   Created by  : [OpenWorks] Log Export Utility (LEXP)
#   Created on  : 2016-05-11 12:13:40
#   Project     : CANT971
#   User        : R5K
#   Interpreter : PEP
#
#------------------------------------------------------------------------------
~VERSION INFORMATION
VERS. 2.0 : CWLS Log ASCII Standard - version 2.0
WRAP.  NO : One line per depth step
~WELL INFORMATION
#MNEMONIC   .UNIT                                           VALUE :DESCRIPTION
#------------------------------------------------------------------------------
STRT        .M                                          1413.5103 :START DEPTH
STOP        .M                                          2773.8328 :STOP DEPTH
STEP        .M                                             0.1524 :STEP
NULL        .                                           -999.2500 :NULL VALUE
COMP        .                                   PEMEX EXPL & PROD :COMPANY
WELL        .                                               1188D :WELL
FLD         .                                           CANTARELL :FIELD
LOC         .                                             UNKNOWN :LOCATION
CNTY        .                                      CD. DEL CARMEN :COUNTY
STAT        .                                            CAMPECHE :STATE
CTRY        .                                              MEXICO :COUNTRY
SRVC        .                                             UNKNOWN :SERVICE COMPANY
DATE        .                                             UNKNOWN :LOG DATE
UWI         .                                               1188D :UNIQUE WELL ID
XCOORD      .                                       601391.859000 :SURFACE X
YCOORD      .                                      2149874.166000 :SURFACE Y
LAT         .                                           19.441847 :LATITUDE
LON         .                                          -92.034128 :LONGITUDE
ELEV        .M                                            28.0000 :SURFACE ELEV
ELEV_TYPE   .                                                  KB :ELEV TYPE
~CURVE INFORMATION
#MNEMONIC.UNIT        API CODE       : CURVE DESCRIPTION
#------------------------------------------------------------------------------
DEPTH    .M                          : Measured Depth
CALI     .inches      UNKNOWN        : CALI:Import:rC:NONE:v0 (auto-composite)
DRHO     .g/cm3       UNKNOWN        : DRHO:Import:rC:NONE:v0 (auto-composite)
DT       .us/ft       UNKNOWN        : DT:Import:rC:NONE:v0 (auto-composite)
GR       .API         UNKNOWN        : GR:Import:rC:NONE:v0 (auto-composite)
ILD      .ohm.m       UNKNOWN        : ILD:Import:rC:NONE:v0 (auto-composite)
ILM      .ohm.m       UNKNOWN        : ILM:Import:rC:NONE:v0 (auto-composite)
LLD      .ohm.m       UNKNOWN        : LLD:Import:rC:NONE:v0 (auto-composite)
LLS      .ohm.m       UNKNOWN        : LLS:Import:rC:NONE:v0 (auto-composite)
MSFL     .ohm.m       UNKNOWN        : MSFL:Import:rC:NONE:v0 (auto-composite)
NPHI     .v/v_decimal UNKNOWN        : NPHI:Import:rC:NONE:v0 (auto-composite)
PEF      .b/elec      UNKNOWN        : PEF:Import:rC:NONE:v0 (auto-composite)
RHOB     .g/cm3       UNKNOWN        : RHOB:Import:rC:NONE:v0 (auto-composite)
SP       .mV          UNKNOWN        : SP:Import:rC:NONE:v0 (auto-composite)
~A     DEPTH         CALI         DRHO           DT           GR          ILD          ILM          LLD          LLS         MSFL         NPHI          PEF         RHOB           SP
# ...
   2640.6350       5.1840      -0.0130      63.8361      61.9060    -999.2500    -999.2500      22.9219      24.2944      40.2994       0.2016       3.0041       2.4940     651.1910
   2640.7874       5.1880      -0.0070      63.9740      61.5993    -999.2500    -999.2500      23.4310      24.6940      34.2810       0.1993       3.1540       2.4740     650.3224
   2640.9399       5.2015      -0.0115      64.5003      61.2930    -999.2500    -999.2500      25.5216      26.7026      38.6261       0.1967       3.1215       2.4775     649.4550
   2641.0923       5.2150      -0.0160      65.0260      57.2691    -999.2500    -999.2500      27.6130      28.7120      42.9730       0.1943       3.0890       2.4810     648.9692
   2641.2446       5.1700      -0.0125      66.4202      53.2500    -999.2500    -999.2500      30.8121      31.9916      48.1411       0.1929       2.9779       2.4930     648.4840
   2641.3970       5.1250      -0.0090      67.8130      53.2970    -999.2500    -999.2500      34.0130      35.2730      53.3120       0.1926       2.8670       2.5050     647.9672
   2641.5496       5.1440      -0.0050      67.7125      53.3440    -999.2500    -999.2500      33.9560      35.1179      51.7178       0.1946       2.9325       2.5440     647.4510
   2641.7019       5.1630      -0.0010      67.6120      53.2970    -999.2500    -999.2500      33.8990      34.9630      50.1250       0.1964       2.9980       2.5830     646.8502
   2641.8542       5.1870      -0.0060      67.1568      53.2500    -999.2500    -999.2500      32.4844      33.2393      45.9618       0.1950       3.1302       2.5775     646.2500
   2642.0066       5.2110      -0.0110      66.7020      53.6762    -999.2500    -999.2500      31.0710      31.5170      41.8020       0.1926       3.2620       2.5720     646.2500
   2642.1589       5.2030      -0.0155      66.3154      54.1020    -999.2500    -999.2500      28.4426      28.6240      39.3847       0.1901       3.2310       2.5505     646.2500
   2642.3115       5.1950      -0.0200      65.9290      56.0557    -999.2500    -999.2500      25.8160      25.7330      36.9690       0.1884       3.2000       2.5290     646.5181
   2642.4639       5.2050      -0.0190      65.5346      58.0080    -999.2500    -999.2500      25.9405      25.7750      37.0445       0.1889       3.1144       2.5310     646.7860
   2642.6162       5.2150      -0.0180      65.1410      61.7896    -999.2500    -999.2500      26.0650      25.8170      37.1200       0.1903       3.0290       2.5330     647.2870
   2642.7686       5.2050      -0.0160      64.8202      65.5630    -999.2500    -999.2500      27.1032      26.6802      37.9942       0.1927       3.0340       2.5360     647.7870
   2642.9211       5.1950      -0.0140      64.5000      65.4113    -999.2500    -999.2500      28.1410      27.5430      38.8680       0.1955       3.0390       2.5390     648.2690
   2643.0735       5.1950      -0.0115      65.5635      65.2600    -999.2500    -999.2500      31.4765      30.5375      41.7940       0.1988       2.9354       2.5455     648.7500
   2643.2258       5.1950      -0.0090      66.6250      64.5223    -999.2500    -999.2500      34.8110      33.5310      44.7190       0.2009       2.8320       2.5520     648.4797
   2643.3782       5.2030      -0.0090      66.4223      63.7860    -999.2500    -999.2500      34.4795      33.2245      43.6249       0.1992       3.0607       2.5510     648.2100
   2643.5308       5.2110      -0.0090      66.2200      62.6505    -999.2500    -999.2500      34.1480      32.9180      42.5310       0.1980       3.2890       2.5500     647.2291
   2643.6831       5.2030      -0.0110      65.8272      61.5170    -999.2500    -999.2500      33.4225      32.1155      46.2656       0.2024       3.1464       2.5310     646.2500
   2643.8354       5.1950      -0.0130      65.4350      60.0072    -999.2500    -999.2500      32.6970      31.3130      50.0000       0.2065       3.0040       2.5120     646.2500
   2643.9878       5.1950      -0.0130      65.1238      58.5000    -999.2500    -999.2500      31.5120      29.9730      47.4466       0.2047       3.0645       2.5165     646.2500
   2644.1401       5.1950      -0.0130      64.8130      60.5015    -999.2500    -999.2500      30.3270      28.6330      44.8930       0.2017       3.1250       2.5210     645.9998
   2644.2927       5.1950      -0.0140      65.1532      62.5000    -999.2500    -999.2500      28.9421      27.2046      39.6660       0.2017       3.0394       2.5150     645.7500
   2644.4451       5.1950      -0.0150      65.4930      62.3594    -999.2500    -999.2500      27.5570      25.7760      34.4380       0.2020       2.9540       2.5090     645.8861
   2644.5974       5.2045      -0.0140      66.0283      62.2190    -999.2500    -999.2500      26.6056      24.8242      34.6095       0.2003       2.8754       2.5190     646.0220
   2644.7498       5.2140      -0.0130      66.5630      62.2785    -999.2500    -999.2500      25.6540      23.8720      34.7810       0.1978       2.7970       2.5290     646.1360
   2644.9023       5.2380      -0.0120      66.2498      62.3380    -999.2500    -999.2500      24.8592      23.1212      34.2271       0.1951       2.8946       2.5535     646.2500
   2645.0547       5.2620      -0.0110      65.9370      63.7048    -999.2500    -999.2500      24.0640      22.3700      33.6730       0.1917       2.9920       2.5780     646.2500
   2645.2070       5.2560      -0.0095      66.0230      65.0700    -999.2500    -999.2500      22.8618      21.2713      31.3527       0.1867       2.8955       2.5705     646.2500
   2645.3594       5.2500      -0.0080      66.1090      66.9735    -999.2500    -999.2500      21.6590      20.1720      29.0310       0.1825       2.7990       2.5630     646.3871
   2645.5120       5.2850      -0.0090      66.3046      68.8750    -999.2500    -999.2500      22.1467      20.6057      31.0789       0.1817       2.8105       2.5630     646.5240
   2645.6643       5.3200      -0.0100      66.5000      68.5489    -999.2500    -999.2500      22.6340      21.0390      33.1250       0.1824       2.8220       2.5630     646.6370
   2645.8167       5.2574      -0.0110      66.0870      68.2230    -999.2500    -999.2500      23.7529      21.9894      32.2807       0.1842       2.9151       2.5545     646.7500
   2645.9690       5.1950      -0.0120      65.6750      66.0326    -999.2500    -999.2500      24.8710      22.9390      31.4370       0.1850       3.0080       2.5460     646.8876
   2646.1213       5.1950      -0.0110      64.8991      63.8440    -999.2500    -999.2500      25.5992      23.5372      31.6341       0.1815       2.9104       2.5500     647.0250
   2646.2739       5.1950      -0.0100      64.1250      64.5242    -999.2500    -999.2500      26.3270      24.1350      31.8310       0.1777       2.8130       2.5540     647.1376
   2646.4263       5.1950      -0.0105      64.4694      65.2040    -999.2500    -999.2500      26.6356      24.3391      34.2912       0.1770       3.1343       2.5670     647.2500
   2646.5786       5.1950      -0.0110      64.8130      66.0714    -999.2500    -999.2500      26.9440      24.5430      36.7500       0.1780       3.4550       2.5800     647.2500
   2646.7310       5.1950      -0.0115      64.4376      66.9370    -999.2500    -999.2500      27.7332      25.1971      36.4374       0.1800       3.4260       2.5740     647.2500
   2646.8835       5.1950      -0.0120      64.0630      66.4996    -999.2500    -999.2500      28.5220      25.8510      36.1250       0.1829       3.3970       2.5680     647.3886
   2647.0359       5.1950      -0.0160      64.0975      66.0630    -999.2500    -999.2500      30.3223      27.4822      40.7977       0.1866       3.2248       2.5595     647.5270
   2647.1882       5.1950      -0.0200      64.1320      66.1566    -999.2500    -999.2500      32.1220      29.1130      45.4690       0.1894       3.0530       2.5510     647.6386
