#------------------------------------------------------------------------------
#
#   Created by  : [OpenWorks] Log Export Utility (LEXP)
#   Created on  : 2016-05-11 12:13:40
#   Project     : CANT971
#   User        : R5K
#   Interpreter : PEP
#
#------------------------------------------------------------------------------
~VERSION INFORMATION
VERS. 2.0 : CWLS Log ASCII Standard - version 2.0
WRAP.  NO : One line per depth step
~WELL INFORMATION
#MNEMONIC   .UNIT                                           VALUE :DESCRIPTION
#------------------------------------------------------------------------------
STRT        .M                                          1413.5103 :START DEPTH
STOP        .M                                          2773.8328 :STOP DEPTH
STEP        .M                                             0.1524 :STEP
NULL        .                                           -999.2500 :NULL VALUE
COMP        .                                   PEMEX EXPL & PROD :COMPANY
WELL        .                                               1188D :WELL
FLD         .                                           CANTARELL :FIELD
LOC         .                                             UNKNOWN :LOCATION
CNTY        .                                      CD. DEL CARMEN :COUNTY
STAT        .                                            CAMPECHE :STATE
CTRY        .                                              MEXICO :COUNTRY
SRVC        .                                             UNKNOWN :SERVICE COMPANY
DATE        .                                             UNKNOWN :LOG DATE
UWI         .                                               1188D :UNIQUE WELL ID
XCOORD      .                                       601391.859000 :SURFACE X
YCOORD      .                                      2149874.166000 :SURFACE Y
LAT         .                                           19.441847 :LATITUDE
LON         .                                          -92.034128 :LONGITUDE
ELEV        .M                                            28.0000 :SURFACE ELEV
ELEV_TYPE   .                                                  KB :ELEV TYPE
~CURVE INFORMATION
#MNEMONIC.UNIT        API CODE       : CURVE DESCRIPTION
#------------------------------------------------------------------------------
DEPTH    .M                          : Measured Depth
CALI     .inches      UNKNOWN        : CALI:Import:rC:NONE:v0 (auto-composite)
DRHO     .g/cm3       UNKNOWN        : DRHO:Import:rC:NONE:v0 (auto-composite)
DT       .us/ft       UNKNOWN        : DT:Import:rC:NONE:v0 (auto-composite)
GR       .API         UNKNOWN        : GR:Import:rC:NONE:v0 (auto-composite)
ILD      .ohm.m       UNKNOWN        : ILD:Import:rC:NONE:v0 (auto-composite)
ILM      .ohm.m       UNKNOWN        : ILM:Import:rC:NONE:v0 (auto-composite)
LLD      .ohm.m       UNKNOWN        : LLD:Import:rC:NONE:v0 (auto-composite)
LLS      .ohm.m       UNKNOWN        : LLS:Import:rC:NONE:v0 (auto-composite)
MSFL     .ohm.m       UNKNOWN        : MSFL:Import:rC:NONE:v0 (auto-composite)
NPHI     .v/v_decimal UNKNOWN        : NPHI:Import:rC:NONE:v0 (auto-composite)
PEF      .b/elec      UNKNOWN        : PEF:Import:rC:NONE:v0 (auto-composite)
RHOB     .g/cm3       UNKNOWN        : RHOB:Import:rC:NONE:v0 (auto-composite)
SP       .mV          UNKNOWN        : SP:Import:rC:NONE:v0 (auto-composite)
~A     DEPTH         CALI         DRHO           DT           GR          ILD          ILM          LLD          LLS         MSFL         NPHI          PEF         RHOB           SP
# ...
   2620.5183       6.1165      -0.0190      79.8198      50.8130    -999.2500    -999.2500       4.9635       3.8080       4.8475       0.1891       4.4903       2.5505     670.2010
   2620.6707       6.0880      -0.0300      80.2020      50.8976    -999.2500    -999.2500       4.8790       3.7570       4.0740       0.1815       4.2540       2.5760     670.4757
   2620.8230       6.0735      -0.0290      81.1642      50.9820    -999.2500    -999.2500       4.7470       3.6895       4.1650       0.1813       4.2910       2.5820     670.7500
   2620.9753       6.0590      -0.0280      82.1250      52.1794    -999.2500    -999.2500       4.6150       3.6220       4.2560       0.1849       4.3280       2.5880     670.4998
   2621.1279       6.0860      -0.0175      81.1278      53.3750    -999.2500    -999.2500       4.7665       3.7275       4.6714       0.1980       3.8102       2.5635     670.2500
   2621.2803       6.1130      -0.0070      80.1320      52.1552    -999.2500    -999.2500       4.9180       3.8330       5.0870       0.2086       3.2930       2.5390     670.2500
   2621.4326       6.0680       0.0125      78.7121      50.9370    -999.2500    -999.2500       5.4889       4.3054       5.9748       0.1982       3.3771       2.4930     670.2500
   2621.5850       6.0230       0.0320      77.2940      51.1371    -999.2500    -999.2500       6.0600       4.7780       6.8630       0.1859       3.4610       2.4470     670.2500
   2621.7375       6.0395       0.0195      76.4280      51.3370    -999.2500    -999.2500       5.5801       4.4421       6.2187       0.1854       3.6761       2.4730     670.2500
   2621.8899       6.0560       0.0070      75.5630      52.1189    -999.2500    -999.2500       5.1000       4.1060       5.5740       0.1889       3.8910       2.4990     670.2500
   2622.0422       6.1396       0.0120      75.6921      52.9000    -999.2500    -999.2500       4.5742       3.6691       6.3747       0.1975       3.8379       2.4965     670.2500
   2622.1946       6.2230       0.0170      75.8210      54.5408    -999.2500    -999.2500       4.0480       3.2320       7.1760       0.2079       3.7850       2.4940     670.1354
   2622.3472       6.3512       0.0355      76.2542      56.1800    -999.2500    -999.2500       3.9465       3.2395       6.9004       0.2200       3.5122       2.4755     670.0210
   2622.4995       6.4790       0.0540      76.6870      64.5620    -999.2500    -999.2500       3.8450       3.2470       6.6250       0.2297       3.2400       2.4570     669.1351
   2622.6519       6.6152       0.0530      76.5864      72.9370    -999.2500    -999.2500       4.2281       3.4796       6.3244       0.2271       3.4387       2.4285     668.2500
   2622.8042       6.7510       0.0520      76.4860      72.5045    -999.2500    -999.2500       4.6110       3.7120       6.0240       0.2226       3.6370       2.4000     668.4808
   2622.9565       6.8856       0.0765      75.9634      72.0730    -999.2500    -999.2500       4.3874       3.5615       5.4768       0.2228       3.5779       2.4160     668.7110
   2623.1091       7.0200       0.1010      75.4420      69.2044    -999.2500    -999.2500       4.1640       3.4110       4.9300       0.2264       3.5190       2.4320     668.9808
   2623.2615       6.9770       0.0930      74.4385      66.3420    -999.2500    -999.2500       3.9279       3.2160       5.8637       0.2391       3.3463       2.3649     669.2500
   2623.4138       6.9340       0.0850      73.4370      63.0826    -999.2500    -999.2500       3.6920       3.0210       6.7970       0.2505       3.1740       2.2980     668.7495
   2623.5662       6.8334       0.0645      77.2847      59.8300    -999.2500    -999.2500       3.8630       3.1765       5.9434       0.2475       3.5308       2.3245     668.2500
   2623.7188       6.7330       0.0440      81.1250      58.5092    -999.2500    -999.2500       4.0340       3.3320       5.0900       0.2409       3.8870       2.3510     668.2500
   2623.8711       6.6629       0.0135      79.6236      57.1910    -999.2500    -999.2500       3.9870       3.2685       4.0574       0.2332       3.7784       2.4101     668.2500
   2624.0234       6.5930      -0.0170      78.1250      54.9685    -999.2500    -999.2500       3.9400       3.2050       3.0250       0.2256       3.6700       2.4690     668.2500
   2624.1758       6.5405      -0.0170      79.5322      52.7500    -999.2500    -999.2500       3.9505       3.2075       3.6590       0.2188       3.8246       2.5055     668.2500
   2624.3284       6.4880      -0.0170      80.9370      52.9982    -999.2500    -999.2500       3.9610       3.2100       4.2930       0.2098       3.9790       2.5420     667.9998
   2624.4807       6.4365      -0.0185      79.7656      53.2460    -999.2500    -999.2500       4.1080       3.2820       4.1280       0.1899       4.1656       2.5495     667.7500
   2624.6331       6.3850      -0.0200      78.5960      54.9368    -999.2500    -999.2500       4.2550       3.3540       3.9630       0.1713       4.3520       2.5570     667.7500
   2624.7854       6.3360      -0.0235      76.3709      56.6250    -999.2500    -999.2500       4.5465       3.5205       4.2280       0.1689       4.8013       2.5560     667.7500
   2624.9377       6.2870      -0.0270      74.1490      56.2362    -999.2500    -999.2500       4.8380       3.6870       4.4930       0.1696       5.2500       2.5550     667.9847
   2625.0903       6.1844      -0.0250      72.8421      55.8480    -999.2500    -999.2500       5.4939       4.1244       6.5587       0.1671       4.9968       2.5560     668.2190
   2625.2427       6.0820      -0.0230      71.5370      51.3115    -999.2500    -999.2500       6.1500       4.5620       8.6250       0.1635       4.7440       2.5570     668.6022
   2625.3950       6.0820      -0.0205      70.9847      46.7810    -999.2500    -999.2500       6.8434       5.0529       7.8712       0.1586       4.2312       2.5690     668.9850
   2625.5474       6.0820      -0.0180      70.4330      46.8620    -999.2500    -999.2500       7.5370       5.5440       7.1170       0.1538       3.7190       2.5810     669.2357
   2625.7000       6.0820      -0.0250      69.7711      46.9430    -999.2500    -999.2500       7.6630       5.6925       7.2145       0.1505       3.9946       2.5980     669.4860
   2625.8523       6.0820      -0.0320      69.1100      47.7844    -999.2500    -999.2500       7.7890       5.8410       7.3120       0.1486       4.2700       2.6150     669.6181
   2626.0046       6.1125      -0.0315      68.1746      48.6250    -999.2500    -999.2500       8.3098       6.1979       7.6689       0.1507       4.1513       2.6060     669.7500
   2626.1570       6.1430      -0.0310      67.2400      48.4544    -999.2500    -999.2500       8.8310       6.5550       8.0260       0.1549       4.0330       2.5970     669.8685
   2626.3096       6.2727      -0.0225      66.6393      48.2840    -999.2500    -999.2500       9.8769       7.2938       8.5042       0.1626       3.7772       2.5529     669.9870
   2626.4619       6.4020      -0.0140      66.0390      45.6724    -999.2500    -999.2500      10.9220       8.0320       8.9820       0.1733       3.5220       2.5090     670.1185
   2626.6143       6.5757      -0.0045      64.0172      43.0630    -999.2500    -999.2500      10.6489       7.8399      11.2028       0.1925       3.3758       2.4004     670.2500
   2626.7666       6.7490       0.0050      62.0000      43.9570    -999.2500    -999.2500      10.3760       7.6480      13.4220       0.2172       3.2300       2.2920     670.2500
   2626.9189       7.2265       0.0165      63.4926      44.8490    -999.2500    -999.2500       9.5328       7.0258      12.8468       0.2550       3.2045       2.1779     670.2500
   2627.0715       7.7030       0.0280      64.9820      47.2571    -999.2500    -999.2500       8.6900       6.4040      12.2720       0.2944       3.1790       2.0640     670.1304
