#------------------------------------------------------------------------------
#
#   Created by  : [OpenWorks] Log Export Utility (LEXP)
#   Created on  : 2016-05-11 12:13:40
#   Project     : CANT971
#   User        : R5K
#   Interpreter : PEP
#
#------------------------------------------------------------------------------
~VERSION INFORMATION
VERS. 2.0 : CWLS Log ASCII Standard - version 2.0
WRAP.  NO : One line per depth step
~WELL INFORMATION
#MNEMONIC   .UNIT                                           VALUE :DESCRIPTION
#------------------------------------------------------------------------------
STRT        .M                                          1413.5103 :START DEPTH
STOP        .M                                          2773.8328 :STOP DEPTH
STEP        .M                                             0.1524 :STEP
NULL        .                                           -999.2500 :NULL VALUE
COMP        .                                   PEMEX EXPL & PROD :COMPANY
WELL        .                                               1188D :WELL
FLD         .                                           CANTARELL :FIELD
LOC         .                                             UNKNOWN :LOCATION
CNTY        .                                      CD. DEL CARMEN :COUNTY
STAT        .                                            CAMPECHE :STATE
CTRY        .                                              MEXICO :COUNTRY
SRVC        .                                             UNKNOWN :SERVICE COMPANY
DATE        .                                             UNKNOWN :LOG DATE
UWI         .                                               1188D :UNIQUE WELL ID
XCOORD      .                                       601391.859000 :SURFACE X
YCOORD      .                                      2149874.166000 :SURFACE Y
LAT         .                                           19.441847 :LATITUDE
LON         .                                          -92.034128 :LONGITUDE
ELEV        .M                                            28.0000 :SURFACE ELEV
ELEV_TYPE   .                                                  KB :ELEV TYPE
~CURVE INFORMATION
#MNEMONIC.UNIT        API CODE       : CURVE DESCRIPTION
#------------------------------------------------------------------------------
DEPTH    .M                          : Measured Depth
CALI     .inches      UNKNOWN        : CALI:Import:rC:NONE:v0 (auto-composite)
DRHO     .g/cm3       UNKNOWN        : DRHO:Import:rC:NONE:v0 (auto-composite)
DT       .us/ft       UNKNOWN        : DT:Import:rC:NONE:v0 (auto-composite)
GR       .API         UNKNOWN        : GR:Import:rC:NONE:v0 (auto-composite)
ILD      .ohm.m       UNKNOWN        : ILD:Import:rC:NONE:v0 (auto-composite)
ILM      .ohm.m       UNKNOWN        : ILM:Import:rC:NONE:v0 (auto-composite)
LLD      .ohm.m       UNKNOWN        : LLD:Import:rC:NONE:v0 (auto-composite)
LLS      .ohm.m       UNKNOWN        : LLS:Import:rC:NONE:v0 (auto-composite)
MSFL     .ohm.m       UNKNOWN        : MSFL:Import:rC:NONE:v0 (auto-composite)
NPHI     .v/v_decimal UNKNOWN        : NPHI:Import:rC:NONE:v0 (auto-composite)
PEF      .b/elec      UNKNOWN        : PEF:Import:rC:NONE:v0 (auto-composite)
RHOB     .g/cm3       UNKNOWN        : RHOB:Import:rC:NONE:v0 (auto-composite)
SP       .mV          UNKNOWN        : SP:Import:rC:NONE:v0 (auto-composite)
~A     DEPTH         CALI         DRHO           DT           GR          ILD          ILM          LLD          LLS         MSFL         NPHI          PEF         RHOB           SP
# ...
   2694.2798       5.3315      -0.0050      70.8246      37.9060    -999.2500    -999.2500    1200.1256     266.9909     437.3285       0.0826       3.3980       2.6675     663.7500
   2694.4324       5.3440      -0.0070      86.1870      40.2314    -999.2500    -999.2500     922.0850     210.7440     308.4120       0.0889       3.3390       2.6630     663.2496
   2694.5847       5.3340      -0.0025      77.3993      42.5530    -999.2500    -999.2500     764.7463     178.5829     198.1483       0.1030       2.9222       2.5619     662.7500
   2694.7371       5.3240       0.0020      68.6250      45.2470    -999.2500    -999.2500     607.3940     146.4190      87.8750       0.1203       2.5060       2.4610     662.9346
   2694.8894       5.3340      -0.0060      68.9948      47.9370    -999.2500    -999.2500     635.3100     158.6887     229.7349       0.1360       2.6866       2.4195     663.1190
   2695.0417       5.3440      -0.0140      69.3640      45.8891    -999.2500    -999.2500     663.2320     170.9610     371.6250       0.1488       2.8670       2.3780     663.4348
   2695.1943       5.2930      -0.0040      75.3273      43.8440    -999.2500    -999.2500     526.0897     139.0469     353.9315       0.1576       2.8525       2.4711     663.7500
   2695.3467       5.2420       0.0060      81.2830      45.6146    -999.2500    -999.2500     388.9010     107.1220     336.2320       0.1595       2.8380       2.5640     663.4998
   2695.4990       5.2650      -0.0000      89.8869      47.3830    -999.2500    -999.2500     287.2621      82.0283     220.6673       0.1515       2.8225       2.5985     663.2500
   2695.6514       5.2880      -0.0060      98.4810      48.6767    -999.2500    -999.2500     185.5760      56.9230     105.0490       0.1376       2.8070       2.6330     663.2500
   2695.8040       5.3160      -0.0085     103.7747      49.9690    -999.2500    -999.2500     166.1497      52.1506      54.6845       0.1217       3.0151       2.6670     663.2500
   2695.9563       5.3440      -0.0110     109.0630      46.5608    -999.2500    -999.2500     146.7430      47.3830       4.3710       0.1073       3.2230       2.7010     662.7498
   2696.1086       5.2694      -0.0095      94.5836      43.1560    -999.2500    -999.2500     151.4321      49.0868       4.6651       0.0980       3.2110       2.6795     662.2500
   2696.2610       5.1950      -0.0080      80.1170      47.1733    -999.2500    -999.2500     156.1170      50.7890       4.9590       0.0942       3.1990       2.6580     662.5001
   2696.4136       5.2696      -0.0045      72.9308      51.1870    -999.2500    -999.2500     207.8282      71.0097      15.7121       0.0965       3.0643       2.6084     662.7500
   2696.5659       5.3440      -0.0010      65.7500      50.5593    -999.2500    -999.2500     259.5000      91.2150      26.4570       0.1023       2.9300       2.5590     662.4999
   2696.7183       5.3245      -0.0030      73.7590      49.9320    -999.2500    -999.2500     403.7728     144.4364     122.4775       0.1090       3.2028       2.5795     662.2500
   2696.8706       5.3050      -0.0050      81.7500      48.1670    -999.2500    -999.2500     547.9540     197.6240     218.4370       0.1137       3.4750       2.6000     662.2500
   2697.0229       5.3050      -0.0045      78.3169      46.4060    -999.2500    -999.2500     618.4219     220.7524     193.4711       0.1137       3.2893       2.6175     662.2500
   2697.1755       5.3050      -0.0040      74.8910      47.7724    -999.2500    -999.2500     688.8540     243.8690     168.5180       0.1090       3.1040       2.6350     662.6239
   2697.3279       5.3195       0.0025      66.5988      49.1360    -999.2500    -999.2500     596.6093     205.1616     102.3088       0.0995       2.9874       2.6850     662.9970
   2697.4802       5.3340       0.0090      58.3230      53.8071    -999.2500    -999.2500     504.4000     166.4690      36.1250       0.0887       2.8710       2.7350     663.8724
   2697.6326       5.3390       0.0045      55.7256      58.4690    -999.2500    -999.2500    1065.4631     374.2439     201.5159       0.0800       3.0977       2.7570     664.7460
   2697.7852       5.3440       0.0000      53.1330      53.6425    -999.2500    -999.2500    1626.3810     581.9650     366.8640       0.0750       3.3240       2.7790     665.7479
   2697.9375       5.3440       0.0000      53.0039      48.8250    -999.2500    -999.2500    2039.9095     745.3754     957.4894       0.0753       3.3085       2.7460     666.7480
   2698.0898       5.3440       0.0000      52.8750      44.2851    -999.2500    -999.2500    2453.3831     908.7640    1548.0360       0.0858       3.2930       2.7130     666.9992
   2698.2422       5.5276       0.0305      56.4234      39.7530    -999.2500    -999.2500    3084.3865    1090.7267    1769.2688       0.1118       2.8767       2.6459     667.2500
   2698.3948       5.7110       0.0610      59.9660      38.3354    -999.2500    -999.2500    3715.3850    1272.6880    1990.5000       0.1438       2.4610       2.5790     667.4381
   2698.5471       5.5349       0.0760      61.2580      36.9200    -999.2500    -999.2500    3646.7012    1355.7201    1423.1465       0.1726       2.5301       2.5190     667.6260
   2698.6995       5.3590       0.0910      62.5480      35.4434    -999.2500    -999.2500    3578.0090    1438.7620     855.7260       0.1836       2.5990       2.4590     667.8767
   2698.8518       5.4090       0.0890      63.9625      33.9690    -999.2500    -999.2500    2082.6001     847.9545     429.3300       0.1621       2.8156       2.5961     668.1270
   2699.0042       5.4590       0.0870      65.3750      38.4475    -999.2500    -999.2500     586.8270     257.0030       2.8300       0.1284       3.0320       2.7330     668.5658
   2699.1567       5.5070       0.0525      60.9818      42.9200    -999.2500    -999.2500     420.1758     183.8675       2.9005       0.1034       3.5378       2.7245     669.0040
   2699.3091       5.5550       0.0180      56.5940      44.9853    -999.2500    -999.2500     253.4630     110.7050       2.9710       0.0884       4.0430       2.7160     669.5048
   2699.4614       5.4494       0.0060      62.6438      47.0480    -999.2500    -999.2500     341.7196     142.3992     224.1183       0.0847       3.6268       2.6950     670.0050
   2699.6138       5.3440      -0.0060      68.6870      49.9621    -999.2500    -999.2500     430.0200     174.1090     445.3750       0.0858       3.2110       2.6740     670.3167
   2699.7664       5.4180      -0.0085      61.0427      52.8730    -999.2500    -999.2500     791.6750     355.7542     444.6246       0.0848       3.2485       2.6760     670.6280
   2699.9187       5.4920      -0.0110      53.4060      57.2822    -999.2500    -999.2500    1152.9750     537.2210     443.8750       0.0825       3.2860       2.6780     670.6890
   2700.0710       5.4414      -0.0060      58.7053      61.6870    -999.2500    -999.2500    1533.4702     749.1512     843.8586       0.0798       3.5203       2.7030     670.7500
   2700.2234       5.3910      -0.0010      64.0000      55.3783    -999.2500    -999.2500    1913.6400     960.9000    1243.5000       0.0774       3.7540       2.7280     670.9396
   2700.3757       5.3675       0.0030      63.9845      49.0750    -999.2500    -999.2500    2242.6858    1108.1748     907.0021       0.0757       3.6023       2.6584     671.1290
   2700.5283       5.3440       0.0070      63.9690      45.6793    -999.2500    -999.2500    2571.4910    1255.3420     570.7500       0.0745       3.4510       2.5890     671.3796
   2700.6807       5.4181       0.0175      63.9690      42.2860    -999.2500    -999.2500    3120.6665    1541.7876     918.9707       0.0733       3.4795       2.6406     671.6300
   2700.8330       5.4920       0.0280      63.9690      39.0299    -999.2500    -999.2500    3669.5100    1828.0601    1266.9810       0.0733       3.5080       2.6920     671.6901
