#------------------------------------------------------------------------------
#
#   Created by  : [OpenWorks] Log Export Utility (LEXP)
#   Created on  : 2016-05-11 12:13:40
#   Project     : CANT971
#   User        : R5K
#   Interpreter : PEP
#
#------------------------------------------------------------------------------
~VERSION INFORMATION
VERS. 2.0 : CWLS Log ASCII Standard - version 2.0
WRAP.  NO : One line per depth step
~WELL INFORMATION
#MNEMONIC   .UNIT                                           VALUE :DESCRIPTION
#------------------------------------------------------------------------------
STRT        .M                                          1413.5103 :START DEPTH
STOP        .M                                          2773.8328 :STOP DEPTH
STEP        .M                                             0.1524 :STEP
NULL        .                                           -999.2500 :NULL VALUE
COMP        .                                   PEMEX EXPL & PROD :COMPANY
WELL        .                                               1188D :WELL
FLD         .                                           CANTARELL :FIELD
LOC         .                                             UNKNOWN :LOCATION
CNTY        .                                      CD. DEL CARMEN :COUNTY
STAT        .                                            CAMPECHE :STATE
CTRY        .                                              MEXICO :COUNTRY
SRVC        .                                             UNKNOWN :SERVICE COMPANY
DATE        .                                             UNKNOWN :LOG DATE
UWI         .                                               1188D :UNIQUE WELL ID
XCOORD      .                                       601391.859000 :SURFACE X
YCOORD      .                                      2149874.166000 :SURFACE Y
LAT         .                                           19.441847 :LATITUDE
LON         .                                          -92.034128 :LONGITUDE
ELEV        .M                                            28.0000 :SURFACE ELEV
ELEV_TYPE   .                                                  KB :ELEV TYPE
~CURVE INFORMATION
#MNEMONIC.UNIT        API CODE       : CURVE DESCRIPTION
#------------------------------------------------------------------------------
DEPTH    .M                          : Measured Depth
CALI     .inches      UNKNOWN        : CALI:Import:rC:NONE:v0 (auto-composite)
DRHO     .g/cm3       UNKNOWN        : DRHO:Import:rC:NONE:v0 (auto-composite)
DT       .us/ft       UNKNOWN        : DT:Import:rC:NONE:v0 (auto-composite)
GR       .API         UNKNOWN        : GR:Import:rC:NONE:v0 (auto-composite)
ILD      .ohm.m       UNKNOWN        : ILD:Import:rC:NONE:v0 (auto-composite)
ILM      .ohm.m       UNKNOWN        : ILM:Import:rC:NONE:v0 (auto-composite)
LLD      .ohm.m       UNKNOWN        : LLD:Import:rC:NONE:v0 (auto-composite)
LLS      .ohm.m       UNKNOWN        : LLS:Import:rC:NONE:v0 (auto-composite)
MSFL     .ohm.m       UNKNOWN        : MSFL:Import:rC:NONE:v0 (auto-composite)
NPHI     .v/v_decimal UNKNOWN        : NPHI:Import:rC:NONE:v0 (auto-composite)
PEF      .b/elec      UNKNOWN        : PEF:Import:rC:NONE:v0 (auto-composite)
RHOB     .g/cm3       UNKNOWN        : RHOB:Import:rC:NONE:v0 (auto-composite)
SP       .mV          UNKNOWN        : SP:Import:rC:NONE:v0 (auto-composite)
~A     DEPTH         CALI         DRHO           DT           GR          ILD          ILM          LLD          LLS         MSFL         NPHI          PEF         RHOB           SP
# ...
   2768.0415       4.6660       0.1375    -999.2500      94.9370    -999.2500    -999.2500    6725.2725    3965.0774      33.3440       0.1228       2.5255       2.4245     676.7500
   2768.1938       4.6800       0.1390    -999.2500      94.9370    -999.2500    -999.2500    6715.9502    3961.4399      33.3440       0.1247       2.5330       2.4250     676.7500
   2768.3462       4.6795       0.1435    -999.2500      94.9370    -999.2500    -999.2500    6739.2959    3961.4680      33.3440       0.1249       2.6036       2.4335     676.7500
   2768.4985       4.6790       0.1480    -999.2500      94.9370    -999.2500    -999.2500    6762.6431    3961.4961      33.3440       0.1247       2.6740       2.4420     676.7500
   2768.6511       4.6520       0.1475    -999.2500      94.9370    -999.2500    -999.2500    6748.6650    3965.9722      33.3440       0.1237       2.6735       2.4415     676.7500
   2768.8035       4.6250       0.1470    -999.2500      94.9370    -999.2500    -999.2500    6734.6851    3970.4490      33.3440       0.1222       2.6730       2.4410     676.7500
   2768.9558       4.6270       0.1265    -999.2500      94.9370    -999.2500    -999.2500    6739.3569    3966.5229      33.3440       0.1187       2.6605       2.4165     676.7500
   2769.1082       4.6290       0.1060    -999.2500      94.9370    -999.2500    -999.2500    6744.0298    3962.5959      33.3440       0.1154       2.6480       2.3920     676.7500
   2769.2607       4.6270       0.1065    -999.2500      94.9370    -999.2500    -999.2500    6741.6392    3962.5959      33.3440       0.1148       2.6375       2.3920     676.7500
   2769.4131       4.6250       0.1070    -999.2500      94.9370    -999.2500    -999.2500    6739.2471    3962.5959      33.3440       0.1148       2.6270       2.3920     676.7500
   2769.5654       4.6290       0.1240    -999.2500      94.9370    -999.2500    -999.2500    6748.5796    3966.1145      33.3440       0.1148       2.5585       2.4150     676.7500
   2769.7178       4.6330       0.1410    -999.2500      94.9370    -999.2500    -999.2500    6757.9170    3969.6350      33.3440       0.1148       2.4900       2.4380     676.7500
   2769.8704       4.6290       0.1360    -999.2500      94.9370    -999.2500    -999.2500    -999.2500    -999.2500    -999.2500       0.1148       2.5535       2.4380     676.7500
   2770.0227       4.6250       0.1310    -999.2500      47.4464    -999.2500    -999.2500    -999.2500    -999.2500    -999.2500       0.1148       2.6170       2.4380     338.2175
   2770.1750       4.6250       0.1310    -999.2500       0.0000    -999.2500    -999.2500    -999.2500    -999.2500    -999.2500       0.1148       2.6120       2.4300       0.0000
   2770.3274       4.6250       0.1310    -999.2500       0.0000    -999.2500    -999.2500    -999.2500    -999.2500    -999.2500       0.1148       2.6070       2.4220       0.0000
   2770.4797       4.6250       0.1375    -999.2500       0.0000    -999.2500    -999.2500    -999.2500    -999.2500    -999.2500       0.1148       2.6500       2.4295       0.0000
   2770.6323       4.6250       0.1440    -999.2500       0.0000    -999.2500    -999.2500    -999.2500    -999.2500    -999.2500       0.1148       2.6930       2.4370       0.0000
   2770.7847       4.6250       0.1430    -999.2500       0.0000    -999.2500    -999.2500    -999.2500    -999.2500    -999.2500       0.1148       2.6925       2.4345       0.0000
   2770.9370       4.6250       0.1420    -999.2500       0.0000    -999.2500    -999.2500    -999.2500    -999.2500    -999.2500       0.1148       2.6920       2.4320       0.0000
   2771.0894       4.6290       0.1425    -999.2500       0.0000    -999.2500    -999.2500    -999.2500    -999.2500    -999.2500       0.1148       2.6700       2.4320       0.0000
   2771.2419       4.6330       0.1430    -999.2500       0.0000    -999.2500    -999.2500    -999.2500    -999.2500    -999.2500       0.1148       2.6480       2.4320       0.0000
   2771.3943       4.6290       0.1445    -999.2500       0.0000    -999.2500    -999.2500    -999.2500    -999.2500    -999.2500       0.1148       2.6265       2.4320       0.0000
   2771.5466       4.6250       0.1460    -999.2500       0.0000    -999.2500    -999.2500    -999.2500    -999.2500    -999.2500       0.1148       2.6050       2.4320       0.0000
   2771.6990       4.6250       0.1405    -999.2500       0.0000    -999.2500    -999.2500    -999.2500    -999.2500    -999.2500       0.1148       2.6055       2.4315       0.0000
   2771.8516       4.6250       0.1350    -999.2500       0.0000    -999.2500    -999.2500    -999.2500    -999.2500    -999.2500       0.1148       2.6060       2.4310       0.0000
   2772.0039       4.6255       0.1350    -999.2500       0.0000    -999.2500    -999.2500    -999.2500    -999.2500    -999.2500       0.1148       2.6605       2.4255       0.0000
   2772.1562       4.6260       0.1350    -999.2500       0.0000    -999.2500    -999.2500    -999.2500    -999.2500    -999.2500       0.1147       2.7150       2.4200       0.0000
   2772.3086       4.6335       0.1355    -999.2500       0.0000    -999.2500    -999.2500    -999.2500    -999.2500    -999.2500       0.1147       2.6815       2.4205       0.0000
   2772.4609       4.6410       0.1360    -999.2500       0.0000    -999.2500    -999.2500    -999.2500    -999.2500    -999.2500       0.1147       2.6480       2.4210       0.0000
   2772.6135       4.6370       0.1445    -999.2500       0.0000    -999.2500    -999.2500    -999.2500    -999.2500    -999.2500       0.1147       2.6485       2.4300       0.0000
   2772.7659       4.6330       0.1530    -999.2500       0.0000    -999.2500    -999.2500    -999.2500    -999.2500    -999.2500       0.1147       2.6490       2.4390       0.0000
   2772.9182       4.6330       0.1530    -999.2500       0.0000    -999.2500    -999.2500    -999.2500    -999.2500    -999.2500       0.1147       2.6585       2.4390       0.0000
   2773.0706       4.6330       0.1530    -999.2500       0.0000    -999.2500    -999.2500    -999.2500    -999.2500    -999.2500       0.1148       2.6680       2.4390       0.0000
   2773.2231       4.6330       0.1490    -999.2500       0.0000    -999.2500    -999.2500    -999.2500    -999.2500    -999.2500       0.1148       2.6700       2.4310       0.0000
   2773.3755    -999.2500    -999.2500    -999.2500    -999.2500    -999.2500    -999.2500    -999.2500    -999.2500    -999.2500       0.1148    -999.2500    -999.2500    -999.2500
   2773.5278    -999.2500    -999.2500    -999.2500    -999.2500    -999.2500    -999.2500    -999.2500    -999.2500    -999.2500       0.1148    -999.2500    -999.2500    -999.2500
   2773.6802    -999.2500    -999.2500    -999.2500    -999.2500    -999.2500    -999.2500    -999.2500    -999.2500    -999.2500       0.1148    -999.2500    -999.2500    -999.2500
   2773.8328    -999.2500    -999.2500    -999.2500    -999.2500    -999.2500    -999.2500    -999.2500    -999.2500    -999.2500       0.1148    -999.2500    -999.2500    -999.2500
