#------------------------------------------------------------------------------
#
#   Created by  : [OpenWorks] Log Export Utility (LEXP)
#   Created on  : 2016-05-11 12:13:40
#   Project     : CANT971
#   User        : R5K
#   Interpreter : PEP
#
#------------------------------------------------------------------------------
~VERSION INFORMATION
VERS. 2.0 : CWLS Log ASCII Standard - version 2.0
WRAP.  NO : One line per depth step
~WELL INFORMATION
#MNEMONIC   .UNIT                                           VALUE :DESCRIPTION
#------------------------------------------------------------------------------
STRT        .M                                          1413.5103 :START DEPTH
STOP        .M                                          2773.8328 :STOP DEPTH
STEP        .M                                             0.1524 :STEP
NULL        .                                           -999.2500 :NULL VALUE
COMP        .                                   PEMEX EXPL & PROD :COMPANY
WELL        .                                               1188D :WELL
FLD         .                                           CANTARELL :FIELD
LOC         .                                             UNKNOWN :LOCATION
CNTY        .                                      CD. DEL CARMEN :COUNTY
STAT        .                                            CAMPECHE :STATE
CTRY        .                                              MEXICO :COUNTRY
SRVC        .                                             UNKNOWN :SERVICE COMPANY
DATE        .                                             UNKNOWN :LOG DATE
UWI         .                                               1188D :UNIQUE WELL ID
XCOORD      .                                       601391.859000 :SURFACE X
YCOORD      .                                      2149874.166000 :SURFACE Y
LAT         .                                           19.441847 :LATITUDE
LON         .                                          -92.034128 :LONGITUDE
ELEV        .M                                            28.0000 :SURFACE ELEV
ELEV_TYPE   .                                                  KB :ELEV TYPE
~CURVE INFORMATION
#MNEMONIC.UNIT        API CODE       : CURVE DESCRIPTION
#------------------------------------------------------------------------------
DEPTH    .M                          : Measured Depth
CALI     .inches      UNKNOWN        : CALI:Import:rC:NONE:v0 (auto-composite)
DRHO     .g/cm3       UNKNOWN        : DRHO:Import:rC:NONE:v0 (auto-composite)
DT       .us/ft       UNKNOWN        : DT:Import:rC:NONE:v0 (auto-composite)
GR       .API         UNKNOWN        : GR:Import:rC:NONE:v0 (auto-composite)
ILD      .ohm.m       UNKNOWN        : ILD:Import:rC:NONE:v0 (auto-composite)
ILM      .ohm.m       UNKNOWN        : ILM:Import:rC:NONE:v0 (auto-composite)
LLD      .ohm.m       UNKNOWN        : LLD:Import:rC:NONE:v0 (auto-composite)
LLS      .ohm.m       UNKNOWN        : LLS:Import:rC:NONE:v0 (auto-composite)
MSFL     .ohm.m       UNKNOWN        : MSFL:Import:rC:NONE:v0 (auto-composite)
NPHI     .v/v_decimal UNKNOWN        : NPHI:Import:rC:NONE:v0 (auto-composite)
PEF      .b/elec      UNKNOWN        : PEF:Import:rC:NONE:v0 (auto-composite)
RHOB     .g/cm3       UNKNOWN        : RHOB:Import:rC:NONE:v0 (auto-composite)
SP       .mV          UNKNOWN        : SP:Import:rC:NONE:v0 (auto-composite)
~A     DEPTH         CALI         DRHO           DT           GR          ILD          ILM          LLD          LLS         MSFL         NPHI          PEF         RHOB           SP
# ...
   2747.9246       5.3410       0.0040      52.8436      36.8050    -999.2500    -999.2500     742.8799     368.4332       2.6400       0.0732       3.2237       2.6881     676.2210
   2748.0771       5.3440      -0.0040      52.9060      34.2905    -999.2500    -999.2500     728.6530     355.8510       2.7170       0.0591       3.3960       2.7860     676.2355
   2748.2295       5.2694       0.0040      52.3600      31.7810    -999.2500    -999.2500    1328.6921     609.7274     263.1672       0.0584       3.3685       2.7610     676.2500
   2748.3818       5.1950       0.0120      51.8150      38.0548    -999.2500    -999.2500    1928.5900     863.5440     523.5560       0.0631       3.3410       2.7360     676.2500
   2748.5342       5.3046       0.0100      49.2178      44.3170    -999.2500    -999.2500    3557.0942    1570.9475     951.0741       0.0719       3.0843       2.6174     676.2500
   2748.6868       5.4140       0.0080      46.6250      49.2993    -999.2500    -999.2500    5185.4189    2278.2729    1378.5450       0.0794       2.8280       2.4990     675.9998
   2748.8391       5.3790       0.0235      46.7436      54.2730    -999.2500    -999.2500    3657.5642    1621.7886    1558.5211       0.0782       2.9281       2.5881     675.7500
   2748.9915       5.3440       0.0390      46.8620      54.6763    -999.2500    -999.2500    2129.6860     965.2940    1738.5000       0.0747       3.0280       2.6770     675.9867
   2749.1438       5.3440       0.0510      47.5200      55.0790    -999.2500    -999.2500    1893.7052     823.5615     945.0250       0.0731       3.0455       2.7270     676.2230
   2749.2961       5.3440       0.0630      48.1770      59.2771    -999.2500    -999.2500    1657.6910     681.8090     151.4380       0.0729       3.0630       2.7770     676.2365
   2749.4487       5.3440       0.0385      48.4062      63.4690    -999.2500    -999.2500    1897.3420     744.5317     241.9219       0.0753       2.9299       2.6779     676.2500
   2749.6011       5.3440       0.0140      48.6350      68.6279    -999.2500    -999.2500    2137.0569     807.2710     332.4300       0.0777       2.7970       2.5790     676.2500
   2749.7534       5.3440       0.0365      48.7050      73.7800    -999.2500    -999.2500    2413.8977     939.0836    1062.8217       0.0770       3.0677       2.6565     676.2500
   2749.9058       5.3440       0.0590      48.7750      77.4902    -999.2500    -999.2500    2690.8469    1070.9480    1793.5000       0.0755       3.3380       2.7340     676.2500
   2750.0583       5.3440       0.0300      48.8080      81.1960    -999.2500    -999.2500    2086.3909     915.6727    1462.8251       0.0743       3.0684       2.5804     676.2500
   2750.2107       5.3440       0.0010      48.8410      81.8554    -999.2500    -999.2500    1481.6219     760.3170    1131.9790       0.0729       2.7990       2.4270     676.2500
   2750.3630       5.3440       0.0055      48.8425      82.5140    -999.2500    -999.2500    1527.2523     790.8807     802.7165       0.0707       2.9396       2.4850     676.2500
   2750.5154       5.3440       0.0100      48.8440      82.7571    -999.2500    -999.2500    1572.9120     821.4640     473.2420       0.0695       3.0800       2.5430     676.2500
   2750.6680       5.3440       0.0100      48.9065      83.0000    -999.2500    -999.2500    1650.5214     987.7072     265.5210       0.0723       3.1260       2.6365     676.2500
   2750.8203       5.3440       0.0100      48.9690      82.2812    -999.2500    -999.2500    1728.0660    1153.8120      57.9730       0.0759       3.1720       2.7300     676.2500
   2750.9727       5.3440       0.0070      44.5684      81.5630    -999.2500    -999.2500    1318.9204     878.3722      46.0448       0.0772       3.3022       2.7250     676.2500
   2751.1250       5.3440       0.0040      40.1710      82.6077    -999.2500    -999.2500     910.0640     603.1270      34.1250       0.0747       3.4320       2.7200     676.2500
   2751.2773       5.3345       0.0055      20.9724      83.6500    -999.2500    -999.2500     535.3810     358.3978     341.7770       0.0609       3.2258       2.7681     676.2500
   2751.4299       5.3250       0.0070       1.7850      84.7011    -999.2500    -999.2500     160.9160     113.8110     649.2500       0.0464       3.0200       2.8160     676.2500
   2751.5823       5.2875       0.0030    -999.2500      85.7500    -999.2500    -999.2500     108.7076      79.3226     404.1951       0.0402       3.0956       2.8205     676.2500
   2751.7346       5.2500      -0.0010    -999.2500      84.4031    -999.2500    -999.2500      56.5230      44.8500     159.2520       0.0367       3.1710       2.8250     676.2500
   2751.8870       5.2970      -0.0025    -999.2500      83.0590    -999.2500    -999.2500      80.1494      62.2959      84.5747       0.0343       3.6955       2.8285     676.2500
   2752.0396       5.3440      -0.0040    -999.2500      80.8088    -999.2500    -999.2500     103.7680      79.7360       9.9220       0.0325       4.2190       2.8320     676.2500
   2752.1919       5.2854      -0.0035    -999.2500      78.5630    -999.2500    -999.2500     330.7648     253.9563     614.2729       0.0315       3.9688       2.8185     676.2500
   2752.3442       5.2270      -0.0030    -999.2500      81.6593    -999.2500    -999.2500     557.7150     428.1410    1218.5000       0.0306       3.7190       2.8050     676.2500
   2752.4966       5.2855       0.0015    -999.2500      84.7500    -999.2500    -999.2500     526.6698     402.0865     731.1367       0.0289       3.4323       2.8135     676.2500
   2752.6492       5.3440       0.0060    -999.2500      82.7383    -999.2500    -999.2500     495.6270     376.0340     243.8120       0.0281       3.1460       2.8220     676.2500
   2752.8015       5.3325       0.0240    -999.2500      80.7300    -999.2500    -999.2500    1382.2611     865.8167     399.4814       0.0308       2.8933       2.8290     676.2500
   2752.9539       5.3210       0.0420    -999.2500      79.8959    -999.2500    -999.2500    2268.9360    1355.6219     555.1580       0.0350       2.6410       2.8360     676.2500
   2753.1062       5.2580       0.0410    -999.2500      79.0630    -999.2500    -999.2500    9402.1387    5581.5298    1171.5725       0.0404       2.7666       2.8025     676.2500
   2753.2585       5.1950       0.0400    -999.2500      79.6254    -999.2500    -999.2500   16536.5664    9808.1641    1788.0930       0.0470       2.8920       2.7690     676.2500
   2753.4111       5.2665       0.0270    -999.2500      80.1870    -999.2500    -999.2500    9913.2109    5850.1333    1832.7899       0.0571       3.1317       2.7520     676.2500
   2753.5635       5.3380       0.0140    -999.2500      79.2804    -999.2500    -999.2500    3287.8870    1890.9260    1877.5000       0.0694       3.3710       2.7350     676.2500
   2753.7158       5.3410       0.0120    -999.2500      78.3750    -999.2500    -999.2500    2529.6404    1496.0530    1814.2449       0.0864       3.0993       2.6945     676.2500
   2753.8682       5.3440       0.0100    -999.2500      80.6979    -999.2500    -999.2500    1771.0730    1101.0129    1750.9630       0.1015       2.8280       2.6540     676.2500
   2754.0208       5.3185       0.0065    -999.2500      83.0180    -999.2500    -999.2500    1815.4279    1121.1549    1742.9352       0.1055       2.8115       2.5960     676.2500
   2754.1731       5.2930       0.0030    -999.2500      84.4928    -999.2500    -999.2500    1859.8070    1141.3080    1734.9030       0.1039       2.7950       2.5380     676.2500
   2754.3254       5.3925       0.0165    -999.2500      85.9660    -999.2500    -999.2500    1709.8956    1020.8231    1038.2990       0.0934       2.8980       2.6055     676.2500
   2754.4778       5.4920       0.0300    -999.2500      86.8584    -999.2500    -999.2500    1559.8831     900.2570     341.2250       0.0827       3.0010       2.6730     676.2500
