#------------------------------------------------------------------------------
#
#   Created by  : [OpenWorks] Log Export Utility (LEXP)
#   Created on  : 2016-05-11 12:13:40
#   Project     : CANT971
#   User        : R5K
#   Interpreter : PEP
#
#------------------------------------------------------------------------------
~VERSION INFORMATION
VERS. 2.0 : CWLS Log ASCII Standard - version 2.0
WRAP.  NO : One line per depth step
~WELL INFORMATION
#MNEMONIC   .UNIT                                           VALUE :DESCRIPTION
#------------------------------------------------------------------------------
STRT        .M                                          1413.5103 :START DEPTH
STOP        .M                                          2773.8328 :STOP DEPTH
STEP        .M                                             0.1524 :STEP
NULL        .                                           -999.2500 :NULL VALUE
COMP        .                                   PEMEX EXPL & PROD :COMPANY
WELL        .                                               1188D :WELL
FLD         .                                           CANTARELL :FIELD
LOC         .                                             UNKNOWN :LOCATION
CNTY        .                                      CD. DEL CARMEN :COUNTY
STAT        .                                            CAMPECHE :STATE
CTRY        .                                              MEXICO :COUNTRY
SRVC        .                                             UNKNOWN :SERVICE COMPANY
DATE        .                                             UNKNOWN :LOG DATE
UWI         .                                               1188D :UNIQUE WELL ID
XCOORD      .                                       601391.859000 :SURFACE X
YCOORD      .                                      2149874.166000 :SURFACE Y
LAT         .                                           19.441847 :LATITUDE
LON         .                                          -92.034128 :LONGITUDE
ELEV        .M                                            28.0000 :SURFACE ELEV
ELEV_TYPE   .                                                  KB :ELEV TYPE
~CURVE INFORMATION
#MNEMONIC.UNIT        API CODE       : CURVE DESCRIPTION
#------------------------------------------------------------------------------
DEPTH    .M                          : Measured Depth
CALI     .inches      UNKNOWN        : CALI:Import:rC:NONE:v0 (auto-composite)
DRHO     .g/cm3       UNKNOWN        : DRHO:Import:rC:NONE:v0 (auto-composite)
DT       .us/ft       UNKNOWN        : DT:Import:rC:NONE:v0 (auto-composite)
GR       .API         UNKNOWN        : GR:Import:rC:NONE:v0 (auto-composite)
ILD      .ohm.m       UNKNOWN        : ILD:Import:rC:NONE:v0 (auto-composite)
ILM      .ohm.m       UNKNOWN        : ILM:Import:rC:NONE:v0 (auto-composite)
LLD      .ohm.m       UNKNOWN        : LLD:Import:rC:NONE:v0 (auto-composite)
LLS      .ohm.m       UNKNOWN        : LLS:Import:rC:NONE:v0 (auto-composite)
MSFL     .ohm.m       UNKNOWN        : MSFL:Import:rC:NONE:v0 (auto-composite)
NPHI     .v/v_decimal UNKNOWN        : NPHI:Import:rC:NONE:v0 (auto-composite)
PEF      .b/elec      UNKNOWN        : PEF:Import:rC:NONE:v0 (auto-composite)
RHOB     .g/cm3       UNKNOWN        : RHOB:Import:rC:NONE:v0 (auto-composite)
SP       .mV          UNKNOWN        : SP:Import:rC:NONE:v0 (auto-composite)
~A     DEPTH         CALI         DRHO           DT           GR          ILD          ILM          LLD          LLS         MSFL         NPHI          PEF         RHOB           SP
# ...
   2660.7520       5.6388      -0.0040    -126.0968      39.8750    -999.2500    -999.2500      49.6773      30.1785      33.1317       0.1657       2.9660       2.5505     638.2500
   2660.9043       5.3440       0.0000    -131.5630      40.3312    -999.2500    -999.2500      46.8260      28.4360      30.7310       0.1739       2.9180       2.5500     638.2500
   2661.0566       5.3485       0.0040    -131.5630      40.7870    -999.2500    -999.2500      48.0736      29.0443      26.8418       0.1876       2.7683       2.5230     638.2500
   2661.2090       5.3530       0.0080    -131.5630      41.1001    -999.2500    -999.2500      49.3220      29.6530      22.9500       0.1995       2.6190       2.4960     638.7067
   2661.3616       5.3966       0.0055    -131.5630      41.4130    -999.2500    -999.2500      60.9176      36.6573      15.8472       0.2014       2.3637       2.2522     639.1630
   2661.5139       5.4400       0.0030    -131.5630      41.4730    -999.2500    -999.2500      72.5040      43.6560       8.7500       0.1989       2.1090       2.0090     639.4566
   2661.6663       5.6948      -0.0025    -131.5630      41.5330    -999.2500    -999.2500      65.0285      39.1970      35.2117       0.1965       2.1170       2.0110     639.7500
   2661.8186       5.9490      -0.0080    -131.5630      43.3415    -999.2500    -999.2500      57.5580      34.7410      61.6560       0.1933       2.1250       2.0130     639.9032
   2661.9709       5.5891      -0.0060    -865.8151      45.1460    -999.2500    -999.2500      49.7639      30.1803      60.0616       0.1885       2.3913       2.1446     640.0560
   2662.1235       5.2300      -0.0040   -1598.5000      46.9654    -999.2500    -999.2500      41.9740      25.6220      58.4680       0.1806       2.6570       2.2760     640.3063
   2662.2759       5.2650      -0.0055   -1155.0311      48.7810    -999.2500    -999.2500      45.1502      27.1868      40.4643       0.1675       2.9042       2.4467     640.5560
   2662.4282       5.3000      -0.0070    -712.4540      45.7780    -999.2500    -999.2500      48.3250      28.7510      22.4680       0.1572       3.1510       2.6170     640.8068
   2662.5806       5.3220      -0.0125    -433.0573      42.7810    -999.2500    -999.2500      53.5302      32.1435      14.3403       0.1584       3.3647       2.6105     641.0570
   2662.7332       5.3440      -0.0180    -154.1870      40.5334    -999.2500    -999.2500      58.7340      35.5350       6.2150       0.1652       3.5780       2.6040     641.1536
   2662.8855       5.3515      -0.0210    -155.1258      38.2900    -999.2500    -999.2500      67.0817      41.0179      22.8118       0.1732       3.3573       2.5790     641.2500
   2663.0378       5.3590      -0.0240    -156.0630      37.2691    -999.2500    -999.2500      75.4280      46.5000      39.4060       0.1813       3.1370       2.5540     641.2500
   2663.1902       5.2944      -0.0195     -79.4549      36.2500    -999.2500    -999.2500      73.6635      46.3300      34.5909       0.1889       3.1740       2.5350     641.2500
   2663.3428       5.2300      -0.0150      -2.9720      40.4644    -999.2500    -999.2500      71.8990      46.1600      29.7760       0.1945       3.2110       2.5160     641.2500
   2663.4951       5.3611      -0.0090      47.9499      44.6720    -999.2500    -999.2500      68.7926      44.7536      19.8730       0.1960       3.2470       2.4464     641.2500
   2663.6475       5.4920      -0.0030      98.7950      52.5294    -999.2500    -999.2500      65.6860      43.3470       9.9690       0.1945       3.2830       2.3770     641.2500
   2663.7998       5.4800       0.0040     102.3079      60.3750    -999.2500    -999.2500      74.5055      48.8019      23.7180       0.1901       3.1404       2.3785     641.2500
   2663.9521       5.4680       0.0110     105.8160      57.6646    -999.2500    -999.2500      83.3270      54.2580      37.4700       0.1848       2.9980       2.3800     641.4051
   2664.1047       5.4060       0.0090     110.2233      54.9580    -999.2500    -999.2500      76.7241      50.9161      87.8829       0.1803       3.0035       2.4145     641.5600
   2664.2571       5.3440       0.0070     114.6250      50.6508    -999.2500    -999.2500      70.1190      47.5730     138.3130       0.1758       3.0090       2.4490     641.6550
   2664.4094       5.3515      -0.0015     114.1197      46.3490    -999.2500    -999.2500      60.3908      41.4779     131.2347       0.1705       3.3072       2.4770     641.7500
   2664.5618       5.3590      -0.0100     113.6150      44.5955    -999.2500    -999.2500      50.6580      35.3800     124.1530       0.1601       3.6050       2.5050     641.9056
   2664.7144       5.2770      -0.0085     104.4044      42.8440    -999.2500    -999.2500      51.1472      36.1774      89.7157       0.1395       3.5425       2.5325     642.0610
   2664.8667       5.1950      -0.0070      95.2030      47.9716    -999.2500    -999.2500      51.6360      36.9740      55.3130       0.1209       3.4800       2.5600     642.3116
   2665.0190       5.1950      -0.0090      82.8936      53.0940    -999.2500    -999.2500      52.4539      38.6382      76.1967       0.1170       3.2672       2.5945     642.5620
   2665.1714       5.1950      -0.0110      70.5950      49.6235    -999.2500    -999.2500      53.2710      40.3010      97.0620       0.1197       3.0550       2.6290     642.8121
   2665.3240       5.2120      -0.0075      61.7006      46.1560    -999.2500    -999.2500      61.5951      47.5527      53.7606       0.1227       3.0880       2.6465     643.0620
   2665.4763       5.2290      -0.0040      52.8130      46.2050    -999.2500    -999.2500      69.9130      54.7990      10.4920       0.1254       3.1210       2.6640     643.3121
   2665.6287       5.2505      -0.0010      56.4420      46.2540    -999.2500    -999.2500     125.2779      97.4249      59.9431       0.1274       3.1170       2.6385     643.5620
   2665.7810       5.2720       0.0020      60.0630      52.2272    -999.2500    -999.2500     180.6080     140.0240     109.3630       0.1301       3.1130       2.6130     643.8128
   2665.9333       5.2785       0.0020      56.5278      58.1870    -999.2500    -999.2500     255.1348     200.6583     334.8474       0.1351       3.0484       2.6140     644.0630
   2666.0859       5.2850       0.0020      53.0000      56.7160    -999.2500    -999.2500     329.6240     261.2620     560.2180       0.1394       2.9840       2.6150     644.1566
   2666.2383       5.2740      -0.0000      54.4700      55.2480    -999.2500    -999.2500     391.0881     317.1401     693.4548       0.1401       3.0796       2.6195     644.2500
   2666.3906       5.2630      -0.0020      55.9370      44.6185    -999.2500    -999.2500     452.5290     372.9970     826.6410       0.1377       3.1750       2.6240     644.4072
   2666.5430       5.2290      -0.0060      55.8119      34.0100    -999.2500    -999.2500     493.0426     408.7925    1269.1267       0.1325       3.3346       2.6315     644.5640
   2666.6956       5.1950      -0.0100      55.6870      23.6164    -999.2500    -999.2500     533.5460     444.5790    1711.5000       0.1249       3.4940       2.6390     644.6571
   2666.8479       5.2125      -0.0090      57.0011      13.2420    -999.2500    -999.2500     520.7197     433.8903    1527.2231       0.1152       3.2948       2.6560     644.7500
   2667.0002       5.2300      -0.0080      58.3130      24.0023    -999.2500    -999.2500     507.8950     423.2030    1342.9700       0.1082       3.0960       2.6730     644.9081
   2667.1526       5.2695      -0.0095      58.0758      34.7440    -999.2500    -999.2500     466.9059     395.2025     785.0153       0.1094       3.2601       2.6845     645.0660
   2667.3052       5.3090      -0.0110      57.8390      69.2431    -999.2500    -999.2500     425.9170     367.2020     227.0620       0.1128       3.4240       2.6960     645.3162
