#------------------------------------------------------------------------------
#
#   Created by  : [OpenWorks] Log Export Utility (LEXP)
#   Created on  : 2016-05-11 12:13:40
#   Project     : CANT971
#   User        : R5K
#   Interpreter : PEP
#
#------------------------------------------------------------------------------
~VERSION INFORMATION
VERS. 2.0 : CWLS Log ASCII Standard - version 2.0
WRAP.  NO : One line per depth step
~WELL INFORMATION
#MNEMONIC   .UNIT                                           VALUE :DESCRIPTION
#------------------------------------------------------------------------------
STRT        .M                                          1413.5103 :START DEPTH
STOP        .M                                          2773.8328 :STOP DEPTH
STEP        .M                                             0.1524 :STEP
NULL        .                                           -999.2500 :NULL VALUE
COMP        .                                   PEMEX EXPL & PROD :COMPANY
WELL        .                                               1188D :WELL
FLD         .                                           CANTARELL :FIELD
LOC         .                                             UNKNOWN :LOCATION
CNTY        .                                      CD. DEL CARMEN :COUNTY
STAT        .                                            CAMPECHE :STATE
CTRY        .                                              MEXICO :COUNTRY
SRVC        .                                             UNKNOWN :SERVICE COMPANY
DATE        .                                             UNKNOWN :LOG DATE
UWI         .                                               1188D :UNIQUE WELL ID
XCOORD      .                                       601391.859000 :SURFACE X
YCOORD      .                                      2149874.166000 :SURFACE Y
LAT         .                                           19.441847 :LATITUDE
LON         .                                          -92.034128 :LONGITUDE
ELEV        .M                                            28.0000 :SURFACE ELEV
ELEV_TYPE   .                                                  KB :ELEV TYPE
~CURVE INFORMATION
#MNEMONIC.UNIT        API CODE       : CURVE DESCRIPTION
#------------------------------------------------------------------------------
DEPTH    .M                          : Measured Depth
CALI     .inches      UNKNOWN        : CALI:Import:rC:NONE:v0 (auto-composite)
DRHO     .g/cm3       UNKNOWN        : DRHO:Import:rC:NONE:v0 (auto-composite)
DT       .us/ft       UNKNOWN        : DT:Import:rC:NONE:v0 (auto-composite)
GR       .API         UNKNOWN        : GR:Import:rC:NONE:v0 (auto-composite)
ILD      .ohm.m       UNKNOWN        : ILD:Import:rC:NONE:v0 (auto-composite)
ILM      .ohm.m       UNKNOWN        : ILM:Import:rC:NONE:v0 (auto-composite)
LLD      .ohm.m       UNKNOWN        : LLD:Import:rC:NONE:v0 (auto-composite)
LLS      .ohm.m       UNKNOWN        : LLS:Import:rC:NONE:v0 (auto-composite)
MSFL     .ohm.m       UNKNOWN        : MSFL:Import:rC:NONE:v0 (auto-composite)
NPHI     .v/v_decimal UNKNOWN        : NPHI:Import:rC:NONE:v0 (auto-composite)
PEF      .b/elec      UNKNOWN        : PEF:Import:rC:NONE:v0 (auto-composite)
RHOB     .g/cm3       UNKNOWN        : RHOB:Import:rC:NONE:v0 (auto-composite)
SP       .mV          UNKNOWN        : SP:Import:rC:NONE:v0 (auto-composite)
~A     DEPTH         CALI         DRHO           DT           GR          ILD          ILM          LLD          LLS         MSFL         NPHI          PEF         RHOB           SP
# ...
   2566.8735       7.6010       0.0660      89.7541      52.7190    -999.2500    -999.2500       2.8655       2.5950       9.4461       0.2708       3.6079       2.3210     665.8730
   2567.0259       8.3980       0.0380      96.2500      52.4834    -999.2500    -999.2500       2.8910       2.6000       2.6870       0.2784       3.4410       2.2940     666.0616
   2567.1782       7.4189       0.0495      93.2168      52.2480    -999.2500    -999.2500       3.0895       2.7130       2.8875       0.3002       3.2664       2.2095     666.2500
   2567.3306       6.4410       0.0610      90.1870      51.2624    -999.2500    -999.2500       3.2880       2.8260       3.0880       0.3217       3.0920       2.1250     666.5001
   2567.4832       6.5000       0.0575      90.2105      50.2780    -999.2500    -999.2500       3.2580       2.7995       2.7461       0.3209       2.8984       2.0615     666.7500
   2567.6355       6.5590       0.0540      90.2340      49.1354    -999.2500    -999.2500       3.2280       2.7730       2.4040       0.3189       2.7050       1.9980     666.6874
   2567.7878       6.4944       0.0250      96.6565      47.9940    -999.2500    -999.2500       3.0751       2.6920       2.5380       0.3055       2.7616       2.0025     666.6250
   2567.9402       6.4300      -0.0040     103.0630      46.6529    -999.2500    -999.2500       2.9220       2.6110       2.6720       0.2911       2.8180       2.0070     666.1873
   2568.0928       6.4300      -0.0015     102.2851      45.3130    -999.2500    -999.2500       2.7344       2.4764       2.6445       0.2606       3.3727       2.1637     665.7500
   2568.2451       6.4300       0.0010     101.5090      46.5635    -999.2500    -999.2500       2.5470       2.3420       2.6170       0.2320       3.9260       2.3200     665.8125
   2568.3975       6.4300       0.0070      99.0552      47.8130    -999.2500    -999.2500       2.5585       2.3575       2.3249       0.2706       3.3649       2.3050     665.8750
   2568.5498       6.4300       0.0130      96.6070      47.6153    -999.2500    -999.2500       2.5700       2.3730       2.0330       0.3103       2.8050       2.2900     666.3130
   2568.7021       6.4090       0.0380      91.7048      47.4180    -999.2500    -999.2500       2.9231       2.7186       7.1858       0.3110       2.9106       2.2450     666.7500
   2568.8547       6.3880       0.0630      86.8130      45.9575    -999.2500    -999.2500       3.2760       3.0640      12.3360       0.3100       3.0160       2.2000     666.4998
   2569.0071       6.2969       0.0540      97.6673      44.5000    -999.2500    -999.2500       3.1290       2.9125      10.5101       0.3035       2.9474       2.1640     666.2500
   2569.1594       6.2060       0.0450     108.5000      45.1381    -999.2500    -999.2500       2.9820       2.7610       8.6850       0.2966       2.8790       2.1280     666.3141
   2569.3118       6.1129       0.0460     106.5317      45.7750    -999.2500    -999.2500       3.0145       2.7750       5.7611       0.2792       3.5867       2.1625     666.3780
   2569.4644       6.0200       0.0470     104.5670      48.2393    -999.2500    -999.2500       3.0470       2.7890       2.8380       0.2611       4.2930       2.1970     666.5641
   2569.6167       5.9825       0.0425      97.8091      50.6990    -999.2500    -999.2500       3.2240       2.9150       2.8570       0.2278       4.2324       2.3141     666.7500
   2569.7690       5.9450       0.0380      91.0630      53.1171    -999.2500    -999.2500       3.4010       3.0410       2.8760       0.1951       4.1720       2.4310     666.8146
   2569.9214       5.7909       0.0245      98.9444      55.5310    -999.2500    -999.2500       3.7435       3.4050       4.3930       0.1970       4.3772       2.4835     666.8790
   2570.0740       5.6370       0.0110     106.8130      55.2243    -999.2500    -999.2500       4.0860       3.7690       5.9100       0.2000       4.5820       2.5360     667.1292
   2570.2263       5.6370       0.0130     104.1070      54.9180    -999.2500    -999.2500       4.8845       4.3025       5.6580       0.2123       4.2968       2.5345     667.3790
   2570.3787       5.6370       0.0150     101.4050      53.0356    -999.2500    -999.2500       5.6830       4.8360       5.4060       0.2244       4.0120       2.5330     667.6948
   2570.5310       5.6370       0.0145      92.1026      51.1560    -999.2500    -999.2500       5.6450       4.8235       6.2224       0.2162       4.0325       2.5345     668.0100
   2570.6833       5.6370       0.0140      82.8130      51.2986    -999.2500    -999.2500       5.6070       4.8110       7.0390       0.2081       4.0530       2.5360     668.3802
   2570.8359       5.6420       0.0115      83.6885      51.4410    -999.2500    -999.2500       4.7866       4.1816       5.8222       0.2246       4.1711       2.5295     668.7500
   2570.9883       5.6470       0.0090      84.5630      52.2845    -999.2500    -999.2500       3.9660       3.5520       4.6050       0.2414       4.2890       2.5230     668.7500
   2571.1406       5.6615       0.0065      84.4890      53.1270    -999.2500    -999.2500       4.0410       3.5685       5.5993       0.2416       4.0103       2.4620     668.7500
   2571.2930       5.6760       0.0040      84.4150      54.4077    -999.2500    -999.2500       4.1160       3.5850       6.5940       0.2408       3.7320       2.4010     668.7500
   2571.4456       5.5840       0.0040      84.1989      55.6870    -999.2500    -999.2500       5.0214       4.2318       6.2538       0.2046       3.8005       2.4180     668.7500
   2571.5979       5.4920       0.0040      83.9830      55.1162    -999.2500    -999.2500       5.9260       4.8780       5.9140       0.1682       3.8690       2.4350     668.7500
   2571.7502       5.4920       0.0030      83.8664      54.5460    -999.2500    -999.2500       5.6649       4.8385       5.1172       0.1693       4.0913       2.5126     668.7500
   2571.9026       5.4920       0.0020      83.7500      52.6032    -999.2500    -999.2500       5.4040       4.7990       4.3210       0.1712       4.3130       2.5900     668.6835
   2572.0552       5.4970      -0.0015      84.4073      50.6620    -999.2500    -999.2500       5.4980       4.9025       4.1319       0.1794       4.6394       2.5775     668.6170
   2572.2075       5.5020      -0.0050      85.0630      49.5536    -999.2500    -999.2500       5.5920       5.0060       3.9430       0.1877       4.9650       2.5650     668.1833
   2572.3599       5.5345      -0.0060      84.5014      48.4460    -999.2500    -999.2500       6.1657       5.8803      10.9031       0.1989       4.7172       2.4919     667.7500
   2572.5122       5.5670      -0.0070      83.9410      46.4082    -999.2500    -999.2500       6.7390       6.7540      17.8590       0.2104       4.4700       2.4190     667.7500
   2572.6646       5.9344      -0.0115      80.4043      44.3750    -999.2500    -999.2500       5.0266       6.1939      16.9318       0.2428       3.3658       2.2048     667.7500
   2572.8171       6.3010      -0.0160      76.8750      46.9247    -999.2500    -999.2500       3.3150       5.6340      16.0050       0.2759       2.2640       1.9910     668.0002
   2572.9695       6.2109      -0.0020      77.5597      49.4690    -999.2500    -999.2500       3.3315       4.3563      12.9004       0.2692       2.4392       2.0405     668.2500
   2573.1218       6.1210       0.0120      78.2430      49.1011    -999.2500    -999.2500       3.3480       3.0790       9.7970       0.2618       2.6140       2.0900     667.9998
   2573.2742       5.8738       0.0110      84.7525      48.7340    -999.2500    -999.2500       4.4626       3.2495       6.0796       0.2412       3.4658       2.3242     667.7500
   2573.4268       5.6270       0.0100      91.2500      47.4653    -999.2500    -999.2500       5.5770       3.4200       2.3630       0.2205       4.3160       2.5580     667.7500
