#------------------------------------------------------------------------------
#
#   Created by  : [OpenWorks] Log Export Utility (LEXP)
#   Created on  : 2016-05-11 12:13:40
#   Project     : CANT971
#   User        : R5K
#   Interpreter : PEP
#
#------------------------------------------------------------------------------
~VERSION INFORMATION
VERS. 2.0 : CWLS Log ASCII Standard - version 2.0
WRAP.  NO : One line per depth step
~WELL INFORMATION
#MNEMONIC   .UNIT                                           VALUE :DESCRIPTION
#------------------------------------------------------------------------------
STRT        .M                                          1413.5103 :START DEPTH
STOP        .M                                          2773.8328 :STOP DEPTH
STEP        .M                                             0.1524 :STEP
NULL        .                                           -999.2500 :NULL VALUE
COMP        .                                   PEMEX EXPL & PROD :COMPANY
WELL        .                                               1188D :WELL
FLD         .                                           CANTARELL :FIELD
LOC         .                                             UNKNOWN :LOCATION
CNTY        .                                      CD. DEL CARMEN :COUNTY
STAT        .                                            CAMPECHE :STATE
CTRY        .                                              MEXICO :COUNTRY
SRVC        .                                             UNKNOWN :SERVICE COMPANY
DATE        .                                             UNKNOWN :LOG DATE
UWI         .                                               1188D :UNIQUE WELL ID
XCOORD      .                                       601391.859000 :SURFACE X
YCOORD      .                                      2149874.166000 :SURFACE Y
LAT         .                                           19.441847 :LATITUDE
LON         .                                          -92.034128 :LONGITUDE
ELEV        .M                                            28.0000 :SURFACE ELEV
ELEV_TYPE   .                                                  KB :ELEV TYPE
~CURVE INFORMATION
#MNEMONIC.UNIT        API CODE       : CURVE DESCRIPTION
#------------------------------------------------------------------------------
DEPTH    .M                          : Measured Depth
CALI     .inches      UNKNOWN        : CALI:Import:rC:NONE:v0 (auto-composite)
DRHO     .g/cm3       UNKNOWN        : DRHO:Import:rC:NONE:v0 (auto-composite)
DT       .us/ft       UNKNOWN        : DT:Import:rC:NONE:v0 (auto-composite)
GR       .API         UNKNOWN        : GR:Import:rC:NONE:v0 (auto-composite)
ILD      .ohm.m       UNKNOWN        : ILD:Import:rC:NONE:v0 (auto-composite)
ILM      .ohm.m       UNKNOWN        : ILM:Import:rC:NONE:v0 (auto-composite)
LLD      .ohm.m       UNKNOWN        : LLD:Import:rC:NONE:v0 (auto-composite)
LLS      .ohm.m       UNKNOWN        : LLS:Import:rC:NONE:v0 (auto-composite)
MSFL     .ohm.m       UNKNOWN        : MSFL:Import:rC:NONE:v0 (auto-composite)
NPHI     .v/v_decimal UNKNOWN        : NPHI:Import:rC:NONE:v0 (auto-composite)
PEF      .b/elec      UNKNOWN        : PEF:Import:rC:NONE:v0 (auto-composite)
RHOB     .g/cm3       UNKNOWN        : RHOB:Import:rC:NONE:v0 (auto-composite)
SP       .mV          UNKNOWN        : SP:Import:rC:NONE:v0 (auto-composite)
~A     DEPTH         CALI         DRHO           DT           GR          ILD          ILM          LLD          LLS         MSFL         NPHI          PEF         RHOB           SP
# ...
   2493.1118    -999.2500    -999.2500    -999.2500      48.9420       1.8465       1.8555    -999.2500    -999.2500    -999.2500    -999.2500    -999.2500    -999.2500       6.3950
   2493.2642    -999.2500    -999.2500    -999.2500      44.4683       1.8120       1.8380    -999.2500    -999.2500    -999.2500    -999.2500    -999.2500    -999.2500       6.5126
   2493.4167    -999.2500    -999.2500    -999.2500      40.0000       1.7485       1.7835    -999.2500    -999.2500    -999.2500    -999.2500    -999.2500    -999.2500       6.6300
   2493.5691    -627.4360      -0.2500    -627.4360      42.4078       1.6850       1.7290    -999.2500    -999.2500    -999.2500    -999.2500    -627.4360    -627.4360       6.9652
   2493.7214    -310.7962      -0.7066    -280.1743      44.8130       1.6580       1.7295    -999.2500    -999.2500    -999.2500      -3.0248     145.0695    -312.3743       7.3000
   2493.8738       5.0270      -1.1620      66.1920      41.5504       1.6310       1.7300       0.1550       0.1500       0.4630      -0.4634     915.5830       1.8750     289.1343
   2494.0264       5.2598      -1.2061      70.3446      38.2910       1.6140       1.7115       0.1635       0.1485       0.4195       0.3213     957.9684       1.8560     570.6930
   2494.1787       5.4920      -1.2500      74.4870      36.1916       1.5970       1.6930       0.1720       0.1470       0.3760       0.3629    1000.2500       1.8370     596.9742
   2494.3311       5.4920      -1.1229      81.4391      34.0940       1.5815       1.6235       0.1700       0.1490       0.5866       0.4257    1000.2500       1.8645     623.2330
   2494.4834       5.4920      -0.9960      88.3750      33.6984       1.5660       1.5540       0.1680       0.1510       0.7970       0.4819    1000.2500       1.8920     623.2415
   2494.6357       5.4920      -0.9845      87.4054      33.3030       1.5550       1.5875       0.1710       0.1515       0.6129       0.5003    1000.2500       1.9350     623.2500
   2494.7883       5.4920      -0.9730      86.4380      32.2552       1.5440       1.6210       0.1740       0.1520       0.4290       0.5008    1000.2500       1.9780     623.4921
   2494.9407       5.4920      -0.9875      80.7000      31.2080       1.5455       1.6425       0.1755       0.1505       0.4325       0.4965    2294.9697       1.9410     623.7340
   2495.0930       5.4920      -1.0020      74.9740      29.7039       1.5470       1.6640       0.1770       0.1490       0.4360       0.4930    3587.0000       1.9040     623.7420
   2495.2454       5.4920      -1.0065      74.2048      28.2030       1.5475       1.6795       0.1770       0.1505       0.3875       0.4968    1862.1615       1.9050     623.7500
   2495.3979       5.4920      -1.0110      73.4370      28.2891       1.5480       1.6950       0.1770       0.1520       0.3390       0.4961     140.6870       1.9060     624.0002
   2495.5503       5.4920      -1.0015      73.8123      28.3750       1.5480       1.6840       0.1755       0.1510       0.5230       0.4773     173.0601       1.9295     624.2500
   2495.7026       5.4920      -0.9920      74.1870      28.1873       1.5480       1.6730       0.1740       0.1500       0.7070       0.4638     205.3740       1.9530     623.9998
   2495.8550       5.4920      -0.9950      73.6866      28.0000       1.5490       1.6645       0.1680       0.1485       0.6460       0.4810     592.6476       1.9410     623.7500
   2496.0076       5.4920      -0.9980      73.1870      29.2330       1.5500       1.6560       0.1620       0.1470       0.5850       0.5127     979.2630       1.9290     623.7500
   2496.1599       5.4920      -1.0015      73.6449      30.4640       1.5510       1.6535       0.1590       0.1475       0.7685       0.5488     989.7648       1.9140     623.7500
   2496.3123       5.4920      -1.0050      74.1020      30.5891       1.5520       1.6510       0.1560       0.1480       0.9520       0.5749    1000.2500       1.8990     623.9942
   2496.4646       5.4920      -1.0045      75.3649      30.7140       1.5530       1.6505       0.1540       0.1495       0.6340       0.5725    1000.2500       1.8890     624.2380
   2496.6169       5.4920      -1.0040      76.6260      30.8081       1.5540       1.6500       0.1520       0.1510       0.3160       0.5528    1000.2500       1.8790     624.2440
   2496.7695       5.4920      -1.0105      81.6393      30.9020       1.5535       1.6495       0.1480       0.1505       0.3635       0.5195    1000.2500       1.8765     624.2500
   2496.9219       5.4920      -1.0170      86.6460      31.1562       1.5530       1.6490       0.1440       0.1500       0.4110       0.4909    1000.2500       1.8740     624.5002
   2497.0742       5.4920      -1.0195      87.0107      31.4100       1.5530       1.6490       0.1380       0.1495       0.4840       0.4874    1000.2500       1.8870     624.7500
   2497.2266       5.4920      -1.0220      87.3750      32.8459       1.5530       1.6490       0.1320       0.1490       0.5570       0.4924    1000.2500       1.9000     624.2607
   2497.3792       5.4920      -1.0145      87.0993      34.2800       1.5530       1.6490       0.1270       0.1480       0.5330       0.4928    1000.2500       1.9080     623.7720
   2497.5315       5.4920      -1.0070      86.8240      34.5777       1.5530       1.6490       0.1220       0.1470       0.5090       0.4931    1000.2500       1.9160     623.2607
   2497.6838       5.4920      -0.9980      86.2548      34.8750       1.5535       1.6490       0.1190       0.1470       0.6060       0.4981    1000.2500       1.9235     622.7500
   2497.8362       5.4920      -0.9890      85.6870      34.3232       1.5540       1.6490       0.1160       0.1470       0.7030       0.4994    1000.2500       1.9310     622.7500
   2497.9888       5.4920      -0.9845      86.1876      33.7720       1.5535       1.6495       0.1125       0.1485       0.5199       0.4873    1000.2500       1.9370     622.7500
   2498.1411       5.4920      -0.9800      86.6870      32.0808       1.5530       1.6500       0.1090       0.1500       0.3370       0.4725    1000.2500       1.9430     623.4863
   2498.2935       5.4920      -0.9775      80.8994      30.3910       1.5530       1.6500       0.1080       0.1510       0.5191       0.4646    1000.2500       1.9350     624.2220
   2498.4458       5.4920      -0.9750      75.1250      30.2815       1.5530       1.6500       0.1070       0.1520       0.7010       0.4660    1000.2500       1.9270     624.4821
   2498.5981       5.4920      -0.9615      99.3388      30.1720       1.5535       1.6505       0.1075       0.1560       0.5169       0.4835     514.9764       1.8890     624.7420
   2498.7507       5.4920      -0.9480     123.5000      30.7027       1.5540       1.6510       0.1080       0.1600       0.3330       0.4937      30.7560       1.8510     624.9921
   2498.9031       5.6982      -0.6607     123.4074      31.2330       1.5535       1.6510       0.1095       0.1675       0.4110       0.4690      18.1251       1.9381     625.2420
   2499.0554       5.9040      -0.3740     123.3150      31.8046       1.5530       1.6510       0.1110       0.1750       0.4890       0.4287       5.5200       2.0250     625.2460
   2499.2078       6.5011      -0.2309     122.0313      32.3750       1.5540       1.6515       0.1270       0.1795       0.4225       0.3845       5.5545       2.0811     625.2500
   2499.3604       7.0970      -0.0880     120.7500      32.3290       1.5550       1.6520       0.1430       0.1840       0.3560       0.3529       5.5890       2.1370     625.7435
   2499.5127       7.8892      -0.0555     137.4060      32.2830       1.5545       1.6520       0.1220       0.1675       0.4600       0.3570       5.8923       2.1720     626.2360
   2499.6650       8.6800      -0.0230     154.0320      30.4524       1.5540       1.6520       0.1010       0.1510       0.5640       0.3761       6.1950       2.2070     627.2319
