#------------------------------------------------------------------------------
#
#   Created by  : [OpenWorks] Log Export Utility (LEXP)
#   Created on  : 2016-05-11 12:13:40
#   Project     : CANT971
#   User        : R5K
#   Interpreter : PEP
#
#------------------------------------------------------------------------------
~VERSION INFORMATION
VERS. 2.0 : CWLS Log ASCII Standard - version 2.0
WRAP.  NO : One line per depth step
~WELL INFORMATION
#MNEMONIC   .UNIT                                           VALUE :DESCRIPTION
#------------------------------------------------------------------------------
STRT        .M                                          1413.5103 :START DEPTH
STOP        .M                                          2773.8328 :STOP DEPTH
STEP        .M                                             0.1524 :STEP
NULL        .                                           -999.2500 :NULL VALUE
COMP        .                                   PEMEX EXPL & PROD :COMPANY
WELL        .                                               1188D :WELL
FLD         .                                           CANTARELL :FIELD
LOC         .                                             UNKNOWN :LOCATION
CNTY        .                                      CD. DEL CARMEN :COUNTY
STAT        .                                            CAMPECHE :STATE
CTRY        .                                              MEXICO :COUNTRY
SRVC        .                                             UNKNOWN :SERVICE COMPANY
DATE        .                                             UNKNOWN :LOG DATE
UWI         .                                               1188D :UNIQUE WELL ID
XCOORD      .                                       601391.859000 :SURFACE X
YCOORD      .                                      2149874.166000 :SURFACE Y
LAT         .                                           19.441847 :LATITUDE
LON         .                                          -92.034128 :LONGITUDE
ELEV        .M                                            28.0000 :SURFACE ELEV
ELEV_TYPE   .                                                  KB :ELEV TYPE
~CURVE INFORMATION
#MNEMONIC.UNIT        API CODE       : CURVE DESCRIPTION
#------------------------------------------------------------------------------
DEPTH    .M                          : Measured Depth
CALI     .inches      UNKNOWN        : CALI:Import:rC:NONE:v0 (auto-composite)
DRHO     .g/cm3       UNKNOWN        : DRHO:Import:rC:NONE:v0 (auto-composite)
DT       .us/ft       UNKNOWN        : DT:Import:rC:NONE:v0 (auto-composite)
GR       .API         UNKNOWN        : GR:Import:rC:NONE:v0 (auto-composite)
ILD      .ohm.m       UNKNOWN        : ILD:Import:rC:NONE:v0 (auto-composite)
ILM      .ohm.m       UNKNOWN        : ILM:Import:rC:NONE:v0 (auto-composite)
LLD      .ohm.m       UNKNOWN        : LLD:Import:rC:NONE:v0 (auto-composite)
LLS      .ohm.m       UNKNOWN        : LLS:Import:rC:NONE:v0 (auto-composite)
MSFL     .ohm.m       UNKNOWN        : MSFL:Import:rC:NONE:v0 (auto-composite)
NPHI     .v/v_decimal UNKNOWN        : NPHI:Import:rC:NONE:v0 (auto-composite)
PEF      .b/elec      UNKNOWN        : PEF:Import:rC:NONE:v0 (auto-composite)
RHOB     .g/cm3       UNKNOWN        : RHOB:Import:rC:NONE:v0 (auto-composite)
SP       .mV          UNKNOWN        : SP:Import:rC:NONE:v0 (auto-composite)
~A     DEPTH         CALI         DRHO           DT           GR          ILD          ILM          LLD          LLS         MSFL         NPHI          PEF         RHOB           SP
# ...
   2674.1631       5.3340       0.0140      56.1003      15.9080    -999.2500    -999.2500     630.1689     359.6885     780.2391       0.1254       3.1523       2.5635     651.7500
   2674.3154       5.3440       0.0190      56.4110      19.2632    -999.2500    -999.2500     497.4520     274.6800     123.1870       0.1296       2.9340       2.5730     651.4202
   2674.4678       5.3515       0.0145      61.1117      22.6120    -999.2500    -999.2500     481.2790     277.4733     887.4170       0.1331       3.0656       2.6010     651.0910
   2674.6204       5.3590       0.0100      65.8040      24.1999    -999.2500    -999.2500     465.1090     280.2660    1651.5000       0.1331       3.1970       2.6290     650.6701
   2674.7727       5.3515      -0.0020      68.4437      25.7850    -999.2500    -999.2500     396.5032     241.6607    1144.0061       0.1258       3.4082       2.6565     650.2500
   2674.9250       5.3440      -0.0140      71.0790      27.9958    -999.2500    -999.2500     327.9020     203.0580     636.5460       0.1179       3.6190       2.6840     650.2500
   2675.0774       5.3735      -0.0115      73.2572      30.2030    -999.2500    -999.2500     260.9560     174.0149     393.6242       0.1155       3.4529       2.6995     650.2500
   2675.2297       5.4030      -0.0090      75.4320      31.9989    -999.2500    -999.2500     194.0060     144.9700     150.6880       0.1211       3.2870       2.7150     650.2500
   2675.3823       5.4946       0.0020      82.1893      33.7920    -999.2500    -999.2500     207.8832     158.6032     155.1871       0.1379       3.3000       2.7390     650.2500
   2675.5347       5.5860       0.0130      88.9370      35.5377    -999.2500    -999.2500     221.7630     172.2390     159.6870       0.1507       3.3130       2.7630     650.4161
   2675.6870       5.4649       0.0120      84.4656      37.2810    -999.2500    -999.2500     214.5461     164.8721     159.3130       0.1437       3.2344       2.7380     650.5820
   2675.8394       5.3440       0.0110      80.0000      41.1600    -999.2500    -999.2500     207.3270     157.5030     158.9390       0.1251       3.1560       2.7130     650.8322
   2675.9919       5.3440       0.0085      80.0835      45.0340    -999.2500    -999.2500     182.9548     136.6006     135.4746       0.1019       3.1900       2.7145     651.0820
   2676.1443       5.3440       0.0060      80.1670      51.2896    -999.2500    -999.2500     158.5720     115.6890     112.0000       0.0839       3.2240       2.7160     651.6663
   2676.2966       5.3440       0.0015      81.7103      57.5380    -999.2500    -999.2500     148.4713     105.1150     264.1448       0.0809       3.4616       2.7425     652.2500
   2676.4490       5.3440      -0.0030      83.2520      70.4632    -999.2500    -999.2500     138.3650      94.5350     416.3750       0.0840       3.6990       2.7690     653.0009
   2676.6016       5.3245      -0.0070      84.9703      83.3750    -999.2500    -999.2500     208.3795     132.6745     238.1370       0.0845       3.5379       2.7505     653.7510
   2676.7539       5.3050      -0.0110      86.6870      79.5903    -999.2500    -999.2500     278.3300     170.7790      60.0620       0.0830       3.3770       2.7320     654.3353
   2676.9062       5.3100      -0.0140      77.1522      75.8090    -999.2500    -999.2500     447.3822     249.1669     170.8872       0.0796       3.1562       2.7170     654.9190
   2677.0586       5.3150      -0.0170      67.6250      70.3398    -999.2500    -999.2500     616.3010     327.4930     281.6250       0.0794       2.9360       2.7020     655.4197
   2677.2109       5.3295      -0.0190      81.1295      64.8750    -999.2500    -999.2500     745.5529     374.5711     280.1965       0.0873       3.0897       2.7145     655.9200
   2677.3635       5.3440      -0.0210      94.6250      64.9060    -999.2500    -999.2500     874.7190     421.6180     278.7690       0.0962       3.2430       2.7270     656.4202
   2677.5159       5.2969      -0.0200      92.7330      64.9370    -999.2500    -999.2500    1014.7786     472.5427     232.8401       0.0988       3.4352       2.7195     656.9200
   2677.6682       5.2500      -0.0190      90.8450      57.6172    -999.2500    -999.2500    1154.7629     523.4400     186.9360       0.0995       3.6270       2.7120     657.2534
   2677.8206       5.2815      -0.0100      89.1708      50.3130    -999.2500    -999.2500    1117.1552     500.9719     165.2450       0.1022       3.3737       2.6640     657.5860
   2677.9731       5.3130      -0.0010      87.5000      50.7820    -999.2500    -999.2500    1079.5630     478.5130     143.5630       0.1044       3.1210       2.6160     657.6681
   2678.1255       5.3285      -0.0090      94.4751      51.2500    -999.2500    -999.2500     967.9890     425.1953     148.3762       0.1036       2.8738       2.5244     657.7500
   2678.2778       5.3440      -0.0170     101.4370      50.0579    -999.2500    -999.2500     856.4470     371.8930     153.1880       0.0976       2.6270       2.4330     657.7500
   2678.4302       5.3440      -0.0130      83.2650      48.8680    -999.2500    -999.2500     683.2525     276.9193     379.2372       0.0838       3.0894       2.5016     657.7500
   2678.5828       5.3440      -0.0090      65.1250      47.1510    -999.2500    -999.2500     510.0860     181.9610     605.2500       0.0719       3.5510       2.5700     657.9191
   2678.7351       5.3560      -0.0040      67.7832      45.4370    -999.2500    -999.2500     459.5811     186.0081     310.8777       0.0716       3.4769       2.6090     658.0880
   2678.8875       5.3680       0.0010      70.4370      46.0510    -999.2500    -999.2500     409.0780     190.0550      16.5160       0.0771       3.4030       2.6480     658.5079
   2679.0398       5.4185       0.0035      69.8861      46.6640    -999.2500    -999.2500     538.8062     261.2738     243.9353       0.0832       3.2364       2.6285     658.9270
   2679.1921       5.4690       0.0060      69.3360      54.5014    -999.2500    -999.2500     668.5460     332.4990     471.3750       0.0863       3.0700       2.6090     659.2582
   2679.3447       5.4065       0.0045      60.9437      62.3270    -999.2500    -999.2500     931.2897     450.9928     361.8493       0.0829       3.3372       2.6505     659.5890
   2679.4971       5.3440       0.0030      52.5630      68.9181    -999.2500    -999.2500    1194.0900     569.5120     252.3000       0.0788       3.6040       2.6920     660.0093
   2679.6494       5.3440      -0.0085      57.6237      75.5000    -999.2500    -999.2500    1010.2083     499.0400     152.0576       0.0796       3.5505       2.7215     660.4290
   2679.8018       5.3440      -0.0200      62.6780      66.6539    -999.2500    -999.2500     826.2640     428.5440      51.7810       0.0812       3.4970       2.7510     660.7597
   2679.9543       5.3440      -0.0265      66.1225      57.8190    -999.2500    -999.2500     712.6205     360.7798      97.1134       0.0796       3.3769       2.7460     661.0900
   2680.1067       5.3440      -0.0330      69.5630      50.6399    -999.2500    -999.2500     598.9240     292.9840     142.4670       0.0744       3.2570       2.7410     661.6703
   2680.2590       5.3440      -0.0310      65.1228      43.4690    -999.2500    -999.2500     607.3235     293.6698     264.3849       0.0653       3.0844       2.7505     662.2500
   2680.4114       5.3440      -0.0290      60.6870      44.7351    -999.2500    -999.2500     615.7280     294.3560     386.3750       0.0584       2.9120       2.7600     661.2495
   2680.5640       5.3440      -0.0240      69.3473      46.0000    -999.2500    -999.2500     629.7562     289.8660     377.4961       0.0599       2.9370       2.7685     660.2500
   2680.7163       5.3440      -0.0190      78.0000      45.7499    -999.2500    -999.2500     643.7720     285.3800     368.6250       0.0659       2.9620       2.7770     660.2500
