#------------------------------------------------------------------------------
#
#   Created by  : [OpenWorks] Log Export Utility (LEXP)
#   Created on  : 2016-05-11 12:13:40
#   Project     : CANT971
#   User        : R5K
#   Interpreter : PEP
#
#------------------------------------------------------------------------------
~VERSION INFORMATION
VERS. 2.0 : CWLS Log ASCII Standard - version 2.0
WRAP.  NO : One line per depth step
~WELL INFORMATION
#MNEMONIC   .UNIT                                           VALUE :DESCRIPTION
#------------------------------------------------------------------------------
STRT        .M                                          1413.5103 :START DEPTH
STOP        .M                                          2773.8328 :STOP DEPTH
STEP        .M                                             0.1524 :STEP
NULL        .                                           -999.2500 :NULL VALUE
COMP        .                                   PEMEX EXPL & PROD :COMPANY
WELL        .                                               1188D :WELL
FLD         .                                           CANTARELL :FIELD
LOC         .                                             UNKNOWN :LOCATION
CNTY        .                                      CD. DEL CARMEN :COUNTY
STAT        .                                            CAMPECHE :STATE
CTRY        .                                              MEXICO :COUNTRY
SRVC        .                                             UNKNOWN :SERVICE COMPANY
DATE        .                                             UNKNOWN :LOG DATE
UWI         .                                               1188D :UNIQUE WELL ID
XCOORD      .                                       601391.859000 :SURFACE X
YCOORD      .                                      2149874.166000 :SURFACE Y
LAT         .                                           19.441847 :LATITUDE
LON         .                                          -92.034128 :LONGITUDE
ELEV        .M                                            28.0000 :SURFACE ELEV
ELEV_TYPE   .                                                  KB :ELEV TYPE
~CURVE INFORMATION
#MNEMONIC.UNIT        API CODE       : CURVE DESCRIPTION
#------------------------------------------------------------------------------
DEPTH    .M                          : Measured Depth
CALI     .inches      UNKNOWN        : CALI:Import:rC:NONE:v0 (auto-composite)
DRHO     .g/cm3       UNKNOWN        : DRHO:Import:rC:NONE:v0 (auto-composite)
DT       .us/ft       UNKNOWN        : DT:Import:rC:NONE:v0 (auto-composite)
GR       .API         UNKNOWN        : GR:Import:rC:NONE:v0 (auto-composite)
ILD      .ohm.m       UNKNOWN        : ILD:Import:rC:NONE:v0 (auto-composite)
ILM      .ohm.m       UNKNOWN        : ILM:Import:rC:NONE:v0 (auto-composite)
LLD      .ohm.m       UNKNOWN        : LLD:Import:rC:NONE:v0 (auto-composite)
LLS      .ohm.m       UNKNOWN        : LLS:Import:rC:NONE:v0 (auto-composite)
MSFL     .ohm.m       UNKNOWN        : MSFL:Import:rC:NONE:v0 (auto-composite)
NPHI     .v/v_decimal UNKNOWN        : NPHI:Import:rC:NONE:v0 (auto-composite)
PEF      .b/elec      UNKNOWN        : PEF:Import:rC:NONE:v0 (auto-composite)
RHOB     .g/cm3       UNKNOWN        : RHOB:Import:rC:NONE:v0 (auto-composite)
SP       .mV          UNKNOWN        : SP:Import:rC:NONE:v0 (auto-composite)
~A     DEPTH         CALI         DRHO           DT           GR          ILD          ILM          LLD          LLS         MSFL         NPHI          PEF         RHOB           SP
# ...
   2546.7566       7.6737       0.0615      88.7751      28.8930    -999.2500    -999.2500       3.4840       2.5730      10.9992       0.3608       3.0507       2.2354     667.7500
   2546.9089       7.9540       0.0890      80.5000      33.1428    -999.2500    -999.2500       3.8790       2.6100       4.0780       0.4045       2.6170       2.1480     667.7500
   2547.0615       8.2702       0.0660      81.7764      37.3860    -999.2500    -999.2500       3.8040       2.5075       3.6230       0.4099       2.6290       2.0880     667.7500
   2547.2139       8.5860       0.0430      83.0510      41.1287    -999.2500    -999.2500       3.7290       2.4050       3.1680       0.4091       2.6410       2.0280     667.6644
   2547.3662       8.2068       0.0445      91.7757      44.8660    -999.2500    -999.2500       2.4732       1.7841       2.1956       0.4029       3.0953       2.0485     667.5790
   2547.5186       7.8280       0.0460     100.4890      54.4392    -999.2500    -999.2500       1.2170       1.1630       1.2230       0.3907       3.5490       2.0690     667.1212
   2547.6711       8.0041       0.0790     113.2520      64.0000    -999.2500    -999.2500       1.2720       1.1800       1.5039       0.3407       3.5280       2.2606     666.6640
   2547.8235       8.1800       0.1120     126.0000      63.4827    -999.2500    -999.2500       1.3270       1.1970       1.7850       0.2930       3.5070       2.4520     666.4134
   2547.9758       8.1109       0.1120     125.1676      62.9660    -999.2500    -999.2500       1.7209       1.3460       1.7130       0.3009       3.2326       2.4215     666.1630
   2548.1282       8.0420       0.1120     124.3360      60.0650    -999.2500    -999.2500       2.1150       1.4950       1.6410       0.3106       2.9590       2.3910     665.7063
   2548.2808       7.5769       0.1080     102.7205      57.1670    -999.2500    -999.2500       2.8153       2.0928       2.1782       0.2770       3.0546       2.4125     665.2500
   2548.4331       7.1130       0.1040      81.1250      54.5293    -999.2500    -999.2500       3.5150       2.6900       2.7150       0.2420       3.1500       2.4340     665.2940
   2548.5854       7.3793       0.0609      81.7212      51.8940    -999.2500    -999.2500       3.3329       2.5159       2.5995       0.2399       3.1345       2.4025     665.3380
   2548.7378       7.6450       0.0180      82.3160      48.7132    -999.2500    -999.2500       3.1510       2.3420       2.4840       0.2433       3.1190       2.3710     665.5441
   2548.8901       7.3046       0.0230      88.6968      45.5350    -999.2500    -999.2500       3.1665       2.3605       2.4915       0.2543       3.2471       2.3735     665.7500
   2549.0427       6.9650       0.0280      95.0630      41.3441    -999.2500    -999.2500       3.1820       2.3790       2.4990       0.2658       3.3750       2.3760     665.7500
   2549.1951       6.9665       0.0525      94.3577      37.1560    -999.2500    -999.2500       3.5101       2.5000       2.6000       0.2722       3.2999       2.3975     665.7500
   2549.3474       6.9680       0.0770      93.6540      37.5940    -999.2500    -999.2500       3.8380       2.6210       2.7010       0.2772       3.2250       2.4190     665.7500
   2549.4998       7.2793       0.0880      90.3106      38.0310    -999.2500    -999.2500       3.8085       2.7675       4.1418       0.2771       3.4367       2.3905     665.7500
   2549.6523       7.5900       0.0990      86.9740      37.7532    -999.2500    -999.2500       3.7790       2.9140       5.5820       0.2759       3.6480       2.3620     665.4998
   2549.8047       7.3613       0.0985      82.5453      37.4760    -999.2500    -999.2500       3.5065       2.8795       5.5005       0.2712       3.6460       2.3655     665.2500
   2549.9570       7.1330       0.0980      78.1250      36.0962    -999.2500    -999.2500       3.2340       2.8450       5.4190       0.2656       3.6440       2.3690     665.2955
   2550.1094       7.1855       0.0985      78.6144      34.7190    -999.2500    -999.2500       3.2370       2.6650       5.0205       0.2554       3.4488       2.3860     665.3410
   2550.2620       7.2380       0.0990      79.1030      34.8867    -999.2500    -999.2500       3.2400       2.4850       4.6220       0.2439       3.2540       2.4030     665.5912
   2550.4143       7.2285       0.0945      84.7747      35.0540    -999.2500    -999.2500       3.6855       2.7895       3.9000       0.2257       3.6388       2.4145     665.8410
   2550.5667       7.2190       0.0900      90.4370      36.0904    -999.2500    -999.2500       4.1310       3.0940       3.1780       0.2065       4.0230       2.4260     666.0457
   2550.7190       7.1094       0.0685      90.2063      37.1250    -999.2500    -999.2500       4.1185       2.9565       3.4935       0.1858       3.9920       2.4675     666.2500
   2550.8713       7.0000       0.0470      89.9760      35.5143    -999.2500    -999.2500       4.1060       2.8190       3.8090       0.1675       3.9610       2.5090     666.2500
   2551.0239       7.1661       0.0225      88.8802      33.9060    -999.2500    -999.2500       4.0300       2.8395       2.9476       0.1696       3.3160       2.3254     666.2500
   2551.1763       7.3320      -0.0020      87.7860      34.0196    -999.2500    -999.2500       3.9540       2.8600       2.0860       0.1763       2.6720       2.1420     666.2500
   2551.3286       7.2399       0.0025      83.8590      34.1330    -999.2500    -999.2500       4.8244       3.4994       5.3860       0.2021       2.8341       2.1465     666.2500
   2551.4810       7.1480       0.0070      79.9370      34.6909    -999.2500    -999.2500       5.6950       4.1390       8.6870       0.2322       2.9960       2.1510     666.5002
   2551.6335       7.1755       0.0305      80.9981      35.2480    -999.2500    -999.2500       5.6240       4.0585       6.3165       0.2808       2.9230       2.1470     666.7500
   2551.7859       7.2030       0.0540      82.0580      35.7503    -999.2500    -999.2500       5.5530       3.9780       3.9450       0.3207       2.8500       2.1430     666.7030
   2551.9382       6.8901       0.0700      86.9380      36.2520    -999.2500    -999.2500       4.3259       3.3717       4.4234       0.2657       3.4393       2.1510     666.6560
   2552.0906       6.5780       0.0860      91.8130      37.6962    -999.2500    -999.2500       3.0980       2.7650       4.9020       0.2061       4.0270       2.1590     666.2028
   2552.2432       6.6591       0.0990      90.4684      39.1390    -999.2500    -999.2500       3.1205       2.7655       3.8565       0.2034       3.9609       2.1940     665.7500
   2552.3955       6.7400       0.1120      89.1250      44.2593    -999.2500    -999.2500       3.1430       2.7660       2.8120       0.2089       3.8950       2.2290     665.7500
   2552.5479       7.1059       0.1110     100.0129      49.3750    -999.2500    -999.2500       4.0549       3.2357       2.8320       0.2284       3.4790       2.1960     665.7500
   2552.7002       7.4710       0.1100     110.8750      45.5765    -999.2500    -999.2500       4.9660       3.7050       2.8520       0.2499       3.0640       2.1630     666.0001
   2552.8525       8.0371       0.1180      96.8903      41.7810    -999.2500    -999.2500       4.9020       3.6820       6.8533       0.2735       3.0915       2.2151     666.2500
   2553.0051       8.6020       0.1260      82.9370      42.2717    -999.2500    -999.2500       4.8380       3.6590      10.8520       0.2969       3.1190       2.2670     665.7498
   2553.1575       8.1620       0.1255      83.5321      42.7620    -999.2500    -999.2500       3.8993       3.2019       6.5274       0.3170       2.9028       2.2610     665.2500
   2553.3098       7.7230       0.1250      84.1260      44.9328    -999.2500    -999.2500       2.9610       2.7450       2.2050       0.3344       2.6870       2.2550     665.2500
