#------------------------------------------------------------------------------
#
#   Created by  : [OpenWorks] Log Export Utility (LEXP)
#   Created on  : 2016-05-11 12:13:40
#   Project     : CANT971
#   User        : R5K
#   Interpreter : PEP
#
#------------------------------------------------------------------------------
~VERSION INFORMATION
VERS. 2.0 : CWLS Log ASCII Standard - version 2.0
WRAP.  NO : One line per depth step
~WELL INFORMATION
#MNEMONIC   .UNIT                                           VALUE :DESCRIPTION
#------------------------------------------------------------------------------
STRT        .M                                          1413.5103 :START DEPTH
STOP        .M                                          2773.8328 :STOP DEPTH
STEP        .M                                             0.1524 :STEP
NULL        .                                           -999.2500 :NULL VALUE
COMP        .                                   PEMEX EXPL & PROD :COMPANY
WELL        .                                               1188D :WELL
FLD         .                                           CANTARELL :FIELD
LOC         .                                             UNKNOWN :LOCATION
CNTY        .                                      CD. DEL CARMEN :COUNTY
STAT        .                                            CAMPECHE :STATE
CTRY        .                                              MEXICO :COUNTRY
SRVC        .                                             UNKNOWN :SERVICE COMPANY
DATE        .                                             UNKNOWN :LOG DATE
UWI         .                                               1188D :UNIQUE WELL ID
XCOORD      .                                       601391.859000 :SURFACE X
YCOORD      .                                      2149874.166000 :SURFACE Y
LAT         .                                           19.441847 :LATITUDE
LON         .                                          -92.034128 :LONGITUDE
ELEV        .M                                            28.0000 :SURFACE ELEV
ELEV_TYPE   .                                                  KB :ELEV TYPE
~CURVE INFORMATION
#MNEMONIC.UNIT        API CODE       : CURVE DESCRIPTION
#------------------------------------------------------------------------------
DEPTH    .M                          : Measured Depth
CALI     .inches      UNKNOWN        : CALI:Import:rC:NONE:v0 (auto-composite)
DRHO     .g/cm3       UNKNOWN        : DRHO:Import:rC:NONE:v0 (auto-composite)
DT       .us/ft       UNKNOWN        : DT:Import:rC:NONE:v0 (auto-composite)
GR       .API         UNKNOWN        : GR:Import:rC:NONE:v0 (auto-composite)
ILD      .ohm.m       UNKNOWN        : ILD:Import:rC:NONE:v0 (auto-composite)
ILM      .ohm.m       UNKNOWN        : ILM:Import:rC:NONE:v0 (auto-composite)
LLD      .ohm.m       UNKNOWN        : LLD:Import:rC:NONE:v0 (auto-composite)
LLS      .ohm.m       UNKNOWN        : LLS:Import:rC:NONE:v0 (auto-composite)
MSFL     .ohm.m       UNKNOWN        : MSFL:Import:rC:NONE:v0 (auto-composite)
NPHI     .v/v_decimal UNKNOWN        : NPHI:Import:rC:NONE:v0 (auto-composite)
PEF      .b/elec      UNKNOWN        : PEF:Import:rC:NONE:v0 (auto-composite)
RHOB     .g/cm3       UNKNOWN        : RHOB:Import:rC:NONE:v0 (auto-composite)
SP       .mV          UNKNOWN        : SP:Import:rC:NONE:v0 (auto-composite)
~A     DEPTH         CALI         DRHO           DT           GR          ILD          ILM          LLD          LLS         MSFL         NPHI          PEF         RHOB           SP
# ...
   2526.6399       5.9000       0.0025      72.1275       8.6020    -999.2500    -999.2500      33.2830      37.5630     104.0370       0.1775       5.6055       2.3920     644.6590
   2526.7922       5.8900       0.0030      71.0630       7.6792    -999.2500    -999.2500      37.5590      42.0090      99.4500       0.1755       5.5630       2.3980     644.1810
   2526.9446       5.7634       0.0105      73.5021       6.7580    -999.2500    -999.2500      37.5585      41.9790      57.9573       0.1658       5.5180       2.3960     643.7040
   2527.0972       5.6370       0.0180      75.9370       7.7433    -999.2500    -999.2500      37.5580      41.9490      16.4690       0.1561       5.4730       2.3940     643.2266
   2527.2495       5.6370       0.0175      75.7984       8.7270    -999.2500    -999.2500      37.0680      40.7280      17.4925       0.1541       5.1427       2.4010     642.7500
   2527.4019       5.6370       0.0170      75.6600       8.7200    -999.2500    -999.2500      36.5780      39.5070      18.5160       0.1543       4.8130       2.4080     642.7735
   2527.5542       5.5644       0.0135      74.1919       8.7130    -999.2500    -999.2500      38.3464      41.4044      59.4110       0.1553       5.4930       2.4070     642.7970
   2527.7065       5.4920       0.0100      72.7260       8.1586    -999.2500    -999.2500      40.1150      43.3020     100.3120       0.1561       6.1720       2.4060     643.0237
   2527.8591       5.4920      -0.0150      70.2679       7.6050    -999.2500    -999.2500      39.7945      42.5331      98.7567       0.1554       6.1530       2.4060     643.2500
   2528.0115       5.4920      -0.0400      67.8130       7.9863    -999.2500    -999.2500      39.4740      41.7640      97.2010       0.1517       6.1340       2.4060     643.2985
   2528.1638       5.4990      -0.0395      67.9321       8.3670    -999.2500    -999.2500      36.7230      41.8255      69.9339       0.1381       5.9054       2.4230     643.3470
   2528.3162       5.5060      -0.0390      68.0510       8.3275    -999.2500    -999.2500      33.9710      41.8870      42.6560       0.1408       5.6770       2.4400     643.8478
   2528.4688       5.7551      -0.0150      70.1516       8.2880    -999.2500    -999.2500      34.4969      43.0532      44.2351       0.2210       4.4063       2.2859     644.3480
   2528.6211       6.0040       0.0090      72.2500       7.8097    -999.2500    -999.2500      35.0230      44.2200      45.8150       0.3030       3.1370       2.1320     644.8738
   2528.7734       5.9875       0.0075      69.6216       7.3320    -999.2500    -999.2500      51.4547      62.4246      66.6662       0.3140       3.1450       2.1335     645.3990
   2528.9258       5.9710       0.0060      67.0000       7.3835    -999.2500    -999.2500      67.8970      80.6410      87.5310       0.2905       3.1530       2.1350     646.1754
   2529.0784       5.8203       0.0270      67.8190       7.4350    -999.2500    -999.2500      61.3778      73.3525     140.0687       0.1948       3.2661       2.3588     646.9510
   2529.2307       5.6700       0.0480      68.6360       8.6680    -999.2500    -999.2500      54.8640      66.0700     192.5630       0.1000       3.3790       2.5820     648.1540
   2529.3831       5.5889       0.0240      75.9830       9.9000    -999.2500    -999.2500      28.8604      34.9046      97.2551       0.0820       3.7269       2.5770     649.3560
   2529.5354       5.5080       0.0000      83.3130      25.7681    -999.2500    -999.2500       2.8750       3.7610       2.0140       0.0833       4.0740       2.5720     652.4136
   2529.6877       5.5821       0.0225      73.6775      41.6250    -999.2500    -999.2500       2.9520       3.8305     207.3787       0.0890       4.2132       2.5259     655.4690
   2529.8403       5.6560       0.0450      64.0630      40.8128    -999.2500    -999.2500       3.0290       3.9000     412.6250       0.1014       4.3520       2.4800     658.7654
   2529.9927       5.6530       0.0435      64.1516      40.0010    -999.2500    -999.2500       7.9611       9.1652     208.4640       0.1381       4.2499       2.4229     662.0600
   2530.1450       5.6500       0.0420      64.2400      30.3811    -999.2500    -999.2500      12.8910      14.4280       4.3950       0.1717       4.1480       2.3660     663.4855
   2530.2974       5.5709       0.0280      65.0818      20.7810    -999.2500    -999.2500      12.4549      13.8744     356.6299       0.1681       4.1495       2.3725     664.9080
   2530.4500       5.4920       0.0140      65.9220      21.1679    -999.2500    -999.2500      12.0190      13.3210     708.7500       0.1581       4.1510       2.3790     665.6062
   2530.6023       5.4920      -0.0075      70.4336      21.5540    -999.2500    -999.2500       8.4721       9.4506     357.6114       0.1584       4.2411       2.3445     666.3030
   2530.7546       5.4920      -0.0290      74.9370      26.7737    -999.2500    -999.2500       4.9260       5.5810       6.5430       0.1606       4.3310       2.3100     666.5267
   2530.9070       5.4920      -0.0270      74.7443      31.9840    -999.2500    -999.2500       5.1840       5.8485       7.1425       0.1607       4.9916       2.3140     666.7500
   2531.0596       5.4920      -0.0250      74.5520      31.3800    -999.2500    -999.2500       5.4420       6.1160       7.7420       0.1596       5.6510       2.3180     666.6689
   2531.2119       5.4920      -0.0250      72.9312      30.7770    -999.2500    -999.2500       9.8259      10.4809       7.7380       0.1552       6.0428       2.3570     666.5880
   2531.3643       5.4920      -0.0250      71.3130      25.2552    -999.2500    -999.2500      14.2100      14.8460       7.7340       0.1490       6.4340       2.3960     665.5062
   2531.5166       5.4940      -0.0305      72.6575      19.7420    -999.2500    -999.2500      35.9831      40.7452       8.6674       0.1379       6.0998       2.4265     664.4260
   2531.6689       5.4960      -0.0360      74.0000      13.6442    -999.2500    -999.2500      57.7600      66.6490       9.6010       0.1248       5.7660       2.4570     660.9750
   2531.8215       5.5180      -0.0355      73.8524       7.5550    -999.2500    -999.2500      53.7776      63.9639      61.6361       0.1083       5.7755       2.4845     657.5290
   2531.9739       5.5400      -0.0350      73.7050       8.5792    -999.2500    -999.2500      49.7940      61.2780     113.6870       0.0943       5.7850       2.5120     656.4703
   2532.1262       5.5960      -0.0295      72.2987       9.6020    -999.2500    -999.2500      50.0255      61.4850      82.6471       0.0951       5.6924       2.5105     655.4130
   2532.2786       5.6520      -0.0240      70.8940       9.4959    -999.2500    -999.2500      50.2570      61.6920      51.5940       0.1041       5.6000       2.5090     653.8306
   2532.4312       5.7265      -0.0075      68.1020       9.3900    -999.2500    -999.2500      64.0757      72.7464      53.2201       0.1359       4.8286       2.4930     652.2500
   2532.5835       5.8010       0.0090      65.3130       8.0988    -999.2500    -999.2500      77.9020      83.8070      54.8470       0.1728       4.0580       2.4770     652.3361
   2532.7358       5.9417       0.0375      65.5007       6.8090    -999.2500    -999.2500      70.1656      75.7057     135.9899       0.2104       3.4482       2.4445     652.4220
   2532.8882       6.0820       0.0660      65.6880       7.7809    -999.2500    -999.2500      62.4240      67.5990     217.1880       0.2452       2.8400       2.4120     653.1729
   2533.0408       6.0174       0.0635      67.5452       8.7520    -999.2500    -999.2500      36.1930      39.4778     110.6435       0.2672       3.2850       2.4265     653.9230
   2533.1931       5.9530       0.0610      69.3980      17.2564    -999.2500    -999.2500       9.9830      11.3790       4.1840       0.2833       3.7290       2.4410     654.9649
