#------------------------------------------------------------------------------
#
#   Created by  : [OpenWorks] Log Export Utility (LEXP)
#   Created on  : 2016-05-11 12:13:40
#   Project     : CANT971
#   User        : R5K
#   Interpreter : PEP
#
#------------------------------------------------------------------------------
~VERSION INFORMATION
VERS. 2.0 : CWLS Log ASCII Standard - version 2.0
WRAP.  NO : One line per depth step
~WELL INFORMATION
#MNEMONIC   .UNIT                                           VALUE :DESCRIPTION
#------------------------------------------------------------------------------
STRT        .M                                          1413.5103 :START DEPTH
STOP        .M                                          2773.8328 :STOP DEPTH
STEP        .M                                             0.1524 :STEP
NULL        .                                           -999.2500 :NULL VALUE
COMP        .                                   PEMEX EXPL & PROD :COMPANY
WELL        .                                               1188D :WELL
FLD         .                                           CANTARELL :FIELD
LOC         .                                             UNKNOWN :LOCATION
CNTY        .                                      CD. DEL CARMEN :COUNTY
STAT        .                                            CAMPECHE :STATE
CTRY        .                                              MEXICO :COUNTRY
SRVC        .                                             UNKNOWN :SERVICE COMPANY
DATE        .                                             UNKNOWN :LOG DATE
UWI         .                                               1188D :UNIQUE WELL ID
XCOORD      .                                       601391.859000 :SURFACE X
YCOORD      .                                      2149874.166000 :SURFACE Y
LAT         .                                           19.441847 :LATITUDE
LON         .                                          -92.034128 :LONGITUDE
ELEV        .M                                            28.0000 :SURFACE ELEV
ELEV_TYPE   .                                                  KB :ELEV TYPE
~CURVE INFORMATION
#MNEMONIC.UNIT        API CODE       : CURVE DESCRIPTION
#------------------------------------------------------------------------------
DEPTH    .M                          : Measured Depth
CALI     .inches      UNKNOWN        : CALI:Import:rC:NONE:v0 (auto-composite)
DRHO     .g/cm3       UNKNOWN        : DRHO:Import:rC:NONE:v0 (auto-composite)
DT       .us/ft       UNKNOWN        : DT:Import:rC:NONE:v0 (auto-composite)
GR       .API         UNKNOWN        : GR:Import:rC:NONE:v0 (auto-composite)
ILD      .ohm.m       UNKNOWN        : ILD:Import:rC:NONE:v0 (auto-composite)
ILM      .ohm.m       UNKNOWN        : ILM:Import:rC:NONE:v0 (auto-composite)
LLD      .ohm.m       UNKNOWN        : LLD:Import:rC:NONE:v0 (auto-composite)
LLS      .ohm.m       UNKNOWN        : LLS:Import:rC:NONE:v0 (auto-composite)
MSFL     .ohm.m       UNKNOWN        : MSFL:Import:rC:NONE:v0 (auto-composite)
NPHI     .v/v_decimal UNKNOWN        : NPHI:Import:rC:NONE:v0 (auto-composite)
PEF      .b/elec      UNKNOWN        : PEF:Import:rC:NONE:v0 (auto-composite)
RHOB     .g/cm3       UNKNOWN        : RHOB:Import:rC:NONE:v0 (auto-composite)
SP       .mV          UNKNOWN        : SP:Import:rC:NONE:v0 (auto-composite)
~A     DEPTH         CALI         DRHO           DT           GR          ILD          ILM          LLD          LLS         MSFL         NPHI          PEF         RHOB           SP
# ...
   2734.5134       5.2990      -0.0135      47.8438      54.8850    -999.2500    -999.2500     936.7151     570.0048     334.1473       0.0948       2.8554       2.6670     676.1950
   2734.6658       5.2930      -0.0130      48.3250      51.2961    -999.2500    -999.2500     803.7850     468.9290     113.8130       0.0972       2.6500       2.6120     676.2225
   2734.8184       5.3155      -0.0070      49.2324      47.7110    -999.2500    -999.2500     699.5317     413.6030     146.8588       0.0992       2.7686       2.5925     676.2500
   2734.9707       5.3380      -0.0010      50.1390      46.8866    -999.2500    -999.2500     595.3780     358.3300     179.8730       0.0991       2.8870       2.5730     676.6967
   2735.1230       5.3410       0.0070      50.4601      46.0630    -999.2500    -999.2500     489.6506     300.1154     247.2770       0.0939       3.1478       2.6431     677.1430
   2735.2754       5.3440       0.0150      50.7810      48.5660    -999.2500    -999.2500     384.0110     241.9490     314.6250       0.0887       3.4080       2.7130     677.4469
   2735.4277       5.3440       0.0135      50.5309      51.0630    -999.2500    -999.2500     393.5428     254.0603     176.5293       0.0887       3.2508       2.7400     677.7500
   2735.5803       5.3440       0.0120      50.2810      50.6245    -999.2500    -999.2500     403.0680     266.1630      38.5310       0.0905       3.0940       2.7670     677.4997
   2735.7327       5.2794       0.0075      50.5783      50.1870    -999.2500    -999.2500     609.2607     404.0859      49.2481       0.0919       3.0520       2.7445     677.2500
   2735.8850       5.2150       0.0030      50.8750      50.7056    -999.2500    -999.2500     815.3340     541.9290      59.9590       0.0916       3.0100       2.7220     677.2500
   2736.0374       5.2796       0.0060      50.2649      51.2230    -999.2500    -999.2500     895.5902     617.0936      79.6325       0.0876       3.2367       2.7285     677.2500
   2736.1899       5.3440       0.0090      49.6560      53.5359    -999.2500    -999.2500     975.8100     692.2240      99.2970       0.0852       3.4630       2.7350     676.9998
   2736.3423       5.3070       0.0070      49.6875      55.8440    -999.2500    -999.2500    1046.1116     715.9064     194.3981       0.0913       3.2383       2.7285     676.7500
   2736.4946       5.2700       0.0050      49.7190      51.3862    -999.2500    -999.2500    1116.3900     739.5810     289.4680       0.0979       3.0140       2.7220     676.7500
   2736.6470       5.2425       0.0080      49.3907      46.9370    -999.2500    -999.2500     940.2037     629.5244     992.0552       0.0978       2.7733       2.7230     676.7500
   2736.7996       5.2150       0.0110      49.0630      52.1137    -999.2500    -999.2500     764.0530     519.4900    1694.5000       0.0952       2.5330       2.7240     676.9747
   2736.9519       5.2570       0.0120      49.5979      57.2810    -999.2500    -999.2500     621.2385     434.7922     912.8135       0.0921       2.8177       2.7525     677.1990
   2737.1042       5.2990       0.0130      50.1320      56.9852    -999.2500    -999.2500     478.4350     350.1010     131.1870       0.0888       3.1020       2.7810     677.4497
   2737.2566       5.3095       0.0045      50.4568      56.6900    -999.2500    -999.2500     595.3506     439.6148     520.2090       0.0850       3.0264       2.7660     677.7000
   2737.4089       5.3200      -0.0040      50.7810      50.6813    -999.2500    -999.2500     712.2720     529.1330     909.2500       0.0817       2.9510       2.7510     678.1759
   2737.5615       5.2655      -0.0030      50.3747      44.6820    -999.2500    -999.2500     777.1178     599.9098     682.0218       0.0804       3.3028       2.7540     678.6510
   2737.7139       5.2110      -0.0020      49.9690      43.3400    -999.2500    -999.2500     841.9750     670.6990     454.7540       0.0809       3.6540       2.7570     678.7006
   2737.8662       5.2125      -0.0015      50.0395      42.0000    -999.2500    -999.2500     746.9377     607.2665     301.6810       0.0839       3.4384       2.7350     678.7500
   2738.0186       5.2140      -0.0010      50.1100      43.1257    -999.2500    -999.2500     651.8720     543.8150     148.5620       0.0874       3.2230       2.7130     678.7500
   2738.1711       5.2435      -0.0045      50.1740      44.2500    -999.2500    -999.2500     756.2083     620.4892     314.9086       0.0904       3.2345       2.6835     678.7500
   2738.3235       5.2730      -0.0080      50.2380      41.8156    -999.2500    -999.2500     860.5890     697.1960     481.3260       0.0927       3.2460       2.6540     679.0001
   2738.4758       5.2615      -0.0105      50.3150      39.3840    -999.2500    -999.2500    1406.0551    1117.6506     542.2877       0.0941       3.1449       2.6305     679.2500
   2738.6282       5.2500      -0.0130      50.3920      32.5634    -999.2500    -999.2500    1951.8220    1538.3370     603.2830       0.0945       3.0440       2.6070     678.9999
   2738.7808       5.2590      -0.0175      50.4415      25.7500    -999.2500    -999.2500   11890.6670    8578.4326    1270.2001       0.0926       2.9925       2.6135     678.7500
   2738.9331       5.2680      -0.0220      50.4910      21.4300    -999.2500    -999.2500   21820.3164   15612.0146    1936.5000       0.0894       2.9410       2.6200     679.8850
   2739.0854       5.3025      -0.0225      50.8236      17.1140    -999.2500    -999.2500   30902.4824   23534.7910    1854.4673       0.0854       3.0271       2.6350     681.0190
   2739.2378       5.3370      -0.0230      51.1560      15.2267    -999.2500    -999.2500   39977.3906   31451.2363    1772.5000       0.0815       3.1130       2.6500     682.0443
   2739.3901       5.3405      -0.0250      50.7654      13.3440    -999.2500    -999.2500   39556.0234   36561.6523    1872.0336       0.0793       2.9538       2.6560     683.0670
   2739.5427       5.3440      -0.0270      50.3750      14.1794    -999.2500    -999.2500   39134.9375   41668.6211    1971.5000       0.0772       2.7950       2.6620     683.6136
   2739.6951       5.3440      -0.0255      50.5782      15.0130    -999.2500    -999.2500   33329.0859   31871.9473    1632.9072       0.0734       2.8090       2.6870     684.1590
   2739.8474       5.3440      -0.0240      50.7810      16.4300    -999.2500    -999.2500   27526.4141   22080.6445    1294.5000       0.0685       2.8230       2.7120     684.2045
   2739.9998       5.3440      -0.0235      50.5933      17.8440    -999.2500    -999.2500   19854.9844   15849.6045    1470.6428       0.0626       2.8886       2.7355     684.2500
   2740.1523       5.3440      -0.0230      50.4060      17.4136    -999.2500    -999.2500   12186.8008    9621.2002    1646.7111       0.0588       2.9540       2.7590     684.7065
   2740.3047       5.3440      -0.0220      50.4215      16.9840    -999.2500    -999.2500    7111.9390    5759.0986    1768.6237       0.0621       2.9875       2.7315     685.1620
   2740.4570       5.3440      -0.0210      50.4370      20.3912    -999.2500    -999.2500    2038.5850    1898.1450    1890.5000       0.0672       3.0210       2.7040     685.4348
   2740.6094       5.3440      -0.0175      49.4051      23.7920    -999.2500    -999.2500    1608.3220    1488.1774    1032.8329       0.0703       2.9344       2.6545     685.7070
   2740.7620       5.3440      -0.0140      48.3750      35.9388    -999.2500    -999.2500    1178.1331    1078.2800     175.3130       0.0721       2.8480       2.6050     686.2289
   2740.9143       5.3440      -0.0075      48.3750      48.0640    -999.2500    -999.2500     951.0233     873.0118     204.0637       0.0719       2.9741       2.6711     686.7500
   2741.0667       5.3440      -0.0010      48.3750      51.3317    -999.2500    -999.2500     723.9240     667.7530     232.8130       0.0714       3.1000       2.7370     686.4998
