#------------------------------------------------------------------------------
#
#   Created by  : [OpenWorks] Log Export Utility (LEXP)
#   Created on  : 2016-05-11 12:13:40
#   Project     : CANT971
#   User        : R5K
#   Interpreter : PEP
#
#------------------------------------------------------------------------------
~VERSION INFORMATION
VERS. 2.0 : CWLS Log ASCII Standard - version 2.0
WRAP.  NO : One line per depth step
~WELL INFORMATION
#MNEMONIC   .UNIT                                           VALUE :DESCRIPTION
#------------------------------------------------------------------------------
STRT        .M                                          1413.5103 :START DEPTH
STOP        .M                                          2773.8328 :STOP DEPTH
STEP        .M                                             0.1524 :STEP
NULL        .                                           -999.2500 :NULL VALUE
COMP        .                                   PEMEX EXPL & PROD :COMPANY
WELL        .                                               1188D :WELL
FLD         .                                           CANTARELL :FIELD
LOC         .                                             UNKNOWN :LOCATION
CNTY        .                                      CD. DEL CARMEN :COUNTY
STAT        .                                            CAMPECHE :STATE
CTRY        .                                              MEXICO :COUNTRY
SRVC        .                                             UNKNOWN :SERVICE COMPANY
DATE        .                                             UNKNOWN :LOG DATE
UWI         .                                               1188D :UNIQUE WELL ID
XCOORD      .                                       601391.859000 :SURFACE X
YCOORD      .                                      2149874.166000 :SURFACE Y
LAT         .                                           19.441847 :LATITUDE
LON         .                                          -92.034128 :LONGITUDE
ELEV        .M                                            28.0000 :SURFACE ELEV
ELEV_TYPE   .                                                  KB :ELEV TYPE
~CURVE INFORMATION
#MNEMONIC.UNIT        API CODE       : CURVE DESCRIPTION
#------------------------------------------------------------------------------
DEPTH    .M                          : Measured Depth
CALI     .inches      UNKNOWN        : CALI:Import:rC:NONE:v0 (auto-composite)
DRHO     .g/cm3       UNKNOWN        : DRHO:Import:rC:NONE:v0 (auto-composite)
DT       .us/ft       UNKNOWN        : DT:Import:rC:NONE:v0 (auto-composite)
GR       .API         UNKNOWN        : GR:Import:rC:NONE:v0 (auto-composite)
ILD      .ohm.m       UNKNOWN        : ILD:Import:rC:NONE:v0 (auto-composite)
ILM      .ohm.m       UNKNOWN        : ILM:Import:rC:NONE:v0 (auto-composite)
LLD      .ohm.m       UNKNOWN        : LLD:Import:rC:NONE:v0 (auto-composite)
LLS      .ohm.m       UNKNOWN        : LLS:Import:rC:NONE:v0 (auto-composite)
MSFL     .ohm.m       UNKNOWN        : MSFL:Import:rC:NONE:v0 (auto-composite)
NPHI     .v/v_decimal UNKNOWN        : NPHI:Import:rC:NONE:v0 (auto-composite)
PEF      .b/elec      UNKNOWN        : PEF:Import:rC:NONE:v0 (auto-composite)
RHOB     .g/cm3       UNKNOWN        : RHOB:Import:rC:NONE:v0 (auto-composite)
SP       .mV          UNKNOWN        : SP:Import:rC:NONE:v0 (auto-composite)
~A     DEPTH         CALI         DRHO           DT           GR          ILD          ILM          LLD          LLS         MSFL         NPHI          PEF         RHOB           SP
# ...
   2714.3967       5.4181      -0.0000      54.1314      44.5250    -999.2500    -999.2500     800.2219     488.0839     268.7861       0.0724       3.4728       2.7435     678.7500
   2714.5491       5.4920      -0.0040      54.0150      45.2670    -999.2500    -999.2500     838.5280     514.2760     230.9380       0.0688       3.8710       2.7540     679.1573
   2714.7014       5.4665      -0.0180      53.5462      46.0080    -999.2500    -999.2500    1112.2433     718.7940     311.6397       0.0688       3.1240       2.6339     679.5640
   2714.8538       5.4410      -0.0320      53.0780      47.1452    -999.2500    -999.2500    1386.0590     923.3870     392.3710       0.0713       2.3780       2.5140     679.6570
   2715.0063       5.6421      -0.0685      51.7513      48.2810    -999.2500    -999.2500    1837.2665    1297.0276    1094.7627       0.0750       1.9122       1.9482     679.7500
   2715.1587       5.8430      -0.1050      50.4260      45.0902    -999.2500    -999.2500    2288.6960    1670.8521    1797.5000       0.0833       1.4470       1.3830     679.7500
   2715.3110       6.0271      -0.0920      50.0563      41.9030    -999.2500    -999.2500    2090.9292    1475.1221    1176.5485       0.1002       1.5641       1.4360     679.7500
   2715.4634       6.2110      -0.0790      49.6870      40.7634    -999.2500    -999.2500    1893.0400    1279.2710     555.2130       0.1133       1.6810       1.4890     679.7500
   2715.6160       5.7773      -0.0545      52.8068      39.6250    -999.2500    -999.2500    1197.0732     809.8265     278.6598       0.1097       2.2542       1.8872     679.7500
   2715.7683       5.3440      -0.0300      55.9240      40.4694    -999.2500    -999.2500     501.7040     340.7850       2.3440       0.0998       2.8270       2.2850     679.3408
   2715.9207       5.3505      -0.0210      60.9323      41.3130    -999.2500    -999.2500     401.7214     275.1560       2.3590       0.0934       3.0222       2.5168     678.9320
   2716.0730       5.3570      -0.0120      65.9370      39.4513    -999.2500    -999.2500     301.8120     209.5750       2.3740       0.0892       3.2170       2.7480     678.5906
   2716.2253       5.3740      -0.0200      58.9979      37.5940    -999.2500    -999.2500     589.5134     422.0790      83.9933       0.0863       3.0869       2.7410     678.2500
   2716.3779       5.3910      -0.0280      52.0630      43.2913    -999.2500    -999.2500     877.0400     634.4540     165.5630       0.0846       2.9570       2.7340     678.2500
   2716.5303       5.4170      -0.0275      52.3753      48.9760    -999.2500    -999.2500    1357.8657     963.3942     612.6392       0.0837       2.9190       2.7140     678.2500
   2716.6826       5.4430      -0.0270      52.6870      57.7787    -999.2500    -999.2500    1838.4600    1292.1760    1059.5000       0.0837       2.8810       2.6940     677.6329
   2716.8350       5.4930      -0.0255      52.5459      66.5630    -999.2500    -999.2500    1738.9497    1230.1139    1045.8835       0.0848       3.0056       2.6810     677.0170
   2716.9875       5.5430      -0.0240      52.4050      61.8549    -999.2500    -999.2500    1639.4750    1168.0740    1032.2720       0.0859       3.1300       2.6680     676.4715
   2717.1399       5.4434      -0.0185      52.2584      57.1560    -999.2500    -999.2500    1418.9346     975.8248     962.5709       0.0862       3.2116       2.7050     675.9270
   2717.2922       5.3440      -0.0130      52.1120      60.8819    -999.2500    -999.2500    1198.4449     783.6200     892.8860       0.0865       3.2930       2.7420     675.6323
   2717.4446       5.3440      -0.0105      51.7902      64.6010    -999.2500    -999.2500    1076.3485     680.6846     658.6182       0.0875       3.2890       2.7265     675.3380
   2717.5972       5.3440      -0.0080      51.4690      68.0534    -999.2500    -999.2500     954.2650     577.7600     424.3750       0.0882       3.2850       2.7110     674.6744
   2717.7495       5.3615      -0.0025      51.0702      71.5000    -999.2500    -999.2500    1104.1725     664.8121     968.4319       0.0875       3.2775       2.7295     674.0120
   2717.9019       5.3790       0.0030      50.6720      70.9831    -999.2500    -999.2500    1254.0830     751.8660    1512.5000       0.0863       3.2700       2.7480     673.6743
   2718.0542       5.2869       0.0025      49.5852      70.4670    -999.2500    -999.2500    1392.3199     874.1241     864.3914       0.0852       3.2350       2.7195     673.3370
   2718.2065       5.1950       0.0020      48.5000      61.6236    -999.2500    -999.2500    1530.5770     996.4000     216.1880       0.0847       3.2000       2.6910     672.8792
   2718.3591       5.2695       0.0045      49.6883      52.7930    -999.2500    -999.2500    1489.1251     954.6827     218.3597       0.0851       3.1094       2.6765     672.4220
   2718.5115       5.3440       0.0070      50.8750      47.2523    -999.2500    -999.2500    1447.6620     912.9540     220.5320       0.0853       3.0190       2.6620     672.0858
   2718.6638       5.2695       0.0165      50.8360      41.7190    -999.2500    -999.2500    1494.9790     921.9787     259.5262       0.0837       2.9780       2.6980     671.7500
   2718.8162       5.1950       0.0260      50.7970      43.5486    -999.2500    -999.2500    1542.3149     931.0070     298.5360       0.0809       2.9370       2.7340     671.7500
   2718.9688       5.2570       0.0205      50.2417      45.3760    -999.2500    -999.2500    1470.6616     884.6666     312.3059       0.0774       3.0316       2.7145     671.7500
   2719.1211       5.3190       0.0150      49.6870      46.3290    -999.2500    -999.2500    1398.9709     838.3020     326.0830       0.0739       3.1260       2.6950     672.0001
   2719.2734       5.3390       0.0130      50.0001      47.2810    -999.2500    -999.2500    1274.2784     764.0941     638.5651       0.0714       3.2416       2.7000     672.2500
   2719.4258       5.3590       0.0110      50.3130      47.0469    -999.2500    -999.2500    1149.5050     689.8380     951.2500       0.0715       3.3570       2.7050     671.8338
   2719.5784       5.2870       0.0205      50.2660      46.8130    -999.2500    -999.2500    1118.4827     660.2773     610.0463       0.0764       3.2995       2.7080     671.4180
   2719.7307       5.2150       0.0300      50.2190      46.3283    -999.2500    -999.2500    1087.4860     630.7410     269.1250       0.0829       3.2420       2.7110     670.9173
   2719.8831       5.2686       0.0360      50.3440      45.8440    -999.2500    -999.2500    1198.1133     687.5159     686.9591       0.0885       3.0943       2.6955     670.4170
   2720.0354       5.3220       0.0420      50.4690      46.1183    -999.2500    -999.2500    1308.6630     744.2510    1104.5000       0.0921       2.9470       2.6800     669.8328
   2720.1877       5.3600       0.0530      50.3910      46.3920    -999.2500    -999.2500    1538.7549     853.5040     871.2047       0.0922       3.0556       2.6950     669.2500
   2720.3403       5.3980       0.0640      50.3130      48.0012    -999.2500    -999.2500    1768.7140     962.6940     638.0440       0.0912       3.1640       2.7100     669.4592
   2720.4927       5.2964       0.0405      50.3520      49.6070    -999.2500    -999.2500    1622.9612     853.9770     458.5440       0.0913       2.8452       2.5964     669.6680
   2720.6450       5.1950       0.0170      50.3910      50.8363    -999.2500    -999.2500    1477.2740     745.3090     279.1250       0.0923       2.5270       2.4830     669.9188
   2720.7974       5.2696       0.0175      50.8444      52.0630    -999.2500    -999.2500    1441.4407     716.6389     303.7540       0.0941       2.5290       2.4935     670.1690
   2720.9500       5.3440       0.0180      51.2970      50.4504    -999.2500    -999.2500    1405.6190     687.9780     328.3750       0.0941       2.5310       2.5040     670.2095
