#------------------------------------------------------------------------------
#
#   Created by  : [OpenWorks] Log Export Utility (LEXP)
#   Created on  : 2016-05-19 10:22:34
#   Project     : CANT971
#   User        : R5K
#   Interpreter : PEP
#
#------------------------------------------------------------------------------
~VERSION INFORMATION
VERS. 2.0 : CWLS Log ASCII Standard - version 2.0
WRAP.  NO : One line per depth step
~WELL INFORMATION
#MNEMONIC   .UNIT                                           VALUE :DESCRIPTION
#------------------------------------------------------------------------------
STRT        .M                                           501.0914 :START DEPTH
STOP        .M                                          3797.8081 :STOP DEPTH
STEP        .M                                             0.1524 :STEP
NULL        .                                           -999.2500 :NULL VALUE
COMP        .                                   PEMEX EXPL & PROD :COMPANY
WELL        .                                                2076 :WELL
FLD         .                                           CANTARELL :FIELD
LOC         .                                             UNKNOWN :LOCATION
CNTY        .                                      CD. DEL CARMEN :COUNTY
STAT        .                                            CAMPECHE :STATE
CTRY        .                                              MEXICO :COUNTRY
SRVC        .                                             UNKNOWN :SERVICE COMPANY
DATE        .                                             UNKNOWN :LOG DATE
UWI         .                                          3060000519 :UNIQUE WELL ID
XCOORD      .                                       600031.350000 :SURFACE X
YCOORD      .                                      2139442.240000 :SURFACE Y
LAT         .                                           19.347648 :LATITUDE
LON         .                                          -92.047636 :LONGITUDE
ELEV        .M                                            27.4000 :SURFACE ELEV
ELEV_TYPE   .                                                  KB :ELEV TYPE
~CURVE INFORMATION
#MNEMONIC.UNIT        API CODE       : CURVE DESCRIPTION
#------------------------------------------------------------------------------
DEPTH    .M                          : Measured Depth
CALI     .inches      UNKNOWN        : CALI:UNKNOWN:rC:NONE:v0 (auto-composite)
DT       .us/ft       UNKNOWN        : DT:UNKNOWN:rC:NONE:v0 (auto-composite)
GR       .API         UNKNOWN        : GR:UNKNOWN:rC:NONE:v0 (auto-composite)
ILD      .ohm.m       UNKNOWN        : ILD:UNKNOWN:rC:NONE:v0 (auto-composite)
LLD      .ohm.m       UNKNOWN        : LLD:UNKNOWN:rC:NONE:v0 (auto-composite)
LLS      .ohm.m       UNKNOWN        : LLS:UNKNOWN:rC:NONE:v0 (auto-composite)
NPHI     .UNKNOWN     UNKNOWN        : NPHI:UNKNOWN:rC:NONE:v0 (auto-composite)
RHOB     .g/cm3       UNKNOWN        : RHOB:UNKNOWN:rC:NONE:v0 (auto-composite)
SIGM     .UNKNOWN     UNKNOWN        : SIGM:UNKNOWN:rC:NONE:v0 (auto-composite)
TAU      .UNKNOWN     UNKNOWN        : TAU:UNKNOWN:rC:NONE:v0 (auto-composite)
~A     DEPTH         CALI           DT           GR          ILD          LLD          LLS         NPHI         RHOB         SIGM          TAU
# ...
   3641.7505       6.4400      59.4880      18.2000    -999.2500     228.7630     234.3780       0.0565       2.7300    -999.2500    -999.2500
   3641.9031       6.4400      63.5485      18.3226    -999.2500     283.0694     297.9618       0.0535       2.7325    -999.2500    -999.2500
   3642.0554       6.4400      67.6000      18.4450    -999.2500     337.3430     361.0000       0.0509       2.7350    -999.2500    -999.2500
   3642.2078       6.4400      65.5071      20.0737    -999.2500     392.1846     357.7613       0.0501       2.7626    -999.2500    -999.2500
   3642.3601       6.4400      63.4220      21.6990    -999.2500     447.0000     354.5500       0.0505       2.7900    -999.2500    -999.2500
   3642.5127       6.4400      59.8502      25.7034    -999.2500     407.1194     330.1574       0.0517       2.7850    -999.2500    -999.2500
   3642.6650       6.4400      56.2910      29.7000    -999.2500     367.2530     305.9680       0.0528       2.7800    -999.2500    -999.2500
   3642.8174       6.4400      54.4714      29.2296    -999.2500     288.6176     245.2350       0.0529       2.7700    -999.2500    -999.2500
   3642.9697       6.4400      52.6580      28.7600    -999.2500     210.0000     185.0000       0.0523       2.7600    -999.2500    -999.2500
   3643.1223       6.4600      52.1782      27.8082    -999.2500     240.6336     203.9330       0.0511       2.7650    -999.2500    -999.2500
   3643.2747       6.4800      51.7000      26.8580    -999.2500     271.2640     222.7130       0.0497       2.7700    -999.2500    -999.2500
   3643.4270       6.5100      52.1978      26.2285    -999.2500     371.6308     294.1405       0.0482       2.7850    -999.2500    -999.2500
   3643.5793       6.5400      52.6940      25.6000    -999.2500     472.0000     365.0000       0.0473       2.8000    -999.2500    -999.2500
   3643.7317       6.5500      55.7416      25.6250    -999.2500     440.7898     336.8186       0.0476       2.7950    -999.2500    -999.2500
   3643.8843       6.5600      58.7800      25.6500    -999.2500     409.5750     308.8580       0.0489       2.7900    -999.2500    -999.2500
   3644.0366       6.5600      62.7959      25.7751    -999.2500     350.4366     262.9271       0.0509       2.7800    -999.2500    -999.2500
   3644.1890       6.5600      66.8000      25.9000    -999.2500     291.2820     217.3500       0.0533       2.7700    -999.2500    -999.2500
   3644.3413       6.5600      68.8794      25.4998    -999.2500     241.2120     172.5050       0.0560       2.7600    -999.2500    -999.2500
   3644.4939       6.5600      70.9530      25.1000    -999.2500     191.1220     128.0000       0.0588       2.7500    -999.2500    -999.2500
   3644.6462       6.5600      76.3337      26.1045    -999.2500     152.0713     130.9560       0.0614       2.7375    -999.2500    -999.2500
   3644.7986       6.5600      81.7000      27.1080    -999.2500     113.0000     133.8900       0.0640       2.7250    -999.2500    -999.2500
   3644.9509       6.5575      81.3971      29.4661    -999.2500     124.6735     155.1329       0.0669       2.7075    -999.2500    -999.2500
   3645.1035       6.5550      81.0950      31.8220    -999.2500     136.3360     176.2200       0.0699       2.6900    -999.2500    -999.2500
   3645.2559       6.4974      79.3554      33.4117    -999.2500     160.6395     199.7194       0.0732       2.6900    -999.2500    -999.2500
   3645.4082       6.4400      77.6200      35.0000    -999.2500     184.9230     223.0120       0.0757       2.6900    -999.2500    -999.2500
   3645.5605       6.4400      75.1176      34.9000    -999.2500     204.0547     262.2656       0.0763       2.6850    -999.2500    -999.2500
   3645.7129       6.4400      72.6210      34.8000    -999.2500     223.1730     301.1790       0.0754       2.6800    -999.2500    -999.2500
   3645.8655       6.4400      69.9571      35.7510    -999.2500     282.9841     414.9062       0.0734       2.6700    -999.2500    -999.2500
   3646.0178       6.4400      67.2990      36.7000    -999.2500     342.7610     527.6610       0.0700       2.6600    -999.2500    -999.2500
   3646.1702       6.4400      63.7285      34.6980    -999.2500     711.4631     643.1697       0.0649       2.6755    -999.2500    -999.2500
   3646.3225       6.4400      60.1710      32.7000    -999.2500    1080.0000     757.7060       0.0583       2.6910    -999.2500    -999.2500
   3646.4751       6.4400      56.7224      32.8501    -999.2500    1047.9214     919.5246       0.0504       2.7256    -999.2500    -999.2500
   3646.6274       6.4400      53.2860      33.0000    -999.2500    1015.8530    1080.0000       0.0424       2.7600    -999.2500    -999.2500
   3646.7798       6.4400      51.4399      31.9486    -999.2500     926.9742     924.6956       0.0354       2.7550    -999.2500    -999.2500
   3646.9321       6.4400      49.6000      30.8990    -999.2500     838.1130     770.6600       0.0301       2.7500    -999.2500    -999.2500
   3647.0847       6.4400      50.2511      27.2965    -999.2500     733.9903     629.3406       0.0271       2.7575    -999.2500    -999.2500
   3647.2371       6.4400      50.9000      23.7000    -999.2500     629.8750     489.1590       0.0262       2.7650    -999.2500    -999.2500
   3647.3894       6.4400      50.6496      23.9062    -999.2500     544.4398     444.4023       0.0274       2.7875    -999.2500    -999.2500
   3647.5417       6.4400      50.4000      24.1120    -999.2500     459.0000     400.0000       0.0301       2.8100    -999.2500    -999.2500
   3647.6941       6.4400      50.4260      28.0588    -999.2500     482.3944     442.6544       0.0335       2.8050    -999.2500    -999.2500
   3647.8467       6.4400      50.4520      32.0000    -999.2500     505.7930     484.9760       0.0366       2.8000    -999.2500    -999.2500
   3647.9990       6.4400      50.9688      31.4296    -999.2500     566.0348     540.1998       0.0386       2.7845    -999.2500    -999.2500
   3648.1514       6.4400      51.4840      30.8600    -999.2500     626.2950     595.0000       0.0395       2.7690    -999.2500    -999.2500
   3648.3037       6.4400      52.2546      29.1790    -999.2500     701.1313     545.6281       0.0393       2.7445    -999.2500    -999.2500
   3648.4563       6.4400      53.0230      27.5000    -999.2500     776.0000     496.6290       0.0388       2.7200    -999.2500    -999.2500
   3648.6086       6.4400      54.6657      27.7081    -999.2500     658.2383     408.6620       0.0387       2.7225    -999.2500    -999.2500
   3648.7610       6.4400      56.3040      27.9160    -999.2500     540.4110     321.3480       0.0390       2.7250    -999.2500    -999.2500
   3648.9133       6.4400      63.6613      29.9089    -999.2500     396.1392     276.0084       0.0398       2.7300    -999.2500    -999.2500
   3649.0659       6.4400      71.0000      31.9000    -999.2500     252.0000     231.0000       0.0409       2.7350    -999.2500    -999.2500
   3649.2183       6.4715      68.2777      30.8016    -999.2500     296.4401     286.1006       0.0420       2.7455    -999.2500    -999.2500
   3649.3706       6.5030      65.5620      29.7040    -999.2500     340.8450     340.8060       0.0421       2.7560    -999.2500    -999.2500
   3649.5229       6.5315      60.3751      28.3606    -999.2500     478.4380     435.2361       0.0401       2.7680    -999.2500    -999.2500
   3649.6753       6.5600      55.2000      27.0180    -999.2500     615.9390     529.0000       0.0382       2.7800    -999.2500    -999.2500
   3649.8279       6.5440      58.2017      26.2081    -999.2500     768.5109     439.0237       0.0384       2.7670    -999.2500    -999.2500
   3649.9802       6.5280      61.1970      25.4000    -999.2500     921.0000     349.8140       0.0403       2.7540    -999.2500    -999.2500
   3650.1326       6.4839      64.8551      23.5481    -999.2500     786.9775     267.0579       0.0436       2.7270    -999.2500    -999.2500
