#------------------------------------------------------------------------------
#
#   Created by  : [OpenWorks] Log Export Utility (LEXP)
#   Created on  : 2016-05-19 10:22:34
#   Project     : CANT971
#   User        : R5K
#   Interpreter : PEP
#
#------------------------------------------------------------------------------
~VERSION INFORMATION
VERS. 2.0 : CWLS Log ASCII Standard - version 2.0
WRAP.  NO : One line per depth step
~WELL INFORMATION
#MNEMONIC   .UNIT                                           VALUE :DESCRIPTION
#------------------------------------------------------------------------------
STRT        .M                                           501.0914 :START DEPTH
STOP        .M                                          3797.8081 :STOP DEPTH
STEP        .M                                             0.1524 :STEP
NULL        .                                           -999.2500 :NULL VALUE
COMP        .                                   PEMEX EXPL & PROD :COMPANY
WELL        .                                                2076 :WELL
FLD         .                                           CANTARELL :FIELD
LOC         .                                             UNKNOWN :LOCATION
CNTY        .                                      CD. DEL CARMEN :COUNTY
STAT        .                                            CAMPECHE :STATE
CTRY        .                                              MEXICO :COUNTRY
SRVC        .                                             UNKNOWN :SERVICE COMPANY
DATE        .                                             UNKNOWN :LOG DATE
UWI         .                                          3060000519 :UNIQUE WELL ID
XCOORD      .                                       600031.350000 :SURFACE X
YCOORD      .                                      2139442.240000 :SURFACE Y
LAT         .                                           19.347648 :LATITUDE
LON         .                                          -92.047636 :LONGITUDE
ELEV        .M                                            27.4000 :SURFACE ELEV
ELEV_TYPE   .                                                  KB :ELEV TYPE
~CURVE INFORMATION
#MNEMONIC.UNIT        API CODE       : CURVE DESCRIPTION
#------------------------------------------------------------------------------
DEPTH    .M                          : Measured Depth
CALI     .inches      UNKNOWN        : CALI:UNKNOWN:rC:NONE:v0 (auto-composite)
DT       .us/ft       UNKNOWN        : DT:UNKNOWN:rC:NONE:v0 (auto-composite)
GR       .API         UNKNOWN        : GR:UNKNOWN:rC:NONE:v0 (auto-composite)
ILD      .ohm.m       UNKNOWN        : ILD:UNKNOWN:rC:NONE:v0 (auto-composite)
LLD      .ohm.m       UNKNOWN        : LLD:UNKNOWN:rC:NONE:v0 (auto-composite)
LLS      .ohm.m       UNKNOWN        : LLS:UNKNOWN:rC:NONE:v0 (auto-composite)
NPHI     .UNKNOWN     UNKNOWN        : NPHI:UNKNOWN:rC:NONE:v0 (auto-composite)
RHOB     .g/cm3       UNKNOWN        : RHOB:UNKNOWN:rC:NONE:v0 (auto-composite)
SIGM     .UNKNOWN     UNKNOWN        : SIGM:UNKNOWN:rC:NONE:v0 (auto-composite)
TAU      .UNKNOWN     UNKNOWN        : TAU:UNKNOWN:rC:NONE:v0 (auto-composite)
~A     DEPTH         CALI           DT           GR          ILD          LLD          LLS         NPHI         RHOB         SIGM          TAU
# ...
   3735.6289       6.2200      57.6620      23.4530    -999.2500    1287.0129     968.6320       0.0667       2.6920    -999.2500    -999.2500
   3735.7815       6.2200      57.2306      22.8259    -999.2500    1532.7927    1104.5582       0.0667       2.6860    -999.2500    -999.2500
   3735.9338       6.2200      56.8000      22.2000    -999.2500    1778.4821    1240.0000       0.0668       2.6800    -999.2500    -999.2500
   3736.0862       6.2200      57.5777      22.7490    -999.2500    1884.2539    1194.0485       0.0683       2.6800    -999.2500    -999.2500
   3736.2385       6.2200      58.3540      23.2970    -999.2500    1990.0000    1148.2550       0.0700       2.6800    -999.2500    -999.2500
   3736.3911       6.2200      59.2277      23.5487    -999.2500    1916.4817    1111.9318       0.0723       2.6800    -999.2500    -999.2500
   3736.5435       6.2200      60.1000      23.8000    -999.2500    1842.9720    1075.7290       0.0750       2.6800    -999.2500    -999.2500
   3736.6958       6.1970      59.5491      22.8357    -999.2500    1693.2277    1062.8440       0.0794       2.6850    -999.2500    -999.2500
   3736.8481       6.1740      58.9990      21.8730    -999.2500    1543.4821    1050.0000       0.0841       2.6900    -999.2500    -999.2500
   3737.0005       6.1420      58.7658      20.6856    -999.2500    1522.5387    1065.0350       0.0883       2.6810    -999.2500    -999.2500
   3737.1531       6.1100      58.5330      19.5000    -999.2500    1501.6260    1080.0000       0.0920       2.6720    -999.2500    -999.2500
   3737.3054       6.1100      58.4164      20.1449    -999.2500    1455.7822    1036.0162       0.0914       2.6510    -999.2500    -999.2500
   3737.4578       6.1100      58.3000      20.7890    -999.2500    1410.0000     992.2320       0.0899       2.6300    -999.2500    -999.2500
   3737.6101       6.1100      58.3000      21.0291    -999.2500    1474.2946     960.0450       0.0833       2.6500    -999.2500    -999.2500
   3737.7627       6.1100      58.3000      21.2690    -999.2500    1538.5110     928.0000       0.0767       2.6700    -999.2500    -999.2500
   3737.9150       6.1100      58.9464      22.1350    -999.2500    1889.1501     945.0716       0.0766       2.6560    -999.2500    -999.2500
   3738.0674       6.1100      59.5910      23.0000    -999.2500    2239.4070     962.0700       0.0772       2.6420    -999.2500    -999.2500
   3738.2197       6.1100      64.0858      22.4918    -999.2500    3510.3167    1053.1490       0.0808       2.6225    -999.2500    -999.2500
   3738.3723       6.1100      68.5690      21.9840    -999.2500    4779.9990    1143.8490       0.0847       2.6030    -999.2500    -999.2500
   3738.5247       6.1100      74.9988      20.9916    -999.2500    4510.4653    1151.9408       0.0893       2.5089    -999.2500    -999.2500
   3738.6770       6.1100      81.4130      20.0000    -999.2500    4241.1582    1160.0000       0.0958       2.4150    -999.2500    -999.2500
   3738.8293       6.1100      87.1131      20.0000    -999.2500    3658.0732    1000.1874       0.1264       2.3379    -999.2500    -999.2500
   3738.9817       6.1100      92.8000      20.0000    -999.2500    3075.4050     841.0000       0.1589       2.2610    -999.2500    -999.2500
   3739.1343       6.1841      90.3854      20.6497    -999.2500    2586.3721     937.3323       0.1903       2.2104    -999.2500    -999.2500
   3739.2866       6.2580      87.9760      21.2990    -999.2500    2097.6270    1033.3000       0.2202       2.1600    -999.2500    -999.2500
   3739.4390       6.3661      81.1820      22.1862    -999.2500    1743.6865    1071.7203       0.2323       2.1925    -999.2500    -999.2500
   3739.5913       6.4740      74.4020      23.0730    -999.2500    1389.9100    1110.0000       0.2405       2.2250    -999.2500    -999.2500
   3739.7439       6.5471      72.1313      23.3868    -999.2500    1339.9465    1049.1696       0.2146       2.3716    -999.2500    -999.2500
   3739.8962       6.6200      69.8650      23.7000    -999.2500    1290.0000     988.5540       0.1850       2.5180    -999.2500    -999.2500
   3740.0486       6.6450      65.9985      23.4998    -999.2500    1560.0287     918.1569       0.1384       2.5991    -999.2500    -999.2500
   3740.2009       6.6700      62.1390      23.3000    -999.2500    1830.0000     848.0000       0.0933       2.6800    -999.2500    -999.2500
   3740.3535       6.5999      59.0169      23.3000    -999.2500    1421.8864     858.5173       0.0855       2.6600    -999.2500    -999.2500
   3740.5059       6.5300      55.9000      23.3000    -999.2500    1013.8080     869.0000       0.0805       2.6400    -999.2500    -999.2500
   3740.6582       6.3949      57.5013      22.9497    -999.2500     970.9048     804.9728       0.0781       2.6495    -999.2500    -999.2500
   3740.8105       6.2600      59.1000      22.6000    -999.2500     928.0000     741.1480       0.0758       2.6590    -999.2500    -999.2500
   3740.9629       6.2950      58.5851      23.0213    -999.2500    1045.0605     702.9856       0.0704       2.6690    -999.2500    -999.2500
   3741.1155       6.3300      58.0710      23.4420    -999.2500    1161.9530     665.0000       0.0655       2.6790    -999.2500    -999.2500
   3741.2678       6.2925      55.4838      24.9220    -999.2500    1256.0381     724.3797       0.0689       2.7030    -999.2500    -999.2500
   3741.4202       6.2550      52.9000      26.4000    -999.2500    1350.0000     783.4920       0.0728       2.7270    -999.2500    -999.2500
   3741.5725       6.2385      57.1280      26.0243    -999.2500    1250.8452     810.8058       0.0764       2.7285    -999.2500    -999.2500
   3741.7251       6.2220      61.3510      25.6490    -999.2500    1151.8080     838.0000       0.0796       2.7300    -999.2500    -999.2500
   3741.8774       6.1659      63.4283      23.4733    -999.2500    1054.8527     775.0491       0.0778       2.7300    -999.2500    -999.2500
   3742.0298       6.1100      65.5000      21.3000    -999.2500     958.0000     712.3660       0.0755       2.7300    -999.2500    -999.2500
   3742.1821       6.1100      60.2684      21.5501    -999.2500    1029.2693     694.6464       0.0711       2.7150    -999.2500    -999.2500
   3742.3347       6.1100      55.0500      21.8000    -999.2500    1100.4720     677.0000       0.0663       2.7000    -999.2500    -999.2500
   3742.4871       6.1100      53.7234      21.1397    -999.2500    1140.2521     698.0421       0.0595       2.7095    -999.2500    -999.2500
   3742.6394       6.1100      52.4000      20.4800    -999.2500    1180.0000     719.0000       0.0525       2.7190    -999.2500    -999.2500
   3742.7917       6.1100      56.5547      20.2399    -999.2500    1080.7311     653.7969       0.0453       2.7345    -999.2500    -999.2500
   3742.9441       6.1100      60.7000      20.0000    -999.2500     981.5300     588.8470       0.0386       2.7500    -999.2500    -999.2500
   3743.0967       6.1666      56.1951      22.1768    -999.2500     783.1362     508.0408       0.0391       2.7310    -999.2500    -999.2500
   3743.2490       6.2230      51.7000      24.3490    -999.2500     584.8530     427.5380       0.0401       2.7120    -999.2500    -999.2500
   3743.4014       6.2741      51.7000      25.6123    -999.2500     421.9508     330.8505       0.0417       2.7060    -999.2500    -999.2500
   3743.5537       6.3250      51.7000      26.8730    -999.2500     259.1190     234.5140       0.0432       2.7000    -999.2500    -999.2500
   3743.7063       6.3575      51.5574      27.3369    -999.2500     199.5504     199.1951       0.0425       2.7285    -999.2500    -999.2500
   3743.8586       6.3900      51.4150      27.8000    -999.2500     140.0000     164.0000       0.0416       2.7570    -999.2500    -999.2500
   3744.0110       6.3755      51.2649      26.6585    -999.2500     162.6346     217.4904       0.0373       2.7775    -999.2500    -999.2500
