#------------------------------------------------------------------------------
#
#   Created by  : [OpenWorks] Log Export Utility (LEXP)
#   Created on  : 2016-05-19 10:22:35
#   Project     : CANT971
#   User        : R5K
#   Interpreter : PEP
#
#------------------------------------------------------------------------------
~VERSION INFORMATION
VERS. 2.0 : CWLS Log ASCII Standard - version 2.0
WRAP. YES : Mulitple lines per depth step
~WELL INFORMATION
#MNEMONIC   .UNIT                                           VALUE :DESCRIPTION
#------------------------------------------------------------------------------
STRT        .M                                          1391.9308 :START DEPTH
STOP        .M                                          3430.8904 :STOP DEPTH
STEP        .M                                             0.1524 :STEP
NULL        .                                           -999.2500 :NULL VALUE
COMP        .                                   PEMEX EXPL & PROD :COMPANY
WELL        .                                               2076D :WELL
FLD         .                                           CANTARELL :FIELD
LOC         .                                             UNKNOWN :LOCATION
CNTY        .                                      CD. DEL CARMEN :COUNTY
STAT        .                                            CAMPECHE :STATE
CTRY        .                                              MEXICO :COUNTRY
SRVC        .                                             UNKNOWN :SERVICE COMPANY
DATE        .                                             UNKNOWN :LOG DATE
UWI         .                                               2076D :UNIQUE WELL ID
XCOORD      .                                       600029.690000 :SURFACE X
YCOORD      .                                      2139443.800000 :SURFACE Y
LAT         .                                           19.347662 :LATITUDE
LON         .                                          -92.047651 :LONGITUDE
ELEV        .M                                            27.4000 :SURFACE ELEV
ELEV_TYPE   .                                                  KB :ELEV TYPE
~CURVE INFORMATION
#MNEMONIC.UNIT        API CODE       : CURVE DESCRIPTION
#------------------------------------------------------------------------------
DEPTH    .M                          : Measured Depth
CALI     .UNKNOWN     UNKNOWN        : CALI:UNKNOWN:rC:NONE:v0 (auto-composite)
CGR      .UNKNOWN     UNKNOWN        : CGR:UNKNOWN:rC:NONE:v0 (auto-composite)
DRHO     .UNKNOWN     UNKNOWN        : DRHO:UNKNOWN:rC:NONE:v0 (auto-composite)
DT       .us/ft       UNKNOWN        : DT:DT:rC:NONE:v0 (auto-composite)
GR       .API         UNKNOWN        : GR:UNKNOWN:rC:NONE:v0 (auto-composite)
ILD      .UNKNOWN     UNKNOWN        : ILD:UNKNOWN:rC:NONE:v0 (auto-composite)
ILM      .UNKNOWN     UNKNOWN        : ILM:UNKNOWN:rC:NONE:v0 (auto-composite)
LLD      .ohm.m       UNKNOWN        : LLD:resistivos:rC:NONE:v0 (auto-composite)
LLS      .ohm.m       UNKNOWN        : LLS:resistivos:rC:NONE:v0 (auto-composite)
MSFL     .ohm.m       UNKNOWN        : MSFL:resistivos:rC:NONE:v0 (auto-composite)
NPHI     .v/v_decimal UNKNOWN        : NPHI:UNKNOWN:rC:NONE:v0 (auto-composite)
PEF      .UNKNOWN     UNKNOWN        : PEF:UNKNOWN:rC:NONE:v0 (auto-composite)
POTA     .UNKNOWN     UNKNOWN        : POTA:UNKNOWN:rC:NONE:v0 (auto-composite)
RHOB     .UNKNOWN     UNKNOWN        : RHOB:UNKNOWN:rC:NONE:v0 (auto-composite)
SIGM     .UNKNOWN     UNKNOWN        : SIGM:UNKNOWN:rC:NONE:v0 (auto-composite)
SP       .UNKNOWN     UNKNOWN        : SP:UNKNOWN:rC:NONE:v0 (auto-composite)
TAU      .UNKNOWN     UNKNOWN        : TAU:UNKNOWN:rC:NONE:v0 (auto-composite)
THOR     .UNKNOWN     UNKNOWN        : THOR:UNKNOWN:rC:NONE:v0 (auto-composite)
URAN     .UNKNOWN     UNKNOWN        : URAN:UNKNOWN:rC:NONE:v0 (auto-composite)
~A
# ...
   3087.9905
      11.0073      50.2044       0.0532      87.6717      54.3818    -999.2500
    -999.2500       2.5041       1.8483       2.0423       0.3089       3.7423
       0.0220       2.5253    -999.2500    -999.2500    -999.2500       2.5013
       0.6641
   3088.1428
      10.3291      48.3787       0.0342      86.7833      54.4448    -999.2500
    -999.2500       2.5166       1.8588       2.7155       0.2987       3.7993
       0.0220       2.5307    -999.2500    -999.2500    -999.2500       2.5067
       0.5861
   3088.2952
      10.2357      47.3831       0.0246      85.3020      54.3224    -999.2500
    -999.2500       2.5382       1.8780       2.9488       0.2939       3.8756
       0.0216       2.5416    -999.2500    -999.2500    -999.2500       2.5318
       0.5422
   3088.4475
      10.9888      47.5888       0.0286      82.8915      53.9319    -999.2500
    -999.2500       2.5732       1.9100       2.5422       0.2993       3.9800
       0.0206       2.5600    -999.2500    -999.2500    -999.2500       2.5853
       0.5477
   3088.6001
      10.9610      48.4641       0.0275      81.7052      54.4393    -999.2500
    -999.2500       2.6055       1.9432       2.5638       0.3002       4.1264
       0.0202       2.5696    -999.2500    -999.2500    -999.2500       2.6811
       0.5754
   3088.7524
       9.7915      50.3183       0.0191      81.8419      56.2595    -999.2500
    -999.2500       2.6340       1.9782       3.2131       0.2949       4.3344
       0.0207       2.5661    -999.2500    -999.2500    -999.2500       2.8391
       0.6353
   3088.9048
       9.1685      50.3962       0.0150      81.8674      54.7619    -999.2500
    -999.2500       2.6855       2.0282       3.4606       0.2851       4.4515
       0.0204       2.5591    -999.2500    -999.2500    -999.2500       3.1828
       0.4948
   3089.0571
       9.3474      47.8678       0.0175      81.5231      48.3962    -999.2500
    -999.2500       2.7704       2.1002       3.1192       0.2690       4.4355
       0.0189       2.5471    -999.2500    -999.2500    -999.2500       3.7990
       0.0600
   3089.2095
       9.1873      47.3350       0.0170      80.8470      45.4822    -999.2500
    -999.2500       2.9286       2.2188       3.1266       0.2559       4.4365
       0.0182       2.5414    -999.2500    -999.2500    -999.2500       4.1413
      -0.1631
   3089.3621
       8.5280      49.7406       0.0120      79.8061      47.6513    -999.2500
    -999.2500       3.1943       2.4060       3.6465       0.2464       4.4626
       0.0187       2.5449    -999.2500    -999.2500    -999.2500       4.0801
      -0.0744
   3089.5144
       8.2878      50.8842       0.0098      78.6812      48.6646    -999.2500
    -999.2500       3.3386       2.5087       3.7093       0.2336       4.4248
       0.0188       2.5566    -999.2500    -999.2500    -999.2500       3.9773
      -0.0689
   3089.6667
       8.6509      50.2115       0.0118      77.4868      48.0149    -999.2500
    -999.2500       3.3056       2.4881       3.1047       0.2152       4.2949
       0.0183       2.5801    -999.2500    -999.2500    -999.2500       3.8145
      -0.1832
   3089.8191
       8.7114      49.0531       0.0126      76.9566      46.8642    -999.2500
    -999.2500       3.3077       2.4939       3.1180       0.2060       4.2259
       0.0180       2.5918    -999.2500    -999.2500    -999.2500       3.6571
      -0.2461
   3089.9717
       8.3321      47.1884       0.0116      77.2813      44.9850    -999.2500
    -999.2500       3.3612       2.5379       4.0313       0.2119       4.2454
       0.0180       2.5863    -999.2500    -999.2500    -999.2500       3.5077
      -0.2341
   3090.1240
       8.2718      46.5056       0.0112      77.3819      44.9634    -999.2500
    -999.2500       3.5094       2.6433       4.3380       0.2152       4.2918
       0.0182       2.5897    -999.2500    -999.2500    -999.2500       3.4432
      -0.1520
   3090.2764
       8.6772      47.5471       0.0117      77.0988      47.6523    -999.2500
    -999.2500       3.7966       2.8389       3.7557       0.2137       4.3772
       0.0187       2.6062    -999.2500    -999.2500    -999.2500       3.5027
       0.0324
   3090.4287
       8.7551      47.8211       0.0108      76.2672      48.9718    -999.2500
    -999.2500       3.9332       2.9362       3.5550       0.2095       4.4819
       0.0186       2.6156    -999.2500    -999.2500    -999.2500       3.5062
       0.1315
   3090.5813
       8.3536      46.9711       0.0078      74.5723      48.2861    -999.2500
    -999.2500       3.8498       2.8897       3.9127       0.2005       4.6147
       0.0176       2.6146    -999.2500    -999.2500    -999.2500       3.4278
       0.1055
   3090.7336
       8.1207      45.6184       0.0090      73.8481      47.2608    -999.2500
    -999.2500       3.8333       2.8880       4.7035       0.1895       4.6861
       0.0170       2.6108    -999.2500    -999.2500    -999.2500       3.2520
       0.0975
   3090.8860
       8.1371      43.5218       0.0165      74.2622      45.7329    -999.2500
    -999.2500       3.9158       2.9525       6.1324       0.1766       4.6666
       0.0170       2.6028    -999.2500    -999.2500    -999.2500       2.9321
       0.1160
   3091.0383
       8.1750      42.4157       0.0297      75.0789      45.0065    -999.2500
    -999.2500       4.0847       3.0828       6.0580       0.1705       4.5529
       0.0170       2.5845    -999.2500    -999.2500    -999.2500       2.7555
       0.1593
   3091.1907
       8.2447      42.7802       0.0512      76.4056      45.4697    -999.2500
    -999.2500       4.3801       3.3091       3.7739       0.1791       4.2992
       0.0170       2.5509    -999.2500    -999.2500    -999.2500       2.7916
       0.2395
   3091.3433
       8.0362      43.3343       0.0740      77.5982      46.2752    -999.2500
    -999.2500       4.6822       3.5337       3.0756       0.1980       4.1529
       0.0172       2.5432    -999.2500    -999.2500    -999.2500       2.8515
       0.3447
   3091.4956
       7.4240      44.1634       0.0985      78.6483      47.5771    -999.2500
    -999.2500       4.9935       3.7549       4.7094       0.2287       4.1624
       0.0177       2.5732    -999.2500    -999.2500    -999.2500       2.9460
       0.4861
   3091.6479
       7.1214      44.8494       0.1102      79.8351      49.2082    -999.2500
    -999.2500       5.0416       3.7920       5.4099       0.2478       4.1887
       0.0180       2.5733    -999.2500    -999.2500    -999.2500       3.0715
       0.6377
   3091.8003
       7.2697      45.3268       0.1032      81.2429      51.3186    -999.2500
    -999.2500       4.7057       3.5606       4.7495       0.2436       4.2397
       0.0180       2.5299    -999.2500    -999.2500    -999.2500       3.2423
       0.8040
   3091.9529
       8.0052      45.4526       0.0921      82.7748      52.4990    -999.2500
    -999.2500       4.1989       3.2439       3.8038       0.2560       4.2095
       0.0180       2.5046    -999.2500    -999.2500    -999.2500       3.3402
       0.8684
   3092.1052
       9.6045      45.0613       0.0751      84.4504      52.3110    -999.2500
    -999.2500       3.4392       2.8008       2.4355       0.2908       4.0601
       0.0180       2.5061    -999.2500    -999.2500    -999.2500       3.3307
       0.7830
   3092.2576
      10.2731      43.6877       0.0610      85.3366      51.8661    -999.2500
    -999.2500       3.0041       2.4940       1.6581       0.3128       4.0546
       0.0174       2.5117    -999.2500    -999.2500    -999.2500       3.2898
       0.7599
   3092.4099
       9.5677      40.8639       0.0509      85.0407      51.0419    -999.2500
    -999.2500       3.0461       2.3880       1.7496       0.3108       4.2617
       0.0159       2.5232    -999.2500    -999.2500    -999.2500       3.2025
       0.8291
   3092.5625
       9.5898      40.0759       0.0385      84.2883      49.5001    -999.2500
    -999.2500       2.9609       2.2612       1.9815       0.3030       4.3402
       0.0150       2.5472    -999.2500    -999.2500    -999.2500       3.2660
       0.8358
