#------------------------------------------------------------------------------
#
#   Created by  : [OpenWorks] Log Export Utility (LEXP)
#   Created on  : 2016-05-19 10:22:36
#   Project     : CANT971
#   User        : R5K
#   Interpreter : PEP
#
#------------------------------------------------------------------------------
~VERSION INFORMATION
VERS. 2.0 : CWLS Log ASCII Standard - version 2.0
WRAP. YES : Mulitple lines per depth step
~WELL INFORMATION
#MNEMONIC   .UNIT                                           VALUE :DESCRIPTION
#------------------------------------------------------------------------------
STRT        .M                                          2616.0618 :START DEPTH
STOP        .M                                          3329.4463 :STOP DEPTH
STEP        .M                                             0.1524 :STEP
NULL        .                                           -999.2500 :NULL VALUE
COMP        .                                             UNKNOWN :COMPANY
WELL        .                                            2076D-V2 :WELL
FLD         .                                             UNKNOWN :FIELD
LOC         .                                             UNKNOWN :LOCATION
CNTY        .                                             UNKNOWN :COUNTY
STAT        .                                             UNKNOWN :STATE
CTRY        .                                             UNKNOWN :COUNTRY
SRVC        .                                             UNKNOWN :SERVICE COMPANY
DATE        .                                             UNKNOWN :LOG DATE
UWI         .                                            2076D-V2 :UNIQUE WELL ID
XCOORD      .                                            0.000000 :SURFACE X
YCOORD      .                                            0.000000 :SURFACE Y
LAT         .                                            0.000000 :LATITUDE
LON         .                                          -97.488695 :LONGITUDE
ELEV        .M                                             0.0000 :SURFACE ELEV
ELEV_TYPE   .                                                  KB :ELEV TYPE
~CURVE INFORMATION
#MNEMONIC.UNIT        API CODE       : CURVE DESCRIPTION
#------------------------------------------------------------------------------
DEPTH    .M                          : Measured Depth
CALI     .UNKNOWN     UNKNOWN        : CALI:litodensidad:rC:NONE:v0 (auto-composite)
CGR      .API         UNKNOWN        : CGR:Espectrometria:rC:NONE:v0 (auto-composite)
DRHO     .g/cm3       UNKNOWN        : DRHO:litodensidad:rC:NONE:v0 (auto-composite)
DT       .us/ft       UNKNOWN        : DT:sonico:rC:NONE:v0 (auto-composite)
GR       .API         UNKNOWN        : GR:Espectrometria:rC:NONE:v0 (auto-composite)
GR-LWD   .API         UNKNOWN        : GR-LWD:PETROWORKS:rC:NONE:v1 
ILD-LWD  .UNKNOWN     UNKNOWN        : ILD-LWD:PETROWORKS:rC:NONE:v1 
ILM-LWD  .UNKNOWN     UNKNOWN        : ILM-LWD:PETROWORKS:rC:NONE:v1 
LLD      .ohm.m       UNKNOWN        : LLD:resistivos:rC:NONE:v0 (auto-composite)
LLS      .ohm.m       UNKNOWN        : LLS:resistivos:rC:NONE:v0 (auto-composite)
MSFL     .ohm.m       UNKNOWN        : MSFL:resistivos:rC:NONE:v0 (auto-composite)
NPHI     .UNKNOWN     UNKNOWN        : NPHI:porosidad:rC:NONE:v0 (auto-composite)
PEF      .UNKNOWN     UNKNOWN        : PEF:litodensidad:rC:NONE:v0 (auto-composite)
POTA     .wtpercent   UNKNOWN        : POTA:Espectrometria:rC:NONE:v0 (auto-composite)
RHOB     .g/cm3       UNKNOWN        : RHOB:litodensidad:rC:NONE:v0 (auto-composite)
SIGM     .UNKNOWN     UNKNOWN        : SIGM:TMDL:rC:NONE:v0 (auto-composite)
SP       .UNKNOWN     UNKNOWN        : SP:resistivos:rC:NONE:v0 (auto-composite)
THOR     .UNKNOWN     UNKNOWN        : THOR:Espectrometria:rC:NONE:v0 (auto-composite)
URAN     .UNKNOWN     UNKNOWN        : URAN:Espectrometria:rC:NONE:v0 (auto-composite)
~A
# ...
   3140.4702
       7.6975      44.1828       0.0371      99.3607      61.6337      52.1050
       1.4900       1.4770       2.1421       2.0368       1.1811       0.2425
       4.0684       0.0182       2.5111    -999.2500      54.0677       5.3157
       1.9429
   3140.6226
       7.6774      50.3350       0.0279      94.5362      61.3160      51.0762
       1.4265       1.4265       2.4975       2.2635       1.4634       0.2190
       4.0621       0.0182       2.5490    -999.2500      53.4646       7.0508
       1.2225
   3140.7749
       7.5785      50.3511       0.0283      93.7151      59.7113      50.1779
       1.2901       1.3051       2.7572       2.3626       1.8392       0.2028
       4.1027       0.0176       2.5584    -999.2500      53.4996       7.3184
       1.0421
   3140.9272
       7.5854      41.1492       0.0258      96.5477      57.9991      50.6176
       1.1353       1.1653       2.4726       2.1032       1.9839       0.2018
       4.1783       0.0158       2.5283    -999.2500      54.1099       5.4234
       1.8760
   3141.0798
       7.5889      33.9253       0.0186     101.2192      57.4332      51.7616
       1.0142       1.0522       1.9712       1.7217       1.8240       0.2163
       4.1522       0.0156       2.4638    -999.2500      55.0893       3.4358
       2.6172
   3141.2322
       7.5464      30.8408       0.0150     105.3227      57.8707      53.2632
       0.9236       0.9736       1.5270       1.3770       1.4168       0.2620
       3.9538       0.0169       2.3225    -999.2500      56.1392       2.0588
       3.0093
   3141.3845
       7.5093      30.1026       0.0206     106.6450      57.9313      54.6980
       0.9185       0.9685       1.2962       1.1848       1.1761       0.3262
       3.8005       0.0180       2.2172    -999.2500      56.6583       1.3786
       3.0982
   3141.5369
       7.5535      32.0763       0.0354     104.6352      57.6895      55.4062
       0.9759       1.0222       1.3718       1.2979       1.2126       0.3571
       3.7968       0.0188       2.2453    -999.2500      56.4003       1.6433
       2.8516
   3141.6895
       7.5950      36.2680       0.0444     100.9279      58.1179      56.5125
       1.0647       1.0958       1.5850       1.5157       1.2865       0.3234
       3.8898       0.0201       2.3634    -999.2500      55.8125       2.3265
       2.4326
   3141.8418
       7.5683      41.4694       0.0477      97.5090      60.1186      57.9115
       1.1184       1.1442       1.9125       1.8134       1.2714       0.2728
       3.9982       0.0222       2.4628    -999.2500      54.7973       2.9541
       2.0763
   3141.9941
       7.5923      43.2229       0.0528      95.2651      62.0179      59.4240
       1.1300       1.1500       2.1581       2.0316       3.3684       0.2607
       4.0502       0.0229       2.4844    -999.2500      53.9668       3.1569
       2.0926
   3142.1465
       7.6330      43.8930       0.0550      93.6932      63.0286      60.8806
       1.1253       1.1400       2.1865       2.0761       5.9268       0.2654
       4.0803       0.0231       2.4778    -999.2500      53.5982       3.2845
       2.1305
   3142.2991
       7.5318      47.8483       0.0503      91.7054      63.1545      61.4600
       1.1200       1.1400       2.0053       1.9507       6.6813       0.2633
       4.1160       0.0238       2.4550    -999.2500      53.0626       4.1089
       1.7041
   3142.4514
       7.4815      53.9573       0.0458      89.0149      63.4145      61.5707
       1.1854       1.1803       1.8381       1.8023       2.8548       0.2870
       4.1380       0.0257       2.3779    -999.2500      52.5946       5.1034
       1.0529
   3142.6038
       7.4950      56.5086       0.0456      86.4705      63.8150      60.4719
       1.2633       1.2429       1.7092       1.6329       2.1625       0.3137
       4.1293       0.0267       2.3323    -999.2500      51.5502       5.4518
       0.8135
   3142.7561
       7.4745      54.3594       0.0433      85.0616      64.0467      58.5232
       1.3893       1.3481       1.7501       1.6165       5.0674       0.3036
       4.1182       0.0253       2.3936    -999.2500      50.9755       5.3703
       1.0785
   3142.9084
       7.5538      51.4068       0.0339      86.0902      64.3499      56.9615
       1.4591       1.3991       2.0739       1.8433      12.6695       0.2737
       4.1173       0.0231       2.4691    -999.2500      50.5297       5.4167
       1.4410
   3143.0610
       7.5339      50.5875       0.0182      90.5389      64.2361      56.2795
       1.4378       1.3839       2.2889       1.9795       9.2269       0.2380
       4.1620       0.0211       2.5192    -999.2500      50.5765       5.9956
       1.5196
   3143.2134
       7.5281      53.6053       0.0194      98.7626      63.4307      58.0239
       1.3393       1.3006       2.4446       2.0414       3.3353       0.2246
       4.2473       0.0217       2.5374    -999.2500      50.8610       6.6031
       1.0939
   3143.3657
       7.5714      58.5183       0.0463     107.5988      62.8740      60.6794
       1.2042       1.1808       2.3507       1.9399       1.8281       0.2384
       4.3831       0.0240       2.5271    -999.2500      51.2052       7.0582
       0.4850
   3143.5181
       7.4238      57.1700       0.0690     112.5852      62.5296      63.1116
       1.1109       1.0927       1.9892       1.6537       1.5484       0.2632
       4.4156       0.0246       2.4857    -999.2500      51.1277       6.4377
       0.5967
   3143.6707
       7.4079      49.0093       0.0821     112.8074      62.5043      63.7958
       1.0418       1.0318       1.7483       1.4541       1.3130       0.3243
       4.2517       0.0232       2.3854    -999.2500      51.4142       4.6917
       1.5024
   3143.8230
       7.5186      42.1988       0.0807     109.3882      63.0317      62.7564
       1.0561       1.0415       1.5893       1.3069       1.3302       0.3484
       4.0935       0.0225       2.3276    -999.2500      51.1845       3.0515
       2.3194
   3143.9753
       7.4753      38.2779       0.0737     104.5925      63.4945      59.9285
       1.1628       1.1252       1.5232       1.2481       1.4058       0.3401
       4.0352       0.0232       2.3334    -999.2500      50.4224       1.6520
       2.8075
   3144.1277
       7.4282      42.7958       0.0680      99.9873      63.5436      56.5747
       1.2922       1.2522       1.6132       1.3410       1.4248       0.3224
       4.1203       0.0245       2.3834    -999.2500      48.7514       2.4248
       2.3100
   3144.2803
       7.5371      47.5013       0.0715      96.1383      62.6125      52.8652
       1.4141       1.3741       1.7555       1.4921       1.2314       0.3107
       4.2011       0.0254       2.4058    -999.2500      47.9451       3.3767
       1.6824
   3144.4326
       7.5920      48.1673       0.0687      92.9683      59.6602      49.9515
       1.5098       1.4631       2.0101       1.7431       1.1514       0.2935
       4.2200       0.0248       2.4344    -999.2500      47.6717       3.8237
       1.2796
   3144.5850
       7.5542      45.1617       0.0461      90.3741      58.2339      49.0681
       1.5300       1.4985       2.3184       2.0477       1.2619       0.2685
       4.2179       0.0228       2.4783    -999.2500      46.9679       3.7509
       1.4554
   3144.7373
       7.5428      44.3728       0.0232      88.7646      56.0701      49.1246
       1.5263       1.5000       2.6113       2.3293       1.8024       0.2232
       4.2602       0.0218       2.5228    -999.2500      45.4335       3.9396
       1.3023
   3144.8896
       7.5246      43.6143       0.0271      88.5960      55.2887      49.5656
       1.5020       1.4910       2.7200       2.4521       2.1557       0.2078
       4.3059       0.0213       2.5413    -999.2500      44.6029       3.9250
       1.2998
   3145.0422
       7.4876      43.4287       0.0399      89.5567      55.7069      48.9025
       1.5042       1.5042       2.5889       2.3695       2.1380       0.2180
       4.3285       0.0216       2.5374    -999.2500      44.7994       3.7465
       1.3670
