#------------------------------------------------------------------------------
#
#   Created by  : [OpenWorks] Log Export Utility (LEXP)
#   Created on  : 2016-05-19 10:22:35
#   Project     : CANT971
#   User        : R5K
#   Interpreter : PEP
#
#------------------------------------------------------------------------------
~VERSION INFORMATION
VERS. 2.0 : CWLS Log ASCII Standard - version 2.0
WRAP. YES : Mulitple lines per depth step
~WELL INFORMATION
#MNEMONIC   .UNIT                                           VALUE :DESCRIPTION
#------------------------------------------------------------------------------
STRT        .M                                          1391.9308 :START DEPTH
STOP        .M                                          3430.8904 :STOP DEPTH
STEP        .M                                             0.1524 :STEP
NULL        .                                           -999.2500 :NULL VALUE
COMP        .                                   PEMEX EXPL & PROD :COMPANY
WELL        .                                               2076D :WELL
FLD         .                                           CANTARELL :FIELD
LOC         .                                             UNKNOWN :LOCATION
CNTY        .                                      CD. DEL CARMEN :COUNTY
STAT        .                                            CAMPECHE :STATE
CTRY        .                                              MEXICO :COUNTRY
SRVC        .                                             UNKNOWN :SERVICE COMPANY
DATE        .                                             UNKNOWN :LOG DATE
UWI         .                                               2076D :UNIQUE WELL ID
XCOORD      .                                       600029.690000 :SURFACE X
YCOORD      .                                      2139443.800000 :SURFACE Y
LAT         .                                           19.347662 :LATITUDE
LON         .                                          -92.047651 :LONGITUDE
ELEV        .M                                            27.4000 :SURFACE ELEV
ELEV_TYPE   .                                                  KB :ELEV TYPE
~CURVE INFORMATION
#MNEMONIC.UNIT        API CODE       : CURVE DESCRIPTION
#------------------------------------------------------------------------------
DEPTH    .M                          : Measured Depth
CALI     .UNKNOWN     UNKNOWN        : CALI:UNKNOWN:rC:NONE:v0 (auto-composite)
CGR      .UNKNOWN     UNKNOWN        : CGR:UNKNOWN:rC:NONE:v0 (auto-composite)
DRHO     .UNKNOWN     UNKNOWN        : DRHO:UNKNOWN:rC:NONE:v0 (auto-composite)
DT       .us/ft       UNKNOWN        : DT:DT:rC:NONE:v0 (auto-composite)
GR       .API         UNKNOWN        : GR:UNKNOWN:rC:NONE:v0 (auto-composite)
ILD      .UNKNOWN     UNKNOWN        : ILD:UNKNOWN:rC:NONE:v0 (auto-composite)
ILM      .UNKNOWN     UNKNOWN        : ILM:UNKNOWN:rC:NONE:v0 (auto-composite)
LLD      .ohm.m       UNKNOWN        : LLD:resistivos:rC:NONE:v0 (auto-composite)
LLS      .ohm.m       UNKNOWN        : LLS:resistivos:rC:NONE:v0 (auto-composite)
MSFL     .ohm.m       UNKNOWN        : MSFL:resistivos:rC:NONE:v0 (auto-composite)
NPHI     .v/v_decimal UNKNOWN        : NPHI:UNKNOWN:rC:NONE:v0 (auto-composite)
PEF      .UNKNOWN     UNKNOWN        : PEF:UNKNOWN:rC:NONE:v0 (auto-composite)
POTA     .UNKNOWN     UNKNOWN        : POTA:UNKNOWN:rC:NONE:v0 (auto-composite)
RHOB     .UNKNOWN     UNKNOWN        : RHOB:UNKNOWN:rC:NONE:v0 (auto-composite)
SIGM     .UNKNOWN     UNKNOWN        : SIGM:UNKNOWN:rC:NONE:v0 (auto-composite)
SP       .UNKNOWN     UNKNOWN        : SP:UNKNOWN:rC:NONE:v0 (auto-composite)
TAU      .UNKNOWN     UNKNOWN        : TAU:UNKNOWN:rC:NONE:v0 (auto-composite)
THOR     .UNKNOWN     UNKNOWN        : THOR:UNKNOWN:rC:NONE:v0 (auto-composite)
URAN     .UNKNOWN     UNKNOWN        : URAN:UNKNOWN:rC:NONE:v0 (auto-composite)
~A
# ...
   3220.2737
       7.7041      16.3436       0.0164     138.0229      42.0242    -999.2500
    -999.2500      51.2112      48.9947      59.3287       0.1297       4.2058
       0.0092       2.6080    -999.2500    -999.2500    -999.2500      -0.2164
       2.9269
   3220.4260
       7.5388      16.7799       0.0199      98.9243      41.7382    -999.2500
    -999.2500      49.7527      47.6633      79.5493       0.1278       4.1632
       0.0072       2.6004    -999.2500    -999.2500    -999.2500      -0.5090
       2.8302
   3220.5784
       7.2917      15.2631       0.0249      84.6216      40.5516    -999.2500
    -999.2500      49.0534      47.0436      81.1417       0.1254       4.1243
       0.0062       2.6005    -999.2500    -999.2500    -999.2500      -0.5834
       2.9149
   3220.7307
       6.9264      10.9195       0.0319      98.6835      38.0617    -999.2500
    -999.2500      49.4625      47.4632      55.5375       0.1223       4.0908
       0.0067       2.6115    -999.2500    -999.2500    -999.2500      -0.3420
       3.2623
   3220.8833
       7.1702       8.5987       0.0354     111.1862      37.1578    -999.2500
    -999.2500      49.2190      47.2878      44.6972       0.1199       4.0280
       0.0068       2.6172    -999.2500    -999.2500    -999.2500      -0.2088
       3.4623
   3221.0356
       8.2987       9.2159       0.0339     118.2675      38.5577    -999.2500
    -999.2500      48.0196      46.2411      55.4058       0.1187       3.9225
       0.0063       2.6152    -999.2500    -999.2500    -999.2500      -0.2328
       3.4483
   3221.1880
       8.7648       9.7544       0.0358     123.6426      39.9696    -999.2500
    -999.2500      48.3012      46.5053      57.5593       0.1190       3.8854
       0.0058       2.6162    -999.2500    -999.2500    -999.2500      -0.1836
       3.4695
   3221.3403
       8.2656      10.1783       0.0428     126.5491      41.3990    -999.2500
    -999.2500      50.7497      48.6875      47.2067       0.1214       3.9479
       0.0053       2.6217    -999.2500    -999.2500    -999.2500      -0.0276
       3.5420
   3221.4927
       8.2569       9.7676       0.0468     129.5629      41.4414    -999.2500
    -999.2500      51.2446      49.1012      46.1714       0.1215       4.0079
       0.0048       2.6311    -999.2500    -999.2500    -999.2500       0.0332
       3.6272
   3221.6453
       8.9660       8.1361       0.0463     132.7298      39.4549    -999.2500
    -999.2500      48.8842      46.9297      58.7588       0.1187       4.0643
       0.0043       2.6461    -999.2500    -999.2500    -999.2500      -0.0452
       3.7310
   3221.7976
       9.2553       7.4534       0.0440     136.5802      38.8035    -999.2500
    -999.2500      47.0626      45.2769      70.5197       0.1170       4.0746
       0.0040       2.6504    -999.2500    -999.2500    -999.2500       0.0252
       3.7819
   3221.9500
       8.9239       8.1731       0.0390     141.5390      40.1254    -999.2500
    -999.2500      46.0357      44.3889      81.0567       0.1185       4.0166
       0.0040       2.6389    -999.2500    -999.2500    -999.2500       0.3156
       3.7544
   3222.1023
       8.8496       8.3662       0.0324     145.2391      40.8171    -999.2500
    -999.2500      45.9823      44.3705      78.3519       0.1208       3.9519
       0.0038       2.6276    -999.2500    -999.2500    -999.2500       0.4835
       3.7432
   3222.2549
       9.1564       7.7780       0.0233     147.4711      40.5739    -999.2500
    -999.2500      47.3586      45.6288      56.2142       0.1237       3.8772
       0.0033       2.6165    -999.2500    -999.2500    -999.2500       0.4700
       3.7563
   3222.4072
       9.2809       6.7763       0.0168     145.7257      39.9116    -999.2500
    -999.2500      47.9515      46.1540      45.0591       0.1244       3.8926
       0.0028       2.6104    -999.2500    -999.2500    -999.2500       0.4465
       3.7542
   3222.5596
       9.1409       5.1750       0.0138     138.1239      38.6416    -999.2500
    -999.2500      47.3936      45.6020      50.0513       0.1207       4.0385
       0.0023       2.6114    -999.2500    -999.2500    -999.2500       0.4085
       3.7302
   3222.7119
       9.1357       4.6636       0.0108     129.9825      38.1331    -999.2500
    -999.2500      46.7602      45.0059      58.0291       0.1195       4.0792
       0.0018       2.6059    -999.2500    -999.2500    -999.2500       0.5288
       3.7795
   3222.8645
       9.3265       5.7378       0.0078     121.2585      38.7324    -999.2500
    -999.2500      46.0140      44.3426      70.4003       0.1217       3.9669
       0.0013       2.5909    -999.2500    -999.2500    -999.2500       0.8794
       3.9353
   3223.0168
       9.3097       6.3353       0.0064     113.7606      39.6166    -999.2500
    -999.2500      46.4187      44.7706      71.5446       0.1248       3.8881
       0.0010       2.5828    -999.2500    -999.2500    -999.2500       1.0763
       4.0185
   3223.1692
       8.9878       6.2324       0.0074     108.1511      40.9195    -999.2500
    -999.2500      48.5162      46.8035      56.1793       0.1286       3.8586
       0.0010       2.5848    -999.2500    -999.2500    -999.2500       1.0473
       3.9950
   3223.3215
       8.9111       5.5325       0.0096     110.5296      40.3600    -999.2500
    -999.2500      49.3594      47.5840      55.2776       0.1297       3.8716
       0.0010       2.5955    -999.2500    -999.2500    -999.2500       0.9008
       3.9170
   3223.4739
       9.1959       3.9521       0.0136     122.8874      37.0533    -999.2500
    -999.2500      48.3639      46.5285      75.5517       0.1267       3.9473
       0.0010       2.6191    -999.2500    -999.2500    -999.2500       0.5809
       3.7585
   3223.6265
       9.2960       3.3179       0.0154     125.6749      35.2752    -999.2500
    -999.2500      47.5639      45.7262      81.2199       0.1240       4.0526
       0.0012       2.6312    -999.2500    -999.2500    -999.2500       0.3150
       3.6370
   3223.7788
       9.1301       4.0476       0.0139     113.6337      35.7005    -999.2500
    -999.2500      47.0488      45.2932      65.5417       0.1219       4.2005
       0.0017       2.6267    -999.2500    -999.2500    -999.2500       0.1271
       3.5685
   3223.9312
       9.0506       4.8031       0.0130     105.5514      36.1302    -999.2500
    -999.2500      47.8854      46.2524      65.9458       0.1199       4.2849
       0.0024       2.6205    -999.2500    -999.2500    -999.2500       0.0309
       3.5290
   3224.0835
       9.0960       5.5961       0.0130     103.3921      36.5662    -999.2500
    -999.2500      50.6933      49.2423      89.7630       0.1179       4.2774
       0.0034       2.6120    -999.2500    -999.2500    -999.2500       0.0674
       3.5315
   3224.2361
       9.1774       6.2865       0.0122     103.5376      37.0274    -999.2500
    -999.2500      52.6452      51.3684      91.0551       0.1175       4.2494
       0.0040       2.6050    -999.2500    -999.2500    -999.2500       0.1048
       3.5180
   3224.3884
       9.3114       6.8268       0.0102     106.4865      37.5257    -999.2500
    -999.2500      53.3520      52.2388      59.3457       0.1187       4.1915
       0.0040       2.6000    -999.2500    -999.2500    -999.2500       0.1438
       3.4810
   3224.5408
       9.4050       7.3767       0.0098     111.8063      38.1067    -999.2500
    -999.2500      51.6628      50.6726      42.5637       0.1193       4.1157
       0.0038       2.6053    -999.2500    -999.2500    -999.2500       0.2308
       3.4693
   3224.6931
       9.4395       7.9410       0.0118     120.6649      38.8089    -999.2500
    -999.2500      46.4621      45.5354      47.6450       0.1179       4.0137
       0.0033       2.6258    -999.2500    -999.2500    -999.2500       0.3883
       3.4948
   3224.8457
       9.3318       8.4794       0.0126     129.9252      39.3836    -999.2500
    -999.2500      42.6422      41.7885      61.4809       0.1177       3.9244
       0.0032       2.6370    -999.2500    -999.2500    -999.2500       0.4654
       3.4946
