#------------------------------------------------------------------------------
#
#   Created by  : [OpenWorks] Log Export Utility (LEXP)
#   Created on  : 2016-05-19 10:22:36
#   Project     : CANT971
#   User        : R5K
#   Interpreter : PEP
#
#------------------------------------------------------------------------------
~VERSION INFORMATION
VERS. 2.0 : CWLS Log ASCII Standard - version 2.0
WRAP. YES : Mulitple lines per depth step
~WELL INFORMATION
#MNEMONIC   .UNIT                                           VALUE :DESCRIPTION
#------------------------------------------------------------------------------
STRT        .M                                          2616.0618 :START DEPTH
STOP        .M                                          3329.4463 :STOP DEPTH
STEP        .M                                             0.1524 :STEP
NULL        .                                           -999.2500 :NULL VALUE
COMP        .                                             UNKNOWN :COMPANY
WELL        .                                            2076D-V2 :WELL
FLD         .                                             UNKNOWN :FIELD
LOC         .                                             UNKNOWN :LOCATION
CNTY        .                                             UNKNOWN :COUNTY
STAT        .                                             UNKNOWN :STATE
CTRY        .                                             UNKNOWN :COUNTRY
SRVC        .                                             UNKNOWN :SERVICE COMPANY
DATE        .                                             UNKNOWN :LOG DATE
UWI         .                                            2076D-V2 :UNIQUE WELL ID
XCOORD      .                                            0.000000 :SURFACE X
YCOORD      .                                            0.000000 :SURFACE Y
LAT         .                                            0.000000 :LATITUDE
LON         .                                          -97.488695 :LONGITUDE
ELEV        .M                                             0.0000 :SURFACE ELEV
ELEV_TYPE   .                                                  KB :ELEV TYPE
~CURVE INFORMATION
#MNEMONIC.UNIT        API CODE       : CURVE DESCRIPTION
#------------------------------------------------------------------------------
DEPTH    .M                          : Measured Depth
CALI     .UNKNOWN     UNKNOWN        : CALI:litodensidad:rC:NONE:v0 (auto-composite)
CGR      .API         UNKNOWN        : CGR:Espectrometria:rC:NONE:v0 (auto-composite)
DRHO     .g/cm3       UNKNOWN        : DRHO:litodensidad:rC:NONE:v0 (auto-composite)
DT       .us/ft       UNKNOWN        : DT:sonico:rC:NONE:v0 (auto-composite)
GR       .API         UNKNOWN        : GR:Espectrometria:rC:NONE:v0 (auto-composite)
GR-LWD   .API         UNKNOWN        : GR-LWD:PETROWORKS:rC:NONE:v1 
ILD-LWD  .UNKNOWN     UNKNOWN        : ILD-LWD:PETROWORKS:rC:NONE:v1 
ILM-LWD  .UNKNOWN     UNKNOWN        : ILM-LWD:PETROWORKS:rC:NONE:v1 
LLD      .ohm.m       UNKNOWN        : LLD:resistivos:rC:NONE:v0 (auto-composite)
LLS      .ohm.m       UNKNOWN        : LLS:resistivos:rC:NONE:v0 (auto-composite)
MSFL     .ohm.m       UNKNOWN        : MSFL:resistivos:rC:NONE:v0 (auto-composite)
NPHI     .UNKNOWN     UNKNOWN        : NPHI:porosidad:rC:NONE:v0 (auto-composite)
PEF      .UNKNOWN     UNKNOWN        : PEF:litodensidad:rC:NONE:v0 (auto-composite)
POTA     .wtpercent   UNKNOWN        : POTA:Espectrometria:rC:NONE:v0 (auto-composite)
RHOB     .g/cm3       UNKNOWN        : RHOB:litodensidad:rC:NONE:v0 (auto-composite)
SIGM     .UNKNOWN     UNKNOWN        : SIGM:TMDL:rC:NONE:v0 (auto-composite)
SP       .UNKNOWN     UNKNOWN        : SP:resistivos:rC:NONE:v0 (auto-composite)
THOR     .UNKNOWN     UNKNOWN        : THOR:Espectrometria:rC:NONE:v0 (auto-composite)
URAN     .UNKNOWN     UNKNOWN        : URAN:Espectrometria:rC:NONE:v0 (auto-composite)
~A
# ...
   3258.5801
       7.0862       7.2548       0.0230      61.0386      40.1946      33.9252
      70.3455      73.8338      63.4619      59.7088      25.2651       0.0885
       3.9254       0.0028       2.4995       7.5473      46.3901       0.9455
       3.6673
   3258.7327
       7.0287       8.5114       0.0225      60.1536      40.0467      33.5320
      69.7136      73.0952      66.0608      63.1581      24.9614       0.0922
       4.2921       0.0033       2.5379       7.5397      46.4232       1.1062
       3.5109
   3258.8850
       7.0521       8.0814       0.0101      58.8015      39.8413      32.8482
      68.5396      71.4989      71.5816      70.7478      22.9144       0.0914
       4.5301       0.0031       2.5628       7.5708      47.0541       1.0536
       3.5359
   3259.0374
       7.1638       6.5090      -0.0036      57.3958      39.5332      32.7382
      67.2395      69.3588      80.3598      80.2422      29.1045       0.0831
       4.5044       0.0025       2.5770       7.6275      47.3995       0.8697
       3.6767
   3259.1897
       7.1350       4.7685      -0.0056      56.3390      39.0929      33.7051
      65.9193      67.1433      86.2864      85.6773      41.2459       0.0787
       4.3492       0.0021       2.5888       7.6901      46.9639       0.5384
       3.8215
   3259.3423
       6.9652       3.8094      -0.0025      56.0074      38.5488      34.9630
      64.7010      65.0879      87.8748      86.5824      58.0819       0.0796
       4.2889       0.0021       2.6032       7.7264      46.4983       0.2441
       3.8677
   3259.4946
       6.9378       3.4018       0.0000      56.6266      39.1613      36.8338
      63.7015      63.2686      86.7735      86.7125      53.5687       0.0818
       4.3887       0.0022       2.6116       7.7324      46.4613       0.0749
       3.9813
   3259.6470
       6.9785       2.8718       0.0015      57.9038      41.2196      38.9860
      63.3559      62.4541      84.5295      85.0411      35.9084       0.0835
       4.3983       0.0018       2.6038       7.7010      46.5660       0.1127
       4.2694
   3259.7993
       6.9826       3.4432       0.0014      59.1205      43.8361      40.2100
      63.3100      62.2300      79.2763      80.0185      24.3206       0.0874
       4.1918       0.0016       2.5827       7.6165      46.5293       0.3593
       4.4971
   3259.9517
       6.9118       7.4205       0.0017      59.7887      47.2831      40.8943
      63.8535      62.9890      75.7929      75.5848      26.9279       0.0985
       3.8750       0.0024       2.5662       7.5223      46.9678       1.1709
       4.4380
   3260.1042
       6.8277      11.2455       0.0038      59.7918      48.8258      39.8518
      64.5090      64.7363      74.6762      73.5985      48.4293       0.1082
       3.7823       0.0031       2.5774       7.5000      47.7670       1.9415
       4.1840
   3260.2566
       6.7878      14.3777       0.0089      59.3112      48.7706      38.0283
      64.8401      65.6820      77.4429      77.2533      54.3283       0.1118
       3.8717       0.0030       2.6182       7.5000      47.9236       2.8815
       3.8291
   3260.4089
       6.8225      13.2229       0.0126      58.5465      48.1010      36.6638
      65.0236      66.8543      80.1585      81.2589      47.3634       0.1111
       3.9326       0.0023       2.6339       7.5000      49.3006       2.8326
       3.8831
   3260.5613
       6.7681       5.1841       0.0194      57.7642      47.8718      36.0665
      64.9125      67.5967      80.8766      81.7898      50.7907       0.1055
       3.9932       0.0008       2.6044       7.5000      50.3800       1.1335
       4.7526
   3260.7139
       6.6819       1.6190       0.0245      57.2340      50.3592      36.0617
      64.4461      67.6303      77.8375      76.3001      51.4868       0.1033
       4.0538       0.0004       2.5791       7.5000      51.3558       0.2931
       5.4264
   3260.8662
       6.6624       1.2588       0.0184      57.0109      48.4444      36.6043
      63.5157      67.1677      75.4110      72.4347      50.8484       0.1043
       4.0879       0.0004       2.5917       7.5000      52.0028       0.1946
       5.2533
   3261.0186
       6.7458       1.8667       0.0148      57.0441      45.5479      37.2528
      62.4352      66.5957      74.6475      71.6003      41.4809       0.1017
       4.0847       0.0007       2.6218       7.5000      52.6173       0.2507
       4.8632
   3261.1709
       6.7962       6.6234       0.0245      57.1721      44.4121      37.2908
      61.4071      65.6571      76.7062      75.3972      35.2237       0.0959
       4.0920       0.0030       2.6282       7.5000      53.0485       0.6777
       4.2072
   3261.3235
       6.7586      10.0673       0.0265      57.2606      44.5529      36.7103
      60.7089      64.8972      79.4120      79.5897      32.8800       0.0928
       4.1052       0.0050       2.6036       7.5000      53.6027       0.8768
       3.8394
   3261.4758
       6.6740      10.8304       0.0168      57.2629      45.9308      35.9888
      60.1826      64.3629      83.1619      84.6282      29.4663       0.0936
       4.1048       0.0059       2.5812       7.5000      52.7371       0.7192
       3.9079
   3261.6282
       6.7113       8.9272       0.0025      57.1636      47.2594      34.1496
      59.6708      63.7982      87.4778      88.7404      32.6806       0.0976
       4.0793       0.0053       2.5834       7.5000      50.8458       0.4449
       4.2676
   3261.7805
       6.7728       5.4499      -0.0030      56.9510      46.9571      32.6460
      59.3009      63.3064      89.8052      89.9981      40.4393       0.0979
       4.0651       0.0034       2.6005       7.5000      49.3857       0.1805
       4.6211
   3261.9329
       6.7687       3.2726      -0.0039      56.6057      44.2404      31.9603
      59.1203      62.9043      87.5068      85.7378      40.8495       0.0934
       4.0552       0.0012       2.6188       7.5000      47.5874       0.4516
       4.5611
   3262.0854
       6.7008       3.9259      -0.0059      56.1553      42.2137      32.2078
      59.0600      62.2711      81.6004      78.5227      54.9448       0.0929
       4.0552       0.0005       2.6091       7.5175      45.2103       0.9248
       4.2627
   3262.2378
       6.6634       5.6379      -0.0070      55.6656      40.3904      33.2951
      59.2369      61.5949      72.5165      69.9156      52.4713       0.0958
       4.1148       0.0004       2.5748       7.5696      42.3658       1.4337
       3.8691
   3262.3901
       6.7255       6.2703      -0.0044      55.2274      38.8957      34.7825
      59.8132      61.3351      66.2868      64.5004      41.8369       0.0983
       4.2161       0.0005       2.5607       7.5573      41.0353       1.5701
       3.6323
   3262.5425
       6.8086       6.3541      -0.0009      54.8826      38.6231      36.3417
      60.6563      61.5297      63.6082      62.7214      32.2899       0.1009
       4.2798       0.0014       2.5733       7.5117      41.5884       1.2421
       3.5927
   3262.6951
       6.7669       6.2565      -0.0012      54.4812      39.9517      37.3511
      61.3836      62.0851      63.6622      62.9355      36.7703       0.1011
       4.1805       0.0024       2.5827       7.5000      42.9135       0.8198
       3.7515
   3262.8474
       6.7030       5.4200      -0.0045      53.7314      42.1492      37.5794
      62.4564      63.3606      65.9163      65.3187      63.4318       0.0997
       3.9713       0.0030       2.5763       7.5000      43.5503       0.3575
       4.0892
   3262.9998
       6.7137       4.4577      -0.0057      52.5297      43.7998      35.5000
      63.2000      64.1000      68.4955      68.4812      76.1780       0.0988
       3.8493       0.0027       2.5678       7.5000      43.5265       0.1897
       4.3801
   3263.1521
       6.7812       3.7188      -0.0016      51.3102      44.2583      33.9447
      63.8995      64.8418      66.5339      66.7861      49.0606       0.1037
       3.8311       0.0025       2.5564       7.5000      43.5595       0.0745
       4.5135
