#------------------------------------------------------------------------------
#
#   Created by  : [OpenWorks] Log Export Utility (LEXP)
#   Created on  : 2016-05-19 10:22:36
#   Project     : CANT971
#   User        : R5K
#   Interpreter : PEP
#
#------------------------------------------------------------------------------
~VERSION INFORMATION
VERS. 2.0 : CWLS Log ASCII Standard - version 2.0
WRAP. YES : Mulitple lines per depth step
~WELL INFORMATION
#MNEMONIC   .UNIT                                           VALUE :DESCRIPTION
#------------------------------------------------------------------------------
STRT        .M                                          2616.0618 :START DEPTH
STOP        .M                                          3329.4463 :STOP DEPTH
STEP        .M                                             0.1524 :STEP
NULL        .                                           -999.2500 :NULL VALUE
COMP        .                                             UNKNOWN :COMPANY
WELL        .                                            2076D-V2 :WELL
FLD         .                                             UNKNOWN :FIELD
LOC         .                                             UNKNOWN :LOCATION
CNTY        .                                             UNKNOWN :COUNTY
STAT        .                                             UNKNOWN :STATE
CTRY        .                                             UNKNOWN :COUNTRY
SRVC        .                                             UNKNOWN :SERVICE COMPANY
DATE        .                                             UNKNOWN :LOG DATE
UWI         .                                            2076D-V2 :UNIQUE WELL ID
XCOORD      .                                            0.000000 :SURFACE X
YCOORD      .                                            0.000000 :SURFACE Y
LAT         .                                            0.000000 :LATITUDE
LON         .                                          -97.488695 :LONGITUDE
ELEV        .M                                             0.0000 :SURFACE ELEV
ELEV_TYPE   .                                                  KB :ELEV TYPE
~CURVE INFORMATION
#MNEMONIC.UNIT        API CODE       : CURVE DESCRIPTION
#------------------------------------------------------------------------------
DEPTH    .M                          : Measured Depth
CALI     .UNKNOWN     UNKNOWN        : CALI:litodensidad:rC:NONE:v0 (auto-composite)
CGR      .API         UNKNOWN        : CGR:Espectrometria:rC:NONE:v0 (auto-composite)
DRHO     .g/cm3       UNKNOWN        : DRHO:litodensidad:rC:NONE:v0 (auto-composite)
DT       .us/ft       UNKNOWN        : DT:sonico:rC:NONE:v0 (auto-composite)
GR       .API         UNKNOWN        : GR:Espectrometria:rC:NONE:v0 (auto-composite)
GR-LWD   .API         UNKNOWN        : GR-LWD:PETROWORKS:rC:NONE:v1 
ILD-LWD  .UNKNOWN     UNKNOWN        : ILD-LWD:PETROWORKS:rC:NONE:v1 
ILM-LWD  .UNKNOWN     UNKNOWN        : ILM-LWD:PETROWORKS:rC:NONE:v1 
LLD      .ohm.m       UNKNOWN        : LLD:resistivos:rC:NONE:v0 (auto-composite)
LLS      .ohm.m       UNKNOWN        : LLS:resistivos:rC:NONE:v0 (auto-composite)
MSFL     .ohm.m       UNKNOWN        : MSFL:resistivos:rC:NONE:v0 (auto-composite)
NPHI     .UNKNOWN     UNKNOWN        : NPHI:porosidad:rC:NONE:v0 (auto-composite)
PEF      .UNKNOWN     UNKNOWN        : PEF:litodensidad:rC:NONE:v0 (auto-composite)
POTA     .wtpercent   UNKNOWN        : POTA:Espectrometria:rC:NONE:v0 (auto-composite)
RHOB     .g/cm3       UNKNOWN        : RHOB:litodensidad:rC:NONE:v0 (auto-composite)
SIGM     .UNKNOWN     UNKNOWN        : SIGM:TMDL:rC:NONE:v0 (auto-composite)
SP       .UNKNOWN     UNKNOWN        : SP:resistivos:rC:NONE:v0 (auto-composite)
THOR     .UNKNOWN     UNKNOWN        : THOR:Espectrometria:rC:NONE:v0 (auto-composite)
URAN     .UNKNOWN     UNKNOWN        : URAN:Espectrometria:rC:NONE:v0 (auto-composite)
~A
# ...
   3301.0999
       6.7160      11.6849       0.0275      61.9415      22.7820      19.1200
       6.4100       5.9600      15.6195      15.4954      12.2778       0.0618
       4.4074       0.0071       2.5995    -999.2500      31.9641       0.4784
       1.2355
   3301.2522
       6.7450      14.9947       0.0272      62.9980      22.5272      19.2795
       5.8931       5.1900      12.6427      12.4960      13.4449       0.0749
       4.5511       0.0070       2.5815    -999.2500      29.9775       1.4748
       0.8386
   3301.4045
       6.7829      15.7553       0.0251      64.4106      22.5798      19.9047
       5.7663       4.9135       9.9070       9.7818      12.8726       0.0853
       4.6437       0.0073       2.5708    -999.2500      28.7220       1.5584
       0.7598
   3301.5569
       6.7814      12.8895       0.0220      65.7673      24.1927      20.1540
       6.3054       5.3726       8.5745       8.2177       8.4196       0.0940
       4.5992       0.0081       2.5601    -999.2500      28.1681       0.4590
       1.2584
   3301.7095
       6.7047      10.4256       0.0191      66.6019      25.0195      20.2625
       6.8392       5.8910       8.0959       7.3108       7.7080       0.0985
       4.5685       0.0072       2.5480    -999.2500      28.4155       0.0878
       1.6248
   3301.8618
       6.7131       7.9695       0.0145      66.7378      25.6918      20.0355
       7.3302       6.4063       8.5607       7.3731      10.2450       0.1051
       4.5879       0.0055       2.5355    -999.2500      28.6249       0.0624
       1.9731
   3302.0142
       6.7343       7.1064       0.0119      65.9713      24.4076      19.4848
       7.7470       6.8997      10.2226       8.5212      11.2649       0.1060
       4.5866       0.0049       2.5287    -999.2500      28.1966       0.0831
       1.9262
   3302.1665
       6.7233       9.8226       0.0084      64.3414      20.8420      18.6901
       8.0500       7.3533      11.8886       9.7730      10.8066       0.0983
       4.5730       0.0057       2.5267    -999.2500      26.8450       0.5268
       1.2269
   3302.3188
       6.6685      10.2506       0.0067      62.1253      20.0213      17.8019
       8.3936       7.8312      15.0888      12.3459      17.7377       0.0944
       4.5902       0.0056       2.5325    -999.2500      25.9205       0.7002
       1.0878
   3302.4714
       6.6241       7.4753       0.0090      60.1032      20.2882      16.7187
       8.7585       8.2499      17.5258      14.4853      18.2515       0.0913
       4.6407       0.0035       2.5430    -999.2500      25.2610       0.7421
       1.4265
   3302.6238
       6.6495       4.6516       0.0124      59.0248      19.7562      15.9953
       9.3848       8.9974      20.4726      16.9138      12.8789       0.0894
       4.6788       0.0013       2.5577    -999.2500      24.8210       0.7892
       1.6816
   3302.7761
       6.6469       3.8465       0.0159      58.8415      19.1627      15.3787
      10.3516      10.2611      23.3550      19.2940      10.2986       0.0865
       4.7164       0.0005       2.5795    -999.2500      24.3864       0.9071
       1.7052
   3302.9285
       6.6004       4.4502       0.0185      59.0628      17.3091      15.1415
      11.3677      11.5678      25.7991      21.2815      11.6255       0.0829
       4.7746       0.0006       2.5973    -999.2500      24.8046       1.0385
       1.4316
   3303.0811
       6.6068       6.3276       0.0182      59.1319      16.5060      15.2281
      12.5519      13.0479      27.5060      22.7901      13.0365       0.0789
       4.7329       0.0016       2.6007    -999.2500      25.6005       1.1642
       1.1332
   3303.2334
       6.6012       6.6518       0.0156      58.8422      16.9337      15.7469
      13.4269      14.0002      28.5386      23.4756      13.4362       0.0716
       4.4609       0.0023       2.5976    -999.2500      27.0102       0.9721
       1.1447
   3303.3857
       6.6059       5.9077       0.0135      58.4474      17.8708      16.5036
      13.8002      14.2829      28.8960      23.5811      14.2883       0.0676
       4.3053       0.0025       2.5909    -999.2500      28.5101       0.6899
       1.3319
   3303.5381
       6.6044       4.4159       0.0117      58.2937      20.8395      17.1532
      13.7536      13.9756      28.1684      22.9095      38.8918       0.0652
       4.5154       0.0026       2.5786    -999.2500      30.0954       0.2203
       1.8285
   3303.6907
       6.5940       4.7589       0.0110      58.4440      21.9451      17.7188
      13.3491      13.2116      25.9112      21.3214      35.2357       0.0625
       4.8465       0.0032       2.5773    -999.2500      30.8522       0.0760
       1.9134
   3303.8430
       6.5881       5.4734       0.0120      58.6141      21.4904      17.3269
      12.9225      12.5124      22.6156      18.7208      33.2207       0.0601
       5.0608       0.0035       2.5908    -999.2500      32.3582       0.1790
       1.7833
   3303.9954
       6.5845       7.3959       0.0132      58.3974      21.6788      17.0679
      12.4367      11.7750      19.9683      16.6912      29.7758       0.0592
       5.0596       0.0039       2.5963    -999.2500      34.5429       0.5555
       1.5902
   3304.1477
       6.5886       9.5374       0.0137      57.6149      21.9866      17.1909
      12.2126      11.5117      18.5720      15.9544      17.5182       0.0544
       4.9089       0.0042       2.5884    -999.2500      36.5670       1.0510
       1.3860
   3304.3000
       6.6001       9.7724       0.0142      56.3472      21.9175      17.3900
      12.1400      11.5800      19.1028      17.7895      12.9163       0.0517
       4.6631       0.0040       2.5816    -999.2500      36.5469       1.1934
       1.3522
   3304.4526
       6.5805       7.6297       0.0183      54.8863      21.8137      18.2499
      12.1495      11.8000      20.4357      20.1019      14.1101       0.0489
       4.4912       0.0028       2.5920    -999.2500      36.0799       1.0496
       1.5791
   3304.6050
       6.5706       6.7155       0.0223      53.5534      22.3638      19.9250
      12.1510      12.1523      23.9784      23.8996      21.7814       0.0472
       4.6533       0.0026       2.6116    -999.2500      36.0491       0.8779
       1.7422
   3304.7573
       6.5947       8.0237       0.0211      52.5545      24.7604      21.7753
      12.1356      12.4431      27.5015      27.8779      24.4101       0.0436
       4.9861       0.0036       2.6428    -999.2500      36.8693       0.8522
       1.8634
   3304.9097
       6.6405      10.8670       0.0177      52.2943      28.0515      24.0970
      12.0421      12.4941      24.8163      26.0784      32.9943       0.0405
       5.0941       0.0053       2.6628    -999.2500      38.4261       0.9693
       1.9132
   3305.0623
       6.6684      13.7073       0.0141      53.1662      34.0995      27.1791
      11.9015      12.3093      18.2188      21.9267      40.4383       0.0380
       5.0472       0.0063       2.6634    -999.2500      40.0270       1.4008
       2.2703
   3305.2146
       6.6884      17.4881       0.0211      55.3287      40.1335      29.9206
      11.5738      11.6384       8.3380      12.2030      37.1368       0.0433
       4.9651       0.0071       2.6448    -999.2500      43.4759       2.1485
       2.5212
   3305.3669
       6.6968      23.2292       0.0475      57.6220      49.7833      31.4095
      10.7349      10.2739       4.0306       6.1532      22.0791       0.0698
       4.7403       0.0089       2.5464    -999.2500      46.3616       3.0539
       2.9564
   3305.5193
       6.7409      27.5093       0.0566      58.3741      56.7832      33.0597
       9.5471       8.6616       2.8406       3.6457       7.9008       0.1045
       4.4895       0.0108       2.4147    -999.2500      49.6189       3.5339
       3.2592
   3305.6719
       6.7222      26.6399       0.0378      57.2645      58.6525      33.7190
       8.1085       7.1513       3.3576       4.2699       2.7170       0.1523
       4.3883       0.0113       2.3275    -999.2500      51.7792       3.0756
       3.5641
