#------------------------------------------------------------------------------
#
#   Created by  : [OpenWorks] Log Export Utility (LEXP)
#   Created on  : 2016-05-19 10:22:35
#   Project     : CANT971
#   User        : R5K
#   Interpreter : PEP
#
#------------------------------------------------------------------------------
~VERSION INFORMATION
VERS. 2.0 : CWLS Log ASCII Standard - version 2.0
WRAP. YES : Mulitple lines per depth step
~WELL INFORMATION
#MNEMONIC   .UNIT                                           VALUE :DESCRIPTION
#------------------------------------------------------------------------------
STRT        .M                                          1391.9308 :START DEPTH
STOP        .M                                          3430.8904 :STOP DEPTH
STEP        .M                                             0.1524 :STEP
NULL        .                                           -999.2500 :NULL VALUE
COMP        .                                   PEMEX EXPL & PROD :COMPANY
WELL        .                                               2076D :WELL
FLD         .                                           CANTARELL :FIELD
LOC         .                                             UNKNOWN :LOCATION
CNTY        .                                      CD. DEL CARMEN :COUNTY
STAT        .                                            CAMPECHE :STATE
CTRY        .                                              MEXICO :COUNTRY
SRVC        .                                             UNKNOWN :SERVICE COMPANY
DATE        .                                             UNKNOWN :LOG DATE
UWI         .                                               2076D :UNIQUE WELL ID
XCOORD      .                                       600029.690000 :SURFACE X
YCOORD      .                                      2139443.800000 :SURFACE Y
LAT         .                                           19.347662 :LATITUDE
LON         .                                          -92.047651 :LONGITUDE
ELEV        .M                                            27.4000 :SURFACE ELEV
ELEV_TYPE   .                                                  KB :ELEV TYPE
~CURVE INFORMATION
#MNEMONIC.UNIT        API CODE       : CURVE DESCRIPTION
#------------------------------------------------------------------------------
DEPTH    .M                          : Measured Depth
CALI     .UNKNOWN     UNKNOWN        : CALI:UNKNOWN:rC:NONE:v0 (auto-composite)
CGR      .UNKNOWN     UNKNOWN        : CGR:UNKNOWN:rC:NONE:v0 (auto-composite)
DRHO     .UNKNOWN     UNKNOWN        : DRHO:UNKNOWN:rC:NONE:v0 (auto-composite)
DT       .us/ft       UNKNOWN        : DT:DT:rC:NONE:v0 (auto-composite)
GR       .API         UNKNOWN        : GR:UNKNOWN:rC:NONE:v0 (auto-composite)
ILD      .UNKNOWN     UNKNOWN        : ILD:UNKNOWN:rC:NONE:v0 (auto-composite)
ILM      .UNKNOWN     UNKNOWN        : ILM:UNKNOWN:rC:NONE:v0 (auto-composite)
LLD      .ohm.m       UNKNOWN        : LLD:resistivos:rC:NONE:v0 (auto-composite)
LLS      .ohm.m       UNKNOWN        : LLS:resistivos:rC:NONE:v0 (auto-composite)
MSFL     .ohm.m       UNKNOWN        : MSFL:resistivos:rC:NONE:v0 (auto-composite)
NPHI     .v/v_decimal UNKNOWN        : NPHI:UNKNOWN:rC:NONE:v0 (auto-composite)
PEF      .UNKNOWN     UNKNOWN        : PEF:UNKNOWN:rC:NONE:v0 (auto-composite)
POTA     .UNKNOWN     UNKNOWN        : POTA:UNKNOWN:rC:NONE:v0 (auto-composite)
RHOB     .UNKNOWN     UNKNOWN        : RHOB:UNKNOWN:rC:NONE:v0 (auto-composite)
SIGM     .UNKNOWN     UNKNOWN        : SIGM:UNKNOWN:rC:NONE:v0 (auto-composite)
SP       .UNKNOWN     UNKNOWN        : SP:UNKNOWN:rC:NONE:v0 (auto-composite)
TAU      .UNKNOWN     UNKNOWN        : TAU:UNKNOWN:rC:NONE:v0 (auto-composite)
THOR     .UNKNOWN     UNKNOWN        : THOR:UNKNOWN:rC:NONE:v0 (auto-composite)
URAN     .UNKNOWN     UNKNOWN        : URAN:UNKNOWN:rC:NONE:v0 (auto-composite)
~A
# ...
   3168.3052
       8.7975      11.1537       0.0192      59.6603      52.5028    -999.2500
    -999.2500      80.4373      73.2540      65.9165       0.1550       3.3922
       0.0037       2.6302    -999.2500    -999.2500    -999.2500       1.0952
       4.6219
   3168.4575
       8.7152      10.8937       0.0228      59.5124      51.9100    -999.2500
    -999.2500      67.7783      62.6494      76.6880       0.1504       3.4188
       0.0038       2.6478    -999.2500    -999.2500    -999.2500       1.0371
       4.6158
   3168.6101
       8.7578       8.8591       0.0198      59.9278      49.5073    -999.2500
    -999.2500      70.9859      65.7416      58.3800       0.1512       3.4604
       0.0033       2.6397    -999.2500    -999.2500    -999.2500       0.8270
       4.4990
   3168.7625
       8.8205       8.0724       0.0157      60.5724      48.5390    -999.2500
    -999.2500      75.1922      69.6712      56.5679       0.1537       3.4389
       0.0032       2.6258    -999.2500    -999.2500    -999.2500       0.7452
       4.4517
   3168.9148
       8.9119       9.0840       0.0103      61.4714      49.6376    -999.2500
    -999.2500      80.8530      74.8200      78.9058       0.1577       3.3265
       0.0037       2.6033    -999.2500    -999.2500    -999.2500       0.8481
       4.5047
   3169.0671
       9.0003      13.7465       0.0072      61.4893      55.7680    -999.2500
    -999.2500      78.4891      72.9813      81.9945       0.1588       3.2808
       0.0050       2.5955    -999.2500    -999.2500    -999.2500       1.3498
       4.7095
   3169.2195
       9.0842      23.6888       0.0077      60.3391      69.1749    -999.2500
    -999.2500      64.4395      60.9685      57.0908       0.1551       3.3318
       0.0075       2.6090    -999.2500    -999.2500    -999.2500       2.4279
       5.1340
   3169.3721
       9.0719      28.3014       0.0086      59.3009      75.0432    -999.2500
    -999.2500      58.8505      56.0523      60.2106       0.1536       3.3309
       0.0086       2.6117    -999.2500    -999.2500    -999.2500       2.9313
       5.3232
   3169.5244
       8.9189      25.1278       0.0101      58.4905      69.8979    -999.2500
    -999.2500      65.6253      61.5054     104.3881       0.1552       3.2545
       0.0076       2.5987    -999.2500    -999.2500    -999.2500       2.5950
       5.1688
   3169.6768
       8.8900      20.4448       0.0122      58.5876      63.0275    -999.2500
    -999.2500      74.6350      68.9680     114.2859       0.1586       3.2471
       0.0058       2.5778    -999.2500    -999.2500    -999.2500       2.1009
       4.9554
   3169.8291
       9.0429      13.5487       0.0152      60.1304      53.6275    -999.2500
    -999.2500      86.9235      79.3781      73.9891       0.1649       3.3411
       0.0028       2.5453    -999.2500    -999.2500    -999.2500       1.3758
       4.6555
   3169.9817
       9.1123       8.1173       0.0200      61.9133      46.4190    -999.2500
    -999.2500      98.1905      88.9627      75.7770       0.1707       3.4657
       0.0010       2.5321    -999.2500    -999.2500    -999.2500       0.7926
       4.4174
   3170.1340
       9.0587       4.8408       0.0276      63.9236      42.4352    -999.2500
    -999.2500     107.9560      97.3338     139.3846       0.1757       3.6356
       0.0010       2.5471    -999.2500    -999.2500    -999.2500       0.4183
       4.2701
   3170.2864
       8.9917       3.2767       0.0345      64.5399      40.6201    -999.2500
    -999.2500     108.7145      97.7960     150.1351       0.1783       3.6159
       0.0012       2.5517    -999.2500    -999.2500    -999.2500       0.2331
       4.2057
   3170.4387
       8.9052       4.1913       0.0404      62.9291      41.9445    -999.2500
    -999.2500      96.3188      86.7077      83.6867       0.1767       3.3221
       0.0017       2.5412    -999.2500    -999.2500    -999.2500       0.3216
       4.2611
   3170.5911
       8.8852       5.3691       0.0420      62.1115      43.6380    -999.2500
    -999.2500      84.7486      76.3231      37.4738       0.1736       3.2324
       0.0022       2.5432    -999.2500    -999.2500    -999.2500       0.4402
       4.3270
   3170.7437
       8.9616       6.9295       0.0370      62.1389      45.8675    -999.2500
    -999.2500      74.3313      66.9191      20.6567       0.1683       3.4393
       0.0027       2.5631    -999.2500    -999.2500    -999.2500       0.6027
       4.4080
   3170.8960
       8.9913       6.4067       0.0358      62.9510      45.2081    -999.2500
    -999.2500      70.4564      63.1809      31.1593       0.1608       3.5459
       0.0026       2.5896    -999.2500    -999.2500    -999.2500       0.5345
       4.3956
   3171.0483
       8.9529       2.8467       0.0403      64.7772      40.3367    -999.2500
    -999.2500      76.1426      67.7220      81.6559       0.1503       3.5065
       0.0016       2.6256    -999.2500    -999.2500    -999.2500       0.1302
       4.2472
   3171.2007
       8.9300       1.1721       0.0394      64.8525      38.0863    -999.2500
    -999.2500      77.3822      68.5239     108.3548       0.1466       3.4577
       0.0010       2.6423    -999.2500    -999.2500    -999.2500       0.0125
       4.2257
   3171.3533
       8.9300       2.2563       0.0304      62.8590      39.6708    -999.2500
    -999.2500      72.1203      63.8581     100.3204       0.1527       3.3952
       0.0010       2.6309    -999.2500    -999.2500    -999.2500       0.3141
       4.3900
   3171.5056
       8.9094       3.4495       0.0222      62.4207      41.8911    -999.2500
    -999.2500      70.5812      62.2820      80.9717       0.1591       3.4302
       0.0012       2.6188    -999.2500    -999.2500    -999.2500       0.4424
       4.5578
   3171.6580
       8.8585       4.8039       0.0152      64.4883      45.0513    -999.2500
    -999.2500      74.5285      65.2593      44.9626       0.1641       3.6091
       0.0017       2.6058    -999.2500    -999.2500    -999.2500       0.3144
       4.7307
   3171.8103
       8.8744       5.5819       0.0090      65.0152      47.5105    -999.2500
    -999.2500      80.9449      70.8974      34.8942       0.1645       3.6778
       0.0020       2.5823    -999.2500    -999.2500    -999.2500       0.2570
       4.8637
   3171.9629
       8.9898       5.5047       0.0040      63.2219      48.9300    -999.2500
    -999.2500      90.9663      80.4246      62.9579       0.1571       3.5831
       0.0020       2.5431    -999.2500    -999.2500    -999.2500       0.3041
       4.9374
   3172.1152
       9.0370       5.8274       0.0018      62.9647      50.4398    -999.2500
    -999.2500     102.2335      90.4908      69.9423       0.1597       3.4789
       0.0022       2.5271    -999.2500    -999.2500    -999.2500       0.3814
       5.0206
   3172.2676
       8.9855       6.7300       0.0038      64.5255      52.0805    -999.2500
    -999.2500     115.2934     101.3164      45.9698       0.1742       3.3609
       0.0027       2.5446    -999.2500    -999.2500    -999.2500       0.5023
       5.1175
   3172.4199
       8.9292       7.8954       0.0076      64.5130      54.5324    -999.2500
    -999.2500     113.3706      99.0916      32.9721       0.1826       3.3077
       0.0030       2.5727    -999.2500    -999.2500    -999.2500       0.6694
       5.2401
   3172.5723
       8.8657       9.4430       0.0141      61.7979      58.1644    -999.2500
    -999.2500      89.5574      77.7973      35.9473       0.1760       3.3486
       0.0030       2.6161    -999.2500    -999.2500    -999.2500       0.9036
       5.3999
   3172.7249
       8.8745       9.8337       0.0170      60.5380      59.5298    -999.2500
    -999.2500      70.1947      60.8059      56.0398       0.1652       3.3938
       0.0028       2.6367    -999.2500    -999.2500    -999.2500       0.9959
       5.5432
   3172.8772
       8.9895       8.5237       0.0145      60.8592      57.5631    -999.2500
    -999.2500      57.3656      50.1328     101.3270       0.1499       3.4453
       0.0023       2.6237    -999.2500    -999.2500    -999.2500       0.8794
       5.6621
