#------------------------------------------------------------------------------
#
#   Created by  : [OpenWorks] Log Export Utility (LEXP)
#   Created on  : 2016-05-19 10:22:34
#   Project     : CANT971
#   User        : R5K
#   Interpreter : PEP
#
#------------------------------------------------------------------------------
~VERSION INFORMATION
VERS. 2.0 : CWLS Log ASCII Standard - version 2.0
WRAP.  NO : One line per depth step
~WELL INFORMATION
#MNEMONIC   .UNIT                                           VALUE :DESCRIPTION
#------------------------------------------------------------------------------
STRT        .M                                           501.0914 :START DEPTH
STOP        .M                                          3797.8081 :STOP DEPTH
STEP        .M                                             0.1524 :STEP
NULL        .                                           -999.2500 :NULL VALUE
COMP        .                                   PEMEX EXPL & PROD :COMPANY
WELL        .                                                2076 :WELL
FLD         .                                           CANTARELL :FIELD
LOC         .                                             UNKNOWN :LOCATION
CNTY        .                                      CD. DEL CARMEN :COUNTY
STAT        .                                            CAMPECHE :STATE
CTRY        .                                              MEXICO :COUNTRY
SRVC        .                                             UNKNOWN :SERVICE COMPANY
DATE        .                                             UNKNOWN :LOG DATE
UWI         .                                          3060000519 :UNIQUE WELL ID
XCOORD      .                                       600031.350000 :SURFACE X
YCOORD      .                                      2139442.240000 :SURFACE Y
LAT         .                                           19.347648 :LATITUDE
LON         .                                          -92.047636 :LONGITUDE
ELEV        .M                                            27.4000 :SURFACE ELEV
ELEV_TYPE   .                                                  KB :ELEV TYPE
~CURVE INFORMATION
#MNEMONIC.UNIT        API CODE       : CURVE DESCRIPTION
#------------------------------------------------------------------------------
DEPTH    .M                          : Measured Depth
CALI     .inches      UNKNOWN        : CALI:UNKNOWN:rC:NONE:v0 (auto-composite)
DT       .us/ft       UNKNOWN        : DT:UNKNOWN:rC:NONE:v0 (auto-composite)
GR       .API         UNKNOWN        : GR:UNKNOWN:rC:NONE:v0 (auto-composite)
ILD      .ohm.m       UNKNOWN        : ILD:UNKNOWN:rC:NONE:v0 (auto-composite)
LLD      .ohm.m       UNKNOWN        : LLD:UNKNOWN:rC:NONE:v0 (auto-composite)
LLS      .ohm.m       UNKNOWN        : LLS:UNKNOWN:rC:NONE:v0 (auto-composite)
NPHI     .UNKNOWN     UNKNOWN        : NPHI:UNKNOWN:rC:NONE:v0 (auto-composite)
RHOB     .g/cm3       UNKNOWN        : RHOB:UNKNOWN:rC:NONE:v0 (auto-composite)
SIGM     .UNKNOWN     UNKNOWN        : SIGM:UNKNOWN:rC:NONE:v0 (auto-composite)
TAU      .UNKNOWN     UNKNOWN        : TAU:UNKNOWN:rC:NONE:v0 (auto-composite)
~A     DEPTH         CALI           DT           GR          ILD          LLD          LLS         NPHI         RHOB         SIGM          TAU
# ...
   3633.2163       6.5600      71.7220      68.2270    -999.2500     209.0010     160.0360       0.1571       2.4710    -999.2500    -999.2500
   3633.3687       6.5395      73.8637      74.1162    -999.2500     181.0101     136.9152       0.1634       2.4605    -999.2500    -999.2500
   3633.5210       6.5190      76.0000      80.0000    -999.2500     153.0000     114.0000       0.1703       2.4500    -999.2500    -999.2500
   3633.6733       6.4795      74.3215      77.8241    -999.2500     162.4832     119.3811       0.1779       2.4545    -999.2500    -999.2500
   3633.8257       6.4400      72.6470      75.6500    -999.2500     171.9590     124.7150       0.1825       2.4590    -999.2500    -999.2500
   3633.9783       6.4445      69.4198      69.0200    -999.2500     202.4897     152.9796       0.1801       2.4760    -999.2500    -999.2500
   3634.1306       6.4490      66.2000      62.4050    -999.2500     233.0000     181.0000       0.1726       2.4930    -999.2500    -999.2500
   3634.2830       6.4776      67.4523      54.4440    -999.2500     229.0404     175.7813       0.1618       2.5135    -999.2500    -999.2500
   3634.4353       6.5060      68.7000      46.5000    -999.2500     225.0830     170.6070       0.1499       2.5340    -999.2500    -999.2500
   3634.5879       6.5631      68.4250      46.8003    -999.2500     207.4969     150.4082       0.1387       2.5535    -999.2500    -999.2500
   3634.7402       6.6200      68.1510      47.1000    -999.2500     189.9180     130.3790       0.1279       2.5730    -999.2500    -999.2500
   3634.8926       6.6085      66.9289      45.7227    -999.2500     165.5030     105.5871       0.1171       2.6005    -999.2500    -999.2500
   3635.0449       6.5970      65.7110      44.3480    -999.2500     141.0950      81.0000       0.1062       2.6280    -999.2500    -999.2500
   3635.1975       6.5184      63.9405      41.1357    -999.2500     119.3957      82.0232       0.0951       2.6555    -999.2500    -999.2500
   3635.3499       6.4400      62.1760      37.9290    -999.2500      97.7000      83.0380       0.0843       2.6830    -999.2500    -999.2500
   3635.5022       6.4400      60.9901      34.7469    -999.2500     101.0926      96.2961       0.0741       2.7115    -999.2500    -999.2500
   3635.6545       6.4400      59.8080      31.5700    -999.2500     104.4850     109.4480       0.0652       2.7400    -999.2500    -999.2500
   3635.8069       6.4540      58.4995      28.3436    -999.2500     141.1459     158.3440       0.0581       2.7350    -999.2500    -999.2500
   3635.9595       6.4680      57.1950      25.1220    -999.2500     177.8100     206.8540       0.0528       2.7300    -999.2500    -999.2500
   3636.1118       6.4980      55.6577      21.4585    -999.2500     451.8757     291.6100       0.0492       2.7345    -999.2500    -999.2500
   3636.2642       6.5280      54.1250      17.8000    -999.2500     726.0000     375.7080       0.0467       2.7390    -999.2500    -999.2500
   3636.4165       6.5440      53.5151      18.0326    -999.2500     710.9835     427.5522       0.0444       2.7545    -999.2500    -999.2500
   3636.5691       6.5600      52.9070      18.2650    -999.2500     695.9620     479.0000       0.0426       2.7700    -999.2500    -999.2500
   3636.7214       6.5600      52.5530      19.0695    -999.2500     622.9225     453.2929       0.0412       2.7655    -999.2500    -999.2500
   3636.8738       6.5600      52.2000      19.8730    -999.2500     549.8490     427.8200       0.0403       2.7610    -999.2500    -999.2500
   3637.0261       6.5505      52.4343      20.5804    -999.2500     489.2999     377.7151       0.0400       2.7405    -999.2500    -999.2500
   3637.1787       6.5410      52.6680      21.2870    -999.2500     428.7150     328.0600       0.0400       2.7200    -999.2500    -999.2500
   3637.3311       6.4904      53.8354      22.0939    -999.2500     401.8671     282.8296       0.0400       2.7295    -999.2500    -999.2500
   3637.4834       6.4400      55.0000      22.9000    -999.2500     375.0000     238.0000       0.0400       2.7390    -999.2500    -999.2500
   3637.6357       6.4400      54.2681      22.7820    -999.2500     378.5013     239.1776       0.0400       2.7645    -999.2500    -999.2500
   3637.7881       6.4400      53.5380      22.6640    -999.2500     382.0000     240.3450       0.0400       2.7900    -999.2500    -999.2500
   3637.9407       6.4400      52.6180      21.8811    -999.2500     589.0657     265.2146       0.0400       2.7875    -999.2500    -999.2500
   3638.0930       6.4400      51.7000      21.1000    -999.2500     796.0000     289.8700       0.0401       2.7850    -999.2500    -999.2500
   3638.2454       6.4400      52.4835      21.1000    -999.2500     781.2377     390.8632       0.0405       2.7775    -999.2500    -999.2500
   3638.3977       6.4400      53.2640      21.1000    -999.2500     766.4830     491.0000       0.0417       2.7700    -999.2500    -999.2500
   3638.5503       6.4400      54.8348      21.2186    -999.2500     679.2343     464.1181       0.0442       2.7725    -999.2500    -999.2500
   3638.7026       6.4400      56.4000      21.3370    -999.2500     592.0190     437.4610       0.0482       2.7750    -999.2500    -999.2500
   3638.8550       6.4756      54.7972      22.3269    -999.2500     503.1320     381.9250       0.0537       2.7775    -999.2500    -999.2500
   3639.0073       6.5110      53.2000      23.3150    -999.2500     414.2680     326.8460       0.0600       2.7800    -999.2500    -999.2500
   3639.1599       6.6407      53.7740      25.7876    -999.2500     371.4847     290.6055       0.0660       2.7730    -999.2500    -999.2500
   3639.3123       6.7700      54.3460      28.2560    -999.2500     328.7070     254.6590       0.0710       2.7660    -999.2500    -999.2500
   3639.4646       6.7435      55.6466      30.6734    -999.2500     294.2069     230.5829       0.0742       2.7279    -999.2500    -999.2500
   3639.6169       6.7170      56.9430      33.0870    -999.2500     259.7070     206.6990       0.0761       2.6900    -999.2500    -999.2500
   3639.7693       6.6384      57.6726      34.3444    -999.2500     233.8550     186.2692       0.0771       2.6900    -999.2500    -999.2500
   3639.9219       6.5600      58.4000      35.6000    -999.2500     208.0000     166.0000       0.0772       2.6900    -999.2500    -999.2500
   3640.0742       6.5745      57.2648      33.7658    -999.2500     254.4088     189.5280       0.0761       2.7020    -999.2500    -999.2500
   3640.2266       6.5890      56.1330      31.9340    -999.2500     300.8290     212.8740       0.0726       2.7140    -999.2500    -999.2500
   3640.3789       6.6361      54.5142      26.8138    -999.2500     554.8676     351.4646       0.0651       2.7370    -999.2500    -999.2500
   3640.5315       6.6830      52.9000      21.7000    -999.2500     809.0000     489.0000       0.0582       2.7600    -999.2500    -999.2500
   3640.6838       6.7866      54.7525      21.8211    -999.2500     714.1820     444.3026       0.0560       2.7550    -999.2500    -999.2500
   3640.8362       6.8900      56.6000      21.9420    -999.2500     619.3170     400.0110       0.0564       2.7500    -999.2500    -999.2500
   3640.9885       6.8099      55.2983      22.8715    -999.2500     496.8880     329.1736       0.0572       2.7300    -999.2500    -999.2500
   3641.1411       6.7300      54.0000      23.8000    -999.2500     374.3830     258.9700       0.0582       2.7100    -999.2500    -999.2500
   3641.2935       6.6329      54.6583      22.9226    -999.2500     286.2244     227.8476       0.0591       2.7150    -999.2500    -999.2500
   3641.4458       6.5360      55.3150      22.0460    -999.2500     198.0000     197.0000       0.0594       2.7200    -999.2500    -999.2500
   3641.5981       6.4879      57.4039      20.1223    -999.2500     213.3871     215.7706       0.0585       2.7250    -999.2500    -999.2500
