#------------------------------------------------------------------------------
#
#   Created by  : [OpenWorks] Log Export Utility (LEXP)
#   Created on  : 2016-05-19 10:22:36
#   Project     : CANT971
#   User        : R5K
#   Interpreter : PEP
#
#------------------------------------------------------------------------------
~VERSION INFORMATION
VERS. 2.0 : CWLS Log ASCII Standard - version 2.0
WRAP. YES : Mulitple lines per depth step
~WELL INFORMATION
#MNEMONIC   .UNIT                                           VALUE :DESCRIPTION
#------------------------------------------------------------------------------
STRT        .M                                          2616.0618 :START DEPTH
STOP        .M                                          3329.4463 :STOP DEPTH
STEP        .M                                             0.1524 :STEP
NULL        .                                           -999.2500 :NULL VALUE
COMP        .                                             UNKNOWN :COMPANY
WELL        .                                            2076D-V2 :WELL
FLD         .                                             UNKNOWN :FIELD
LOC         .                                             UNKNOWN :LOCATION
CNTY        .                                             UNKNOWN :COUNTY
STAT        .                                             UNKNOWN :STATE
CTRY        .                                             UNKNOWN :COUNTRY
SRVC        .                                             UNKNOWN :SERVICE COMPANY
DATE        .                                             UNKNOWN :LOG DATE
UWI         .                                            2076D-V2 :UNIQUE WELL ID
XCOORD      .                                            0.000000 :SURFACE X
YCOORD      .                                            0.000000 :SURFACE Y
LAT         .                                            0.000000 :LATITUDE
LON         .                                          -97.488695 :LONGITUDE
ELEV        .M                                             0.0000 :SURFACE ELEV
ELEV_TYPE   .                                                  KB :ELEV TYPE
~CURVE INFORMATION
#MNEMONIC.UNIT        API CODE       : CURVE DESCRIPTION
#------------------------------------------------------------------------------
DEPTH    .M                          : Measured Depth
CALI     .UNKNOWN     UNKNOWN        : CALI:litodensidad:rC:NONE:v0 (auto-composite)
CGR      .API         UNKNOWN        : CGR:Espectrometria:rC:NONE:v0 (auto-composite)
DRHO     .g/cm3       UNKNOWN        : DRHO:litodensidad:rC:NONE:v0 (auto-composite)
DT       .us/ft       UNKNOWN        : DT:sonico:rC:NONE:v0 (auto-composite)
GR       .API         UNKNOWN        : GR:Espectrometria:rC:NONE:v0 (auto-composite)
GR-LWD   .API         UNKNOWN        : GR-LWD:PETROWORKS:rC:NONE:v1 
ILD-LWD  .UNKNOWN     UNKNOWN        : ILD-LWD:PETROWORKS:rC:NONE:v1 
ILM-LWD  .UNKNOWN     UNKNOWN        : ILM-LWD:PETROWORKS:rC:NONE:v1 
LLD      .ohm.m       UNKNOWN        : LLD:resistivos:rC:NONE:v0 (auto-composite)
LLS      .ohm.m       UNKNOWN        : LLS:resistivos:rC:NONE:v0 (auto-composite)
MSFL     .ohm.m       UNKNOWN        : MSFL:resistivos:rC:NONE:v0 (auto-composite)
NPHI     .UNKNOWN     UNKNOWN        : NPHI:porosidad:rC:NONE:v0 (auto-composite)
PEF      .UNKNOWN     UNKNOWN        : PEF:litodensidad:rC:NONE:v0 (auto-composite)
POTA     .wtpercent   UNKNOWN        : POTA:Espectrometria:rC:NONE:v0 (auto-composite)
RHOB     .g/cm3       UNKNOWN        : RHOB:litodensidad:rC:NONE:v0 (auto-composite)
SIGM     .UNKNOWN     UNKNOWN        : SIGM:TMDL:rC:NONE:v0 (auto-composite)
SP       .UNKNOWN     UNKNOWN        : SP:resistivos:rC:NONE:v0 (auto-composite)
THOR     .UNKNOWN     UNKNOWN        : THOR:Espectrometria:rC:NONE:v0 (auto-composite)
URAN     .UNKNOWN     UNKNOWN        : URAN:Espectrometria:rC:NONE:v0 (auto-composite)
~A
# ...
   3216.0605
       6.8158       3.0694       0.0018      55.6378      37.9195      30.9207
      65.5236      65.0839      72.1430      70.5736      73.8982       0.0827
       4.3502       0.0006       2.5671       7.5151      46.0285       0.6420
       3.8800
   3216.2129
       6.8636       2.3585       0.0037      56.5252      38.7884      31.1360
      65.4113      65.0491      72.2456      70.3530      68.3066       0.0853
       4.1920       0.0005       2.5663       7.5000      44.6545       0.4609
       4.0558
   3216.3655
       6.8550       4.4124       0.0032      57.2166      39.8032      31.4277
      65.3938      65.1754      73.8009      72.3847      70.3981       0.0878
       4.0247       0.0026       2.5543       7.5000      44.5423       0.2015
       3.9402
   3216.5178
       6.8047       5.9396       0.0005      57.6522      40.5298      31.7391
      65.3382      65.2814      76.2689      75.0357      76.9592       0.0897
       4.0415       0.0041       2.5509       7.5000      45.1486       0.0606
       3.8511
   3216.6702
       6.8197       6.6412      -0.0016      57.9097      40.6861      32.1659
      65.3159      65.4362      77.5966      76.6243      78.1584       0.0906
       4.1931       0.0046       2.5639       7.5000      45.1827       0.0618
       3.7903
   3216.8225
       6.8245       6.8855       0.0005      58.0228      40.2884      32.2042
      65.2565      65.4687      77.7222      76.7002      76.5538       0.0878
       4.2638       0.0038       2.5754       7.5000      44.8951       0.4599
       3.7189
   3216.9749
       6.8350       7.5423       0.0040      58.0316      39.4530      32.0150
      65.1950      65.4150      76.4805      75.3227      77.8963       0.0838
       4.3184       0.0030       2.5871       7.5000      44.7661       0.9446
       3.5527
   3217.1274
       6.8265       8.0327       0.0076      57.9363      37.9738      31.2283
      65.1873      65.4400      75.5658      74.0570      97.4648       0.0825
       4.4747       0.0025       2.6038       7.5000      44.2275       1.2777
       3.3335
   3217.2798
       6.8048       7.3085       0.0099      57.7391      36.6436      30.1836
      65.1959      65.4799      75.4829      73.8957     113.6595       0.0833
       4.5691       0.0024       2.6079       7.5000      43.6874       1.1312
       3.2660
   3217.4321
       6.8184       6.3570       0.0121      57.5317      35.1970      29.4423
      65.2336      65.4449      75.9336      74.8237      95.4877       0.0800
       4.5988       0.0023       2.6093       7.5000      43.5581       0.8783
       3.2108
   3217.5845
       6.8501       6.0960       0.0125      57.5752      34.3976      29.3254
      65.2115      65.2653      76.3461      75.7940      77.1987       0.0762
       4.6367       0.0025       2.6169       7.5000      44.5634       0.7432
       3.1509
   3217.7371
       6.8365       7.0895       0.0105      58.1627      34.4056      29.5840
      65.0978      64.8950      75.4607      74.8880      75.8248       0.0753
       4.6084       0.0030       2.6146       7.5000      45.4668       0.8214
       3.0412
   3217.8894
       6.8047       7.2896       0.0094      59.2896      34.2883      30.1036
      65.0063      64.5353      73.6544      72.7486      73.9016       0.0764
       4.4265       0.0034       2.6008       7.5000      45.2784       0.7301
       3.0059
   3218.0417
       6.7916       5.1920       0.0097      60.5478      34.8033      30.4751
      64.9374      64.2398      71.7753      70.2501      63.8360       0.0814
       4.1718       0.0025       2.5939       7.5000      44.4042       0.4620
       3.2967
   3218.1941
       6.7936       4.4348       0.0094      61.2513      35.7386      30.7550
      64.9389      64.0664      71.2236      69.6496      68.2316       0.0862
       4.0905       0.0023       2.5928       7.5000      43.7313       0.3317
       3.4852
   3218.3467
       6.8004       4.5393       0.0064      60.9595      37.2993      30.6980
      64.9393      63.8674      71.6130      70.3114      75.1689       0.0899
       4.1318       0.0025       2.5763       7.5000      43.6467       0.3050
       3.6473
   3218.4990
       6.7973       5.4056       0.0028      59.7171      38.1067      30.4500
      64.9800      63.8000      73.9125      72.8981      93.7824       0.0907
       4.1481       0.0031       2.5477       7.5000      43.1432       0.3103
       3.6407
   3218.6514
       6.7681       4.8238       0.0018      58.1606      37.4919      29.9005
      64.9185      63.6368      75.5092      74.3803     112.8426       0.0915
       4.1503       0.0026       2.5218       7.5000      42.9554       0.3348
       3.6371
   3218.8037
       6.7623       3.5583       0.0023      57.2928      36.2624      29.5840
      64.6507      63.1681      76.6064      75.0238     114.0212       0.0906
       4.2388       0.0019       2.5259       7.5000      43.1844       0.2497
       3.6411
   3218.9561
       6.7872       1.6079      -0.0042      57.5775      34.4223      29.3218
      64.2470      62.6914      76.7227      74.7723      94.2729       0.0834
       4.4193       0.0009       2.5532       7.5000      43.5295       0.0896
       3.6533
   3219.1086
       6.7955       1.8308      -0.0121      58.7107      33.8140      28.9752
      63.8800      62.2982      76.3676      73.9053      88.5154       0.0773
       4.4593       0.0005       2.5680       7.5000      44.3109       0.3078
       3.5608
   3219.2610
       6.7804       4.1602      -0.0118      59.8469      34.1131      28.6859
      63.6456      62.0639      75.5972      72.9052      86.4466       0.0763
       4.3636       0.0008       2.5732       7.5147      44.5367       0.8751
       3.3348
   3219.4133
       6.7753       5.9533      -0.0082      60.4430      35.3440      28.7473
      63.5800      62.0981      74.1764      71.4090      75.4850       0.0793
       4.3180       0.0008       2.5778       7.5461      44.3970       1.3751
       3.2721
   3219.5657
       6.7789       6.1517      -0.0097      60.6319      36.7203      28.9276
      63.6195      62.2488      73.1472      70.4692      84.8297       0.0850
       4.2747       0.0012       2.5511       7.5706      44.7401       1.2738
       3.4033
   3219.7183
       6.7790       6.3653      -0.0113      60.5348      37.2143      29.2346
      63.8209      62.6601      74.1720      71.5828     101.2115       0.0875
       4.1828       0.0020       2.4995       7.5703      45.5676       0.9941
       3.4345
   3219.8706
       6.7868       6.9472      -0.0096      60.0139      36.0318      29.8402
      64.0801      63.3307      75.5927      72.9655     103.2552       0.0900
       4.0766       0.0033       2.4750       7.5719      45.6308       0.6733
       3.2381
   3220.0229
       6.7932       8.3815      -0.0082      58.7186      35.3957      30.1889
      64.2961      63.9667      77.5445      74.6788     105.5786       0.0920
       4.1232       0.0038       2.5097       7.5620      44.5232       0.8859
       3.0076
   3220.1753
       6.7770       9.3592      -0.0059      56.8713      35.4096      30.7690
      64.4028      64.3861      79.0766      75.9911     102.2886       0.0896
       4.2429       0.0041       2.5530       7.5381      43.5800       1.0395
       2.9003
   3220.3279
       6.7647       9.1043       0.0019      55.2019      36.3554      31.0200
      64.5250      64.7244      79.6752      76.7805      86.5766       0.0854
       4.2924       0.0044       2.5752       7.5076      43.3188       0.8220
       3.0339
   3220.4802
       6.7721       7.4371       0.0085      54.2265      37.3806      31.0842
      64.6541      64.9282      80.0335      77.5161      73.1349       0.0830
       4.2516       0.0042       2.5843       7.5000      43.2254       0.4408
       3.3337
   3220.6326
       6.7824       6.5194       0.0122      53.9548      37.4411      30.6812
      64.7729      65.0733      79.9750      78.0115      84.2093       0.0838
       4.2521       0.0038       2.6045       7.5000      43.2314       0.3294
       3.4426
