#------------------------------------------------------------------------------
#
#   Created by  : [OpenWorks] Log Export Utility (LEXP)
#   Created on  : 2016-05-19 10:22:35
#   Project     : CANT971
#   User        : R5K
#   Interpreter : PEP
#
#------------------------------------------------------------------------------
~VERSION INFORMATION
VERS. 2.0 : CWLS Log ASCII Standard - version 2.0
WRAP. YES : Mulitple lines per depth step
~WELL INFORMATION
#MNEMONIC   .UNIT                                           VALUE :DESCRIPTION
#------------------------------------------------------------------------------
STRT        .M                                          1391.9308 :START DEPTH
STOP        .M                                          3430.8904 :STOP DEPTH
STEP        .M                                             0.1524 :STEP
NULL        .                                           -999.2500 :NULL VALUE
COMP        .                                   PEMEX EXPL & PROD :COMPANY
WELL        .                                               2076D :WELL
FLD         .                                           CANTARELL :FIELD
LOC         .                                             UNKNOWN :LOCATION
CNTY        .                                      CD. DEL CARMEN :COUNTY
STAT        .                                            CAMPECHE :STATE
CTRY        .                                              MEXICO :COUNTRY
SRVC        .                                             UNKNOWN :SERVICE COMPANY
DATE        .                                             UNKNOWN :LOG DATE
UWI         .                                               2076D :UNIQUE WELL ID
XCOORD      .                                       600029.690000 :SURFACE X
YCOORD      .                                      2139443.800000 :SURFACE Y
LAT         .                                           19.347662 :LATITUDE
LON         .                                          -92.047651 :LONGITUDE
ELEV        .M                                            27.4000 :SURFACE ELEV
ELEV_TYPE   .                                                  KB :ELEV TYPE
~CURVE INFORMATION
#MNEMONIC.UNIT        API CODE       : CURVE DESCRIPTION
#------------------------------------------------------------------------------
DEPTH    .M                          : Measured Depth
CALI     .UNKNOWN     UNKNOWN        : CALI:UNKNOWN:rC:NONE:v0 (auto-composite)
CGR      .UNKNOWN     UNKNOWN        : CGR:UNKNOWN:rC:NONE:v0 (auto-composite)
DRHO     .UNKNOWN     UNKNOWN        : DRHO:UNKNOWN:rC:NONE:v0 (auto-composite)
DT       .us/ft       UNKNOWN        : DT:DT:rC:NONE:v0 (auto-composite)
GR       .API         UNKNOWN        : GR:UNKNOWN:rC:NONE:v0 (auto-composite)
ILD      .UNKNOWN     UNKNOWN        : ILD:UNKNOWN:rC:NONE:v0 (auto-composite)
ILM      .UNKNOWN     UNKNOWN        : ILM:UNKNOWN:rC:NONE:v0 (auto-composite)
LLD      .ohm.m       UNKNOWN        : LLD:resistivos:rC:NONE:v0 (auto-composite)
LLS      .ohm.m       UNKNOWN        : LLS:resistivos:rC:NONE:v0 (auto-composite)
MSFL     .ohm.m       UNKNOWN        : MSFL:resistivos:rC:NONE:v0 (auto-composite)
NPHI     .v/v_decimal UNKNOWN        : NPHI:UNKNOWN:rC:NONE:v0 (auto-composite)
PEF      .UNKNOWN     UNKNOWN        : PEF:UNKNOWN:rC:NONE:v0 (auto-composite)
POTA     .UNKNOWN     UNKNOWN        : POTA:UNKNOWN:rC:NONE:v0 (auto-composite)
RHOB     .UNKNOWN     UNKNOWN        : RHOB:UNKNOWN:rC:NONE:v0 (auto-composite)
SIGM     .UNKNOWN     UNKNOWN        : SIGM:UNKNOWN:rC:NONE:v0 (auto-composite)
SP       .UNKNOWN     UNKNOWN        : SP:UNKNOWN:rC:NONE:v0 (auto-composite)
TAU      .UNKNOWN     UNKNOWN        : TAU:UNKNOWN:rC:NONE:v0 (auto-composite)
THOR     .UNKNOWN     UNKNOWN        : THOR:UNKNOWN:rC:NONE:v0 (auto-composite)
URAN     .UNKNOWN     UNKNOWN        : URAN:UNKNOWN:rC:NONE:v0 (auto-composite)
~A
# ...
   3243.8955
       8.5037      16.8181       0.0136      59.7817      49.1034    -999.2500
    -999.2500      29.0832      28.1648      41.8013       0.0649       4.9066
       0.0063       2.6587    -999.2500    -999.2500    -999.2500       1.5286
       3.6387
   3244.0481
       8.5064      15.6058       0.0090      58.6872      46.9822    -999.2500
    -999.2500      28.6723      27.9055      43.9782       0.0663       4.8701
       0.0058       2.6600    -999.2500    -999.2500    -999.2500       1.4266
       3.5530
   3244.2004
       8.5318      15.3983       0.0065      57.0184      46.5418    -999.2500
    -999.2500      29.4266      28.5763      34.6019       0.0680       4.7891
       0.0053       2.6550    -999.2500    -999.2500    -999.2500       1.5341
       3.5260
   3244.3528
       8.5385      15.6619       0.0060      56.7941      45.9300    -999.2500
    -999.2500      30.0580      29.1681      25.7394       0.0700       4.8119
       0.0052       2.6538    -999.2500    -999.2500    -999.2500       1.6229
       3.4956
   3244.5051
       8.5175      16.6165       0.0085      58.1452      45.0663    -999.2500
    -999.2500      30.5096      29.6448      17.6205       0.0723       4.9868
       0.0057       2.6583    -999.2500    -999.2500    -999.2500       1.6844
       3.4601
   3244.6575
       8.5084      16.7176       0.0098      58.8985      44.6353    -999.2500
    -999.2500      28.1339      27.4556      15.6327       0.0732       5.0598
       0.0058       2.6590    -999.2500    -999.2500    -999.2500       1.5604
       3.4096
   3244.8101
       8.5170      15.5619       0.0093      58.4869      44.8414    -999.2500
    -999.2500      21.6283      21.3724      22.6122       0.0714       4.9826
       0.0053       2.6540    -999.2500    -999.2500    -999.2500       1.1633
       3.3369
   3244.9624
       8.5165      14.3131       0.0086      59.1519      43.7314    -999.2500
    -999.2500      17.4738      17.4511      23.0814       0.0698       4.9433
       0.0048       2.6539    -999.2500    -999.2500    -999.2500       0.9536
       3.2369
   3245.1147
       8.5030      12.9303       0.0076      60.9697      40.7277    -999.2500
    -999.2500      16.7595      16.6933      14.0332       0.0684       4.9588
       0.0043       2.6609    -999.2500    -999.2500    -999.2500       1.0135
       3.0975
   3245.2671
       8.4797      11.5867       0.0068      61.5864      38.9262    -999.2500
    -999.2500      16.7736      16.5703      16.3374       0.0657       4.9867
       0.0040       2.6634    -999.2500    -999.2500    -999.2500       0.9930
       2.9443
   3245.4197
       8.4422      10.3003       0.0063      60.2895      38.8727    -999.2500
    -999.2500      17.8483      17.3711      35.1858       0.0611       5.0327
       0.0040       2.6594    -999.2500    -999.2500    -999.2500       0.8555
       2.7709
   3245.5720
       8.4320      10.5927       0.0052      58.8252      39.0625    -999.2500
    -999.2500      18.8303      18.1510      40.7640       0.0594       4.9832
       0.0040       2.6540    -999.2500    -999.2500    -999.2500       0.9531
       2.7060
   3245.7244
       8.4615      13.1885       0.0032      57.1536      39.6073    -999.2500
    -999.2500      19.6773      18.9009      26.8954       0.0622       4.7943
       0.0040       2.6465    -999.2500    -999.2500    -999.2500       1.3934
       2.7995
   3245.8767
       8.4670      12.9132       0.0028      56.0808      37.1455    -999.2500
    -999.2500      20.9564      19.9782      24.4972       0.0641       4.4706
       0.0034       2.6331    -999.2500    -999.2500    -999.2500       1.5044
       2.7316
   3246.0293
       8.4376       8.4337       0.0048      55.9045      30.2815    -999.2500
    -999.2500      22.8720      21.5381      38.8893       0.0643       3.9498
       0.0019       2.6111    -999.2500    -999.2500    -999.2500       1.1334
       2.4275
   3246.1816
       8.4250       5.8856       0.0064      56.3347      25.8582    -999.2500
    -999.2500      24.2524      22.7004      68.9679       0.0648       3.8271
       0.0012       2.5986    -999.2500    -999.2500    -999.2500       0.8735
       2.2164
   3246.3340
       8.4375       6.1944       0.0074      57.7052      25.0456    -999.2500
    -999.2500      24.8424      23.2753     122.1625       0.0663       4.2934
       0.0017       2.6001    -999.2500    -999.2500    -999.2500       0.7780
       2.1429
   3246.4863
       8.4565       7.6856       0.0094      58.1452      25.9159    -999.2500
    -999.2500      26.2507      24.4463     127.1183       0.0666       4.6438
       0.0026       2.6103    -999.2500    -999.2500    -999.2500       0.7743
       2.0970
   3246.6387
       8.4851      10.9321       0.0129      57.4719      29.2847    -999.2500
    -999.2500      28.8540      26.4867      61.2230       0.0653       4.8223
       0.0041       2.6333    -999.2500    -999.2500    -999.2500       0.9066
       2.0920
   3246.7913
       8.5061      11.8890       0.0160      56.8058      29.8713    -999.2500
    -999.2500      30.0067      27.2505      26.3224       0.0621       4.9523
       0.0046       2.6552    -999.2500    -999.2500    -999.2500       0.8781
       2.0384
   3246.9436
       8.5161       9.5241       0.0185      56.2735      26.4213    -999.2500
    -999.2500      29.0319      26.1421      36.8863       0.0561       5.0117
       0.0036       2.6751    -999.2500    -999.2500    -999.2500       0.6163
       1.9145
   3247.0959
       8.5220       8.3825       0.0216      55.7713      24.8367    -999.2500
    -999.2500      27.6770      24.7299      49.6790       0.0528       5.0940
       0.0032       2.6862    -999.2500    -999.2500    -999.2500       0.4826
       1.8646
   3247.2483
       8.5220       9.0222       0.0256      55.2960      25.9683    -999.2500
    -999.2500      25.7633      22.8702      65.7619       0.0528       5.2093
       0.0037       2.6842    -999.2500    -999.2500    -999.2500       0.5355
       1.9225
   3247.4009
       8.5236       9.5227       0.0282      55.2361      26.8145    -999.2500
    -999.2500      25.5746      22.5146      66.2750       0.0541       5.2442
       0.0040       2.6812    -999.2500    -999.2500    -999.2500       0.6095
       1.9881
   3247.5532
       8.5276       9.8186       0.0287      55.7630      27.2408    -999.2500
    -999.2500      27.9205      24.3684      43.9057       0.0568       5.1608
       0.0040       2.6767    -999.2500    -999.2500    -999.2500       0.7144
       2.0651
   3247.7056
       8.5181       9.2918       0.0276      56.6049      26.8465    -999.2500
    -999.2500      29.7016      25.8160      34.6905       0.0583       5.1695
       0.0036       2.6714    -999.2500    -999.2500    -999.2500       0.7408
       2.0912
   3247.8579
       8.4885       7.5505       0.0241      57.8036      25.2405    -999.2500
    -999.2500      30.6485      26.6629      44.7897       0.0584       5.3144
       0.0026       2.6648    -999.2500    -999.2500    -999.2500       0.6510
       2.0420
   3248.0105
       8.4571       7.8357       0.0230      58.8097      26.2835    -999.2500
    -999.2500      30.3763      26.3380      44.6190       0.0599       5.3982
       0.0016       2.6612    -999.2500    -999.2500    -999.2500       0.8304
       2.2307
   3248.1628
       8.4231      11.0448       0.0255      59.4929      31.1484    -999.2500
    -999.2500      28.3191      24.2973      29.4154       0.0642       5.3937
       0.0006       2.6617    -999.2500    -999.2500    -999.2500       1.3982
       2.7625
   3248.3152
       8.3995      12.5432       0.0294      59.2916      33.3012    -999.2500
    -999.2500      25.9086      22.0884      22.7274       0.0695       5.3133
       0.0008       2.6630    -999.2500    -999.2500    -999.2500       1.5990
       2.8432
   3248.4675
       8.3910      11.5644       0.0354      57.8769      31.5269    -999.2500
    -999.2500      22.9715      19.6235      28.4286       0.0786       5.1230
       0.0028       2.6655    -999.2500    -999.2500    -999.2500       1.2684
       2.2709
