#------------------------------------------------------------------------------
#
#   Created by  : [OpenWorks] Log Export Utility (LEXP)
#   Created on  : 2016-05-19 10:22:35
#   Project     : CANT971
#   User        : R5K
#   Interpreter : PEP
#
#------------------------------------------------------------------------------
~VERSION INFORMATION
VERS. 2.0 : CWLS Log ASCII Standard - version 2.0
WRAP. YES : Mulitple lines per depth step
~WELL INFORMATION
#MNEMONIC   .UNIT                                           VALUE :DESCRIPTION
#------------------------------------------------------------------------------
STRT        .M                                          1391.9308 :START DEPTH
STOP        .M                                          3430.8904 :STOP DEPTH
STEP        .M                                             0.1524 :STEP
NULL        .                                           -999.2500 :NULL VALUE
COMP        .                                   PEMEX EXPL & PROD :COMPANY
WELL        .                                               2076D :WELL
FLD         .                                           CANTARELL :FIELD
LOC         .                                             UNKNOWN :LOCATION
CNTY        .                                      CD. DEL CARMEN :COUNTY
STAT        .                                            CAMPECHE :STATE
CTRY        .                                              MEXICO :COUNTRY
SRVC        .                                             UNKNOWN :SERVICE COMPANY
DATE        .                                             UNKNOWN :LOG DATE
UWI         .                                               2076D :UNIQUE WELL ID
XCOORD      .                                       600029.690000 :SURFACE X
YCOORD      .                                      2139443.800000 :SURFACE Y
LAT         .                                           19.347662 :LATITUDE
LON         .                                          -92.047651 :LONGITUDE
ELEV        .M                                            27.4000 :SURFACE ELEV
ELEV_TYPE   .                                                  KB :ELEV TYPE
~CURVE INFORMATION
#MNEMONIC.UNIT        API CODE       : CURVE DESCRIPTION
#------------------------------------------------------------------------------
DEPTH    .M                          : Measured Depth
CALI     .UNKNOWN     UNKNOWN        : CALI:UNKNOWN:rC:NONE:v0 (auto-composite)
CGR      .UNKNOWN     UNKNOWN        : CGR:UNKNOWN:rC:NONE:v0 (auto-composite)
DRHO     .UNKNOWN     UNKNOWN        : DRHO:UNKNOWN:rC:NONE:v0 (auto-composite)
DT       .us/ft       UNKNOWN        : DT:DT:rC:NONE:v0 (auto-composite)
GR       .API         UNKNOWN        : GR:UNKNOWN:rC:NONE:v0 (auto-composite)
ILD      .UNKNOWN     UNKNOWN        : ILD:UNKNOWN:rC:NONE:v0 (auto-composite)
ILM      .UNKNOWN     UNKNOWN        : ILM:UNKNOWN:rC:NONE:v0 (auto-composite)
LLD      .ohm.m       UNKNOWN        : LLD:resistivos:rC:NONE:v0 (auto-composite)
LLS      .ohm.m       UNKNOWN        : LLS:resistivos:rC:NONE:v0 (auto-composite)
MSFL     .ohm.m       UNKNOWN        : MSFL:resistivos:rC:NONE:v0 (auto-composite)
NPHI     .v/v_decimal UNKNOWN        : NPHI:UNKNOWN:rC:NONE:v0 (auto-composite)
PEF      .UNKNOWN     UNKNOWN        : PEF:UNKNOWN:rC:NONE:v0 (auto-composite)
POTA     .UNKNOWN     UNKNOWN        : POTA:UNKNOWN:rC:NONE:v0 (auto-composite)
RHOB     .UNKNOWN     UNKNOWN        : RHOB:UNKNOWN:rC:NONE:v0 (auto-composite)
SIGM     .UNKNOWN     UNKNOWN        : SIGM:UNKNOWN:rC:NONE:v0 (auto-composite)
SP       .UNKNOWN     UNKNOWN        : SP:UNKNOWN:rC:NONE:v0 (auto-composite)
TAU      .UNKNOWN     UNKNOWN        : TAU:UNKNOWN:rC:NONE:v0 (auto-composite)
THOR     .UNKNOWN     UNKNOWN        : THOR:UNKNOWN:rC:NONE:v0 (auto-composite)
URAN     .UNKNOWN     UNKNOWN        : URAN:UNKNOWN:rC:NONE:v0 (auto-composite)
~A
# ...
   3064.3684
       8.9957      49.0332       0.0351      85.2252      55.5041    -999.2500
    -999.2500       3.1279       2.5925       2.4751       0.2662       4.1750
       0.0184       2.5577    -999.2500    -999.2500    -999.2500       3.9192
       0.7479
   3064.5208
       9.1288      48.7037       0.0384      84.5927      57.4675    -999.2500
    -999.2500       3.5036       2.8934       2.1672       0.2741       4.1354
       0.0188       2.5764    -999.2500    -999.2500    -999.2500       3.7929
       0.8165
   3064.6731
       9.6191      45.1642       0.0369      83.1148      57.0077    -999.2500
    -999.2500       3.4067       2.8229       3.2079       0.2504       4.1389
       0.0183       2.5749    -999.2500    -999.2500    -999.2500       3.5510
       0.7316
   3064.8257
       9.7121      43.1401       0.0386      82.2965      55.9071    -999.2500
    -999.2500       3.2091       2.6791       3.5285       0.2408       4.1627
       0.0180       2.5706    -999.2500    -999.2500    -999.2500       3.2789
       0.6873
   3064.9780
       9.2207      43.3455       0.0451      82.2610      53.8635    -999.2500
    -999.2500       2.8639       2.4274       2.7915       0.2518       4.2163
       0.0180       2.5620    -999.2500    -999.2500    -999.2500       2.9623
       0.7028
   3065.1304
       9.1144      44.1850       0.0486      82.3317      53.3305    -999.2500
    -999.2500       2.6814       2.3471       2.6291       0.2576       4.2106
       0.0182       2.5621    -999.2500    -999.2500    -999.2500       2.8573
       0.7743
   3065.2827
       9.5657      45.9423       0.0476      82.4804      54.9838    -999.2500
    -999.2500       2.7364       2.5172       3.3058       0.2535       4.1192
       0.0187       2.5746    -999.2500    -999.2500    -999.2500       3.0587
       0.9267
   3065.4353
       9.6663      46.5428       0.0446      82.9614      55.3506    -999.2500
    -999.2500       2.8659       2.6154       3.5412       0.2524       4.0658
       0.0188       2.5806    -999.2500    -999.2500    -999.2500       3.1281
       0.9976
   3065.5876
       9.2575      45.4633       0.0386      83.9360      53.8488    -999.2500
    -999.2500       3.1051       2.6089       3.1319       0.2579       4.0678
       0.0183       2.5771    -999.2500    -999.2500    -999.2500       3.0056
       0.9502
   3065.7400
       9.0530      45.3635       0.0299      84.4560      53.5725    -999.2500
    -999.2500       3.1881       2.5874       2.9633       0.2609       4.0804
       0.0182       2.5634    -999.2500    -999.2500    -999.2500       2.9440
       0.9342
   3065.8923
       9.1465      46.6919       0.0174      84.4093      55.0829    -999.2500
    -999.2500       3.0430       2.5438       3.1464       0.2602       4.1084
       0.0187       2.5349    -999.2500    -999.2500    -999.2500       2.9710
       0.9642
   3066.0447
       9.1935      47.4287       0.0112      84.2181      55.8594    -999.2500
    -999.2500       2.9801       2.4878       3.0370       0.2541       4.0857
       0.0190       2.5206    -999.2500    -999.2500    -999.2500       3.0545
       0.9773
   3066.1973
       9.1725      47.2998       0.0142      83.8391      55.5622    -999.2500
    -999.2500       3.0371       2.4133       2.4993       0.2397       3.9888
       0.0190       2.5271    -999.2500    -999.2500    -999.2500       3.2208
       0.9659
   3066.3496
       9.0969      46.9142       0.0154      82.7271      54.7071    -999.2500
    -999.2500       3.0192       2.3457       2.5913       0.2326       3.9409
       0.0186       2.5437    -999.2500    -999.2500    -999.2500       3.3063
       0.9283
   3066.5020
       8.9404      46.1491       0.0139      80.8429      53.0274    -999.2500
    -999.2500       2.8913       2.2882       3.6108       0.2342       3.9654
       0.0176       2.5752    -999.2500    -999.2500    -999.2500       3.2723
       0.8524
   3066.6543
       9.0669      44.7816       0.0132      79.6790      50.8415    -999.2500
    -999.2500       2.8306       2.2656       3.9772       0.2319       4.0513
       0.0170       2.5934    -999.2500    -999.2500    -999.2500       3.1646
       0.7509
   3066.8069
       9.6129      42.5209       0.0137      79.8084      47.9048    -999.2500
    -999.2500       2.8691       2.2940       3.3835       0.2202       4.2283
       0.0170       2.5919    -999.2500    -999.2500    -999.2500       2.9475
       0.6115
   3066.9592
       9.7099      41.8181       0.0146      80.1413      46.8248    -999.2500
    -999.2500       2.9540       2.3581       3.4435       0.2137       4.3244
       0.0170       2.5871    -999.2500    -999.2500    -999.2500       2.8869
       0.5592
   3067.1116
       9.1562      43.3740       0.0161      80.6965      48.4361    -999.2500
    -999.2500       3.1066       2.4742       4.4623       0.2147       4.3034
       0.0170       2.5776    -999.2500    -999.2500    -999.2500       3.0534
       0.6332
   3067.2639
       8.9580      44.1705       0.0196      80.9274      48.7335    -999.2500
    -999.2500       3.2629       2.5870       4.7038       0.2186       4.2599
       0.0170       2.5787    -999.2500    -999.2500    -999.2500       3.1408
       0.6538
   3067.4165
       9.2771      43.8624       0.0261      80.6556      47.1195    -999.2500
    -999.2500       3.4253       2.6955       3.8112       0.2257       4.1835
       0.0170       2.5952    -999.2500    -999.2500    -999.2500       3.1133
       0.5969
   3067.5688
       9.3377      42.7866       0.0288      80.7874      46.2733    -999.2500
    -999.2500       3.5084       2.7460       3.6370       0.2263       4.1022
       0.0166       2.6034    -999.2500    -999.2500    -999.2500       3.1425
       0.5715
   3067.7212
       9.0183      40.5825       0.0258      81.4433      46.5557    -999.2500
    -999.2500       3.4749       2.7115       4.5192       0.2164       4.0137
       0.0156       2.5994    -999.2500    -999.2500    -999.2500       3.2550
       0.5925
   3067.8735
       8.8711      40.1484       0.0244      81.3791      47.6907    -999.2500
    -999.2500       3.4660       2.7528       4.9831       0.2104       3.9804
       0.0150       2.5972    -999.2500    -999.2500    -999.2500       3.2639
       0.6633
   3068.0259
       8.9779      42.3249       0.0254      80.2853      50.0833    -999.2500
    -999.2500       3.4929       2.9048       4.8331       0.2105       4.0286
       0.0150       2.5977    -999.2500    -999.2500    -999.2500       3.1200
       0.8077
   3068.1785
       9.0105      43.5707       0.0291      79.9729      50.8688    -999.2500
    -999.2500       3.6391       2.9928       4.4944       0.2144       4.0529
       0.0152       2.6017    -999.2500    -999.2500    -999.2500       3.1253
       0.8852
   3068.3308
       8.9360      43.4747       0.0366      80.9005      49.3375    -999.2500
    -999.2500       3.9594       2.9873       3.8797       0.2234       4.0429
       0.0157       2.6107    -999.2500    -999.2500    -999.2500       3.3457
       0.8662
   3068.4832
       9.0077      42.9859       0.0406      81.3372      48.4391    -999.2500
    -999.2500       4.1283       2.9633       3.5839       0.2268       3.9917
       0.0160       2.6156    -999.2500    -999.2500    -999.2500       3.4021
       0.7974
   3068.6355
       9.2909      41.9287       0.0396      81.2187      48.4566    -999.2500
    -999.2500       4.0773       2.9123       3.7509       0.2234       3.8808
       0.0160       2.6146    -999.2500    -999.2500    -999.2500       3.2213
       0.6566
   3068.7881
       9.3343      42.5042       0.0368      81.1281      49.6083    -999.2500
    -999.2500       3.9429       2.8180       3.8433       0.2210       3.8394
       0.0166       2.6120    -999.2500    -999.2500    -999.2500       3.1633
       0.6144
   3068.9404
       9.0275      45.4659       0.0313      81.1531      52.4175    -999.2500
    -999.2500       3.6858       2.6599       3.8268       0.2235       3.8993
       0.0181       2.6070    -999.2500    -999.2500    -999.2500       3.2848
       0.7164
