#------------------------------------------------------------------------------
#
#   Created by  : [OpenWorks] Log Export Utility (LEXP)
#   Created on  : 2016-05-19 10:22:35
#   Project     : CANT971
#   User        : R5K
#   Interpreter : PEP
#
#------------------------------------------------------------------------------
~VERSION INFORMATION
VERS. 2.0 : CWLS Log ASCII Standard - version 2.0
WRAP. YES : Mulitple lines per depth step
~WELL INFORMATION
#MNEMONIC   .UNIT                                           VALUE :DESCRIPTION
#------------------------------------------------------------------------------
STRT        .M                                          1391.9308 :START DEPTH
STOP        .M                                          3430.8904 :STOP DEPTH
STEP        .M                                             0.1524 :STEP
NULL        .                                           -999.2500 :NULL VALUE
COMP        .                                   PEMEX EXPL & PROD :COMPANY
WELL        .                                               2076D :WELL
FLD         .                                           CANTARELL :FIELD
LOC         .                                             UNKNOWN :LOCATION
CNTY        .                                      CD. DEL CARMEN :COUNTY
STAT        .                                            CAMPECHE :STATE
CTRY        .                                              MEXICO :COUNTRY
SRVC        .                                             UNKNOWN :SERVICE COMPANY
DATE        .                                             UNKNOWN :LOG DATE
UWI         .                                               2076D :UNIQUE WELL ID
XCOORD      .                                       600029.690000 :SURFACE X
YCOORD      .                                      2139443.800000 :SURFACE Y
LAT         .                                           19.347662 :LATITUDE
LON         .                                          -92.047651 :LONGITUDE
ELEV        .M                                            27.4000 :SURFACE ELEV
ELEV_TYPE   .                                                  KB :ELEV TYPE
~CURVE INFORMATION
#MNEMONIC.UNIT        API CODE       : CURVE DESCRIPTION
#------------------------------------------------------------------------------
DEPTH    .M                          : Measured Depth
CALI     .UNKNOWN     UNKNOWN        : CALI:UNKNOWN:rC:NONE:v0 (auto-composite)
CGR      .UNKNOWN     UNKNOWN        : CGR:UNKNOWN:rC:NONE:v0 (auto-composite)
DRHO     .UNKNOWN     UNKNOWN        : DRHO:UNKNOWN:rC:NONE:v0 (auto-composite)
DT       .us/ft       UNKNOWN        : DT:DT:rC:NONE:v0 (auto-composite)
GR       .API         UNKNOWN        : GR:UNKNOWN:rC:NONE:v0 (auto-composite)
ILD      .UNKNOWN     UNKNOWN        : ILD:UNKNOWN:rC:NONE:v0 (auto-composite)
ILM      .UNKNOWN     UNKNOWN        : ILM:UNKNOWN:rC:NONE:v0 (auto-composite)
LLD      .ohm.m       UNKNOWN        : LLD:resistivos:rC:NONE:v0 (auto-composite)
LLS      .ohm.m       UNKNOWN        : LLS:resistivos:rC:NONE:v0 (auto-composite)
MSFL     .ohm.m       UNKNOWN        : MSFL:resistivos:rC:NONE:v0 (auto-composite)
NPHI     .v/v_decimal UNKNOWN        : NPHI:UNKNOWN:rC:NONE:v0 (auto-composite)
PEF      .UNKNOWN     UNKNOWN        : PEF:UNKNOWN:rC:NONE:v0 (auto-composite)
POTA     .UNKNOWN     UNKNOWN        : POTA:UNKNOWN:rC:NONE:v0 (auto-composite)
RHOB     .UNKNOWN     UNKNOWN        : RHOB:UNKNOWN:rC:NONE:v0 (auto-composite)
SIGM     .UNKNOWN     UNKNOWN        : SIGM:UNKNOWN:rC:NONE:v0 (auto-composite)
SP       .UNKNOWN     UNKNOWN        : SP:UNKNOWN:rC:NONE:v0 (auto-composite)
TAU      .UNKNOWN     UNKNOWN        : TAU:UNKNOWN:rC:NONE:v0 (auto-composite)
THOR     .UNKNOWN     UNKNOWN        : THOR:UNKNOWN:rC:NONE:v0 (auto-composite)
URAN     .UNKNOWN     UNKNOWN        : URAN:UNKNOWN:rC:NONE:v0 (auto-composite)
~A
# ...
   3036.0220
    -999.2500      30.3446    -999.2500    -999.2500      33.1848       2.2104
       2.3426    -999.2500    -999.2500    -999.2500    -999.2500    -999.2500
       0.0097    -999.2500    -999.2500    -148.4009    -999.2500       2.8301
       0.3928
   3036.1743
    -999.2500      29.8363    -999.2500    -999.2500      32.6751       2.1901
       2.3359    -999.2500    -999.2500    -999.2500    -999.2500    -999.2500
       0.0098    -999.2500    -999.2500    -143.1446    -999.2500       2.8010
       0.3860
   3036.3269
    -999.2500      29.3078    -999.2500    -999.2500      33.3484       2.2051
       2.3209    -999.2500    -999.2500    -999.2500    -999.2500    -999.2500
       0.0093    -999.2500    -999.2500    -137.0533    -999.2500       2.8557
       0.4306
   3036.4792
    -999.2500      28.9024    -999.2500    -999.2500      33.7358       2.2315
       2.3251    -999.2500    -999.2500    -999.2500    -999.2500    -999.2500
       0.0090    -999.2500    -999.2500    -134.4935    -999.2500       2.8745
       0.4843
   3036.6316
    -999.2500      28.6755    -999.2500    -999.2500      33.7083       2.2745
       2.3570    -999.2500    -999.2500    -999.2500    -999.2500    -999.2500
       0.0090    -999.2500    -999.2500    -137.0899    -999.2500       2.8416
       0.5513
   3036.7839
    -999.2500      27.8813    -999.2500    -999.2500      33.1531       2.3322
       2.4241    -999.2500    -999.2500    -999.2500    -999.2500    -999.2500
       0.0090    -999.2500    -999.2500    -139.8884    -999.2500       2.6963
       0.6229
   3036.9363
    -999.2500      26.2613    -999.2500    -999.2500      31.8297       2.4112
       2.5421    -999.2500    -999.2500    -999.2500    -999.2500    -999.2500
       0.0090    -999.2500    -999.2500    -142.9811    -999.2500       2.3877
       0.7013
   3037.0889
    -999.2500      25.5654      -0.1732    -999.2500      31.4717       2.5041
       2.6677    -999.2500    -999.2500    -999.2500    -999.2500    -999.2500
       0.0090    -999.2500    -999.2500    -143.2204    -999.2500       2.2291
       0.7387
   3037.2412
    -999.2500      26.2287      -0.6010    -999.2500      32.5332       2.6170
       2.8041    -999.2500    -999.2500    -999.2500    -999.2500    -999.2500
       0.0090    -999.2500    -999.2500    -139.3191    -999.2500       2.2911
       0.7157
   3037.3936
    -999.2500      26.3190      -0.8590    -999.2500      33.1486       2.7319
       2.9005    -999.2500    -999.2500    -999.2500       0.3011    -999.2500
       0.0090       2.4424    -999.2500    -136.8557    -999.2500       2.3205
       0.7129
   3037.5459
    -999.2500      25.5639      -0.8666    -999.2500      33.1055       2.8494
       2.9385    -999.2500    -999.2500    -999.2500       0.2886    -999.2500
       0.0090       2.4358    -999.2500    -136.4866    -999.2500       2.3020
       0.7400
   3037.6985
    -999.2500      25.2917      -0.8702    -999.2500      32.9016       2.9567
       2.9983    -999.2500    -999.2500    -999.2500       0.2815    -999.2500
       0.0092       2.4326    -999.2500    -135.7421    -999.2500       2.2464
       0.7548
   3037.8508
    -999.2500      25.7161      -0.8682    -999.2500      32.4657       3.0492
       3.0898    -999.2500    -999.2500    -999.2500       0.2826    -999.2500
       0.0097       2.4341    -999.2500    -134.4527    -999.2500       2.1374
       0.7518
   3038.0032
    -999.2500      25.2573      -0.8715    -999.2500      31.2325       3.1024
       3.1780    -999.2500    -999.2500    -999.2500       0.2832    -999.2500
       0.0096       2.4456    -999.2500    -134.3496    -999.2500       2.0104
       0.7331
   3038.1555
    -999.2500      23.5205      -0.8825    -999.2500      28.8449       3.0984
       3.2615    -999.2500    -999.2500    -999.2500       0.2817    -999.2500
       0.0086       2.4716    -999.2500    -135.9752    -999.2500       1.8570
       0.6916
   3038.3081
    -999.2500      22.5444      -0.8890    -999.2500      27.4619       3.1011
       3.3088    -999.2500    -999.2500    -999.2500       0.2753    -999.2500
       0.0080       2.4773    -999.2500    -136.8946    -999.2500       1.7743
       0.6094
   3038.4604
    -999.2500      22.6809      -0.8890    -999.2500      27.5479       3.1136
       3.3033    -999.2500    -999.2500    -999.2500       0.2611    -999.2500
       0.0080       2.4533    -999.2500    -136.7881    -999.2500       1.7948
       0.4674
   3038.6128
    -999.2500      23.3238      -0.8878    -999.2500      27.9654       3.1202
       3.2782    -999.2500    -999.2500    -999.2500       0.2549    -999.2500
       0.0082       2.4443    -999.2500    -135.5982    -999.2500       1.8937
       0.3842
   3038.7651
    -999.2500      24.7102      -0.8848    -999.2500      28.8695       3.1182
       3.2247    -999.2500    -999.2500    -999.2500       0.2586    -999.2500
       0.0087       2.4573    -999.2500    -132.8287    -999.2500       2.1076
       0.3872
   3038.9175
    -999.2500      25.8783      -0.8743    -999.2500      29.7626       3.1034
       3.1757    -999.2500    -999.2500    -999.2500       0.2601    -999.2500
       0.0090       2.4644    -999.2500    -131.2273    -999.2500       2.3112
       0.4008
   3039.0701
    -999.2500      26.7246      -0.8527    -999.2500      30.6396       3.0699
       3.1332    -999.2500    -999.2500    -999.2500       0.2549    -999.2500
       0.0090       2.4629    -999.2500    -131.3238    -999.2500       2.4998
       0.4298
   3039.2224
    -999.2500      27.5395      -0.8408    -999.2500      31.4706       2.9739
       3.0494    -999.2500    -999.2500    -999.2500       0.2527    -999.2500
       0.0090       2.4561    -999.2500    -131.7511    -999.2500       2.6859
       0.4656
   3039.3748
    -999.2500      28.3090      -0.8428    -999.2500      32.2357       2.7868
       2.9054    -999.2500    -999.2500    -999.2500       0.2551    -999.2500
       0.0090       2.4416    -999.2500    -132.6609    -999.2500       2.8687
       0.5111
   3039.5271
    -999.2500      29.1623      -0.8538    -999.2500      33.0833       2.5730
       2.6410    -999.2500    -999.2500    -999.2500       0.2678    -999.2500
       0.0090       2.4169    -999.2500    -133.5283    -999.2500       3.0994
       0.5370
   3039.6797
    -999.2500      30.1374      -0.8778    -999.2500      34.0508       2.3201
       2.2017    -999.2500    -999.2500    -999.2500       0.2963    -999.2500
       0.0090       2.3774    -999.2500    -134.3339    -999.2500       3.3998
       0.5345
   3039.8320
    -999.2500      30.6955      -0.8910    -999.2500      34.5842       2.1139
       1.9443    -999.2500    -999.2500    -999.2500       0.3053    -999.2500
       0.0090       2.3558    -999.2500    -133.9224    -999.2500       3.5766
       0.5204
   3039.9844
    -999.2500      30.6450      -0.8885    -999.2500      34.4837       1.9758
       1.9523    -999.2500    -999.2500    -999.2500       0.2885    -999.2500
       0.0090       2.3603    -999.2500    -131.7346    -999.2500       3.5731
       0.4894
   3040.1367
    -999.2500      30.3648      -0.8744    -999.2500      33.3008       1.9038
       1.9896    -999.2500    -999.2500    -999.2500       0.2773    -999.2500
       0.0086       2.3847    -999.2500    -131.0997    -999.2500       3.5511
       0.4333
   3040.2893
    -999.2500      29.7480      -0.8434    -999.2500      30.5325       1.9278
       2.0696    -999.2500    -999.2500    -999.2500       0.2798    -999.2500
       0.0076       2.4382    -999.2500    -132.7240    -999.2500       3.5021
       0.3403
   3040.4417
    -999.2500      28.7419      -0.8252    -999.2500      28.9103       2.0542
       2.1486    -999.2500    -999.2500    -999.2500       0.2782    -999.2500
       0.0070       2.4696    -999.2500    -132.8239    -999.2500       3.3832
       0.2874
   3040.5940
    -999.2500      27.1633      -0.8257    -999.2500      28.9727       2.3291
       2.2261    -999.2500    -999.2500    -999.2500       0.2688    -999.2500
       0.0070       2.4686    -999.2500    -130.6981    -999.2500       3.1615
       0.2934
