#------------------------------------------------------------------------------
#
#   Created by  : [OpenWorks] Log Export Utility (LEXP)
#   Created on  : 2016-05-19 10:22:34
#   Project     : CANT971
#   User        : R5K
#   Interpreter : PEP
#
#------------------------------------------------------------------------------
~VERSION INFORMATION
VERS. 2.0 : CWLS Log ASCII Standard - version 2.0
WRAP.  NO : One line per depth step
~WELL INFORMATION
#MNEMONIC   .UNIT                                           VALUE :DESCRIPTION
#------------------------------------------------------------------------------
STRT        .M                                           501.0914 :START DEPTH
STOP        .M                                          3797.8081 :STOP DEPTH
STEP        .M                                             0.1524 :STEP
NULL        .                                           -999.2500 :NULL VALUE
COMP        .                                   PEMEX EXPL & PROD :COMPANY
WELL        .                                                2076 :WELL
FLD         .                                           CANTARELL :FIELD
LOC         .                                             UNKNOWN :LOCATION
CNTY        .                                      CD. DEL CARMEN :COUNTY
STAT        .                                            CAMPECHE :STATE
CTRY        .                                              MEXICO :COUNTRY
SRVC        .                                             UNKNOWN :SERVICE COMPANY
DATE        .                                             UNKNOWN :LOG DATE
UWI         .                                          3060000519 :UNIQUE WELL ID
XCOORD      .                                       600031.350000 :SURFACE X
YCOORD      .                                      2139442.240000 :SURFACE Y
LAT         .                                           19.347648 :LATITUDE
LON         .                                          -92.047636 :LONGITUDE
ELEV        .M                                            27.4000 :SURFACE ELEV
ELEV_TYPE   .                                                  KB :ELEV TYPE
~CURVE INFORMATION
#MNEMONIC.UNIT        API CODE       : CURVE DESCRIPTION
#------------------------------------------------------------------------------
DEPTH    .M                          : Measured Depth
CALI     .inches      UNKNOWN        : CALI:UNKNOWN:rC:NONE:v0 (auto-composite)
DT       .us/ft       UNKNOWN        : DT:UNKNOWN:rC:NONE:v0 (auto-composite)
GR       .API         UNKNOWN        : GR:UNKNOWN:rC:NONE:v0 (auto-composite)
ILD      .ohm.m       UNKNOWN        : ILD:UNKNOWN:rC:NONE:v0 (auto-composite)
LLD      .ohm.m       UNKNOWN        : LLD:UNKNOWN:rC:NONE:v0 (auto-composite)
LLS      .ohm.m       UNKNOWN        : LLS:UNKNOWN:rC:NONE:v0 (auto-composite)
NPHI     .UNKNOWN     UNKNOWN        : NPHI:UNKNOWN:rC:NONE:v0 (auto-composite)
RHOB     .g/cm3       UNKNOWN        : RHOB:UNKNOWN:rC:NONE:v0 (auto-composite)
SIGM     .UNKNOWN     UNKNOWN        : SIGM:UNKNOWN:rC:NONE:v0 (auto-composite)
TAU      .UNKNOWN     UNKNOWN        : TAU:UNKNOWN:rC:NONE:v0 (auto-composite)
~A     DEPTH         CALI           DT           GR          ILD          LLD          LLS         NPHI         RHOB         SIGM          TAU
# ...
   3692.9570       6.4400      49.9750      29.8000    -999.2500    1420.0000     855.0000       0.0357       2.7500    -999.2500    -999.2500
   3693.1094       6.4400      50.4845      29.1504    -999.2500    1269.3066     794.3347       0.0367       2.7535    -999.2500    -999.2500
   3693.2617       6.4400      50.9930      28.5020    -999.2500    1118.6630     734.0770       0.0376       2.7570    -999.2500    -999.2500
   3693.4143       6.4400      51.3994      27.2499    -999.2500    1012.1201     689.8584       0.0385       2.7685    -999.2500    -999.2500
   3693.5667       6.4400      51.8050      26.0000    -999.2500     905.5990     645.9310       0.0397       2.7800    -999.2500    -999.2500
   3693.7190       6.4400      52.1563      26.1812    -999.2500     853.7224     605.9603       0.0417       2.7750    -999.2500    -999.2500
   3693.8713       6.4400      52.5070      26.3620    -999.2500     801.8500     566.2480       0.0438       2.7700    -999.2500    -999.2500
   3694.0237       6.4400      52.6036      26.5036    -999.2500     714.2581     520.4127       0.0453       2.7900    -999.2500    -999.2500
   3694.1763       6.4400      52.7000      26.6450    -999.2500     626.6620     474.8680       0.0464       2.8100    -999.2500    -999.2500
   3694.3286       6.4400      52.0490      27.4731    -999.2500     516.4690     434.5135       0.0464       2.8000    -999.2500    -999.2500
   3694.4810       6.4400      51.4000      28.3000    -999.2500     406.2570     394.4100       0.0458       2.7900    -999.2500    -999.2500
   3694.6333       6.4400      51.4726      28.0999    -999.2500     365.6020     372.6387       0.0445       2.7900    -999.2500    -999.2500
   3694.7859       6.4400      51.5450      27.9000    -999.2500     325.0000     351.0000       0.0427       2.7900    -999.2500    -999.2500
   3694.9382       6.4400      52.1734      27.9000    -999.2500     335.5062     381.5913       0.0403       2.7865    -999.2500    -999.2500
   3695.0906       6.4400      52.8000      27.9000    -999.2500     346.0000     412.0000       0.0383       2.7830    -999.2500    -999.2500
   3695.2429       6.4400      52.0685      29.3618    -999.2500     311.4093     363.6388       0.0384       2.7765    -999.2500    -999.2500
   3695.3955       6.4400      51.3390      30.8220    -999.2500     276.8550     315.5600       0.0394       2.7700    -999.2500    -999.2500
   3695.5479       6.4400      50.8689      31.9830    -999.2500     248.2648     279.6102       0.0411       2.7700    -999.2500    -999.2500
   3695.7002       6.4400      50.4000      33.1430    -999.2500     219.7010     243.8660       0.0432       2.7700    -999.2500    -999.2500
   3695.8525       6.4400      50.4000      34.5090    -999.2500     200.3427     226.8855       0.0461       2.7700    -999.2500    -999.2500
   3696.0049       6.4400      50.4000      35.8740    -999.2500     181.0000     210.0000       0.0493       2.7700    -999.2500    -999.2500
   3696.1575       6.4400      52.2521      37.7936    -999.2500     184.2851     210.0000       0.0524       2.7500    -999.2500    -999.2500
   3696.3098       6.4400      54.1000      39.7120    -999.2500     187.5680     210.0000       0.0553       2.7300    -999.2500    -999.2500
   3696.4622       6.4400      53.3632      41.8566    -999.2500     199.2592     213.3033       0.0578       2.7300    -999.2500    -999.2500
   3696.6145       6.4400      52.6280      44.0000    -999.2500     210.9440     216.5890       0.0586       2.7300    -999.2500    -999.2500
   3696.7671       6.4400      51.6130      42.9304    -999.2500     220.0904     227.2603       0.0550       2.7265    -999.2500    -999.2500
   3696.9194       6.4400      50.6000      41.8630    -999.2500     229.2330     237.8760       0.0510       2.7230    -999.2500    -999.2500
   3697.0718       6.4400      51.3392      39.6699    -999.2500     238.6179     242.9509       0.0503       2.7065    -999.2500    -999.2500
   3697.2241       6.4400      52.0770      37.4810    -999.2500     248.0000     248.0000       0.0509       2.6900    -999.2500    -999.2500
   3697.3767       6.4400      53.4487      35.8410    -999.2500     245.7748     232.0639       0.0527       2.7100    -999.2500    -999.2500
   3697.5291       6.4400      54.8180      34.2040    -999.2500     243.5500     216.2070       0.0544       2.7300    -999.2500    -999.2500
   3697.6814       6.4400      55.9599      32.5902    -999.2500     227.2131     201.5564       0.0547       2.7250    -999.2500    -999.2500
   3697.8337       6.4400      57.1000      30.9790    -999.2500     210.8770     187.0000       0.0543       2.7200    -999.2500    -999.2500
   3697.9861       6.4400      55.8991      28.6442    -999.2500     196.4391     193.9880       0.0530       2.7235    -999.2500    -999.2500
   3698.1387       6.4400      54.7000      26.3130    -999.2500     182.0000     200.9320       0.0504       2.7270    -999.2500    -999.2500
   3698.2910       6.4400      65.1156      24.5763    -999.2500     215.7211     262.6570       0.0441       2.7385    -999.2500    -999.2500
   3698.4434       6.4400      75.5000      22.8420    -999.2500     249.4490     324.0000       0.0381       2.7500    -999.2500    -999.2500
   3698.5957       6.4290      75.2016      21.9704    -999.2500     276.2415     269.3344       0.0371       2.7300    -999.2500    -999.2500
   3698.7483       6.4180      74.9040      21.1000    -999.2500     303.0000     215.0000       0.0374       2.7100    -999.2500    -999.2500
   3698.9006       6.3739      68.3350      21.1000    -999.2500     267.4796     242.0804       0.0378       2.7210    -999.2500    -999.2500
   3699.0530       6.3300      61.7840      21.1000    -999.2500     232.0000     269.0000       0.0382       2.7320    -999.2500    -999.2500
   3699.2053       6.3300      57.6366      21.3997    -999.2500     327.5488     265.6086       0.0386       2.7510    -999.2500    -999.2500
   3699.3579       6.3300      53.5000      21.6990    -999.2500     423.0000     262.2370       0.0389       2.7700    -999.2500    -999.2500
   3699.5103       6.3300      53.9506      23.5243    -999.2500     378.6196     237.0469       0.0382       2.7650    -999.2500    -999.2500
   3699.6626       6.3300      54.4000      25.3480    -999.2500     334.2790     212.0000       0.0375       2.7600    -999.2500    -999.2500
   3699.8149       6.3300      52.3476      27.1647    -999.2500     314.4373     215.0084       0.0370       2.7640    -999.2500    -999.2500
   3699.9673       6.3300      50.3000      28.9800    -999.2500     294.6110     218.0000       0.0369       2.7680    -999.2500    -999.2500
   3700.1199       6.3300      51.0528      31.7979    -999.2500     255.6980     202.1459       0.0377       2.7690    -999.2500    -999.2500
   3700.2722       6.3300      51.8040      34.6140    -999.2500     216.8100     186.3780       0.0390       2.7700    -999.2500    -999.2500
   3700.4246       6.3300      52.7530      37.4432    -999.2500     173.6108     157.8899       0.0413       2.7650    -999.2500    -999.2500
   3700.5769       6.3300      53.7000      40.2710    -999.2500     130.4340     129.5530       0.0439       2.7600    -999.2500    -999.2500
   3700.7295       6.3300      53.4357      43.1884    -999.2500     110.1630     110.1612       0.0467       2.7675    -999.2500    -999.2500
   3700.8818       6.3300      53.1720      46.1000    -999.2500      89.9000      90.8700       0.0487       2.7750    -999.2500    -999.2500
   3701.0342       6.3715      51.6346      44.0926    -999.2500      91.2557      85.7220       0.0484       2.7890    -999.2500    -999.2500
   3701.1865       6.4130      50.1000      42.0890    -999.2500      92.6110      80.6000       0.0474       2.8030    -999.2500    -999.2500
   3701.3391       6.4265      50.9507      38.3723    -999.2500     102.0727      91.6884       0.0463       2.8115    -999.2500    -999.2500
