#------------------------------------------------------------------------------
#
#   Created by  : [OpenWorks] Log Export Utility (LEXP)
#   Created on  : 2016-05-19 10:22:36
#   Project     : CANT971
#   User        : R5K
#   Interpreter : PEP
#
#------------------------------------------------------------------------------
~VERSION INFORMATION
VERS. 2.0 : CWLS Log ASCII Standard - version 2.0
WRAP. YES : Mulitple lines per depth step
~WELL INFORMATION
#MNEMONIC   .UNIT                                           VALUE :DESCRIPTION
#------------------------------------------------------------------------------
STRT        .M                                          2616.0618 :START DEPTH
STOP        .M                                          3329.4463 :STOP DEPTH
STEP        .M                                             0.1524 :STEP
NULL        .                                           -999.2500 :NULL VALUE
COMP        .                                             UNKNOWN :COMPANY
WELL        .                                            2076D-V2 :WELL
FLD         .                                             UNKNOWN :FIELD
LOC         .                                             UNKNOWN :LOCATION
CNTY        .                                             UNKNOWN :COUNTY
STAT        .                                             UNKNOWN :STATE
CTRY        .                                             UNKNOWN :COUNTRY
SRVC        .                                             UNKNOWN :SERVICE COMPANY
DATE        .                                             UNKNOWN :LOG DATE
UWI         .                                            2076D-V2 :UNIQUE WELL ID
XCOORD      .                                            0.000000 :SURFACE X
YCOORD      .                                            0.000000 :SURFACE Y
LAT         .                                            0.000000 :LATITUDE
LON         .                                          -97.488695 :LONGITUDE
ELEV        .M                                             0.0000 :SURFACE ELEV
ELEV_TYPE   .                                                  KB :ELEV TYPE
~CURVE INFORMATION
#MNEMONIC.UNIT        API CODE       : CURVE DESCRIPTION
#------------------------------------------------------------------------------
DEPTH    .M                          : Measured Depth
CALI     .UNKNOWN     UNKNOWN        : CALI:litodensidad:rC:NONE:v0 (auto-composite)
CGR      .API         UNKNOWN        : CGR:Espectrometria:rC:NONE:v0 (auto-composite)
DRHO     .g/cm3       UNKNOWN        : DRHO:litodensidad:rC:NONE:v0 (auto-composite)
DT       .us/ft       UNKNOWN        : DT:sonico:rC:NONE:v0 (auto-composite)
GR       .API         UNKNOWN        : GR:Espectrometria:rC:NONE:v0 (auto-composite)
GR-LWD   .API         UNKNOWN        : GR-LWD:PETROWORKS:rC:NONE:v1 
ILD-LWD  .UNKNOWN     UNKNOWN        : ILD-LWD:PETROWORKS:rC:NONE:v1 
ILM-LWD  .UNKNOWN     UNKNOWN        : ILM-LWD:PETROWORKS:rC:NONE:v1 
LLD      .ohm.m       UNKNOWN        : LLD:resistivos:rC:NONE:v0 (auto-composite)
LLS      .ohm.m       UNKNOWN        : LLS:resistivos:rC:NONE:v0 (auto-composite)
MSFL     .ohm.m       UNKNOWN        : MSFL:resistivos:rC:NONE:v0 (auto-composite)
NPHI     .UNKNOWN     UNKNOWN        : NPHI:porosidad:rC:NONE:v0 (auto-composite)
PEF      .UNKNOWN     UNKNOWN        : PEF:litodensidad:rC:NONE:v0 (auto-composite)
POTA     .wtpercent   UNKNOWN        : POTA:Espectrometria:rC:NONE:v0 (auto-composite)
RHOB     .g/cm3       UNKNOWN        : RHOB:litodensidad:rC:NONE:v0 (auto-composite)
SIGM     .UNKNOWN     UNKNOWN        : SIGM:TMDL:rC:NONE:v0 (auto-composite)
SP       .UNKNOWN     UNKNOWN        : SP:resistivos:rC:NONE:v0 (auto-composite)
THOR     .UNKNOWN     UNKNOWN        : THOR:Espectrometria:rC:NONE:v0 (auto-composite)
URAN     .UNKNOWN     UNKNOWN        : URAN:Espectrometria:rC:NONE:v0 (auto-composite)
~A
# ...
   3168.8167
       7.0674      18.6120       0.0150      56.6237      25.6590      22.7440
      11.0751      10.9014      21.6079      25.9402      12.7408       0.0490
       4.9255       0.0058       2.6602    -999.2500      49.1080       2.9866
       0.7846
   3168.9690
       7.0850      15.6903       0.0123      55.7845      23.5469      21.2138
      13.0277      13.3723      25.0474      29.2514      15.4743       0.0403
       4.9351       0.0042       2.6639    -999.2500      48.1479       2.7865
       0.8747
   3169.1213
       7.1090      12.6448       0.0111      54.8015      22.6590      21.0644
      14.7564      15.3850      24.0726      28.1188      21.2478       0.0375
       4.9367       0.0034       2.6629    -999.2500      48.3671       2.2188
       1.1149
   3169.2737
       7.1146      10.7284       0.0112      54.0382      22.8277      21.8777
      16.2347      16.7472      21.0582      24.6626      24.3878       0.0382
       4.9620       0.0036       2.6615    -999.2500      48.9228       1.6327
       1.3471
   3169.4263
       7.0773      11.8932       0.0115      53.7381      23.5735      22.4615
      17.6639      17.7625      18.2846      20.0391      20.2470       0.0410
       5.0186       0.0049       2.6590    -999.2500      49.9803       1.4412
       1.3004
   3169.5786
       7.0545      15.2353       0.0103      53.7926      24.0051      22.4323
      19.1886      18.8466      17.5288      17.8897      14.5795       0.0429
       5.0377       0.0065       2.6570    -999.2500      50.5931       1.7537
       0.9764
   3169.7310
       7.0806      16.4220       0.0096      54.0694      23.5565      22.5892
      20.3928      19.7673      20.0812      20.0333      11.4266       0.0415
       5.0251       0.0075       2.6634    -999.2500      50.0048       1.6860
       0.7943
   3169.8833
       7.0922      13.7990       0.0087      54.5440      23.3170      21.9695
      21.1588      20.5572      25.2977      25.5087      13.4161       0.0357
       4.9727       0.0069       2.6703    -999.2500      49.0234       1.1563
       1.0597
   3170.0359
       7.0919       9.0438       0.0068      55.2941      22.5998      21.6064
      21.3171      20.9136      31.6618      30.5302      25.5507       0.0286
       4.9192       0.0053       2.6754    -999.2500      48.5116       0.4435
       1.5093
   3170.1882
       7.0692       5.7017       0.0048      56.3472      22.1698      21.4236
      20.6932      20.4966      33.9987      32.1064      31.3684       0.0267
       4.9826       0.0038       2.6774    -999.2500      48.4396       0.0991
       1.8335
   3170.3406
       7.0941       2.2445       0.0017      57.6787      22.7089      21.7410
      19.0735      18.9957      28.6211      27.5861      23.1272       0.0284
       5.0878       0.0015       2.6743    -999.2500      48.8279       0.0381
       2.2784
   3170.4929
       7.1469       1.5110      -0.0001      59.3334      24.1923      22.6915
      16.6566      16.5408      21.8629      21.4986      20.6646       0.0317
       5.0815       0.0008       2.6733    -999.2500      49.5041       0.1030
       2.5252
   3170.6453
       7.1678       3.1111      -0.0005      61.2721      27.3935      23.9140
      14.2953      14.1117      17.5508      17.3230      27.7519       0.0378
       5.0239       0.0018       2.6725    -999.2500      50.0968       0.1501
       2.7035
   3170.7979
       7.1571       5.0134       0.0000      63.0936      30.1093      24.7366
      12.3085      12.0401      14.5228      13.8107     132.4111       0.0422
       5.0146       0.0032       2.6663    -999.2500      50.9568       0.1586
       2.7941
   3170.9502
       7.1644       9.6301       0.0037      64.3751      31.7386      25.5212
      10.7780      10.4329      13.3334      12.4191     146.1481       0.0456
       5.0218       0.0040       2.6594    -999.2500      51.7208       1.1381
       2.4615
   3171.1025
       7.1799      13.8896       0.0072      65.1766      32.4743      26.2396
       9.4980       9.1075      12.5042      11.6562      46.8303       0.0501
       4.9853       0.0050       2.6599    -999.2500      53.3778       1.9414
       2.0691
   3171.2549
       7.1961      16.4901       0.0093      66.0524      32.6428      27.0487
       8.1958       7.7858      11.2841      10.7014      12.3759       0.0563
       4.8828       0.0073       2.6655    -999.2500      54.7108       1.7700
       1.7984
   3171.4075
       7.2059      20.5507       0.0117      67.4604      33.3160      28.4240
       6.8993       6.5330       8.5639       8.3906      11.3612       0.0610
       4.8073       0.0100       2.6671    -999.2500      55.6649       1.8625
       1.4212
   3171.5598
       7.2094      26.5668       0.0156      69.2350      35.2964      30.1811
       5.8580       5.5679       6.8389       6.7664       9.6473       0.0714
       4.7444       0.0131       2.6615    -999.2500      55.9594       2.3465
       0.9719
   3171.7122
       7.2370      28.4158       0.0164      70.9652      36.4655      32.1604
       5.0353       4.8202       5.5284       5.3723       6.5445       0.0830
       4.7088       0.0145       2.6566    -999.2500      56.2432       2.2889
       0.8962
   3171.8645
       7.2764      26.5941       0.0145      72.4621      37.4966      33.9260
       4.4020       4.2349       5.0155       4.8333       5.4939       0.0922
       4.6651       0.0151       2.6527    -999.2500      56.5744       1.5650
       1.2138
   3172.0168
       7.2792      26.2361       0.0119      73.7544      38.3511      34.8665
       3.9895       3.8412       4.9053       4.7116       6.8920       0.0967
       4.6327       0.0152       2.6498    -999.2500      57.4690       1.4120
       1.3488
   3172.1694
       7.2741      26.0973       0.0079      74.8389      39.2956      35.2206
       3.7151       3.5821       4.7829       4.5512       9.0090       0.0976
       4.6037       0.0156       2.6427    -999.2500      57.8939       1.2285
       1.4694
   3172.3218
       7.2588      25.6209       0.0044      75.3649      39.7901      35.6200
       3.4708       3.3674       4.4434       4.2376       8.3555       0.1028
       4.5615       0.0156       2.6308    -999.2500      57.5201       1.0858
       1.5775
   3172.4741
       7.2652      26.1218       0.0021      75.0850      40.1938      35.8816
       3.2113       3.1535       3.9946       3.8128      20.5231       0.1117
       4.4842       0.0157       2.6202    -999.2500      56.7306       1.1637
       1.5667
   3172.6265
       7.2862      27.7463       0.0024      74.0430      40.2236      35.9435
       3.0567       3.0394       3.6221       3.4974      31.6775       0.1208
       4.3850       0.0160       2.6117    -999.2500      57.6087       1.5332
       1.3891
   3172.7791
       7.2971      31.9953       0.0041      72.8497      40.0630      35.7121
       3.0042       3.0100       3.5251       3.4490      19.5404       0.1240
       4.3520       0.0170       2.6074    -999.2500      59.1541       2.3217
       0.8982
   3172.9314
       7.2883      36.1031       0.0066      72.1843      39.7847      35.0277
       3.0457       3.0526       3.8154       3.7962       7.4564       0.1244
       4.3745       0.0179       2.6157    -999.2500      59.6665       3.1213
       0.4099
   3173.0837
       7.2810      36.0912       0.0070      72.2948      38.5386      33.6619
       3.1051       3.1051       4.2110       4.2141       4.3060       0.1194
       4.4027       0.0183       2.6275    -999.2500      59.3822       2.9618
       0.2725
   3173.2361
       7.2954      32.4708       0.0015      73.0564      36.4087      32.5204
       3.0991       3.1028       4.4398       4.3755       4.3785       0.1117
       4.3727       0.0177       2.6323    -999.2500      56.1766       2.1923
       0.4384
   3173.3887
       7.3003      29.5397      -0.0035      74.1058      35.1672      31.4151
       3.0179       3.0368       4.3124       4.2176       4.7496       0.1106
       4.2451       0.0170       2.6328    -999.2500      52.3977       1.6315
       0.6265
