#------------------------------------------------------------------------------
#
#   Created by  : [OpenWorks] Log Export Utility (LEXP)
#   Created on  : 2016-05-19 10:22:34
#   Project     : CANT971
#   User        : R5K
#   Interpreter : PEP
#
#------------------------------------------------------------------------------
~VERSION INFORMATION
VERS. 2.0 : CWLS Log ASCII Standard - version 2.0
WRAP.  NO : One line per depth step
~WELL INFORMATION
#MNEMONIC   .UNIT                                           VALUE :DESCRIPTION
#------------------------------------------------------------------------------
STRT        .M                                           501.0914 :START DEPTH
STOP        .M                                          3797.8081 :STOP DEPTH
STEP        .M                                             0.1524 :STEP
NULL        .                                           -999.2500 :NULL VALUE
COMP        .                                   PEMEX EXPL & PROD :COMPANY
WELL        .                                                2076 :WELL
FLD         .                                           CANTARELL :FIELD
LOC         .                                             UNKNOWN :LOCATION
CNTY        .                                      CD. DEL CARMEN :COUNTY
STAT        .                                            CAMPECHE :STATE
CTRY        .                                              MEXICO :COUNTRY
SRVC        .                                             UNKNOWN :SERVICE COMPANY
DATE        .                                             UNKNOWN :LOG DATE
UWI         .                                          3060000519 :UNIQUE WELL ID
XCOORD      .                                       600031.350000 :SURFACE X
YCOORD      .                                      2139442.240000 :SURFACE Y
LAT         .                                           19.347648 :LATITUDE
LON         .                                          -92.047636 :LONGITUDE
ELEV        .M                                            27.4000 :SURFACE ELEV
ELEV_TYPE   .                                                  KB :ELEV TYPE
~CURVE INFORMATION
#MNEMONIC.UNIT        API CODE       : CURVE DESCRIPTION
#------------------------------------------------------------------------------
DEPTH    .M                          : Measured Depth
CALI     .inches      UNKNOWN        : CALI:UNKNOWN:rC:NONE:v0 (auto-composite)
DT       .us/ft       UNKNOWN        : DT:UNKNOWN:rC:NONE:v0 (auto-composite)
GR       .API         UNKNOWN        : GR:UNKNOWN:rC:NONE:v0 (auto-composite)
ILD      .ohm.m       UNKNOWN        : ILD:UNKNOWN:rC:NONE:v0 (auto-composite)
LLD      .ohm.m       UNKNOWN        : LLD:UNKNOWN:rC:NONE:v0 (auto-composite)
LLS      .ohm.m       UNKNOWN        : LLS:UNKNOWN:rC:NONE:v0 (auto-composite)
NPHI     .UNKNOWN     UNKNOWN        : NPHI:UNKNOWN:rC:NONE:v0 (auto-composite)
RHOB     .g/cm3       UNKNOWN        : RHOB:UNKNOWN:rC:NONE:v0 (auto-composite)
SIGM     .UNKNOWN     UNKNOWN        : SIGM:UNKNOWN:rC:NONE:v0 (auto-composite)
TAU      .UNKNOWN     UNKNOWN        : TAU:UNKNOWN:rC:NONE:v0 (auto-composite)
~A     DEPTH         CALI           DT           GR          ILD          LLD          LLS         NPHI         RHOB         SIGM          TAU
# ...
   3667.3538       6.4400      52.6560      31.4860    -999.2500     575.1730     532.0000       0.0385       2.7780    -999.2500    -999.2500
   3667.5061       6.4400      52.3866      32.3936    -999.2500     593.1240     560.6094       0.0366       2.7710    -999.2500    -999.2500
   3667.6587       6.4400      52.1180      33.3000    -999.2500     611.0810     589.0000       0.0345       2.7640    -999.2500    -999.2500
   3667.8110       6.4520      50.7571      33.1499    -999.2500     648.0320     585.9470       0.0323       2.7590    -999.2500    -999.2500
   3667.9634       6.4640      49.4000      33.0000    -999.2500     685.0000     582.9170       0.0308       2.7540    -999.2500    -999.2500
   3668.1157       6.4965      49.6433      33.1216    -999.2500     618.7318     536.2914       0.0311       2.7490    -999.2500    -999.2500
   3668.2683       6.5290      49.8860      33.2430    -999.2500     552.5310     490.0110       0.0325       2.7440    -999.2500    -999.2500
   3668.4207       6.5445      50.9944      34.6721    -999.2500     476.1065     435.1792       0.0345       2.7320    -999.2500    -999.2500
   3668.5730       6.5600      52.1000      36.1000    -999.2500     399.7500     380.7460       0.0359       2.7200    -999.2500    -999.2500
   3668.7253       6.5600      51.4577      35.6108    -999.2500     343.3534     357.2891       0.0357       2.7320    -999.2500    -999.2500
   3668.8777       6.5600      50.8170      35.1220    -999.2500     287.0000     334.0000       0.0345       2.7440    -999.2500    -999.2500
   3669.0303       6.5510      50.2243      32.8810    -999.2500     318.7927     364.5111       0.0328       2.7610    -999.2500    -999.2500
   3669.1826       6.5420      49.6330      30.6450    -999.2500     350.5650     394.8080       0.0308       2.7780    -999.2500    -999.2500
   3669.3350       6.4909      49.4548      28.3200    -999.2500     434.4736     462.1880       0.0288       2.7840    -999.2500    -999.2500
   3669.4873       6.4400      49.2770      26.0000    -999.2500     518.3390     529.1030       0.0273       2.7900    -999.2500    -999.2500
   3669.6399       6.4400      49.0883      26.2157    -999.2500     627.4427     591.5123       0.0273       2.7900    -999.2500    -999.2500
   3669.7922       6.4400      48.9000      26.4310    -999.2500     736.5040     653.4990       0.0282       2.7900    -999.2500    -999.2500
   3669.9446       6.4400      49.0541      26.8434    -999.2500     873.2700     686.3588       0.0296       2.7850    -999.2500    -999.2500
   3670.0969       6.4400      49.2080      27.2550    -999.2500    1010.0000     719.0000       0.0311       2.7800    -999.2500    -999.2500
   3670.2495       6.4400      49.4897      27.5277    -999.2500     981.3751     696.2322       0.0322       2.7830    -999.2500    -999.2500
   3670.4019       6.4400      49.7710      27.8000    -999.2500     952.7540     673.6130       0.0329       2.7860    -999.2500    -999.2500
   3670.5542       6.4400      50.1962      27.5828    -999.2500     889.4791     644.7140       0.0332       2.7910    -999.2500    -999.2500
   3670.7065       6.4400      50.6200      27.3660    -999.2500     826.2050     616.0000       0.0333       2.7960    -999.2500    -999.2500
   3670.8589       6.4400      51.0106      26.5809    -999.2500     788.8316     616.0000       0.0333       2.8010    -999.2500    -999.2500
   3671.0115       6.4400      51.4000      25.7970    -999.2500     751.4540     616.0000       0.0333       2.8060    -999.2500    -999.2500
   3671.1638       6.4400      50.7991      25.0980    -999.2500     733.7391     602.3967       0.0333       2.8080    -999.2500    -999.2500
   3671.3162       6.4400      50.2000      24.4000    -999.2500     716.0200     588.8770       0.0331       2.8100    -999.2500    -999.2500
   3671.4685       6.4400      50.6006      24.4000    -999.2500     646.8656     544.1200       0.0323       2.8005    -999.2500    -999.2500
   3671.6211       6.4400      51.0000      24.4000    -999.2500     577.6860     499.7040       0.0314       2.7910    -999.2500    -999.2500
   3671.7734       6.4776      50.7497      23.1503    -999.2500     529.3549     437.6195       0.0307       2.7805    -999.2500    -999.2500
   3671.9258       6.5150      50.5000      21.9020    -999.2500     481.0000     376.0000       0.0302       2.7700    -999.2500    -999.2500
   3672.0781       6.5375      49.3986      19.4998    -999.2500     487.5267     389.0481       0.0300       2.7700    -999.2500    -999.2500
   3672.2307       6.5600      48.3000      17.1000    -999.2500     494.0470     402.0000       0.0300       2.7700    -999.2500    -999.2500
   3672.3831       6.5600      48.3000      17.7503    -999.2500     503.0149     401.4982       0.0300       2.7650    -999.2500    -999.2500
   3672.5354       6.5600      48.3000      18.4000    -999.2500     511.9750     401.0000       0.0300       2.7600    -999.2500    -999.2500
   3672.6877       6.5600      48.4572      17.7082    -999.2500     555.8892     420.3333       0.0300       2.7600    -999.2500    -999.2500
   3672.8401       6.5600      48.6140      17.0170    -999.2500     599.7710     439.5290       0.0302       2.7600    -999.2500    -999.2500
   3672.9927       6.5570      49.0855      15.7071    -999.2500     656.4028     458.3302       0.0310       2.7630    -999.2500    -999.2500
   3673.1450       6.5540      49.5560      14.4000    -999.2500     713.0000     477.0000       0.0320       2.7660    -999.2500    -999.2500
   3673.2974       6.4969      50.2212      14.5897    -999.2500     635.9349     462.8027       0.0330       2.7930    -999.2500    -999.2500
   3673.4497       6.4400      50.8850      14.7790    -999.2500     558.9070     448.7030       0.0341       2.8200    -999.2500    -999.2500
   3673.6023       6.4400      52.5676      15.7444    -999.2500     463.6184     400.1429       0.0358       2.8135    -999.2500    -999.2500
   3673.7546       6.4400      54.2470      16.7080    -999.2500     368.3640     351.9100       0.0383       2.8070    -999.2500    -999.2500
   3673.9070       6.4655      57.2963      18.0617    -999.2500     321.4166     301.4986       0.0420       2.7935    -999.2500    -999.2500
   3674.0593       6.4910      60.3400      19.4130    -999.2500     274.4800     251.4210       0.0462       2.7800    -999.2500    -999.2500
   3674.2119       6.5180      63.7204      21.7200    -999.2500     254.2389     226.1284       0.0498       2.7800    -999.2500    -999.2500
   3674.3643       6.5450      67.0950      24.0230    -999.2500     234.0000     201.0000       0.0520       2.7800    -999.2500    -999.2500
   3674.5166       6.5525      68.5999      25.3626    -999.2500     244.8729     203.8551       0.0509       2.7700    -999.2500    -999.2500
   3674.6689       6.5600      70.1000      26.7000    -999.2500     255.7460     206.6920       0.0483       2.7600    -999.2500    -999.2500
   3674.8213       6.5470      69.0133      23.3476    -999.2500     292.3704     239.9498       0.0450       2.7850    -999.2500    -999.2500
   3674.9739       6.5340      67.9300      20.0000    -999.2500     329.0000     273.0000       0.0417       2.8100    -999.2500    -999.2500
   3675.1262       6.4869      65.2611      21.3139    -999.2500     312.1803     252.4371       0.0391       2.8070    -999.2500    -999.2500
   3675.2786       6.4400      62.6000      22.6260    -999.2500     295.3560     232.0000       0.0372       2.8040    -999.2500    -999.2500
   3675.4309       6.4400      64.4952      23.8447    -999.2500     278.1676     255.1955       0.0367       2.7970    -999.2500    -999.2500
   3675.5835       6.4400      66.3850      25.0620    -999.2500     261.0000     278.2520       0.0367       2.7900    -999.2500    -999.2500
   3675.7358       6.4400      67.9266      25.3311    -999.2500     380.0643     314.7331       0.0367       2.7900    -999.2500    -999.2500
