#------------------------------------------------------------------------------
#
#   Created by  : [OpenWorks] Log Export Utility (LEXP)
#   Created on  : 2016-05-19 10:22:34
#   Project     : CANT971
#   User        : R5K
#   Interpreter : PEP
#
#------------------------------------------------------------------------------
~VERSION INFORMATION
VERS. 2.0 : CWLS Log ASCII Standard - version 2.0
WRAP.  NO : One line per depth step
~WELL INFORMATION
#MNEMONIC   .UNIT                                           VALUE :DESCRIPTION
#------------------------------------------------------------------------------
STRT        .M                                           501.0914 :START DEPTH
STOP        .M                                          3797.8081 :STOP DEPTH
STEP        .M                                             0.1524 :STEP
NULL        .                                           -999.2500 :NULL VALUE
COMP        .                                   PEMEX EXPL & PROD :COMPANY
WELL        .                                                2076 :WELL
FLD         .                                           CANTARELL :FIELD
LOC         .                                             UNKNOWN :LOCATION
CNTY        .                                      CD. DEL CARMEN :COUNTY
STAT        .                                            CAMPECHE :STATE
CTRY        .                                              MEXICO :COUNTRY
SRVC        .                                             UNKNOWN :SERVICE COMPANY
DATE        .                                             UNKNOWN :LOG DATE
UWI         .                                          3060000519 :UNIQUE WELL ID
XCOORD      .                                       600031.350000 :SURFACE X
YCOORD      .                                      2139442.240000 :SURFACE Y
LAT         .                                           19.347648 :LATITUDE
LON         .                                          -92.047636 :LONGITUDE
ELEV        .M                                            27.4000 :SURFACE ELEV
ELEV_TYPE   .                                                  KB :ELEV TYPE
~CURVE INFORMATION
#MNEMONIC.UNIT        API CODE       : CURVE DESCRIPTION
#------------------------------------------------------------------------------
DEPTH    .M                          : Measured Depth
CALI     .inches      UNKNOWN        : CALI:UNKNOWN:rC:NONE:v0 (auto-composite)
DT       .us/ft       UNKNOWN        : DT:UNKNOWN:rC:NONE:v0 (auto-composite)
GR       .API         UNKNOWN        : GR:UNKNOWN:rC:NONE:v0 (auto-composite)
ILD      .ohm.m       UNKNOWN        : ILD:UNKNOWN:rC:NONE:v0 (auto-composite)
LLD      .ohm.m       UNKNOWN        : LLD:UNKNOWN:rC:NONE:v0 (auto-composite)
LLS      .ohm.m       UNKNOWN        : LLS:UNKNOWN:rC:NONE:v0 (auto-composite)
NPHI     .UNKNOWN     UNKNOWN        : NPHI:UNKNOWN:rC:NONE:v0 (auto-composite)
RHOB     .g/cm3       UNKNOWN        : RHOB:UNKNOWN:rC:NONE:v0 (auto-composite)
SIGM     .UNKNOWN     UNKNOWN        : SIGM:UNKNOWN:rC:NONE:v0 (auto-composite)
TAU      .UNKNOWN     UNKNOWN        : TAU:UNKNOWN:rC:NONE:v0 (auto-composite)
~A     DEPTH         CALI           DT           GR          ILD          LLD          LLS         NPHI         RHOB         SIGM          TAU
# ...
   3607.6130    -999.2500    -999.2500      28.5310    -999.2500    -999.2500    -999.2500       0.0934    -999.2500       9.9090     490.9300
   3607.7654    -999.2500    -999.2500      30.5148    -999.2500    -999.2500    -999.2500       0.0946    -999.2500       9.8034     483.0720
   3607.9177    -999.2500    -999.2500      32.4950    -999.2500    -999.2500    -999.2500       0.0967    -999.2500       9.6980     475.2160
   3608.0703    -999.2500    -999.2500      31.8760    -999.2500    -999.2500    -999.2500       0.0979    -999.2500       9.5894     472.6783
   3608.2227    -999.2500    -999.2500      31.2580    -999.2500    -999.2500    -999.2500       0.0992    -999.2500       9.4810     470.1410
   3608.3750    -999.2500    -999.2500      29.0983    -999.2500    -999.2500    -999.2500       0.1015    -999.2500       9.5340     472.0630
   3608.5273    -999.2500    -999.2500      26.9420    -999.2500    -999.2500    -999.2500       0.1041    -999.2500       9.5870     473.9850
   3608.6797    -999.2500    -999.2500      26.3521    -999.2500    -999.2500    -999.2500       0.1061    -999.2500       9.7706     476.1271
   3608.8323    -999.2500    -999.2500      25.7630    -999.2500    -999.2500    -999.2500       0.1062    -999.2500       9.9540     478.2660
   3608.9846    -999.2500    -999.2500      29.0892    -999.2500    -999.2500    -999.2500       0.1022    -999.2500       9.9765     472.1008
   3609.1370    -999.2500    -999.2500      32.4110    -999.2500    -999.2500    -999.2500       0.0992    -999.2500       9.9990     465.9440
   3609.2893    -999.2500    -999.2500      35.1152    -999.2500    -999.2500    -999.2500       0.1028    -999.2500       9.9995     456.6348
   3609.4419    -999.2500    -999.2500      37.8160    -999.2500    -999.2500    -999.2500       0.1077    -999.2500      10.0000     447.3370
   3609.5942    -999.2500    -999.2500      37.2657    -999.2500    -999.2500    -999.2500       0.1089    -999.2500      10.0000     444.9877
   3609.7466    -999.2500    -999.2500      36.7160    -999.2500    -999.2500    -999.2500       0.1056    -999.2500      10.0000     442.6410
   3609.8989    -999.2500    -999.2500      33.1603    -999.2500    -999.2500    -999.2500       0.0959    -999.2500      10.0000     453.3172
   3610.0515    -999.2500    -999.2500      29.6080    -999.2500    -999.2500    -999.2500       0.0861    -999.2500      10.0000     463.9830
   3610.2039    -999.2500    -999.2500      28.8742    -999.2500    -999.2500    -999.2500       0.0825    -999.2500      10.0225     475.2763
   3610.3562     -31.2270       7.5230      28.1410    -999.2500    -999.2500    -999.2500       0.0781     -29.3370      10.0450     486.5600
   3610.5085     -12.3480      35.3661      21.2680    -999.2500    -999.2500    -999.2500       0.0658     -13.2469      10.3689     494.9951
   3610.6609       6.4570      63.1000      14.4000    -999.2500    -999.2500    -999.2500       0.0537       2.7800      10.6920     503.4240
   3610.8135       6.4856      61.8777      14.4000    -999.2500    -999.2500    -999.2500       0.0500       2.7800      10.6575     508.6346
   3610.9658       6.5140      60.6600      14.4000    -999.2500    -999.2500    -999.2500       0.0505       2.7800      10.6230     513.8420
   3611.1182       6.5370      59.4909      14.4000    -999.2500    -999.2500    -999.2500       0.0520       2.7800      10.4753     511.8355
   3611.2705       6.5600      58.3260      14.4000    -999.2500    -999.2500    -999.2500       0.0556       2.7800      10.3280     509.8300
   3611.4231       6.5580      56.1091      14.4000    -999.2500    -999.2500    -999.2500       0.0624       2.7780      10.0883     509.8945
   3611.5754       6.5560      53.9000      14.4000    -999.2500    -999.2500    -999.2500       0.0720       2.7760       9.8490     509.9590
   3611.7278       6.5179      53.9000      14.4711    -999.2500    -999.2500    -999.2500       0.0843       2.7680       9.4376     512.2358
   3611.8801       6.4800      53.9000      14.5420    -999.2500    -999.2500    -999.2500       0.0945       2.7600       9.0270     514.5120
   3612.0327       6.4940      53.9000      15.0094    -999.2500    -999.2500    -999.2500       0.0975       2.7620       9.0595     521.3813
   3612.1851       6.5080      53.9000      15.4760    -999.2500    -999.2500    -999.2500       0.0968       2.7640       9.0920     528.2500
   3612.3374       6.5340      53.9000      16.7150    -999.2500    -999.2500    -999.2500       0.0950       2.7725       9.3507     526.8530
   3612.4897       6.5600      53.9000      17.9520    -999.2500    -999.2500    -999.2500       0.0918       2.7810       9.6090     525.4560
   3612.6421       6.5600      53.9000      21.1283    -999.2500    -999.2500    -999.2500       0.0864       2.7960       9.5069     520.9788
   3612.7947       6.5600      53.9000      24.3000    -999.2500    -999.2500    -999.2500       0.0816       2.8110       9.4050     516.5080
   3612.9470       6.5600      53.7558      24.0478    -999.2500    -999.2500    -999.2500       0.0803       2.8255       9.2024     508.4752
   3613.0994       6.5600      53.6120      23.7960    -999.2500    -999.2500    -999.2500       0.0811       2.8400       9.0000     500.4530
   3613.2517       6.5600      52.2040      22.8599    -999.2500    -999.2500    -999.2500       0.0830       2.8330       9.0000     501.0383
   3613.4043       6.5600      50.8000      21.9250    -999.2500    -999.2500    -999.2500       0.0869       2.8260       9.0000     501.6230
   3613.5566       6.5710      51.3988      20.7619    -999.2500    -999.2500    -999.2500       0.0939       2.8040       9.0000     505.1074
   3613.7090       6.5820      51.9960      19.6000    -999.2500    -999.2500    -999.2500       0.1038       2.7820       9.0000     508.5880
   3613.8613       6.6100      53.9605      20.5104    -999.2500    -999.2500    -999.2500       0.1171       2.7409       9.0000     516.4227
   3614.0139       6.6380      55.9200      21.4200    -999.2500    -999.2500    -999.2500       0.1279       2.7000       9.0000     524.2500
   3614.1663       6.6540      57.8623      24.0146    -999.2500    -999.2500    -999.2500       0.1296       2.7075       9.0115     522.3637
   3614.3186       6.6700      59.8000      26.6070    -999.2500    -999.2500    -999.2500       0.1261       2.7150       9.0230     520.4790
   3614.4709       6.6700      57.5957      29.4045    -999.2500    -999.2500    -999.2500       0.1200       2.7365       9.2407     515.7408
   3614.6233       6.6700      55.4000      32.2000    -999.2500    -999.2500    -999.2500       0.1120       2.7580       9.4580     511.0060
   3614.7759       6.6700      55.4501      31.9057    -999.2500    -999.2500    -999.2500       0.1023       2.7941       9.4205     505.7845
   3614.9282       6.6700      55.5000      31.6120    -999.2500    -999.2500    -999.2500       0.0946       2.8300       9.3830     500.5660
   3615.0806       6.6550      54.8488      30.3652    -999.2500    -999.2500    -999.2500       0.0927       2.8210       9.1933     491.6765
   3615.2329       6.6400      54.2000      29.1210    -999.2500    -999.2500    -999.2500       0.0944       2.8120       9.0040     482.7910
   3615.3855       6.5999      54.5156      26.3078    -999.2500    -999.2500    -999.2500       0.0982       2.7809       9.0075     473.3860
   3615.5378       6.5600      54.8300      23.5000    -999.2500    -999.2500    -999.2500       0.1039       2.7500       9.0110     463.9840
   3615.6902       6.6051      56.1492      23.5185    -999.2500    -999.2500    -999.2500       0.1115       2.7535       9.0906     468.4474
   3615.8425       6.6500      57.4640      23.5370    -999.2500    -999.2500    -999.2500       0.1193       2.7570       9.1700     472.9100
   3615.9951       6.6049      58.9339      25.4011    -999.2500    -999.2500    -999.2500       0.1259       2.7635       9.3707     491.7301
