#------------------------------------------------------------------------------
#
#   Created by  : [OpenWorks] Log Export Utility (LEXP)
#   Created on  : 2016-05-19 10:22:35
#   Project     : CANT971
#   User        : R5K
#   Interpreter : PEP
#
#------------------------------------------------------------------------------
~VERSION INFORMATION
VERS. 2.0 : CWLS Log ASCII Standard - version 2.0
WRAP. YES : Mulitple lines per depth step
~WELL INFORMATION
#MNEMONIC   .UNIT                                           VALUE :DESCRIPTION
#------------------------------------------------------------------------------
STRT        .M                                          1391.9308 :START DEPTH
STOP        .M                                          3430.8904 :STOP DEPTH
STEP        .M                                             0.1524 :STEP
NULL        .                                           -999.2500 :NULL VALUE
COMP        .                                   PEMEX EXPL & PROD :COMPANY
WELL        .                                               2076D :WELL
FLD         .                                           CANTARELL :FIELD
LOC         .                                             UNKNOWN :LOCATION
CNTY        .                                      CD. DEL CARMEN :COUNTY
STAT        .                                            CAMPECHE :STATE
CTRY        .                                              MEXICO :COUNTRY
SRVC        .                                             UNKNOWN :SERVICE COMPANY
DATE        .                                             UNKNOWN :LOG DATE
UWI         .                                               2076D :UNIQUE WELL ID
XCOORD      .                                       600029.690000 :SURFACE X
YCOORD      .                                      2139443.800000 :SURFACE Y
LAT         .                                           19.347662 :LATITUDE
LON         .                                          -92.047651 :LONGITUDE
ELEV        .M                                            27.4000 :SURFACE ELEV
ELEV_TYPE   .                                                  KB :ELEV TYPE
~CURVE INFORMATION
#MNEMONIC.UNIT        API CODE       : CURVE DESCRIPTION
#------------------------------------------------------------------------------
DEPTH    .M                          : Measured Depth
CALI     .UNKNOWN     UNKNOWN        : CALI:UNKNOWN:rC:NONE:v0 (auto-composite)
CGR      .UNKNOWN     UNKNOWN        : CGR:UNKNOWN:rC:NONE:v0 (auto-composite)
DRHO     .UNKNOWN     UNKNOWN        : DRHO:UNKNOWN:rC:NONE:v0 (auto-composite)
DT       .us/ft       UNKNOWN        : DT:DT:rC:NONE:v0 (auto-composite)
GR       .API         UNKNOWN        : GR:UNKNOWN:rC:NONE:v0 (auto-composite)
ILD      .UNKNOWN     UNKNOWN        : ILD:UNKNOWN:rC:NONE:v0 (auto-composite)
ILM      .UNKNOWN     UNKNOWN        : ILM:UNKNOWN:rC:NONE:v0 (auto-composite)
LLD      .ohm.m       UNKNOWN        : LLD:resistivos:rC:NONE:v0 (auto-composite)
LLS      .ohm.m       UNKNOWN        : LLS:resistivos:rC:NONE:v0 (auto-composite)
MSFL     .ohm.m       UNKNOWN        : MSFL:resistivos:rC:NONE:v0 (auto-composite)
NPHI     .v/v_decimal UNKNOWN        : NPHI:UNKNOWN:rC:NONE:v0 (auto-composite)
PEF      .UNKNOWN     UNKNOWN        : PEF:UNKNOWN:rC:NONE:v0 (auto-composite)
POTA     .UNKNOWN     UNKNOWN        : POTA:UNKNOWN:rC:NONE:v0 (auto-composite)
RHOB     .UNKNOWN     UNKNOWN        : RHOB:UNKNOWN:rC:NONE:v0 (auto-composite)
SIGM     .UNKNOWN     UNKNOWN        : SIGM:UNKNOWN:rC:NONE:v0 (auto-composite)
SP       .UNKNOWN     UNKNOWN        : SP:UNKNOWN:rC:NONE:v0 (auto-composite)
TAU      .UNKNOWN     UNKNOWN        : TAU:UNKNOWN:rC:NONE:v0 (auto-composite)
THOR     .UNKNOWN     UNKNOWN        : THOR:UNKNOWN:rC:NONE:v0 (auto-composite)
URAN     .UNKNOWN     UNKNOWN        : URAN:UNKNOWN:rC:NONE:v0 (auto-composite)
~A
# ...
   3295.8640
       6.5894      14.8440       0.0071      63.0962      42.8268    -999.2500
    -999.2500      15.3361      13.4888      15.7833       0.0911       4.4764
       0.0050       2.6322    -999.2500    -999.2500    -999.2500       0.3689
       3.1532
   3296.0164
       6.5327      14.8100       0.0075      61.7689      42.7517    -999.2500
    -999.2500      15.4636      13.6143      12.1263       0.0958       4.5064
       0.0050       2.6187    -999.2500    -999.2500    -999.2500       0.7905
       3.1725
   3296.1687
       6.4723      14.6326       0.0080      61.1352      42.4208    -999.2500
    -999.2500      15.0768      13.3192      15.1812       0.1010       4.5459
       0.0050       2.6048    -999.2500    -999.2500    -999.2500       1.2303
       3.1625
   3296.3213
       6.4714      13.6259       0.0156      63.7023      40.8314    -999.2500
    -999.2500      14.1277      12.6366      23.2471       0.1049       4.8601
       0.0045       2.5950    -999.2500    -999.2500    -999.2500       0.9158
       3.0989
   3296.4736
       6.4739      12.5720       0.0236      66.5904      39.1703    -999.2500
    -999.2500      13.2598      12.0220      30.8424       0.1085       5.1900
       0.0040       2.5855    -999.2500    -999.2500    -999.2500       0.5583
       3.0322
   3296.6260
       6.4921      10.8283       0.0221      63.0691      36.4261    -999.2500
    -999.2500      13.2774      12.0459      31.1250       0.1132       4.9996
       0.0040       2.5436    -999.2500    -999.2500    -999.2500       0.5429
       2.8992
   3296.7783
       6.5111       9.0496       0.0201      59.6746      33.6268    -999.2500
    -999.2500      13.5562      12.2453      25.5984       0.1191       4.7827
       0.0040       2.5001    -999.2500    -999.2500    -999.2500       0.5449
       2.7627
   3296.9307
       6.5600      11.1209       0.0209      63.7572      37.9317    -999.2500
    -999.2500      13.3576      12.0702      15.6242       0.1292       4.8489
       0.0040       2.5222    -999.2500    -999.2500    -999.2500       0.7696
       3.0252
   3297.0833
       6.6104      13.3916       0.0219      68.8523      42.6044    -999.2500
    -999.2500      12.6571      11.4827       9.4605       0.1365       4.9298
       0.0040       2.5477    -999.2500    -999.2500    -999.2500       1.0058
       3.3084
   3297.2356
       6.7021      12.2853       0.0211      69.7002      42.3872    -999.2500
    -999.2500      11.3841      10.4033      17.6095       0.1305       4.9188
       0.0045       2.5481    -999.2500    -999.2500    -999.2500       0.9829
       3.3040
   3297.3879
       6.7961      10.9948       0.0201      69.0372      41.9034    -999.2500
    -999.2500       9.9369       9.1568      28.4273       0.1197       4.9028
       0.0050       2.5471    -999.2500    -999.2500    -999.2500       0.9459
       3.2841
   3297.5403
       6.7939      10.9829       0.0148      66.0030      40.1568    -999.2500
    -999.2500       8.7947       8.1324      27.7333       0.1181       4.7784
       0.0050       2.5432    -999.2500    -999.2500    -999.2500       0.8057
       3.2072
   3297.6929
       6.7864      11.0418       0.0093      63.3892      38.3401    -999.2500
    -999.2500       8.1219       7.5107      22.9785       0.1185       4.6480
       0.0050       2.5392    -999.2500    -999.2500    -999.2500       0.6598
       3.1273
   3297.8452
       6.7387       9.7919       0.0090      63.4564      37.2612    -999.2500
    -999.2500       8.1582       7.5467      23.0898       0.1197       4.6925
       0.0045       2.5333    -999.2500    -999.2500    -999.2500       0.5036
       3.0436
   3297.9976
       6.6888       8.4680       0.0090      64.5470      36.2240    -999.2500
    -999.2500       9.0245       8.3573      25.0789       0.1213       4.7470
       0.0040       2.5273    -999.2500    -999.2500    -999.2500       0.3468
       2.9597
   3298.1499
       6.7613       9.9755       0.0095      64.1228      38.2252    -999.2500
    -999.2500      10.9314      10.1441      25.3503       0.1245       4.7391
       0.0045       2.5194    -999.2500    -999.2500    -999.2500       0.5520
       3.0994
   3298.3025
       6.8410      11.6507       0.0100      64.4268      40.4062    -999.2500
    -999.2500      13.4150      12.5084      24.2507       0.1287       4.7276
       0.0050       2.5114    -999.2500    -999.2500    -999.2500       0.7786
       3.2523
   3298.4548
       6.7909      10.7748       0.0138      67.4445      40.0243    -999.2500
    -999.2500      15.9348      14.9909      22.1260       0.1351       4.6188
       0.0045       2.5034    -999.2500    -999.2500    -999.2500       0.6918
       3.2291
   3298.6072
       6.7339       9.7638       0.0178      71.1708      39.5065    -999.2500
    -999.2500      17.8961      16.9564      19.5092       0.1431       4.5048
       0.0040       2.4954    -999.2500    -999.2500    -999.2500       0.5883
       3.1967
   3298.7595
       6.7760      10.5532       0.0175      69.8498      40.5597    -999.2500
    -999.2500      18.5271      17.5863      17.0184       0.1538       4.5099
       0.0040       2.4803    -999.2500    -999.2500    -999.2500       0.7883
       3.3060
   3298.9119
       6.8235      11.4398       0.0170      68.5385      41.6977    -999.2500
    -999.2500      18.3856      17.4388      15.1762       0.1635       4.5214
       0.0040       2.4648    -999.2500    -999.2500    -999.2500       1.0047
       3.4229
   3299.0645
       6.7957      11.2824       0.0156      69.9271      41.4488    -999.2500
    -999.2500      18.0990      17.1417      14.6781       0.1652       4.5783
       0.0040       2.4777    -999.2500    -999.2500    -999.2500       0.9919
       3.4210
   3299.2168
       6.7637      11.0677       0.0141      71.8742      41.1237    -999.2500
    -999.2500      17.7117      16.7656      15.8386       0.1627       4.6378
       0.0040       2.4922    -999.2500    -999.2500    -999.2500       0.9664
       3.4125
   3299.3691
       6.5754      10.1246       0.0135      71.9335      39.8349    -999.2500
    -999.2500      17.2706      16.3918      19.1744       0.1548       4.7643
       0.0035       2.4906    -999.2500    -999.2500    -999.2500       0.8530
       3.3416
   3299.5215
       6.3779       9.1396       0.0130      71.3523      38.4905    -999.2500
    -999.2500      16.9194      16.1246      22.5203       0.1460       4.8948
       0.0030       2.4881    -999.2500    -999.2500    -999.2500       0.7346
       3.2671
   3299.6741
       6.3774       8.2557       0.0116      69.5963      37.6937    -999.2500
    -999.2500      16.8431      16.1012      23.1810       0.1450       4.7803
       0.0030       2.4762    -999.2500    -999.2500    -999.2500       0.6252
       3.3104
   3299.8264
       6.3885       7.3778       0.0101      68.2541      36.9291    -999.2500
    -999.2500      16.9997      16.3211      21.9441       0.1465       4.6514
       0.0030       2.4636    -999.2500    -999.2500    -999.2500       0.5164
       3.3605
   3299.9788
       6.3757       6.7841       0.0100      69.4671      36.2908    -999.2500
    -999.2500      17.3504      16.7979      19.6785       0.1499       4.6559
       0.0025       2.4383    -999.2500    -999.2500    -999.2500       0.4383
       3.3478
   3300.1311
       6.3617       6.2054       0.0100      71.4699      35.6590    -999.2500
    -999.2500      17.9128      17.5120      16.9845       0.1546       4.6674
       0.0020       2.4123    -999.2500    -999.2500    -999.2500       0.3619
       3.3318
   3300.2837
       6.2705       4.9923       0.0105      71.2390      33.6284    -999.2500
    -999.2500      18.7258      18.4587      14.5608       0.1624       3.9920
       0.0020       2.4134    -999.2500    -999.2500    -999.2500       0.1286
       3.2414
   3300.4360
       6.1751       3.7453       0.0110      70.4924      31.5230    -999.2500
    -999.2500      19.6858      19.5416      15.6675       0.1683       3.2799
       0.0020       2.4159    -999.2500    -999.2500    -999.2500      -0.1131
       3.1470
