#------------------------------------------------------------------------------
#
#   Created by  : [OpenWorks] Log Export Utility (LEXP)
#   Created on  : 2016-05-19 10:22:36
#   Project     : CANT971
#   User        : R5K
#   Interpreter : PEP
#
#------------------------------------------------------------------------------
~VERSION INFORMATION
VERS. 2.0 : CWLS Log ASCII Standard - version 2.0
WRAP. YES : Mulitple lines per depth step
~WELL INFORMATION
#MNEMONIC   .UNIT                                           VALUE :DESCRIPTION
#------------------------------------------------------------------------------
STRT        .M                                          2616.0618 :START DEPTH
STOP        .M                                          3329.4463 :STOP DEPTH
STEP        .M                                             0.1524 :STEP
NULL        .                                           -999.2500 :NULL VALUE
COMP        .                                             UNKNOWN :COMPANY
WELL        .                                            2076D-V2 :WELL
FLD         .                                             UNKNOWN :FIELD
LOC         .                                             UNKNOWN :LOCATION
CNTY        .                                             UNKNOWN :COUNTY
STAT        .                                             UNKNOWN :STATE
CTRY        .                                             UNKNOWN :COUNTRY
SRVC        .                                             UNKNOWN :SERVICE COMPANY
DATE        .                                             UNKNOWN :LOG DATE
UWI         .                                            2076D-V2 :UNIQUE WELL ID
XCOORD      .                                            0.000000 :SURFACE X
YCOORD      .                                            0.000000 :SURFACE Y
LAT         .                                            0.000000 :LATITUDE
LON         .                                          -97.488695 :LONGITUDE
ELEV        .M                                             0.0000 :SURFACE ELEV
ELEV_TYPE   .                                                  KB :ELEV TYPE
~CURVE INFORMATION
#MNEMONIC.UNIT        API CODE       : CURVE DESCRIPTION
#------------------------------------------------------------------------------
DEPTH    .M                          : Measured Depth
CALI     .UNKNOWN     UNKNOWN        : CALI:litodensidad:rC:NONE:v0 (auto-composite)
CGR      .API         UNKNOWN        : CGR:Espectrometria:rC:NONE:v0 (auto-composite)
DRHO     .g/cm3       UNKNOWN        : DRHO:litodensidad:rC:NONE:v0 (auto-composite)
DT       .us/ft       UNKNOWN        : DT:sonico:rC:NONE:v0 (auto-composite)
GR       .API         UNKNOWN        : GR:Espectrometria:rC:NONE:v0 (auto-composite)
GR-LWD   .API         UNKNOWN        : GR-LWD:PETROWORKS:rC:NONE:v1 
ILD-LWD  .UNKNOWN     UNKNOWN        : ILD-LWD:PETROWORKS:rC:NONE:v1 
ILM-LWD  .UNKNOWN     UNKNOWN        : ILM-LWD:PETROWORKS:rC:NONE:v1 
LLD      .ohm.m       UNKNOWN        : LLD:resistivos:rC:NONE:v0 (auto-composite)
LLS      .ohm.m       UNKNOWN        : LLS:resistivos:rC:NONE:v0 (auto-composite)
MSFL     .ohm.m       UNKNOWN        : MSFL:resistivos:rC:NONE:v0 (auto-composite)
NPHI     .UNKNOWN     UNKNOWN        : NPHI:porosidad:rC:NONE:v0 (auto-composite)
PEF      .UNKNOWN     UNKNOWN        : PEF:litodensidad:rC:NONE:v0 (auto-composite)
POTA     .wtpercent   UNKNOWN        : POTA:Espectrometria:rC:NONE:v0 (auto-composite)
RHOB     .g/cm3       UNKNOWN        : RHOB:litodensidad:rC:NONE:v0 (auto-composite)
SIGM     .UNKNOWN     UNKNOWN        : SIGM:TMDL:rC:NONE:v0 (auto-composite)
SP       .UNKNOWN     UNKNOWN        : SP:resistivos:rC:NONE:v0 (auto-composite)
THOR     .UNKNOWN     UNKNOWN        : THOR:Espectrometria:rC:NONE:v0 (auto-composite)
URAN     .UNKNOWN     UNKNOWN        : URAN:Espectrometria:rC:NONE:v0 (auto-composite)
~A
# ...
   3230.2339
       6.7558       8.2555       0.0143      53.3438      32.5938      29.0377
      82.0865      78.9239     101.9164     106.0397      65.7924       0.0627
       4.2128       0.0013       2.6528       8.0436      48.2516       1.8213
       2.7097
   3230.3862
       6.7946       9.3861       0.0135      53.1899      33.2520      30.2767
      81.9220      80.2072     101.6064     105.7402      66.9488       0.0635
       4.2765       0.0017       2.6458       7.9629      49.7286       1.9983
       2.6571
   3230.5386
       6.8263      10.6747       0.0117      52.1864      34.7920      31.3495
      81.9634      81.8917      97.4608     101.7266      76.5561       0.0654
       4.2672       0.0028       2.6437       7.8017      50.6531       1.9243
       2.6851
   3230.6909
       6.8253      10.6401       0.0122      50.6070      36.2134      31.9940
      82.2894      85.1515      92.2770      95.4390      78.2495       0.0646
       4.2563       0.0034       2.6646       7.6366      51.0710       1.6759
       2.8472
   3230.8433
       6.8250       8.6503       0.0143      48.9494      37.6996      32.2174
      82.1943      88.1282      88.8416      90.9410      70.9739       0.0627
       4.2997       0.0036       2.6982       7.5235      50.7690       1.0342
       3.2342
   3230.9958
       6.8112       6.2223       0.0146      47.7689      38.0562      31.7995
      82.2383      89.8588      87.7979      88.6719      52.5996       0.0586
       4.3212       0.0034       2.7227       7.5000      50.3967       0.4063
       3.5442
   3231.1482
       6.8225       4.1926       0.0136      47.3465      37.6579      30.6742
      82.1035      91.1362      89.6598      90.7523      43.5363       0.0546
       4.2694       0.0027       2.7484       7.5000      49.8662       0.1002
       3.7258
   3231.3005
       6.8531       2.6779       0.0117      47.6985      37.1504      29.4300
      81.8600      91.6500     100.2236     101.7915      51.3794       0.0529
       4.1665       0.0017       2.7599       7.5000      49.5077       0.0694
       3.8379
   3231.4529
       6.8285       1.6661       0.0063      48.5755      36.1997      27.4887
      81.6452      91.8336     111.3251     113.4025      80.4222       0.0489
       4.0057       0.0008       2.7533       7.5000      49.3398       0.1422
       3.8448
   3231.6055
       6.8041       2.1164       0.0037      49.6547      35.2719      26.0925
      81.2976      91.5236     133.8349     138.1512      77.5200       0.0464
       3.8990       0.0007       2.7575       7.5000      49.9972       0.3239
       3.6913
   3231.7578
       6.8116       3.7512       0.0017      50.6501      33.3120      24.9128
      80.2408      88.8072     154.7971     160.5332      57.7046       0.0473
       3.8093       0.0017       2.7734       7.5000      50.8297       0.3862
       3.2911
   3231.9102
       6.8295       4.7250      -0.0028      51.5384      31.5006      23.5308
      79.7421      87.2362     174.2960     177.6596      44.2546       0.0479
       3.7782       0.0027       2.7637       7.5000      50.9043       0.2500
       2.9811
   3232.0625
       6.8257       5.6599      -0.0060      52.6461      29.8973      22.5486
      79.2032      85.6134     180.4659     181.1032      55.7751       0.0469
       3.9225       0.0037       2.7061       7.5000      51.3003       0.1473
       2.6984
   3232.2151
       6.8264       5.9594      -0.0036      54.3807      28.7463      22.1945
      78.5805      83.9780     154.2669     150.9368      87.7434       0.0464
       4.1575       0.0040       2.6676       7.5000      52.7242       0.1091
       2.5370
   3232.3674
       6.8156       5.7177      -0.0022      56.4285      28.5302      22.6732
      77.7255      82.1431     133.0819     127.2741     109.3666       0.0469
       4.4550       0.0038       2.6633       7.5057      53.5685       0.0969
       2.5398
   3232.5198
       6.8272       6.2367      -0.0046      57.8571      28.5519      23.8157
      76.6879      79.9184     112.9855     105.8636      76.8332       0.0479
       4.5505       0.0043       2.6730       7.5434      52.4821       0.0657
       2.4844
   3232.6721
       6.8535       5.2501      -0.0063      58.0167      30.3196      25.6475
      75.0614      75.8871     102.4745      94.4535      41.4501       0.0493
       4.4856       0.0036       2.6733       7.5709      50.7220       0.0442
       2.7911
   3232.8245
       6.8628       3.7126      -0.0067      56.7855      33.4413      27.9748
      73.9818      72.7389      96.1158      88.2300      33.0266       0.0514
       4.4469       0.0026       2.6505       7.5551      48.9669       0.0400
       3.3098
   3232.9771
       6.8411       2.1446      -0.0081      54.9304      37.6330      29.8266
      73.3797      70.5667      90.3468      82.7528      39.7058       0.0543
       4.4920       0.0012       2.6065       7.5164      48.0885       0.1151
       3.9510
   3233.1294
       6.8216       3.6681      -0.0095      53.3291      42.1088      31.3350
      72.4931      68.2259      84.9496      77.2336      62.3020       0.0542
       4.6900       0.0006       2.5621       7.5015      49.0328       0.8128
       4.2798
   3233.2817
       6.8184       5.4578      -0.0095      52.4868      42.1002      31.6672
      71.3262      65.7260      81.5084      73.1804      74.6902       0.0529
       4.8743       0.0007       2.5655       7.5000      50.3419       1.2867
       4.0795
   3233.4341
       6.8352       6.9285      -0.0074      52.6121      39.6170      31.8473
      69.7463      63.0107      82.0681      73.1609      58.0903       0.0509
       4.9954       0.0016       2.6045       7.5000      49.9773       1.3175
       3.6393
   3233.5867
       6.8421       6.7634      -0.0072      53.6309      37.4749      31.5373
      67.6636      60.0888      85.2706      76.0117      43.7181       0.0509
       4.9362       0.0018       2.6200       7.5317      49.1379       1.2203
       3.4192
   3233.7390
       6.7979       4.6025      -0.0073      55.2245      35.7110      31.3854
      65.3009      57.2943      87.7571      78.3772      40.6088       0.0566
       4.6530       0.0014       2.6091       7.6145      48.5027       0.7381
       3.4634
   3233.8914
       6.7718       1.7863      -0.0043      56.8375      35.9905      31.1903
      63.7058      55.7084      85.4537      76.7630      43.3244       0.0666
       4.3576       0.0009       2.5908       7.7125      48.0129       0.1691
       3.8081
   3234.0437
       6.7732       1.8290      -0.0004      58.1421      37.3548      31.2893
      62.9208      55.2273      76.5985      67.7327      45.5839       0.0774
       4.1607       0.0011       2.5782       7.7652      47.8810       0.0883
       3.9552
   3234.1963
       6.7992       2.7669       0.0019      59.1634      38.9412      31.1730
      62.1589      54.9738      69.8645      60.5069      36.4620       0.0877
       4.1779       0.0013       2.5880       7.7300      47.9820       0.2546
       4.0274
   3234.3486
       6.8298       3.9577       0.0038      59.9479      40.1233      31.1837
      60.6295      54.5082      66.2702      56.5308      23.3242       0.0937
       4.2722       0.0015       2.5977       7.6193      47.8387       0.5401
       4.0264
   3234.5010
       6.7768       3.7688       0.0059      60.2769      40.2692      31.1900
      58.9100      53.9800      66.7271      57.0803      18.1976       0.0943
       4.3349       0.0009       2.5883       7.5213      46.7578       0.7107
       4.0637
   3234.6533
       6.7513       2.5146       0.0091      59.9790      39.4342      30.9777
      56.4350      52.9234      69.7328      60.0742      21.2537       0.0924
       4.4348       0.0005       2.5748       7.5000      46.1844       0.5027
       4.1104
   3234.8057
       6.7739       2.1401       0.0095      59.1443      38.3170      30.8952
      53.7136      51.9022      73.4565      62.2730      33.2295       0.0930
       4.4710       0.0009       2.5719       7.5000      45.3211       0.2531
       4.0277
