#------------------------------------------------------------------------------
#
#   Created by  : [OpenWorks] Log Export Utility (LEXP)
#   Created on  : 2016-05-19 10:22:35
#   Project     : CANT971
#   User        : R5K
#   Interpreter : PEP
#
#------------------------------------------------------------------------------
~VERSION INFORMATION
VERS. 2.0 : CWLS Log ASCII Standard - version 2.0
WRAP. YES : Mulitple lines per depth step
~WELL INFORMATION
#MNEMONIC   .UNIT                                           VALUE :DESCRIPTION
#------------------------------------------------------------------------------
STRT        .M                                          1391.9308 :START DEPTH
STOP        .M                                          3430.8904 :STOP DEPTH
STEP        .M                                             0.1524 :STEP
NULL        .                                           -999.2500 :NULL VALUE
COMP        .                                   PEMEX EXPL & PROD :COMPANY
WELL        .                                               2076D :WELL
FLD         .                                           CANTARELL :FIELD
LOC         .                                             UNKNOWN :LOCATION
CNTY        .                                      CD. DEL CARMEN :COUNTY
STAT        .                                            CAMPECHE :STATE
CTRY        .                                              MEXICO :COUNTRY
SRVC        .                                             UNKNOWN :SERVICE COMPANY
DATE        .                                             UNKNOWN :LOG DATE
UWI         .                                               2076D :UNIQUE WELL ID
XCOORD      .                                       600029.690000 :SURFACE X
YCOORD      .                                      2139443.800000 :SURFACE Y
LAT         .                                           19.347662 :LATITUDE
LON         .                                          -92.047651 :LONGITUDE
ELEV        .M                                            27.4000 :SURFACE ELEV
ELEV_TYPE   .                                                  KB :ELEV TYPE
~CURVE INFORMATION
#MNEMONIC.UNIT        API CODE       : CURVE DESCRIPTION
#------------------------------------------------------------------------------
DEPTH    .M                          : Measured Depth
CALI     .UNKNOWN     UNKNOWN        : CALI:UNKNOWN:rC:NONE:v0 (auto-composite)
CGR      .UNKNOWN     UNKNOWN        : CGR:UNKNOWN:rC:NONE:v0 (auto-composite)
DRHO     .UNKNOWN     UNKNOWN        : DRHO:UNKNOWN:rC:NONE:v0 (auto-composite)
DT       .us/ft       UNKNOWN        : DT:DT:rC:NONE:v0 (auto-composite)
GR       .API         UNKNOWN        : GR:UNKNOWN:rC:NONE:v0 (auto-composite)
ILD      .UNKNOWN     UNKNOWN        : ILD:UNKNOWN:rC:NONE:v0 (auto-composite)
ILM      .UNKNOWN     UNKNOWN        : ILM:UNKNOWN:rC:NONE:v0 (auto-composite)
LLD      .ohm.m       UNKNOWN        : LLD:resistivos:rC:NONE:v0 (auto-composite)
LLS      .ohm.m       UNKNOWN        : LLS:resistivos:rC:NONE:v0 (auto-composite)
MSFL     .ohm.m       UNKNOWN        : MSFL:resistivos:rC:NONE:v0 (auto-composite)
NPHI     .v/v_decimal UNKNOWN        : NPHI:UNKNOWN:rC:NONE:v0 (auto-composite)
PEF      .UNKNOWN     UNKNOWN        : PEF:UNKNOWN:rC:NONE:v0 (auto-composite)
POTA     .UNKNOWN     UNKNOWN        : POTA:UNKNOWN:rC:NONE:v0 (auto-composite)
RHOB     .UNKNOWN     UNKNOWN        : RHOB:UNKNOWN:rC:NONE:v0 (auto-composite)
SIGM     .UNKNOWN     UNKNOWN        : SIGM:UNKNOWN:rC:NONE:v0 (auto-composite)
SP       .UNKNOWN     UNKNOWN        : SP:UNKNOWN:rC:NONE:v0 (auto-composite)
TAU      .UNKNOWN     UNKNOWN        : TAU:UNKNOWN:rC:NONE:v0 (auto-composite)
THOR     .UNKNOWN     UNKNOWN        : THOR:UNKNOWN:rC:NONE:v0 (auto-composite)
URAN     .UNKNOWN     UNKNOWN        : URAN:UNKNOWN:rC:NONE:v0 (auto-composite)
~A
# ...
   3139.9587
       8.6979       9.5682       0.0100      64.2458      41.9486    -999.2500
    -999.2500      87.4521      79.7665      87.4093       0.1800       3.6552
       0.0037       2.5452    -999.2500    -999.2500    -999.2500       0.5831
       3.4138
   3140.1111
       8.7508       9.4725       0.0072      64.1363      42.1504    -999.2500
    -999.2500      87.6832      79.9832      99.3069       0.1815       3.7657
       0.0038       2.5513    -999.2500    -999.2500    -999.2500       0.5574
       3.3274
   3140.2637
       8.8633       6.6523       0.0077      62.8987      38.4954    -999.2500
    -999.2500      83.9796      76.8680      87.1607       0.1786       3.8902
       0.0033       2.5618    -999.2500    -999.2500    -999.2500       0.2860
       3.3849
   3140.4160
       8.9182       5.2306       0.0090      62.3788      36.3835    -999.2500
    -999.2500      81.8408      75.0709      74.7284       0.1736       3.9162
       0.0028       2.5668    -999.2500    -999.2500    -999.2500       0.1943
       3.4070
   3140.5684
       8.8892       5.8494       0.0115      63.1455      36.5224    -999.2500
    -999.2500      81.9934      75.2040      61.8638       0.1667       3.7988
       0.0023       2.5638    -999.2500    -999.2500    -999.2500       0.3647
       3.3775
   3140.7207
       8.8217       6.8876       0.0124      63.3596      37.1676    -999.2500
    -999.2500      79.9819      73.2816      48.0898       0.1637       3.7683
       0.0022       2.5557    -999.2500    -999.2500    -999.2500       0.6008
       3.4198
   3140.8733
       8.6979       8.5401       0.0109      62.9773      38.5539    -999.2500
    -999.2500      74.7961      68.3441      32.9446       0.1658       3.8652
       0.0027       2.5402    -999.2500    -999.2500    -999.2500       0.9329
       3.5671
   3141.0256
       8.6645       8.9016       0.0092      62.2585      39.1727    -999.2500
    -999.2500      71.8307      65.4638      43.3840       0.1693       3.8278
       0.0028       2.5342    -999.2500    -999.2500    -999.2500       1.0467
       3.6244
   3141.1780
       8.7650       7.3538       0.0072      61.1145      38.6565    -999.2500
    -999.2500      72.1417      65.6193      91.5448       0.1734       3.5919
       0.0023       2.5422    -999.2500    -999.2500    -999.2500       0.8378
       3.5484
   3141.3303
       8.8977       6.5907       0.0052      60.6394      38.4404    -999.2500
    -999.2500      73.7434      66.8892     105.2485       0.1743       3.4665
       0.0022       2.5533    -999.2500    -999.2500    -999.2500       0.7152
       3.5074
   3141.4827
       9.0782       6.9923       0.0032      60.9246      38.6701    -999.2500
    -999.2500      77.2369      69.7925      68.2587       0.1707       3.5051
       0.0027       2.5688    -999.2500    -999.2500    -999.2500       0.7207
       3.5185
   3141.6353
       9.1330       7.4600       0.0010      62.0640      38.9971    -999.2500
    -999.2500      82.2497      74.2648      53.7973       0.1690       3.5217
       0.0030       2.5721    -999.2500    -999.2500    -999.2500       0.7042
       3.5325
   3141.7876
       9.0056       8.0238      -0.0015      64.3455      39.4654    -999.2500
    -999.2500      89.4776      81.0267      72.4710       0.1715       3.5062
       0.0030       2.5576    -999.2500    -999.2500    -999.2500       0.6557
       3.5510
   3141.9399
       8.9328       8.1042      -0.0024      65.6634      39.4357    -999.2500
    -999.2500      92.3915      83.6923      73.2529       0.1774       3.5023
       0.0030       2.5431    -999.2500    -999.2500    -999.2500       0.5568
       3.5547
   3142.0923
       8.9398       7.4810      -0.0009      65.6523      38.6812    -999.2500
    -999.2500      89.0166      80.3858      47.9198       0.1883       3.5153
       0.0030       2.5286    -999.2500    -999.2500    -999.2500       0.3846
       3.5367
   3142.2449
       9.0031       7.6171       0.0020      65.4296      38.4527    -999.2500
    -999.2500      83.3906      75.3733      35.4752       0.1937       3.5598
       0.0032       2.5311    -999.2500    -999.2500    -999.2500       0.3471
       3.5709
   3142.3972
       9.1490       8.8701       0.0070      64.9374      38.9979    -999.2500
    -999.2500      74.4380      67.8369      41.9274       0.1913       3.6508
       0.0037       2.5586    -999.2500    -999.2500    -999.2500       0.5081
       3.6819
   3142.5496
       9.2277       9.3924       0.0096      64.0440      39.5352    -999.2500
    -999.2500      69.7233      63.6930      52.8200       0.1857       3.7378
       0.0038       2.5718    -999.2500    -999.2500    -999.2500       0.5835
       3.7415
   3142.7019
       9.2071       8.8364       0.0086      62.5112      40.0607    -999.2500
    -999.2500      71.2358      64.5350      70.1820       0.1763       3.8190
       0.0033       2.5637    -999.2500    -999.2500    -999.2500       0.5329
       3.7255
   3142.8545
       9.1799       7.5844       0.0088      62.6650      39.1842    -999.2500
    -999.2500      73.5816      66.1254      73.4516       0.1709       3.8838
       0.0028       2.5621    -999.2500    -999.2500    -999.2500       0.4310
       3.6855
   3143.0068
       9.1429       5.3283       0.0108      64.6474      36.2855    -999.2500
    -999.2500      77.1489      68.8122      56.1001       0.1704       3.9248
       0.0023       2.5696    -999.2500    -999.2500    -999.2500       0.2551
       3.6110
   3143.1592
       9.1445       4.8431       0.0114      65.8584      36.7565    -999.2500
    -999.2500      80.4661      71.3389      54.6753       0.1695       3.9204
       0.0022       2.5773    -999.2500    -999.2500    -999.2500       0.3503
       3.4356
   3143.3115
       9.2019       6.9216       0.0099      65.6147      42.1059    -999.2500
    -999.2500      83.4324      73.6426      76.4550       0.1663       3.8505
       0.0027       2.5853    -999.2500    -999.2500    -999.2500       0.8382
       3.1140
   3143.4639
       9.3137       8.8726       0.0084      64.2743      44.7306    -999.2500
    -999.2500      84.0277      73.9145      84.2888       0.1627       3.7260
       0.0032       2.5888    -999.2500    -999.2500    -999.2500       1.1233
       2.9881
   3143.6165
       9.5051      10.6374       0.0069      61.7553      43.3702    -999.2500
    -999.2500      81.1474      71.2068      71.7003       0.1588       3.5216
       0.0037       2.5858    -999.2500    -999.2500    -999.2500       1.1118
       3.1486
   3143.7688
       9.5572      11.0881       0.0066      60.2814      41.2679    -999.2500
    -999.2500      79.7022      70.1207      66.9729       0.1550       3.4170
       0.0038       2.5860    -999.2500    -999.2500    -999.2500       1.0388
       3.2167
   3143.9211
       9.4048       9.6103       0.0081      60.5218      38.0768    -999.2500
    -999.2500      80.3619      71.4135      73.7792       0.1519       3.4590
       0.0033       2.5910    -999.2500    -999.2500    -999.2500       0.8753
       3.1492
   3144.0735
       9.2220       9.3408       0.0098      61.2875      36.4108    -999.2500
    -999.2500      82.3465      75.1330      73.0282       0.1506       3.5343
       0.0034       2.5983    -999.2500    -999.2500    -999.2500       0.8759
       3.1285
   3144.2261
       8.9943      10.8515       0.0118      62.6922      36.9914    -999.2500
    -999.2500      86.2661      82.3963      61.2220       0.1520       3.6586
       0.0044       2.6088    -999.2500    -999.2500    -999.2500       1.1181
       3.1766
   3144.3784
       9.0364      11.6763       0.0132      62.3629      37.6820    -999.2500
    -999.2500      84.0718      81.6823      58.3002       0.1544       3.8624
       0.0048       2.6138    -999.2500    -999.2500    -999.2500       1.1726
       3.2036
   3144.5308
       9.4669      11.5135       0.0137      59.5116      38.5309    -999.2500
    -999.2500      72.9361      69.2999      68.3774       0.1574       4.1805
       0.0043       2.6108    -999.2500    -999.2500    -999.2500       0.9568
       3.2001
