#------------------------------------------------------------------------------
#
#   Created by  : [OpenWorks] Log Export Utility (LEXP)
#   Created on  : 2016-05-19 10:22:34
#   Project     : CANT971
#   User        : R5K
#   Interpreter : PEP
#
#------------------------------------------------------------------------------
~VERSION INFORMATION
VERS. 2.0 : CWLS Log ASCII Standard - version 2.0
WRAP.  NO : One line per depth step
~WELL INFORMATION
#MNEMONIC   .UNIT                                           VALUE :DESCRIPTION
#------------------------------------------------------------------------------
STRT        .M                                           501.0914 :START DEPTH
STOP        .M                                          3797.8081 :STOP DEPTH
STEP        .M                                             0.1524 :STEP
NULL        .                                           -999.2500 :NULL VALUE
COMP        .                                   PEMEX EXPL & PROD :COMPANY
WELL        .                                                2076 :WELL
FLD         .                                           CANTARELL :FIELD
LOC         .                                             UNKNOWN :LOCATION
CNTY        .                                      CD. DEL CARMEN :COUNTY
STAT        .                                            CAMPECHE :STATE
CTRY        .                                              MEXICO :COUNTRY
SRVC        .                                             UNKNOWN :SERVICE COMPANY
DATE        .                                             UNKNOWN :LOG DATE
UWI         .                                          3060000519 :UNIQUE WELL ID
XCOORD      .                                       600031.350000 :SURFACE X
YCOORD      .                                      2139442.240000 :SURFACE Y
LAT         .                                           19.347648 :LATITUDE
LON         .                                          -92.047636 :LONGITUDE
ELEV        .M                                            27.4000 :SURFACE ELEV
ELEV_TYPE   .                                                  KB :ELEV TYPE
~CURVE INFORMATION
#MNEMONIC.UNIT        API CODE       : CURVE DESCRIPTION
#------------------------------------------------------------------------------
DEPTH    .M                          : Measured Depth
CALI     .inches      UNKNOWN        : CALI:UNKNOWN:rC:NONE:v0 (auto-composite)
DT       .us/ft       UNKNOWN        : DT:UNKNOWN:rC:NONE:v0 (auto-composite)
GR       .API         UNKNOWN        : GR:UNKNOWN:rC:NONE:v0 (auto-composite)
ILD      .ohm.m       UNKNOWN        : ILD:UNKNOWN:rC:NONE:v0 (auto-composite)
LLD      .ohm.m       UNKNOWN        : LLD:UNKNOWN:rC:NONE:v0 (auto-composite)
LLS      .ohm.m       UNKNOWN        : LLS:UNKNOWN:rC:NONE:v0 (auto-composite)
NPHI     .UNKNOWN     UNKNOWN        : NPHI:UNKNOWN:rC:NONE:v0 (auto-composite)
RHOB     .g/cm3       UNKNOWN        : RHOB:UNKNOWN:rC:NONE:v0 (auto-composite)
SIGM     .UNKNOWN     UNKNOWN        : SIGM:UNKNOWN:rC:NONE:v0 (auto-composite)
TAU      .UNKNOWN     UNKNOWN        : TAU:UNKNOWN:rC:NONE:v0 (auto-composite)
~A     DEPTH         CALI           DT           GR          ILD          LLD          LLS         NPHI         RHOB         SIGM          TAU
# ...
   3701.4915       6.4400      51.8000      34.6620    -999.2500     111.5330     102.7220       0.0450       2.8200    -999.2500    -999.2500
   3701.6438       6.4400      51.5338      31.3999    -999.2500     136.0417     120.0998       0.0426       2.8160    -999.2500    -999.2500
   3701.7961       6.4400      51.2680      28.1430    -999.2500     160.5500     137.3940       0.0401       2.8120    -999.2500    -999.2500
   3701.9485       6.4400      50.6836      26.6984    -999.2500     196.3886     157.7181       0.0383       2.8035    -999.2500    -999.2500
   3702.1011       6.4400      50.1000      25.2560    -999.2500     232.2310     177.9470       0.0374       2.7950    -999.2500    -999.2500
   3702.2534       6.4821      50.2527      24.8277    -999.2500     272.6108     204.0539       0.0390       2.7775    -999.2500    -999.2500
   3702.4058       6.5240      50.4050      24.4000    -999.2500     313.0000     230.0000       0.0418       2.7600    -999.2500    -999.2500
   3702.5581       6.5420      50.6438      26.3862    -999.2500     279.3526     219.9056       0.0465       2.7435    -999.2500    -999.2500
   3702.7107       6.5600      50.8820      28.3700    -999.2500     245.7470     209.8720       0.0519       2.7270    -999.2500    -999.2500
   3702.8630       6.5445      53.2367      31.4322    -999.2500     181.5087     180.0895       0.0579       2.7195    -999.2500    -999.2500
   3703.0154       6.5290      55.5850      34.4910    -999.2500     117.3420     150.4830       0.0640       2.7120    -999.2500    -999.2500
   3703.1677       6.4844      61.1627      35.4460    -999.2500      93.9804     118.3306       0.0705       2.7070    -999.2500    -999.2500
   3703.3203       6.4400      66.7260      36.4000    -999.2500      70.6420      86.3640       0.0758       2.7020    -999.2500    -999.2500
   3703.4727       6.4400      72.1697      34.5492    -999.2500      67.0695      74.3480       0.0762       2.6760    -999.2500    -999.2500
   3703.6250       6.4400      77.6000      32.7000    -999.2500      63.5000      62.4000       0.0736       2.6500    -999.2500    -999.2500
   3703.7773       6.4400      74.4819      34.6617    -999.2500      91.7605      78.8194       0.0643       2.6655    -999.2500    -999.2500
   3703.9297       6.4400      71.3710      36.6220    -999.2500     120.0000      95.1480       0.0553       2.6810    -999.2500    -999.2500
   3704.0823       6.4400      67.0432      37.5200    -999.2500     118.4540     108.6104       0.0536       2.7165    -999.2500    -999.2500
   3704.2346       6.4400      62.7250      38.4160    -999.2500     116.9090     122.0000       0.0542       2.7520    -999.2500    -999.2500
   3704.3870       6.4595      58.9586      38.7398    -999.2500     110.5765     116.5110       0.0556       2.7610    -999.2500    -999.2500
   3704.5393       6.4790      55.2000      39.0630    -999.2500     104.2470     111.0510       0.0573       2.7700    -999.2500    -999.2500
   3704.6919       6.5896      55.4708      39.3818    -999.2500      98.9105     106.7890       0.0592       2.7585    -999.2500    -999.2500
   3704.8442       6.7000      55.7410      39.7000    -999.2500      93.5760     102.5490       0.0613       2.7470    -999.2500    -999.2500
   3704.9966       6.6184      56.6348      38.2657    -999.2500      85.4370      92.2486       0.0633       2.7395    -999.2500    -999.2500
   3705.1489       6.5370      57.5270      36.8340    -999.2500      77.3000      82.0000       0.0656       2.7320    -999.2500    -999.2500
   3705.3015       6.4434      58.3642      34.8643    -999.2500      78.6506      82.8526       0.0691       2.7160    -999.2500    -999.2500
   3705.4539       6.3500      59.2000      32.8980    -999.2500      80.0010      83.7010       0.0716       2.7000    -999.2500    -999.2500
   3705.6062       6.4351      57.6833      31.4478    -999.2500      87.3829      87.8344       0.0696       2.7040    -999.2500    -999.2500
   3705.7585       6.5200      56.1690      30.0000    -999.2500      94.7650      91.9480       0.0667       2.7080    -999.2500    -999.2500
   3705.9109       6.4890      54.5833      31.1288    -999.2500     117.2139     110.4907       0.0650       2.7130    -999.2500    -999.2500
   3706.0635       6.4580      53.0000      32.2560    -999.2500     139.6660     128.9470       0.0651       2.7180    -999.2500    -999.2500
   3706.2158       6.4179      53.5468      35.5447    -999.2500     180.8275     173.1088       0.0715       2.7190    -999.2500    -999.2500
   3706.3682       6.3780      54.0920      38.8290    -999.2500     222.0000     217.0000       0.0789       2.7200    -999.2500    -999.2500
   3706.5205       6.3540      55.3022      40.7592    -999.2500     217.6779     203.4373       0.0840       2.7200    -999.2500    -999.2500
   3706.6731       6.3300      56.5090      42.6870    -999.2500     213.3610     189.9560       0.0887       2.7200    -999.2500    -999.2500
   3706.8254       6.3300      58.1357      44.5975    -999.2500     187.4614     181.3297       0.0937       2.7045    -999.2500    -999.2500
   3706.9778       6.3300      59.7580      46.5060    -999.2500     161.5900     172.7540       0.0977       2.6890    -999.2500    -999.2500
   3707.1301       6.3300      60.4434      49.4244    -999.2500     146.7879     145.2981       0.0973       2.6805    -999.2500    -999.2500
   3707.2827       6.3300      61.1270      52.3400    -999.2500     132.0000     118.0000       0.0968       2.6720    -999.2500    -999.2500
   3707.4351       6.3300      61.2136      55.4158    -999.2500     177.7156     151.8613       0.0999       2.6670    -999.2500    -999.2500
   3707.5874       6.3300      61.3000      58.4890    -999.2500     223.3930     185.5320       0.1037       2.6620    -999.2500    -999.2500
   3707.7397       6.2849      62.9519      59.7950    -999.2500     254.6681     277.5189       0.1069       2.6460    -999.2500    -999.2500
   3707.8921       6.2400      64.6000      61.1000    -999.2500     285.9210     369.0000       0.1084       2.6300    -999.2500    -999.2500
   3708.0447       6.2755      64.2847      58.8515    -999.2500     295.0622     314.8544       0.1035       2.6300    -999.2500    -999.2500
   3708.1970       6.3110      63.9700      56.6080    -999.2500     304.1980     261.0000       0.0984       2.6300    -999.2500    -999.2500
   3708.3494       6.3325      63.1341      53.9478    -999.2500     359.7417     289.8923       0.0994       2.6380    -999.2500    -999.2500
   3708.5017       6.3540      62.3000      51.2930    -999.2500     415.2600     318.6330       0.1015       2.6460    -999.2500    -999.2500
   3708.6543       6.3720      65.8219      49.7961    -999.2500     452.6362     369.4468       0.1024       2.6640    -999.2500    -999.2500
   3708.8066       6.3900      69.3370      48.3020    -999.2500     490.0000     420.0000       0.1029       2.6820    -999.2500    -999.2500
   3708.9590       6.3069      72.3212      47.7335    -999.2500     449.0478     404.7614       0.1030       2.6860    -999.2500    -999.2500
   3709.1113       6.2240      75.3000      47.1660    -999.2500     408.1040     389.5990       0.1026       2.6900    -999.2500    -999.2500
   3709.2639       6.1670      70.3388      44.9396    -999.2500     320.6214     318.8179       0.1007       2.6850    -999.2500    -999.2500
   3709.4163       6.1100      65.3860      42.7170    -999.2500     233.1460     248.3820       0.0977       2.6800    -999.2500    -999.2500
   3709.5686       6.2411      63.4555      42.0079    -999.2500     197.7278     205.5894       0.0918       2.7000    -999.2500    -999.2500
   3709.7209       6.3720      61.5280      41.3000    -999.2500     162.3080     163.0000       0.0856       2.7200    -999.2500    -999.2500
   3709.8733       6.4060      59.7127      45.2438    -999.2500     151.1460     163.0000       0.0816       2.7160    -999.2500    -999.2500
