#------------------------------------------------------------------------------
#
#   Created by  : [OpenWorks] Log Export Utility (LEXP)
#   Created on  : 2016-05-19 10:22:35
#   Project     : CANT971
#   User        : R5K
#   Interpreter : PEP
#
#------------------------------------------------------------------------------
~VERSION INFORMATION
VERS. 2.0 : CWLS Log ASCII Standard - version 2.0
WRAP. YES : Mulitple lines per depth step
~WELL INFORMATION
#MNEMONIC   .UNIT                                           VALUE :DESCRIPTION
#------------------------------------------------------------------------------
STRT        .M                                          1391.9308 :START DEPTH
STOP        .M                                          3430.8904 :STOP DEPTH
STEP        .M                                             0.1524 :STEP
NULL        .                                           -999.2500 :NULL VALUE
COMP        .                                   PEMEX EXPL & PROD :COMPANY
WELL        .                                               2076D :WELL
FLD         .                                           CANTARELL :FIELD
LOC         .                                             UNKNOWN :LOCATION
CNTY        .                                      CD. DEL CARMEN :COUNTY
STAT        .                                            CAMPECHE :STATE
CTRY        .                                              MEXICO :COUNTRY
SRVC        .                                             UNKNOWN :SERVICE COMPANY
DATE        .                                             UNKNOWN :LOG DATE
UWI         .                                               2076D :UNIQUE WELL ID
XCOORD      .                                       600029.690000 :SURFACE X
YCOORD      .                                      2139443.800000 :SURFACE Y
LAT         .                                           19.347662 :LATITUDE
LON         .                                          -92.047651 :LONGITUDE
ELEV        .M                                            27.4000 :SURFACE ELEV
ELEV_TYPE   .                                                  KB :ELEV TYPE
~CURVE INFORMATION
#MNEMONIC.UNIT        API CODE       : CURVE DESCRIPTION
#------------------------------------------------------------------------------
DEPTH    .M                          : Measured Depth
CALI     .UNKNOWN     UNKNOWN        : CALI:UNKNOWN:rC:NONE:v0 (auto-composite)
CGR      .UNKNOWN     UNKNOWN        : CGR:UNKNOWN:rC:NONE:v0 (auto-composite)
DRHO     .UNKNOWN     UNKNOWN        : DRHO:UNKNOWN:rC:NONE:v0 (auto-composite)
DT       .us/ft       UNKNOWN        : DT:DT:rC:NONE:v0 (auto-composite)
GR       .API         UNKNOWN        : GR:UNKNOWN:rC:NONE:v0 (auto-composite)
ILD      .UNKNOWN     UNKNOWN        : ILD:UNKNOWN:rC:NONE:v0 (auto-composite)
ILM      .UNKNOWN     UNKNOWN        : ILM:UNKNOWN:rC:NONE:v0 (auto-composite)
LLD      .ohm.m       UNKNOWN        : LLD:resistivos:rC:NONE:v0 (auto-composite)
LLS      .ohm.m       UNKNOWN        : LLS:resistivos:rC:NONE:v0 (auto-composite)
MSFL     .ohm.m       UNKNOWN        : MSFL:resistivos:rC:NONE:v0 (auto-composite)
NPHI     .v/v_decimal UNKNOWN        : NPHI:UNKNOWN:rC:NONE:v0 (auto-composite)
PEF      .UNKNOWN     UNKNOWN        : PEF:UNKNOWN:rC:NONE:v0 (auto-composite)
POTA     .UNKNOWN     UNKNOWN        : POTA:UNKNOWN:rC:NONE:v0 (auto-composite)
RHOB     .UNKNOWN     UNKNOWN        : RHOB:UNKNOWN:rC:NONE:v0 (auto-composite)
SIGM     .UNKNOWN     UNKNOWN        : SIGM:UNKNOWN:rC:NONE:v0 (auto-composite)
SP       .UNKNOWN     UNKNOWN        : SP:UNKNOWN:rC:NONE:v0 (auto-composite)
TAU      .UNKNOWN     UNKNOWN        : TAU:UNKNOWN:rC:NONE:v0 (auto-composite)
THOR     .UNKNOWN     UNKNOWN        : THOR:UNKNOWN:rC:NONE:v0 (auto-composite)
URAN     .UNKNOWN     UNKNOWN        : URAN:UNKNOWN:rC:NONE:v0 (auto-composite)
~A
# ...
   3272.2419
       8.1083       2.7372       0.0065      61.3896      44.6023    -999.2500
    -999.2500      14.4884      13.4902      21.8696       0.1159       4.9830
       0.0010       2.5254    -999.2500    -999.2500    -999.2500       0.6177
       4.5240
   3272.3943
       8.1213       2.9140       0.0070      61.7103      47.5546    -999.2500
    -999.2500      14.9466      13.8408      25.2355       0.1171       4.6794
       0.0010       2.5174    -999.2500    -999.2500    -999.2500       0.8712
       4.5811
   3272.5469
       8.1747       4.9785       0.0098      63.0954      47.6352    -999.2500
    -999.2500      15.3052      14.0589      20.4232       0.1172       4.8192
       0.0010       2.5189    -999.2500    -999.2500    -999.2500       0.8645
       4.6855
   3272.6992
       8.2301       7.1435       0.0128      66.0483      47.5627    -999.2500
    -999.2500      15.4885      14.1238      14.2599       0.1168       4.9826
       0.0010       2.5209    -999.2500    -999.2500    -999.2500       0.8441
       4.7925
   3272.8516
       8.2311       7.1199       0.0192      73.9704      46.9456    -999.2500
    -999.2500      15.3880      13.9978      15.0793       0.1158       4.8597
       0.0019       2.5362    -999.2500    -999.2500    -999.2500       0.6557
       4.7914
   3273.0039
       8.2291       6.9775       0.0257      83.3108      46.2989    -999.2500
    -999.2500      14.7749      13.4425      17.6526       0.1142       4.7212
       0.0029       2.5522    -999.2500    -999.2500    -999.2500       0.4583
       4.7844
   3273.1565
       8.1703       3.7688       0.0227      79.2183      43.6198    -999.2500
    -999.2500      13.3276      12.1316      15.6692       0.1106       4.7372
       0.0021       2.5606    -999.2500    -999.2500    -999.2500       0.0341
       4.6893
   3273.3088
       8.1083       0.3907       0.0192      75.6903      40.8285    -999.2500
    -999.2500      11.6713      10.6229      12.5619       0.1071       4.7617
       0.0011       2.5686    -999.2500    -999.2500    -999.2500      -0.4028
       4.5893
   3273.4612
       8.1575       0.4885       0.0242      77.7329      40.8989    -999.2500
    -999.2500      10.5710       9.5989      12.5205       0.1047       5.1025
       0.0010       2.5714    -999.2500    -999.2500    -999.2500      -0.4043
       4.6809
   3273.6135
       8.2129       0.7817       0.0297      81.8958      41.1301    -999.2500
    -999.2500       9.9994       9.0495      13.1313       0.1027       5.4610
       0.0010       2.5739    -999.2500    -999.2500    -999.2500      -0.3813
       4.7833
   3273.7659
       8.2108       5.2155       0.0295      81.7964      43.1586    -999.2500
    -999.2500       9.9618       8.9976      11.4386       0.0991       5.2523
       0.0029       2.5825    -999.2500    -999.2500    -999.2500      -0.1774
       4.7360
   3273.9185
       8.2053       9.8935       0.0290      80.7261      45.2930    -999.2500
    -999.2500      10.1505       9.1601       9.7684       0.0952       5.0101
       0.0049       2.5915    -999.2500    -999.2500    -999.2500       0.0372
       4.6798
   3274.0708
       8.1537      10.0065       0.0243      77.3704      47.6517    -999.2500
    -999.2500      10.1970       9.1979      11.0146       0.0918       5.0740
       0.0050       2.6005    -999.2500    -999.2500    -999.2500       0.3343
       4.6922
   3274.2231
       8.0998       9.8785       0.0193      73.1552      50.0221    -999.2500
    -999.2500      10.0805       9.0889      13.1180       0.0885       5.1539
       0.0050       2.6095    -999.2500    -999.2500    -999.2500       0.6356
       4.7082
   3274.3755
       8.1534       7.7253       0.0190      68.6170      45.0998    -999.2500
    -999.2500       9.7637       8.7946      13.6136       0.0849       4.9133
       0.0036       2.6185    -999.2500    -999.2500    -999.2500       0.5168
       4.3111
   3274.5281
       8.2129       5.4633       0.0190      64.4005      39.7856    -999.2500
    -999.2500       9.4427       8.4958      12.7933       0.0814       4.6554
       0.0021       2.6275    -999.2500    -999.2500    -999.2500       0.3753
       3.8917
   3274.6804
       8.2094       8.2092       0.0233      62.4282      43.0645    -999.2500
    -999.2500       9.3587       8.4146      10.9116       0.0783       4.6624
       0.0020       2.6446    -999.2500    -999.2500    -999.2500       0.7203
       3.9486
   3274.8328
       8.2024      11.2290       0.0278      61.2539      46.8134    -999.2500
    -999.2500       9.4770       8.5126      10.1062       0.0752       4.6838
       0.0020       2.6621    -999.2500    -999.2500    -999.2500       1.0918
       4.0315
   3274.9851
       8.1146      11.3358       0.0242      60.9844      46.9565    -999.2500
    -999.2500       9.7694       8.7554      13.1075       0.0719       4.8868
       0.0029       2.6521    -999.2500    -999.2500    -999.2500       1.1040
       3.9722
   3275.1377
       8.0221      11.2753       0.0202      61.0528      46.8925    -999.2500
    -999.2500      10.1416       9.0734      16.3942       0.0688       5.1002
       0.0039       2.6406    -999.2500    -999.2500    -999.2500       1.0955
       3.9047
   3275.2900
       8.0587      10.4558       0.0219      61.7961      46.4077    -999.2500
    -999.2500      10.4820       9.3857      15.5872       0.0686       4.8822
       0.0035       2.6405    -999.2500    -999.2500    -999.2500       1.0292
       3.9612
   3275.4424
       8.1028       9.5919       0.0239      62.1801      45.8983    -999.2500
    -999.2500      10.7854       9.6729      13.8852       0.0684       4.6391
       0.0030       2.6410    -999.2500    -999.2500    -999.2500       0.9595
       4.0248
   3275.5947
       8.0551      10.8956       0.0231      61.0051      45.6046    -999.2500
    -999.2500      11.0434       9.9096      15.2154       0.0665       4.6289
       0.0039       2.6505    -999.2500    -999.2500    -999.2500       0.9042
       4.0176
   3275.7471
       8.0027      12.3124       0.0221      59.2372      45.3223    -999.2500
    -999.2500      11.2764      10.1128      16.9751       0.0640       4.6309
       0.0049       2.6605    -999.2500    -999.2500    -999.2500       0.8498
       4.0066
   3275.8997
       8.0057      10.8482       0.0225      67.9812      43.7802    -999.2500
    -999.2500      11.5075      10.3006      16.0188       0.0637       4.6718
       0.0045       2.6548    -999.2500    -999.2500    -999.2500       0.6085
       3.8547
   3276.0520
       8.0117       9.2307       0.0230      75.4528      42.1712    -999.2500
    -999.2500      11.7058      10.4535      14.4342       0.0638       4.7147
       0.0040       2.6483    -999.2500    -999.2500    -999.2500       0.3573
       3.6954
   3276.2043
       8.0603      10.1816       0.0287      76.8006      43.8590    -999.2500
    -999.2500      11.8300      10.5440      14.7544       0.0645       5.0294
       0.0040       2.6480    -999.2500    -999.2500    -999.2500       0.5683
       3.7916
   3276.3567
       8.1113      11.2761       0.0347      75.3270      45.7312    -999.2500
    -999.2500      11.9824      10.6521      15.0707       0.0651       5.3592
       0.0040       2.6480    -999.2500    -999.2500    -999.2500       0.8052
       3.9021
   3276.5093
       8.0613      11.2596       0.0269      67.2768      45.7495    -999.2500
    -999.2500      12.2917      10.8785      13.0176       0.0649       5.0909
       0.0040       2.6447    -999.2500    -999.2500    -999.2500       0.8104
       3.9047
   3276.6616
       8.0057      11.1798       0.0184      59.7677      45.6622    -999.2500
    -999.2500      12.5104      11.0209      12.8146       0.0645       4.7886
       0.0040       2.6412    -999.2500    -999.2500    -999.2500       0.8024
       3.9012
   3276.8140
       8.0558      10.4027       0.0209      58.0512      44.4556    -999.2500
    -999.2500      12.3256      10.8231      19.8058       0.0645       4.8106
       0.0040       2.6519    -999.2500    -999.2500    -999.2500       0.7378
       3.8549
