#------------------------------------------------------------------------------
#
#   Created by  : [OpenWorks] Log Export Utility (LEXP)
#   Created on  : 2016-05-19 10:22:35
#   Project     : CANT971
#   User        : R5K
#   Interpreter : PEP
#
#------------------------------------------------------------------------------
~VERSION INFORMATION
VERS. 2.0 : CWLS Log ASCII Standard - version 2.0
WRAP. YES : Mulitple lines per depth step
~WELL INFORMATION
#MNEMONIC   .UNIT                                           VALUE :DESCRIPTION
#------------------------------------------------------------------------------
STRT        .M                                          1391.9308 :START DEPTH
STOP        .M                                          3430.8904 :STOP DEPTH
STEP        .M                                             0.1524 :STEP
NULL        .                                           -999.2500 :NULL VALUE
COMP        .                                   PEMEX EXPL & PROD :COMPANY
WELL        .                                               2076D :WELL
FLD         .                                           CANTARELL :FIELD
LOC         .                                             UNKNOWN :LOCATION
CNTY        .                                      CD. DEL CARMEN :COUNTY
STAT        .                                            CAMPECHE :STATE
CTRY        .                                              MEXICO :COUNTRY
SRVC        .                                             UNKNOWN :SERVICE COMPANY
DATE        .                                             UNKNOWN :LOG DATE
UWI         .                                               2076D :UNIQUE WELL ID
XCOORD      .                                       600029.690000 :SURFACE X
YCOORD      .                                      2139443.800000 :SURFACE Y
LAT         .                                           19.347662 :LATITUDE
LON         .                                          -92.047651 :LONGITUDE
ELEV        .M                                            27.4000 :SURFACE ELEV
ELEV_TYPE   .                                                  KB :ELEV TYPE
~CURVE INFORMATION
#MNEMONIC.UNIT        API CODE       : CURVE DESCRIPTION
#------------------------------------------------------------------------------
DEPTH    .M                          : Measured Depth
CALI     .UNKNOWN     UNKNOWN        : CALI:UNKNOWN:rC:NONE:v0 (auto-composite)
CGR      .UNKNOWN     UNKNOWN        : CGR:UNKNOWN:rC:NONE:v0 (auto-composite)
DRHO     .UNKNOWN     UNKNOWN        : DRHO:UNKNOWN:rC:NONE:v0 (auto-composite)
DT       .us/ft       UNKNOWN        : DT:DT:rC:NONE:v0 (auto-composite)
GR       .API         UNKNOWN        : GR:UNKNOWN:rC:NONE:v0 (auto-composite)
ILD      .UNKNOWN     UNKNOWN        : ILD:UNKNOWN:rC:NONE:v0 (auto-composite)
ILM      .UNKNOWN     UNKNOWN        : ILM:UNKNOWN:rC:NONE:v0 (auto-composite)
LLD      .ohm.m       UNKNOWN        : LLD:resistivos:rC:NONE:v0 (auto-composite)
LLS      .ohm.m       UNKNOWN        : LLS:resistivos:rC:NONE:v0 (auto-composite)
MSFL     .ohm.m       UNKNOWN        : MSFL:resistivos:rC:NONE:v0 (auto-composite)
NPHI     .v/v_decimal UNKNOWN        : NPHI:UNKNOWN:rC:NONE:v0 (auto-composite)
PEF      .UNKNOWN     UNKNOWN        : PEF:UNKNOWN:rC:NONE:v0 (auto-composite)
POTA     .UNKNOWN     UNKNOWN        : POTA:UNKNOWN:rC:NONE:v0 (auto-composite)
RHOB     .UNKNOWN     UNKNOWN        : RHOB:UNKNOWN:rC:NONE:v0 (auto-composite)
SIGM     .UNKNOWN     UNKNOWN        : SIGM:UNKNOWN:rC:NONE:v0 (auto-composite)
SP       .UNKNOWN     UNKNOWN        : SP:UNKNOWN:rC:NONE:v0 (auto-composite)
TAU      .UNKNOWN     UNKNOWN        : TAU:UNKNOWN:rC:NONE:v0 (auto-composite)
THOR     .UNKNOWN     UNKNOWN        : THOR:UNKNOWN:rC:NONE:v0 (auto-composite)
URAN     .UNKNOWN     UNKNOWN        : URAN:UNKNOWN:rC:NONE:v0 (auto-composite)
~A
# ...
   3399.8008
       8.4610       0.5453       0.0231      54.2342      83.5581    -999.2500
    -999.2500      79.8711      69.6056      74.7168       0.0666       3.7780
       0.0000       2.6373    -999.2500    -999.2500    -999.2500       0.0743
       9.1986
   3399.9531
       8.5582       0.4638       0.0254      54.4978      66.7102    -999.2500
    -999.2500      69.9394      59.2159      60.5366       0.0521       3.8772
       0.0000       2.6394    -999.2500    -999.2500    -999.2500       0.0570
       7.3385
   3400.1055
       8.6632       0.4033       0.0279      55.2614      48.3901    -999.2500
    -999.2500      68.9048      57.6208      40.2322       0.0366       3.9831
       0.0000       2.6409    -999.2500    -999.2500    -999.2500       0.0475
       5.3158
   3400.2581
       8.7083       1.1138       0.0237      56.6872      38.2324    -999.2500
    -999.2500      79.6292      68.2333      36.1812       0.0310       4.1860
       0.0000       2.6519    -999.2500    -999.2500    -999.2500       0.2848
       4.1122
   3400.4104
       8.7499       1.8694       0.0192      57.9178      28.5526    -999.2500
    -999.2500      97.4164      85.4702      39.3046       0.0289       4.3946
       0.0000       2.6634    -999.2500    -999.2500    -999.2500       0.5365
       2.9565
   3400.5627
       8.7634       2.6085       0.0214      57.9258      24.1268    -999.2500
    -999.2500     116.8061     102.7415      38.7294       0.0298       4.4819
       0.0000       2.6640    -999.2500    -999.2500    -999.2500       0.6145
       2.2968
   3400.7151
       8.7754       3.3466       0.0239      57.4375      19.9761    -999.2500
    -999.2500     129.0077     113.2513      36.4033       0.0318       4.5629
       0.0000       2.6640    -999.2500    -999.2500    -999.2500       0.6835
       1.6631
   3400.8677
       8.6603       2.4273       0.0240      56.3367      18.9434    -999.2500
    -999.2500     122.7271     108.1767      34.5706       0.0342       4.5115
       0.0005       2.6616    -999.2500    -999.2500    -999.2500       0.3807
       1.8453
   3401.0200
       8.5385       1.4195       0.0240      55.0951      18.0770    -999.2500
    -999.2500     106.9824      94.4589      33.9515       0.0367       4.4531
       0.0010       2.6591    -999.2500    -999.2500    -999.2500       0.0581
       2.0710
   3401.1724
       8.6361       0.8710       0.0273      53.9802      20.6150    -999.2500
    -999.2500      92.1981      80.0155      35.5372       0.0384       4.3047
       0.0005       2.6675    -999.2500    -999.2500    -999.2500       0.0595
       2.3121
   3401.3247
       8.7461       0.3482       0.0308      52.9961      23.3438    -999.2500
    -999.2500      81.5124      68.9803      37.4006       0.0399       4.1513
       0.0000       2.6765    -999.2500    -999.2500    -999.2500       0.0789
       2.5540
   3401.4773
       8.6975       1.6007       0.0315      52.4023      23.2325    -999.2500
    -999.2500      79.1013      66.7135      37.1735       0.0409       4.0813
       0.0005       2.6784    -999.2500    -999.2500    -999.2500       0.1327
       2.4029
   3401.6296
       8.6398       2.9545       0.0320      51.9681      22.9592    -999.2500
    -999.2500      81.5350      69.3386      36.5297       0.0418       4.0162
       0.0010       2.6799    -999.2500    -999.2500    -999.2500       0.1883
       2.2294
   3401.7820
       8.5985       2.4284       0.0334      52.2279      23.0806    -999.2500
    -999.2500      84.8644      72.3543      37.5192       0.0436       3.9341
       0.0010       2.6829    -999.2500    -999.2500    -999.2500       0.1182
       2.2952
   3401.9343
       8.5580       1.8066       0.0349      52.5406      23.2220    -999.2500
    -999.2500      87.7733      74.8114      38.4100       0.0457       3.8511
       0.0010       2.6859    -999.2500    -999.2500    -999.2500       0.0418
       2.3732
   3402.0867
       8.6258       1.0600       0.0383      52.8345      25.3299    -999.2500
    -999.2500      88.6237      75.5084      37.0847       0.0482       3.8133
       0.0005       2.6893    -999.2500    -999.2500    -999.2500       0.0760
       2.6752
   3402.2393
       8.6992       0.3070       0.0418      53.1202      27.5397    -999.2500
    -999.2500      89.5054      76.4260      35.6988       0.0508       3.7778
       0.0000       2.6928    -999.2500    -999.2500    -999.2500       0.1159
       2.9888
   3402.3916
       8.6220       1.2400       0.0472      53.3521      30.6023    -999.2500
    -999.2500      92.9858      80.0137      36.8905       0.0524       3.8405
       0.0000       2.6902    -999.2500    -999.2500    -999.2500       0.3782
       3.2491
   3402.5439
       8.5365       2.2651       0.0527      53.6153      33.7115    -999.2500
    -999.2500      98.0557      84.9896      39.1153       0.0530       3.9084
       0.0000       2.6872    -999.2500    -999.2500    -999.2500       0.6526
       3.5065
   3402.6963
       8.5088       2.5387       0.0483      54.0063      34.2893    -999.2500
    -999.2500     103.5835      89.8704      40.5384       0.0507       3.9030
       0.0000       2.6780    -999.2500    -999.2500    -999.2500       0.7361
       3.5082
   3402.8489
       8.4843       2.7706       0.0433      54.4493      34.7266    -999.2500
    -999.2500     107.3567      93.0556      40.1091       0.0476       3.8935
       0.0000       2.6685    -999.2500    -999.2500    -999.2500       0.8091
       3.4957
   3403.0012
       8.5525       3.3545       0.0411      54.9339      37.2037    -999.2500
    -999.2500     106.4970      92.4305      36.3798       0.0458       3.9261
       0.0000       2.6619    -999.2500    -999.2500    -999.2500       0.9964
       3.7465
   3403.1536
       8.6259       3.9582       0.0391      55.3949      39.7960    -999.2500
    -999.2500     101.7513      88.4937      32.4957       0.0453       3.9610
       0.0000       2.6554    -999.2500    -999.2500    -999.2500       1.1902
       4.0121
   3403.3059
       8.5950       2.7580       0.0404      55.6443      37.7915    -999.2500
    -999.2500      93.7731      81.6305      32.3707       0.0490       4.0283
       0.0000       2.6559    -999.2500    -999.2500    -999.2500       0.8048
       3.8992
   3403.4585
       8.5579       1.4509       0.0419      55.9168      35.5147    -999.2500
    -999.2500      85.4369      74.2142      33.3618       0.0530       4.0975
       0.0000       2.6569    -999.2500    -999.2500    -999.2500       0.3851
       3.7638
   3403.6108
       8.5911       1.7073       0.0339      56.5427      32.5230    -999.2500
    -999.2500      80.2974      69.1636      32.2434       0.0540       4.1499
       0.0000       2.6418    -999.2500    -999.2500    -999.2500       0.4717
       3.4120
   3403.7632
       8.6281       2.0466       0.0254      57.3291      29.4933    -999.2500
    -999.2500      79.1800      67.3088      31.2384       0.0542       4.2014
       0.0000       2.6258    -999.2500    -999.2500    -999.2500       0.5852
       3.0486
   3403.9155
       8.6760       1.5614       0.0264      58.7048      28.6457    -999.2500
    -999.2500      83.4006      69.9100      33.0927       0.0572       4.1760
       0.0000       2.6269    -999.2500    -999.2500    -999.2500       0.4559
       2.9978
   3404.0679
       8.7245       1.0316       0.0279      59.9877      27.9160    -999.2500
    -999.2500      91.0645      75.3207      34.8961       0.0589       4.1465
       0.0000       2.6289    -999.2500    -999.2500    -999.2500       0.3134
       2.9638
   3404.2205
       8.6924       1.1413       0.0266      60.6465      29.6067    -999.2500
    -999.2500     100.1076      81.7328      33.0672       0.0549       4.2179
       0.0000       2.6304    -999.2500    -999.2500    -999.2500       0.2814
       3.1457
   3404.3728
       8.6560       1.2861       0.0251      61.0680      31.4305    -999.2500
    -999.2500     107.2198      86.5023      30.6784       0.0483       4.2948
       0.0000       2.6319    -999.2500    -999.2500    -999.2500       0.2554
       3.3394
