#------------------------------------------------------------------------------
#
#   Created by  : [OpenWorks] Log Export Utility (LEXP)
#   Created on  : 2016-05-19 10:22:35
#   Project     : CANT971
#   User        : R5K
#   Interpreter : PEP
#
#------------------------------------------------------------------------------
~VERSION INFORMATION
VERS. 2.0 : CWLS Log ASCII Standard - version 2.0
WRAP. YES : Mulitple lines per depth step
~WELL INFORMATION
#MNEMONIC   .UNIT                                           VALUE :DESCRIPTION
#------------------------------------------------------------------------------
STRT        .M                                          1391.9308 :START DEPTH
STOP        .M                                          3430.8904 :STOP DEPTH
STEP        .M                                             0.1524 :STEP
NULL        .                                           -999.2500 :NULL VALUE
COMP        .                                   PEMEX EXPL & PROD :COMPANY
WELL        .                                               2076D :WELL
FLD         .                                           CANTARELL :FIELD
LOC         .                                             UNKNOWN :LOCATION
CNTY        .                                      CD. DEL CARMEN :COUNTY
STAT        .                                            CAMPECHE :STATE
CTRY        .                                              MEXICO :COUNTRY
SRVC        .                                             UNKNOWN :SERVICE COMPANY
DATE        .                                             UNKNOWN :LOG DATE
UWI         .                                               2076D :UNIQUE WELL ID
XCOORD      .                                       600029.690000 :SURFACE X
YCOORD      .                                      2139443.800000 :SURFACE Y
LAT         .                                           19.347662 :LATITUDE
LON         .                                          -92.047651 :LONGITUDE
ELEV        .M                                            27.4000 :SURFACE ELEV
ELEV_TYPE   .                                                  KB :ELEV TYPE
~CURVE INFORMATION
#MNEMONIC.UNIT        API CODE       : CURVE DESCRIPTION
#------------------------------------------------------------------------------
DEPTH    .M                          : Measured Depth
CALI     .UNKNOWN     UNKNOWN        : CALI:UNKNOWN:rC:NONE:v0 (auto-composite)
CGR      .UNKNOWN     UNKNOWN        : CGR:UNKNOWN:rC:NONE:v0 (auto-composite)
DRHO     .UNKNOWN     UNKNOWN        : DRHO:UNKNOWN:rC:NONE:v0 (auto-composite)
DT       .us/ft       UNKNOWN        : DT:DT:rC:NONE:v0 (auto-composite)
GR       .API         UNKNOWN        : GR:UNKNOWN:rC:NONE:v0 (auto-composite)
ILD      .UNKNOWN     UNKNOWN        : ILD:UNKNOWN:rC:NONE:v0 (auto-composite)
ILM      .UNKNOWN     UNKNOWN        : ILM:UNKNOWN:rC:NONE:v0 (auto-composite)
LLD      .ohm.m       UNKNOWN        : LLD:resistivos:rC:NONE:v0 (auto-composite)
LLS      .ohm.m       UNKNOWN        : LLS:resistivos:rC:NONE:v0 (auto-composite)
MSFL     .ohm.m       UNKNOWN        : MSFL:resistivos:rC:NONE:v0 (auto-composite)
NPHI     .v/v_decimal UNKNOWN        : NPHI:UNKNOWN:rC:NONE:v0 (auto-composite)
PEF      .UNKNOWN     UNKNOWN        : PEF:UNKNOWN:rC:NONE:v0 (auto-composite)
POTA     .UNKNOWN     UNKNOWN        : POTA:UNKNOWN:rC:NONE:v0 (auto-composite)
RHOB     .UNKNOWN     UNKNOWN        : RHOB:UNKNOWN:rC:NONE:v0 (auto-composite)
SIGM     .UNKNOWN     UNKNOWN        : SIGM:UNKNOWN:rC:NONE:v0 (auto-composite)
SP       .UNKNOWN     UNKNOWN        : SP:UNKNOWN:rC:NONE:v0 (auto-composite)
TAU      .UNKNOWN     UNKNOWN        : TAU:UNKNOWN:rC:NONE:v0 (auto-composite)
THOR     .UNKNOWN     UNKNOWN        : THOR:UNKNOWN:rC:NONE:v0 (auto-composite)
URAN     .UNKNOWN     UNKNOWN        : URAN:UNKNOWN:rC:NONE:v0 (auto-composite)
~A
# ...
   3428.1472
       8.6721       5.0190       0.0444    -999.2500      31.3660    -999.2500
    -999.2500      72.1963      65.4166      19.5958       0.0909       3.8276
       0.0030       2.6576    -999.2500    -999.2500    -999.2500       0.2500
       2.9190
   3428.2996
       8.6335       5.0190       0.0492    -999.2500      31.3660    -999.2500
    -999.2500      74.5427      67.4800      20.2771       0.0910       3.7783
       0.0030       2.6495    -999.2500    -999.2500    -999.2500       0.2500
       2.9190
   3428.4519
       8.5855       5.0190       0.0547    -999.2500      31.3660    -999.2500
    -999.2500      74.0843      66.9488      22.2840       0.0915       3.7239
       0.0030       2.6405    -999.2500    -999.2500    -999.2500       0.2500
       2.9190
   3428.6045
       8.6630       5.0190       0.0503    -999.2500      31.3660    -999.2500
    -999.2500      69.9608      63.3336      25.2799       0.0923       3.8138
       0.0030       2.6187    -999.2500    -999.2500    -999.2500       0.2500
       2.9190
   3428.7568
       8.7475       5.0190       0.0453    -999.2500      31.3660    -999.2500
    -999.2500      65.6228      59.5533      26.8339       0.0930       3.9118
       0.0030       2.5962    -999.2500    -999.2500    -999.2500       0.2500
       2.9190
   3428.9092
       8.7057       5.0195       0.0464    -999.2500      31.3660    -999.2500
    -999.2500      65.3547      59.2341      23.8105       0.0922       3.9023
       0.0030       2.5926    -999.2500    -999.2500    -999.2500       0.2500
       2.9190
   3429.0615
       8.6567       5.0200       0.0479    -999.2500      31.3660    -999.2500
    -999.2500      67.2128      60.8399      20.4071       0.0913       3.8869
       0.0030       2.5901    -999.2500    -999.2500    -999.2500       0.2500
       2.9190
   3429.2139
       8.9779       5.0200       0.0447    -999.2500      31.3665    -999.2500
    -999.2500      68.9361      62.6013      21.8194       0.0912       3.9859
       0.0030       2.5943    -999.2500    -999.2500    -999.2500       0.2500
       2.9190
   3429.3665
       9.3208       5.0200       0.0412    -999.2500      31.3670    -999.2500
    -999.2500      69.6651      63.4356      24.4833       0.0914       4.0917
       0.0030       2.5988    -999.2500    -999.2500    -999.2500       0.2500
       2.9190
   3429.5188
       8.8974       5.0200       0.0367    -999.2500      31.3670    -999.2500
    -999.2500      68.2696      61.9387      24.0446       0.0904       3.9845
       0.0030       2.5947    -999.2500    -999.2500    -999.2500       0.2500
       2.9190
   3429.6711
       8.4336       5.0200       0.0322    -999.2500      31.3670    -999.2500
    -999.2500      66.6331      60.2905      23.3085       0.0819       3.8660
       0.0030       2.5902    -999.2500    -999.2500    -999.2500       0.2500
       2.9190
   3429.8235
       8.4332       5.0205       0.0448    -999.2500      31.3675    -999.2500
    -999.2500      67.0509      61.1563      25.6975       0.0483       3.9330
       0.0030       2.6189    -999.2500    -999.2500    -999.2500       0.2500
       2.9190
   3429.9761
       8.4577       5.0210       0.0583    -999.2500      31.3680    -999.2500
    -999.2500      68.4745      63.0957      27.5800       0.0105       4.0100
       0.0030       2.6494    -999.2500    -999.2500    -999.2500       0.2500
       2.9190
   3430.1284
       8.3316       5.0210       0.0533    -999.2500      31.3680    -999.2500
    -999.2500      69.6927      64.4197      24.4391       0.0009       3.9434
       0.0030       2.6373    -999.2500    -999.2500    -999.2500       0.2500
       2.9190
   3430.2808
       8.1973       5.0210       0.0473    -999.2500      31.3680    -999.2500
    -999.2500      70.2180      64.6679      23.6410       0.0009       3.8690
       0.0030       2.6228    -999.2500    -999.2500    -999.2500       0.2500
       2.9190
   3430.4331
       8.1210       5.0215       0.0517    -999.2500      31.3685    -999.2500
    -999.2500      69.3948      63.1898      34.4948       0.0009       3.9212
       0.0030       2.6248    -999.2500    -999.2500    -999.2500       0.2500
       2.9190
   3430.5857
       8.0480       5.0220       0.0567    -999.2500      31.3690    -999.2500
    -999.2500      68.3895      61.5388      44.5302       0.0009       3.9807
       0.0030       2.6278    -999.2500    -999.2500    -999.2500       0.2500
       2.9190
   3430.7380
       7.9791       5.0220       0.0707    -999.2500      31.3695    -999.2500
    -999.2500      68.6461      61.6431      38.1028       0.0009       3.9655
       0.0030       2.6365    -999.2500    -999.2500    -999.2500       0.2495
       2.9190
   3430.8904
       7.9104       5.0220       0.0853    -999.2500      31.3700    -999.2500
    -999.2500    -999.2500    -999.2500    -999.2500    -999.2500       3.9460
       0.0030       2.6456    -999.2500    -999.2500    -999.2500       0.2490
       2.9190
