#------------------------------------------------------------------------------
#
#   Created by  : [OpenWorks] Log Export Utility (LEXP)
#   Created on  : 2016-05-19 10:22:34
#   Project     : CANT971
#   User        : R5K
#   Interpreter : PEP
#
#------------------------------------------------------------------------------
~VERSION INFORMATION
VERS. 2.0 : CWLS Log ASCII Standard - version 2.0
WRAP.  NO : One line per depth step
~WELL INFORMATION
#MNEMONIC   .UNIT                                           VALUE :DESCRIPTION
#------------------------------------------------------------------------------
STRT        .M                                           501.0914 :START DEPTH
STOP        .M                                          3797.8081 :STOP DEPTH
STEP        .M                                             0.1524 :STEP
NULL        .                                           -999.2500 :NULL VALUE
COMP        .                                   PEMEX EXPL & PROD :COMPANY
WELL        .                                                2076 :WELL
FLD         .                                           CANTARELL :FIELD
LOC         .                                             UNKNOWN :LOCATION
CNTY        .                                      CD. DEL CARMEN :COUNTY
STAT        .                                            CAMPECHE :STATE
CTRY        .                                              MEXICO :COUNTRY
SRVC        .                                             UNKNOWN :SERVICE COMPANY
DATE        .                                             UNKNOWN :LOG DATE
UWI         .                                          3060000519 :UNIQUE WELL ID
XCOORD      .                                       600031.350000 :SURFACE X
YCOORD      .                                      2139442.240000 :SURFACE Y
LAT         .                                           19.347648 :LATITUDE
LON         .                                          -92.047636 :LONGITUDE
ELEV        .M                                            27.4000 :SURFACE ELEV
ELEV_TYPE   .                                                  KB :ELEV TYPE
~CURVE INFORMATION
#MNEMONIC.UNIT        API CODE       : CURVE DESCRIPTION
#------------------------------------------------------------------------------
DEPTH    .M                          : Measured Depth
CALI     .inches      UNKNOWN        : CALI:UNKNOWN:rC:NONE:v0 (auto-composite)
DT       .us/ft       UNKNOWN        : DT:UNKNOWN:rC:NONE:v0 (auto-composite)
GR       .API         UNKNOWN        : GR:UNKNOWN:rC:NONE:v0 (auto-composite)
ILD      .ohm.m       UNKNOWN        : ILD:UNKNOWN:rC:NONE:v0 (auto-composite)
LLD      .ohm.m       UNKNOWN        : LLD:UNKNOWN:rC:NONE:v0 (auto-composite)
LLS      .ohm.m       UNKNOWN        : LLS:UNKNOWN:rC:NONE:v0 (auto-composite)
NPHI     .UNKNOWN     UNKNOWN        : NPHI:UNKNOWN:rC:NONE:v0 (auto-composite)
RHOB     .g/cm3       UNKNOWN        : RHOB:UNKNOWN:rC:NONE:v0 (auto-composite)
SIGM     .UNKNOWN     UNKNOWN        : SIGM:UNKNOWN:rC:NONE:v0 (auto-composite)
TAU      .UNKNOWN     UNKNOWN        : TAU:UNKNOWN:rC:NONE:v0 (auto-composite)
~A     DEPTH         CALI           DT           GR          ILD          LLD          LLS         NPHI         RHOB         SIGM          TAU
# ...
   3727.0945       6.4400      53.3970      22.2510    -999.2500     262.9140     252.3940       0.0467       2.7670    -999.2500    -999.2500
   3727.2471       6.4851      53.5422      21.3947    -999.2500     203.4368     212.1189       0.0467       2.7685    -999.2500    -999.2500
   3727.3994       6.5300      53.6870      20.5390    -999.2500     144.0000     172.0000       0.0467       2.7700    -999.2500    -999.2500
   3727.5518       6.4950      55.6661      20.2694    -999.2500     145.3124     183.7350       0.0467       2.7400    -999.2500    -999.2500
   3727.7041       6.4600      57.6410      20.0000    -999.2500     146.6240     195.4260       0.0465       2.7100    -999.2500    -999.2500
   3727.8567       6.4500      62.8758      20.3514    -999.2500     278.2243     256.2283       0.0449       2.7320    -999.2500    -999.2500
   3728.0090       6.4400      68.1000      20.7020    -999.2500     409.7680     316.7130       0.0432       2.7540    -999.2500    -999.2500
   3728.1614       6.4400      65.2408      22.5528    -999.2500     599.4128     422.4333       0.0416       2.7570    -999.2500    -999.2500
   3728.3137       6.4400      62.3870      24.4000    -999.2500     789.0000     527.6150       0.0402       2.7600    -999.2500    -999.2500
   3728.4663       6.4400      57.2825      23.7494    -999.2500     758.9268     559.8878       0.0400       2.7550    -999.2500    -999.2500
   3728.6187       6.4400      52.1870      23.1000    -999.2500     728.8590     592.0000       0.0401       2.7500    -999.2500    -999.2500
   3728.7710       6.4400      50.7923      23.6004    -999.2500     717.9292     551.4017       0.0412       2.7545    -999.2500    -999.2500
   3728.9233       6.4400      49.4000      24.1000    -999.2500     707.0000     511.0000       0.0427       2.7590    -999.2500    -999.2500
   3729.0757       6.3850      50.4603      22.6489    -999.2500     815.0826     572.0457       0.0459       2.7695    -999.2500    -999.2500
   3729.2283       6.3300      51.5190      21.2000    -999.2500     923.0000     632.8030       0.0492       2.7800    -999.2500    -999.2500
   3729.3806       6.3300      52.7218      22.4008    -999.2500     874.9663     648.9385       0.0513       2.7625    -999.2500    -999.2500
   3729.5330       6.3300      53.9230      23.6000    -999.2500     827.0000     665.0000       0.0529       2.7450    -999.2500    -999.2500
   3729.6853       6.3300      54.5044      23.0241    -999.2500     842.0251     648.4630       0.0517       2.7325    -999.2500    -999.2500
   3729.8379       6.3300      55.0850      22.4490    -999.2500     857.0310     632.0000       0.0503       2.7200    -999.2500    -999.2500
   3729.9902       6.3300      59.4485      19.6729    -999.2500     948.5682     661.1378       0.0507       2.7250    -999.2500    -999.2500
   3730.1426       6.3300      63.8000      16.9000    -999.2500    1040.0000     690.1490       0.0518       2.7300    -999.2500    -999.2500
   3730.2949       6.3300      60.3455      18.5889    -999.2500     957.8103     759.7214       0.0577       2.7165    -999.2500    -999.2500
   3730.4475       6.3300      56.9000      20.2760    -999.2500     875.7050     829.0000       0.0642       2.7030    -999.2500    -999.2500
   3730.5999       6.2764      58.1466      20.6882    -999.2500     668.8503     751.4046       0.0718       2.6880    -999.2500    -999.2500
   3730.7522       6.2230      59.3900      21.1000    -999.2500     462.1820     674.1270       0.0783       2.6730    -999.2500    -999.2500
   3730.9045       6.1664      63.1995      20.8999    -999.2500     395.5652     597.9121       0.0750       2.6565    -999.2500    -999.2500
   3731.0569       6.1100      67.0000      20.7000    -999.2500     329.0000     522.0000       0.0702       2.6400    -999.2500    -999.2500
   3731.2095       6.1100      66.8999      21.2352    -999.2500     530.7141     560.9739       0.0626       2.6535    -999.2500    -999.2500
   3731.3618       6.1100      66.8000      21.7700    -999.2500     732.2970     599.7980       0.0551       2.6670    -999.2500    -999.2500
   3731.5142       6.1100      68.6019      22.8633    -999.2500     865.6835     683.0540       0.0523       2.6935    -999.2500    -999.2500
   3731.6665       6.1100      70.4000      23.9560    -999.2500     999.0000     766.0000       0.0502       2.7200    -999.2500    -999.2500
   3731.8191       6.1100      65.7418      24.7052    -999.2500     966.1990     727.6646       0.0500       2.7050    -999.2500    -999.2500
   3731.9714       6.1100      61.0930      25.4530    -999.2500     933.4110     689.4670       0.0504       2.6900    -999.2500    -999.2500
   3732.1238       6.1100      58.6167      26.2442    -999.2500     815.4103     610.5705       0.0534       2.7000    -999.2500    -999.2500
   3732.2761       6.1100      56.1450      27.0340    -999.2500     697.4420     531.9480       0.0565       2.7100    -999.2500    -999.2500
   3732.4287       6.1325      55.3383      28.1049    -999.2500     619.9158     492.7396       0.0589       2.6950    -999.2500    -999.2500
   3732.5811       6.1550      54.5330      29.1740    -999.2500     542.4010     453.7250       0.0611       2.6800    -999.2500    -999.2500
   3732.7334       6.1845      54.3163      30.2324    -999.2500     526.7003     433.1440       0.0631       2.6845    -999.2500    -999.2500
   3732.8857       6.2140      54.1000      31.2890    -999.2500     511.0000     412.6620       0.0651       2.6890    -999.2500    -999.2500
   3733.0381       6.2170      54.4603      32.7456    -999.2500     543.5244     393.2855       0.0671       2.6940    -999.2500    -999.2500
   3733.1907       6.2200      54.8200      34.2000    -999.2500     576.0000     374.0000       0.0692       2.6990    -999.2500    -999.2500
   3733.3430       6.2200      56.3110      33.7487    -999.2500     507.7977     383.4686       0.0711       2.7045    -999.2500    -999.2500
   3733.4954       6.2200      57.8000      33.2980    -999.2500     439.6890     392.8940       0.0728       2.7100    -999.2500    -999.2500
   3733.6477       6.2380      57.5744      31.8486    -999.2500     418.8300     412.9917       0.0731       2.7050    -999.2500    -999.2500
   3733.8003       6.2560      57.3490      30.4010    -999.2500     397.9970     433.0000       0.0732       2.7000    -999.2500    -999.2500
   3733.9526       6.2895      55.7393      27.9426    -999.2500     392.9957     400.9308       0.0725       2.7225    -999.2500    -999.2500
   3734.1050       6.3230      54.1340      25.4870    -999.2500     388.0000     369.0000       0.0716       2.7450    -999.2500    -999.2500
   3734.2573       6.3265      53.4661      24.9432    -999.2500     433.2726     412.1003       0.0698       2.7525    -999.2500    -999.2500
   3734.4099       6.3300      52.8000      24.4000    -999.2500     478.5000     455.0200       0.0680       2.7600    -999.2500    -999.2500
   3734.5623       6.3300      53.2996      25.3979    -999.2500     633.9561     583.7717       0.0673       2.7550    -999.2500    -999.2500
   3734.7146       6.3300      53.7980      26.3950    -999.2500     789.2770     712.0000       0.0667       2.7500    -999.2500    -999.2500
   3734.8669       6.3210      54.6225      27.6480    -999.2500     853.9021     700.9783       0.0667       2.7600    -999.2500    -999.2500
   3735.0193       6.3120      55.4450      28.9000    -999.2500     918.4790     690.0000       0.0667       2.7700    -999.2500    -999.2500
   3735.1719       6.2659      56.8741      28.0812    -999.2500     951.8093     709.9882       0.0667       2.7425    -999.2500    -999.2500
   3735.3242       6.2200      58.3000      27.2630    -999.2500     985.1190     729.9000       0.0667       2.7150    -999.2500    -999.2500
   3735.4766       6.2200      57.9807      25.3575    -999.2500    1136.1033     849.4868       0.0667       2.7035    -999.2500    -999.2500
