#------------------------------------------------------------------------------
#
#   Created by  : [OpenWorks] Log Export Utility (LEXP)
#   Created on  : 2016-05-19 10:22:35
#   Project     : CANT971
#   User        : R5K
#   Interpreter : PEP
#
#------------------------------------------------------------------------------
~VERSION INFORMATION
VERS. 2.0 : CWLS Log ASCII Standard - version 2.0
WRAP. YES : Mulitple lines per depth step
~WELL INFORMATION
#MNEMONIC   .UNIT                                           VALUE :DESCRIPTION
#------------------------------------------------------------------------------
STRT        .M                                          1391.9308 :START DEPTH
STOP        .M                                          3430.8904 :STOP DEPTH
STEP        .M                                             0.1524 :STEP
NULL        .                                           -999.2500 :NULL VALUE
COMP        .                                   PEMEX EXPL & PROD :COMPANY
WELL        .                                               2076D :WELL
FLD         .                                           CANTARELL :FIELD
LOC         .                                             UNKNOWN :LOCATION
CNTY        .                                      CD. DEL CARMEN :COUNTY
STAT        .                                            CAMPECHE :STATE
CTRY        .                                              MEXICO :COUNTRY
SRVC        .                                             UNKNOWN :SERVICE COMPANY
DATE        .                                             UNKNOWN :LOG DATE
UWI         .                                               2076D :UNIQUE WELL ID
XCOORD      .                                       600029.690000 :SURFACE X
YCOORD      .                                      2139443.800000 :SURFACE Y
LAT         .                                           19.347662 :LATITUDE
LON         .                                          -92.047651 :LONGITUDE
ELEV        .M                                            27.4000 :SURFACE ELEV
ELEV_TYPE   .                                                  KB :ELEV TYPE
~CURVE INFORMATION
#MNEMONIC.UNIT        API CODE       : CURVE DESCRIPTION
#------------------------------------------------------------------------------
DEPTH    .M                          : Measured Depth
CALI     .UNKNOWN     UNKNOWN        : CALI:UNKNOWN:rC:NONE:v0 (auto-composite)
CGR      .UNKNOWN     UNKNOWN        : CGR:UNKNOWN:rC:NONE:v0 (auto-composite)
DRHO     .UNKNOWN     UNKNOWN        : DRHO:UNKNOWN:rC:NONE:v0 (auto-composite)
DT       .us/ft       UNKNOWN        : DT:DT:rC:NONE:v0 (auto-composite)
GR       .API         UNKNOWN        : GR:UNKNOWN:rC:NONE:v0 (auto-composite)
ILD      .UNKNOWN     UNKNOWN        : ILD:UNKNOWN:rC:NONE:v0 (auto-composite)
ILM      .UNKNOWN     UNKNOWN        : ILM:UNKNOWN:rC:NONE:v0 (auto-composite)
LLD      .ohm.m       UNKNOWN        : LLD:resistivos:rC:NONE:v0 (auto-composite)
LLS      .ohm.m       UNKNOWN        : LLS:resistivos:rC:NONE:v0 (auto-composite)
MSFL     .ohm.m       UNKNOWN        : MSFL:resistivos:rC:NONE:v0 (auto-composite)
NPHI     .v/v_decimal UNKNOWN        : NPHI:UNKNOWN:rC:NONE:v0 (auto-composite)
PEF      .UNKNOWN     UNKNOWN        : PEF:UNKNOWN:rC:NONE:v0 (auto-composite)
POTA     .UNKNOWN     UNKNOWN        : POTA:UNKNOWN:rC:NONE:v0 (auto-composite)
RHOB     .UNKNOWN     UNKNOWN        : RHOB:UNKNOWN:rC:NONE:v0 (auto-composite)
SIGM     .UNKNOWN     UNKNOWN        : SIGM:UNKNOWN:rC:NONE:v0 (auto-composite)
SP       .UNKNOWN     UNKNOWN        : SP:UNKNOWN:rC:NONE:v0 (auto-composite)
TAU      .UNKNOWN     UNKNOWN        : TAU:UNKNOWN:rC:NONE:v0 (auto-composite)
THOR     .UNKNOWN     UNKNOWN        : THOR:UNKNOWN:rC:NONE:v0 (auto-composite)
URAN     .UNKNOWN     UNKNOWN        : URAN:UNKNOWN:rC:NONE:v0 (auto-composite)
~A
# ...
   3191.9272
       8.2710      28.6603       0.0189     141.7195      52.3543    -999.2500
    -999.2500      70.7953      64.8756      50.4488       0.1533       3.5123
       0.0056       2.5864    -999.2500    -999.2500    -999.2500       4.6284
       2.8995
   3192.0796
       8.4229      26.5612       0.0114     139.7408      55.1166    -999.2500
    -999.2500      72.6373      66.5435     125.3217       0.1556       3.3269
       0.0071       2.5654    -999.2500    -999.2500    -999.2500       3.6443
       3.3343
   3192.2319
       8.4526      24.4956       0.0090     135.5206      57.5850    -999.2500
    -999.2500      76.3793      69.2422     143.4600       0.1594       3.2320
       0.0078       2.5609    -999.2500    -999.2500    -999.2500       2.8389
       3.7333
   3192.3843
       8.3043      22.4786       0.0140     129.0131      59.6255    -999.2500
    -999.2500      82.9048      73.4531      78.8594       0.1646       3.2690
       0.0073       2.5804    -999.2500    -999.2500    -999.2500       2.2936
       4.0804
   3192.5369
       8.2573      20.6426       0.0156     129.8436      59.5345    -999.2500
    -999.2500      85.6090      76.5149      65.4518       0.1669       3.3282
       0.0066       2.5815    -999.2500    -999.2500    -999.2500       2.0778
       4.2730
   3192.6892
       8.3592      19.0727       0.0121     142.7360      56.3094    -999.2500
    -999.2500      82.7090      77.8992     127.1989       0.1636       3.4202
       0.0056       2.5555    -999.2500    -999.2500    -999.2500       2.3467
       4.2386
   3192.8416
       8.3787      16.5517       0.0110     152.1910      51.7852    -999.2500
    -999.2500      81.6313      78.5221     143.0016       0.1639       3.6433
       0.0042       2.5262    -999.2500    -999.2500    -999.2500       2.2798
       4.1824
   3192.9939
       8.2764      12.6268       0.0135     157.9514      45.3439    -999.2500
    -999.2500      83.2273      78.0276      91.4400       0.1685       4.0599
       0.0022       2.4921    -999.2500    -999.2500    -999.2500       1.7172
       4.0941
   3193.1465
       8.2796       9.4585       0.0142     161.5923      42.7511    -999.2500
    -999.2500      84.9452      78.4895      54.6066       0.1701       4.2561
       0.0014       2.4806    -999.2500    -999.2500    -999.2500       1.2518
       4.1237
   3193.2988
       8.4351       7.3814       0.0122     162.7483      45.7088    -999.2500
    -999.2500      86.8427      80.3510      39.2906       0.1652       4.1341
       0.0024       2.5016    -999.2500    -999.2500    -999.2500       0.9264
       4.3231
   3193.4512
       8.5937       5.5358       0.0120     163.9658      46.0454    -999.2500
    -999.2500      82.4001      76.3410      40.7071       0.1611       3.9826
       0.0028       2.5228    -999.2500    -999.2500    -999.2500       0.5893
       4.3996
   3193.6035
       8.7570       4.0251       0.0145     165.2553      42.5881    -999.2500
    -999.2500      68.7021      63.7601      66.5065       0.1580       3.7884
       0.0023       2.5442    -999.2500    -999.2500    -999.2500       0.2353
       4.2982
   3193.7561
       8.7452       4.3532       0.0213     160.8840      42.5443    -999.2500
    -999.2500      58.8937      54.8224      73.6532       0.1546       3.6050
       0.0022       2.5761    -999.2500    -999.2500    -999.2500       0.1705
       4.3352
   3193.9084
       8.4773       7.3699       0.0343     148.2496      47.4916    -999.2500
    -999.2500      54.7439      51.1858      53.4787       0.1509       3.4376
       0.0027       2.6231    -999.2500    -999.2500    -999.2500       0.5289
       4.5746
   3194.0608
       8.3611       8.7275       0.0402     141.4817      49.8326    -999.2500
    -999.2500      55.8139      52.3463      55.5466       0.1498       3.3506
       0.0030       2.6488    -999.2500    -999.2500    -999.2500       0.6964
       4.6899
   3194.2131
       8.4676       7.6505       0.0357     143.4302      48.3488    -999.2500
    -999.2500      64.5443      60.5471      90.2544       0.1534       3.3815
       0.0030       2.6433    -999.2500    -999.2500    -999.2500       0.5840
       4.6229
   3194.3655
       8.5701       7.3736       0.0302     146.0181      48.4790    -999.2500
    -999.2500      74.0051      69.3992      93.7296       0.1538       3.4264
       0.0032       2.6368    -999.2500    -999.2500    -999.2500       0.5663
       4.6045
   3194.5181
       8.6669       8.2751       0.0231     149.3627      50.9865    -999.2500
    -999.2500      84.5182      79.1889      51.5197       0.1504       3.4915
       0.0037       2.6287    -999.2500    -999.2500    -999.2500       0.6881
       4.6576
   3194.6704
       8.6552       9.4635       0.0198     151.4480      52.4199    -999.2500
    -999.2500      88.2009      82.7581      33.8131       0.1487       3.5181
       0.0042       2.6254    -999.2500    -999.2500    -999.2500       0.7320
       4.7222
   3194.8228
       8.4874      11.0651       0.0218    -999.2500      52.3076    -999.2500
    -999.2500      81.8921      77.2276      51.9545       0.1512       3.4892
       0.0047       2.6289    -999.2500    -999.2500    -999.2500       0.6635
       4.8031
   3194.9751
       8.4100      11.0876       0.0216    -999.2500      51.1229    -999.2500
    -999.2500      75.0494      70.9508      56.4511       0.1559       3.4549
       0.0048       2.6212    -999.2500    -999.2500    -999.2500       0.5030
       4.8215
   3195.1277
       8.4640       8.8141       0.0181    -999.2500      48.3791    -999.2500
    -999.2500      67.3938      63.5546      41.0939       0.1627       3.4129
       0.0043       2.5972    -999.2500    -999.2500    -999.2500       0.2087
       4.7490
   3195.2800
       8.5466       6.4330       0.0188    -999.2500      45.7782    -999.2500
    -999.2500      64.1285      60.0575      38.9441       0.1652       3.4106
       0.0036       2.5897    -999.2500    -999.2500    -999.2500      -0.0526
       4.6607
   3195.4324
       8.6710       3.8951       0.0258     164.8820      43.3857    -999.2500
    -999.2500      67.2977      62.2742      56.1583       0.1594       3.4660
       0.0026       2.6062    -999.2500    -999.2500    -999.2500      -0.2655
       4.5492
   3195.5847
       8.7207       2.7291       0.0274     162.2179      42.8291    -999.2500
    -999.2500      73.4821      67.3972      60.7080       0.1583       3.4856
       0.0022       2.6107    -999.2500    -999.2500    -999.2500      -0.3279
       4.5223
   3195.7373
       8.6607       3.5722       0.0209     156.6366      44.9612    -999.2500
    -999.2500      84.0939      76.7863      46.7276       0.1632       3.4526
       0.0027       2.5977    -999.2500    -999.2500    -999.2500      -0.1700
       4.6193
   3195.8896
       8.5783       4.3391       0.0156     153.1460      46.6833    -999.2500
    -999.2500      89.0955      81.0070      46.7853       0.1653       3.3934
       0.0028       2.5837    -999.2500    -999.2500    -999.2500      -0.0024
       4.7106
   3196.0420
       8.4629       4.9938       0.0121    -999.2500      47.8029    -999.2500
    -999.2500      85.8323      77.6138      67.5230       0.1617       3.2955
       0.0023       2.5683    -999.2500    -999.2500    -999.2500       0.1794
       4.7935
   3196.1943
       8.4507       5.5825       0.0092    -999.2500      48.7367    -999.2500
    -999.2500      84.1535      75.8782      73.0522       0.1607       3.3052
       0.0020       2.5560    -999.2500    -999.2500    -999.2500       0.3368
       4.8614
   3196.3467
       8.5916       6.0734       0.0072     151.9470      49.3945    -999.2500
    -999.2500      84.8053      76.5810      56.2462       0.1640       3.4747
       0.0020       2.5485    -999.2500    -999.2500    -999.2500       0.4582
       4.9070
   3196.4993
       8.6524       6.7314       0.0076     150.5079      50.9448    -999.2500
    -999.2500      87.7158      79.3613      53.4862       0.1643       3.5620
       0.0020       2.5483    -999.2500    -999.2500    -999.2500       0.6044
       4.9611
