#------------------------------------------------------------------------------
#
#   Created by  : [OpenWorks] Log Export Utility (LEXP)
#   Created on  : 2016-05-19 10:22:36
#   Project     : CANT971
#   User        : R5K
#   Interpreter : PEP
#
#------------------------------------------------------------------------------
~VERSION INFORMATION
VERS. 2.0 : CWLS Log ASCII Standard - version 2.0
WRAP. YES : Mulitple lines per depth step
~WELL INFORMATION
#MNEMONIC   .UNIT                                           VALUE :DESCRIPTION
#------------------------------------------------------------------------------
STRT        .M                                          2616.0618 :START DEPTH
STOP        .M                                          3329.4463 :STOP DEPTH
STEP        .M                                             0.1524 :STEP
NULL        .                                           -999.2500 :NULL VALUE
COMP        .                                             UNKNOWN :COMPANY
WELL        .                                            2076D-V2 :WELL
FLD         .                                             UNKNOWN :FIELD
LOC         .                                             UNKNOWN :LOCATION
CNTY        .                                             UNKNOWN :COUNTY
STAT        .                                             UNKNOWN :STATE
CTRY        .                                             UNKNOWN :COUNTRY
SRVC        .                                             UNKNOWN :SERVICE COMPANY
DATE        .                                             UNKNOWN :LOG DATE
UWI         .                                            2076D-V2 :UNIQUE WELL ID
XCOORD      .                                            0.000000 :SURFACE X
YCOORD      .                                            0.000000 :SURFACE Y
LAT         .                                            0.000000 :LATITUDE
LON         .                                          -97.488695 :LONGITUDE
ELEV        .M                                             0.0000 :SURFACE ELEV
ELEV_TYPE   .                                                  KB :ELEV TYPE
~CURVE INFORMATION
#MNEMONIC.UNIT        API CODE       : CURVE DESCRIPTION
#------------------------------------------------------------------------------
DEPTH    .M                          : Measured Depth
CALI     .UNKNOWN     UNKNOWN        : CALI:litodensidad:rC:NONE:v0 (auto-composite)
CGR      .API         UNKNOWN        : CGR:Espectrometria:rC:NONE:v0 (auto-composite)
DRHO     .g/cm3       UNKNOWN        : DRHO:litodensidad:rC:NONE:v0 (auto-composite)
DT       .us/ft       UNKNOWN        : DT:sonico:rC:NONE:v0 (auto-composite)
GR       .API         UNKNOWN        : GR:Espectrometria:rC:NONE:v0 (auto-composite)
GR-LWD   .API         UNKNOWN        : GR-LWD:PETROWORKS:rC:NONE:v1 
ILD-LWD  .UNKNOWN     UNKNOWN        : ILD-LWD:PETROWORKS:rC:NONE:v1 
ILM-LWD  .UNKNOWN     UNKNOWN        : ILM-LWD:PETROWORKS:rC:NONE:v1 
LLD      .ohm.m       UNKNOWN        : LLD:resistivos:rC:NONE:v0 (auto-composite)
LLS      .ohm.m       UNKNOWN        : LLS:resistivos:rC:NONE:v0 (auto-composite)
MSFL     .ohm.m       UNKNOWN        : MSFL:resistivos:rC:NONE:v0 (auto-composite)
NPHI     .UNKNOWN     UNKNOWN        : NPHI:porosidad:rC:NONE:v0 (auto-composite)
PEF      .UNKNOWN     UNKNOWN        : PEF:litodensidad:rC:NONE:v0 (auto-composite)
POTA     .wtpercent   UNKNOWN        : POTA:Espectrometria:rC:NONE:v0 (auto-composite)
RHOB     .g/cm3       UNKNOWN        : RHOB:litodensidad:rC:NONE:v0 (auto-composite)
SIGM     .UNKNOWN     UNKNOWN        : SIGM:TMDL:rC:NONE:v0 (auto-composite)
SP       .UNKNOWN     UNKNOWN        : SP:resistivos:rC:NONE:v0 (auto-composite)
THOR     .UNKNOWN     UNKNOWN        : THOR:Espectrometria:rC:NONE:v0 (auto-composite)
URAN     .UNKNOWN     UNKNOWN        : URAN:Espectrometria:rC:NONE:v0 (auto-composite)
~A
# ...
   3272.7534
       6.7993       6.3604       0.0007      61.3606      14.9025      14.2519
      13.7116      14.3589      45.2863      38.2409      48.1825       0.0502
       4.3530       0.0044       2.5615       7.5332      28.7295       0.0503
       0.9510
   3272.9058
       6.7962       6.4484       0.0018      63.3747      14.5980      13.9953
      14.2223      14.7583      50.3927      42.7500      76.7796       0.0480
       4.3745       0.0045       2.5708       7.7231      30.3460       0.0545
       0.9073
   3273.0581
       6.7584       6.9356       0.0032      63.7460      16.1825      14.0540
      14.2775      14.4710      46.6766      40.9596      73.9069       0.0468
       4.6519       0.0048       2.5890       7.9910      31.6381       0.0552
       1.0295
   3273.2104
       6.7633       7.7821       0.0035      62.1508      19.5510      15.3032
      14.1964      13.9503      33.4771      30.6909      63.1874       0.0482
       4.7743       0.0053       2.5983       8.1889      32.1968       0.1058
       1.3103
   3273.3630
       6.7987      10.4963       0.0071      59.7844      25.2571      18.7950
      14.3634      13.5740      24.6731      22.6724      59.7920       0.0501
       4.7976       0.0067       2.6061       8.2108      32.1049       0.3039
       1.6433
   3273.5154
       6.8088      11.4333       0.0106      57.9543      28.6209      22.1624
      14.6654      13.4392      19.4608      15.8058      43.3782       0.0524
       4.9238       0.0075       2.6149       7.9878      32.2649       0.2528
       1.9136
   3273.6677
       6.8224      12.2807       0.0134      56.9723      30.7943      25.4870
      16.0788      14.4020      19.9057      16.0628      32.0560       0.0560
       5.1187       0.0076       2.6335       7.6269      32.5977       0.4680
       2.0612
   3273.8201
       6.8336      13.0561       0.0159      56.7364      31.3331      28.0369
      17.8925      15.9845      26.9948      24.1583      29.9524       0.0565
       5.1545       0.0071       2.6450       7.5083      33.3465       0.8759
       2.0348
   3273.9727
       6.8820      12.7755       0.0170      56.9426      32.4454      28.8267
      20.7454      18.8890      37.3685      33.3615      43.0780       0.0561
       5.0090       0.0058       2.6468       7.5000      33.7154       1.3272
       2.1899
   3274.1250
       6.9126      11.2809       0.0148      57.4231      33.9659      29.5881
      23.8697      22.4551      59.5079      46.1984      50.9088       0.0581
       4.7941       0.0044       2.6454       7.5000      33.3548       1.4450
       2.5256
   3274.2773
       6.9265       7.8710       0.0119      58.0149      35.5269      30.0900
      27.9638      27.6750      80.2517      59.1732      60.0178       0.0628
       4.5371       0.0030       2.6425       7.5000      32.8233       1.0368
       3.0791
   3274.4297
       6.8836       3.7538       0.0080      58.6346      37.1560      30.0780
      31.3672      32.3540      93.8580      70.5622      82.0131       0.0696
       4.3073       0.0018       2.6313       7.5515      33.9954       0.3365
       3.7188
   3274.5823
       6.8287       3.4337       0.0032      59.4581      38.4946      30.7010
      34.3457      36.6885     101.0593      78.0255     100.6681       0.0705
       4.2722       0.0021       2.6224       7.6095      36.0744       0.1355
       3.9035
   3274.7346
       6.8488       3.7269      -0.0006      60.9519      35.5399      30.3993
      37.9278      41.3963     100.1160      77.2430      83.2511       0.0704
       4.3671       0.0023       2.6262       7.6595      36.7024       0.1568
       3.5419
   3274.8870
       6.9294       5.2496       0.0033      63.3682      33.3183      29.9550
      40.9161      44.2104      93.5330      70.4341      68.7874       0.0719
       4.4838       0.0023       2.6190       7.7150      36.3004       0.5881
       3.1250
   3275.0393
       6.9370       9.2348       0.0142      66.3535      34.0927      29.1350
      43.3166      45.6532      81.9438      59.5907      55.6370       0.0760
       4.6374       0.0026       2.5852       7.8058      35.9456       1.5842
       2.7675
   3275.1917
       6.8279      10.5211       0.0208      69.1606      34.7280      28.3792
      45.1640      45.5735      70.6758      49.6800      37.9944       0.0838
       4.7159       0.0029       2.5575       7.9189      35.6765       1.8420
       2.6951
   3275.3442
       6.8500       8.3807       0.0262      71.3170      34.9396      28.3998
      46.0477      43.8705      58.0357      39.9008      25.5292       0.0951
       4.7463       0.0028       2.5284       8.0137      36.1767       1.2723
       2.9569
   3275.4966
       6.8814       6.7342       0.0296      72.6708      35.0200      28.4307
      45.9541      41.7173      47.8169      32.4956      19.2356       0.1092
       4.7930       0.0028       2.4692       8.0800      37.3676       0.8106
       3.1492
   3275.6489
       6.9267       7.4439       0.0247      73.2758      35.3271      28.1853
      45.5381      39.5042      41.0263      27.7453      15.8503       0.1280
       4.8230       0.0033       2.3773       8.0824      38.3957       0.7851
       3.1043
   3275.8013
       6.9164       8.7467       0.0178      73.3140      35.3426      27.6800
      44.9400      37.4500      35.7257      24.0877      12.5006       0.1456
       4.8107       0.0041       2.3220       8.0617      38.5157       0.8539
       2.9610
   3275.9539
       6.9172       8.6911       0.0172      73.1082      34.0644      26.7040
      44.6839      36.7616      33.4770      22.4889      11.2653       0.1549
       4.8174       0.0048       2.3110       8.0373      38.4913       0.5600
       2.8249
   3276.1062
       6.9273       7.1488       0.0177      72.6941      32.4889      25.4807
      44.6539      36.7834      34.0882      23.0690      11.9237       0.1490
       4.8518       0.0046       2.3243       7.9983      37.9454       0.2040
       2.8212
   3276.2585
       6.7849       5.4050       0.0063      71.7245      29.2983      23.8446
      45.0181      37.8187      35.7600      24.3114      12.1939       0.1330
       4.9093       0.0036       2.3480       7.9450      37.7398       0.1062
       2.6601
   3276.4109
       6.6841       4.0045      -0.0025      69.7357      26.3922      22.6227
      45.3755      39.2718      38.3494      26.2076      11.2070       0.1200
       4.9478       0.0024       2.3769       7.8861      36.2723       0.1831
       2.4925
   3276.5635
       6.6589       4.9672       0.0001      67.1653      23.7418      21.1990
      45.5000      40.3908      40.6934      27.9213      10.5370       0.1094
       4.7757       0.0017       2.4393       7.8297      35.2068       0.7433
       2.0902
   3276.7158
       6.6231       5.4614       0.0068      65.2024      21.8375      20.0120
      44.9873      41.0942      43.1553      29.6626      16.3957       0.1040
       4.3391       0.0009       2.4771       7.8141      34.3906       1.1752
       1.8232
   3276.8682
       6.5269       5.6225       0.0146      64.6536      19.6113      19.0435
      44.4499      41.2723      45.0548      31.2748      25.8559       0.1010
       3.6318       0.0009       2.4833       7.8505      33.5583       1.2398
       1.5575
   3277.0205
       6.4817       4.3310       0.0195      65.9306      18.6806      18.0314
      43.7567      41.4859      47.5784      33.4195      32.9112       0.1011
       3.4409       0.0008       2.4716       7.9408      32.1011       0.8971
       1.5976
   3277.1729
       6.5663       3.1271       0.0292      68.4235      18.5481      17.1644
      43.0424      41.4408      48.3935      34.2997      30.4612       0.1005
       3.9128       0.0015       2.4551       8.0560      31.2388       0.3088
       1.7169
   3277.3254
       6.6594       3.9001       0.0338      71.0454      18.8512      16.7546
      42.4262      41.3396      48.1583      33.8125      20.8869       0.1014
       4.4430       0.0021       2.4477       8.1512      31.5757       0.2634
       1.6645
