#------------------------------------------------------------------------------
#
#   Created by  : [OpenWorks] Log Export Utility (LEXP)
#   Created on  : 2016-05-19 10:22:36
#   Project     : CANT971
#   User        : R5K
#   Interpreter : PEP
#
#------------------------------------------------------------------------------
~VERSION INFORMATION
VERS. 2.0 : CWLS Log ASCII Standard - version 2.0
WRAP. YES : Mulitple lines per depth step
~WELL INFORMATION
#MNEMONIC   .UNIT                                           VALUE :DESCRIPTION
#------------------------------------------------------------------------------
STRT        .M                                          2616.0618 :START DEPTH
STOP        .M                                          3329.4463 :STOP DEPTH
STEP        .M                                             0.1524 :STEP
NULL        .                                           -999.2500 :NULL VALUE
COMP        .                                             UNKNOWN :COMPANY
WELL        .                                            2076D-V2 :WELL
FLD         .                                             UNKNOWN :FIELD
LOC         .                                             UNKNOWN :LOCATION
CNTY        .                                             UNKNOWN :COUNTY
STAT        .                                             UNKNOWN :STATE
CTRY        .                                             UNKNOWN :COUNTRY
SRVC        .                                             UNKNOWN :SERVICE COMPANY
DATE        .                                             UNKNOWN :LOG DATE
UWI         .                                            2076D-V2 :UNIQUE WELL ID
XCOORD      .                                            0.000000 :SURFACE X
YCOORD      .                                            0.000000 :SURFACE Y
LAT         .                                            0.000000 :LATITUDE
LON         .                                          -97.488695 :LONGITUDE
ELEV        .M                                             0.0000 :SURFACE ELEV
ELEV_TYPE   .                                                  KB :ELEV TYPE
~CURVE INFORMATION
#MNEMONIC.UNIT        API CODE       : CURVE DESCRIPTION
#------------------------------------------------------------------------------
DEPTH    .M                          : Measured Depth
CALI     .UNKNOWN     UNKNOWN        : CALI:litodensidad:rC:NONE:v0 (auto-composite)
CGR      .API         UNKNOWN        : CGR:Espectrometria:rC:NONE:v0 (auto-composite)
DRHO     .g/cm3       UNKNOWN        : DRHO:litodensidad:rC:NONE:v0 (auto-composite)
DT       .us/ft       UNKNOWN        : DT:sonico:rC:NONE:v0 (auto-composite)
GR       .API         UNKNOWN        : GR:Espectrometria:rC:NONE:v0 (auto-composite)
GR-LWD   .API         UNKNOWN        : GR-LWD:PETROWORKS:rC:NONE:v1 
ILD-LWD  .UNKNOWN     UNKNOWN        : ILD-LWD:PETROWORKS:rC:NONE:v1 
ILM-LWD  .UNKNOWN     UNKNOWN        : ILM-LWD:PETROWORKS:rC:NONE:v1 
LLD      .ohm.m       UNKNOWN        : LLD:resistivos:rC:NONE:v0 (auto-composite)
LLS      .ohm.m       UNKNOWN        : LLS:resistivos:rC:NONE:v0 (auto-composite)
MSFL     .ohm.m       UNKNOWN        : MSFL:resistivos:rC:NONE:v0 (auto-composite)
NPHI     .UNKNOWN     UNKNOWN        : NPHI:porosidad:rC:NONE:v0 (auto-composite)
PEF      .UNKNOWN     UNKNOWN        : PEF:litodensidad:rC:NONE:v0 (auto-composite)
POTA     .wtpercent   UNKNOWN        : POTA:Espectrometria:rC:NONE:v0 (auto-composite)
RHOB     .g/cm3       UNKNOWN        : RHOB:litodensidad:rC:NONE:v0 (auto-composite)
SIGM     .UNKNOWN     UNKNOWN        : SIGM:TMDL:rC:NONE:v0 (auto-composite)
SP       .UNKNOWN     UNKNOWN        : SP:resistivos:rC:NONE:v0 (auto-composite)
THOR     .UNKNOWN     UNKNOWN        : THOR:Espectrometria:rC:NONE:v0 (auto-composite)
URAN     .UNKNOWN     UNKNOWN        : URAN:Espectrometria:rC:NONE:v0 (auto-composite)
~A
# ...
   3126.2969
       7.5270      45.3663       0.0091      79.1311      58.6155      43.6035
       1.2534       1.2731       1.3927       1.2247       1.5661       0.2145
       4.2385       0.0180       2.3941    -999.2500      42.2845       5.7165
       1.4751
   3126.4495
       7.5403      50.7428       0.0054      78.2980      61.0267      46.0945
       1.1354       1.1454       1.5139       1.3591       1.3015       0.2043
       4.1300       0.0194       2.4272    -999.2500      41.9191       6.6822
       1.1450
   3126.6018
       7.5432      52.9299       0.0064      78.0797      60.9875      46.9700
       1.0800       1.0900       1.9101       1.7259       1.5664       0.1816
       4.1866       0.0200       2.4980    -999.2500      41.1230       7.0900
       0.8971
   3126.7542
       7.5460      51.5095       0.0045      78.1708      57.1128      46.7696
       1.2537       1.2337       2.2646       2.0085       1.8881       0.1605
       4.3543       0.0188       2.5541    -999.2500      40.7141       7.1624
       0.6238
   3126.9065
       7.5362      48.7113       0.0011      78.1521      53.2281      45.3081
       1.5067       1.4560       2.5478       2.2102       2.1890       0.1505
       4.4376       0.0178       2.5674    -999.2500      40.7691       6.7470
       0.5029
   3127.0591
       7.5335      44.1133       0.0018      77.5189      49.1317      43.4032
       1.6530       1.5930       2.5435       2.2113       2.4218       0.1433
       4.4557       0.0176       2.5639    -999.2500      41.3850       5.5485
       0.5587
   3127.2114
       7.5333      42.6593       0.0046      75.7117      47.8066      42.0192
       1.7780       1.7180       2.4460       2.1608       2.4585       0.1430
       4.4481       0.0174       2.5599    -999.2500      41.7986       5.1892
       0.5731
   3127.3638
       7.5795      34.2199       0.0092      73.3094      48.4007      42.1373
       1.8655       1.8055       2.4320       2.1543       2.3767       0.1488
       4.4461       0.0157       2.5597    -999.2500      41.6776       3.4768
       1.5788
   3127.5161
       7.6166      28.4970       0.0112      71.8093      48.7486      42.1452
       1.9397       1.8913       2.5881       2.2970       2.3418       0.1466
       4.4617       0.0136       2.5656    -999.2500      40.6398       2.7006
       2.2547
   3127.6685
       7.6155      29.6769       0.0063      71.8945      47.2912      42.4629
       2.0449       2.0049       2.8608       2.5123       2.5321       0.1369
       4.4523       0.0125       2.5760    -999.2500      40.1028       3.4622
       1.9611
   3127.8210
       7.6297      33.1667      -0.0011      73.5067      45.6920      42.8699
       2.2409       2.1689       3.3387       2.8625       4.1249       0.1218
       4.4338       0.0120       2.5759    -999.2500      39.8372       4.6447
       1.3945
   3127.9734
       7.6501      35.3592      -0.0075      76.1986      44.4265      41.9208
       2.3273       2.2327       3.6701       3.1309       5.7849       0.1087
       4.4267       0.0117       2.5720    -999.2500      39.7896       5.4033
       1.0095
   3128.1257
       7.6507      33.8837      -0.0102      79.8037      43.4016      39.7923
       2.2494       2.1469       3.3264       2.9016       5.2407       0.1034
       4.4452       0.0111       2.5731    -999.2500      39.5873       5.1943
       1.0596
   3128.2781
       7.5937      31.1088      -0.0064      83.4525      43.7332      38.8124
       2.0962       1.9862       2.6780       2.4509       3.9560       0.1107
       4.4738       0.0113       2.5594    -999.2500      39.3787       4.3568
       1.4055
   3128.4307
       7.5538      28.1951       0.0014      85.6754      45.2954      38.4851
       1.8649       1.7840       2.0467       1.8592       4.0502       0.1335
       4.4518       0.0116       2.5010    -999.2500      39.6081       3.4152
       1.9039
   3128.5830
       7.5402      27.4371       0.0045      85.7450      46.1948      38.8669
       1.6074       1.5474       1.7948       1.6090       3.6523       0.1560
       4.4077       0.0119       2.4676    -999.2500      39.9797       3.0591
       2.0884
   3128.7354
       7.5311      29.0168       0.0058      84.1797      46.2009      40.4049
       1.4765       1.4229       1.9458       1.7492       2.5011       0.1729
       4.4357       0.0128       2.5030    -999.2500      40.1857       3.1480
       1.9132
   3128.8877
       7.5287      31.8845       0.0076      82.4608      45.9730      41.2787
       1.4700       1.4012       2.2468       1.9893       1.9576       0.1675
       4.4984       0.0141       2.5567    -999.2500      40.1540       3.4455
       1.5685
   3129.0403
       7.5339      38.6785       0.0086      81.6328      47.1649      41.8698
       1.5941       1.4921       2.6260       2.2843       2.0541       0.1498
       4.5348       0.0157       2.5888    -999.2500      40.1831       4.7418
       0.9448
   3129.1926
       7.5339      44.3924       0.0078      81.7383      48.5259      42.6274
       1.7341       1.6048       2.7659       2.3980       2.1096       0.1468
       4.5096       0.0166       2.5906    -999.2500      40.3464       6.0134
       0.4602
   3129.3450
       7.5291      48.7084       0.0057      82.2763      50.8039      42.0396
       1.7700       1.6590       2.6914       2.3673       2.1001       0.1532
       4.4461       0.0171       2.5792    -999.2500      40.7002       7.0382
       0.2333
   3129.4973
       7.5395      49.7305       0.0053      82.8665      51.6274      41.9813
       1.7700       1.6895       2.3291       2.0860       2.1356       0.1578
       4.4189       0.0175       2.5601    -999.2500      41.2102       7.1654
       0.2112
   3129.6497
       7.5411      49.2628       0.0101      83.4016      52.6462      43.8801
       1.7001       1.6550       2.0808       1.8410       2.0624       0.1651
       4.4160       0.0185       2.5225    -999.2500      41.4987       6.6276
       0.3767
   3129.8022
       7.5578      47.8371       0.0177      83.7993      53.4008      46.2478
       1.6604       1.6402       1.9320       1.6954       1.9152       0.1770
       4.3916       0.0195       2.5032    -999.2500      41.5988       5.8461
       0.6194
   3129.9546
       7.4729      43.4823       0.0287      83.9772      52.1507      47.4905
       1.6909       1.6555       2.0079       1.7588       1.7584       0.1873
       4.4040       0.0190       2.5253    -999.2500      41.2823       4.7896
       0.9651
   3130.1069
       7.4408      39.2322       0.0362      83.9796      50.0720      48.1510
       1.7528       1.6921       2.3473       2.0592       2.8087       0.1806
       4.4708       0.0175       2.5569    -999.2500      41.7408       4.1896
       1.2069
   3130.2593
       7.4406      35.0046       0.0417      84.2180      47.1524      48.1813
       1.7959       1.7200       2.5498       2.2277       4.8685       0.1524
       4.4902       0.0159       2.5787    -999.2500      43.2985       3.6350
       1.3525
   3130.4119
       7.4283      31.9752       0.0397      85.7416      45.8515      47.5638
       1.7505       1.6917       2.4607       2.1411       5.4992       0.1455
       4.4387       0.0157       2.5787    -999.2500      46.0466       2.8540
       1.5449
   3130.5642
       7.3749      31.9906       0.0280      89.0694      46.7610      46.7841
       1.6608       1.6172       2.2712       1.9680       3.9350       0.1631
       4.3460       0.0174       2.5560    -999.2500      47.3031       2.1824
       1.6445
   3130.7166
       7.4266      36.0517       0.0219      93.8143      48.2701      45.1354
       1.5651       1.5400       1.9911       1.7259       4.4378       0.1777
       4.2780       0.0190       2.5352    -999.2500      47.0052       2.6822
       1.3603
   3130.8689
       7.5065      43.4986       0.0168      98.3286      50.1647      45.2467
       1.4624       1.4624       1.9130       1.6801       5.2618       0.1833
       4.2340       0.0204       2.5359    -999.2500      46.5373       4.2567
       0.7421
