#------------------------------------------------------------------------------
#
#   Created by  : [OpenWorks] Log Export Utility (LEXP)
#   Created on  : 2016-05-19 10:22:35
#   Project     : CANT971
#   User        : R5K
#   Interpreter : PEP
#
#------------------------------------------------------------------------------
~VERSION INFORMATION
VERS. 2.0 : CWLS Log ASCII Standard - version 2.0
WRAP. YES : Mulitple lines per depth step
~WELL INFORMATION
#MNEMONIC   .UNIT                                           VALUE :DESCRIPTION
#------------------------------------------------------------------------------
STRT        .M                                          1391.9308 :START DEPTH
STOP        .M                                          3430.8904 :STOP DEPTH
STEP        .M                                             0.1524 :STEP
NULL        .                                           -999.2500 :NULL VALUE
COMP        .                                   PEMEX EXPL & PROD :COMPANY
WELL        .                                               2076D :WELL
FLD         .                                           CANTARELL :FIELD
LOC         .                                             UNKNOWN :LOCATION
CNTY        .                                      CD. DEL CARMEN :COUNTY
STAT        .                                            CAMPECHE :STATE
CTRY        .                                              MEXICO :COUNTRY
SRVC        .                                             UNKNOWN :SERVICE COMPANY
DATE        .                                             UNKNOWN :LOG DATE
UWI         .                                               2076D :UNIQUE WELL ID
XCOORD      .                                       600029.690000 :SURFACE X
YCOORD      .                                      2139443.800000 :SURFACE Y
LAT         .                                           19.347662 :LATITUDE
LON         .                                          -92.047651 :LONGITUDE
ELEV        .M                                            27.4000 :SURFACE ELEV
ELEV_TYPE   .                                                  KB :ELEV TYPE
~CURVE INFORMATION
#MNEMONIC.UNIT        API CODE       : CURVE DESCRIPTION
#------------------------------------------------------------------------------
DEPTH    .M                          : Measured Depth
CALI     .UNKNOWN     UNKNOWN        : CALI:UNKNOWN:rC:NONE:v0 (auto-composite)
CGR      .UNKNOWN     UNKNOWN        : CGR:UNKNOWN:rC:NONE:v0 (auto-composite)
DRHO     .UNKNOWN     UNKNOWN        : DRHO:UNKNOWN:rC:NONE:v0 (auto-composite)
DT       .us/ft       UNKNOWN        : DT:DT:rC:NONE:v0 (auto-composite)
GR       .API         UNKNOWN        : GR:UNKNOWN:rC:NONE:v0 (auto-composite)
ILD      .UNKNOWN     UNKNOWN        : ILD:UNKNOWN:rC:NONE:v0 (auto-composite)
ILM      .UNKNOWN     UNKNOWN        : ILM:UNKNOWN:rC:NONE:v0 (auto-composite)
LLD      .ohm.m       UNKNOWN        : LLD:resistivos:rC:NONE:v0 (auto-composite)
LLS      .ohm.m       UNKNOWN        : LLS:resistivos:rC:NONE:v0 (auto-composite)
MSFL     .ohm.m       UNKNOWN        : MSFL:resistivos:rC:NONE:v0 (auto-composite)
NPHI     .v/v_decimal UNKNOWN        : NPHI:UNKNOWN:rC:NONE:v0 (auto-composite)
PEF      .UNKNOWN     UNKNOWN        : PEF:UNKNOWN:rC:NONE:v0 (auto-composite)
POTA     .UNKNOWN     UNKNOWN        : POTA:UNKNOWN:rC:NONE:v0 (auto-composite)
RHOB     .UNKNOWN     UNKNOWN        : RHOB:UNKNOWN:rC:NONE:v0 (auto-composite)
SIGM     .UNKNOWN     UNKNOWN        : SIGM:UNKNOWN:rC:NONE:v0 (auto-composite)
SP       .UNKNOWN     UNKNOWN        : SP:UNKNOWN:rC:NONE:v0 (auto-composite)
TAU      .UNKNOWN     UNKNOWN        : TAU:UNKNOWN:rC:NONE:v0 (auto-composite)
THOR     .UNKNOWN     UNKNOWN        : THOR:UNKNOWN:rC:NONE:v0 (auto-composite)
URAN     .UNKNOWN     UNKNOWN        : URAN:UNKNOWN:rC:NONE:v0 (auto-composite)
~A
# ...
   3116.3367
      10.3820       9.3833       0.0130      68.4392      50.6160    -999.2500
    -999.2500       8.9566       8.1011      12.7728       0.1717       4.0297
       0.0056       2.5834    -999.2500    -999.2500    -999.2500      -0.0330
       4.5510
   3116.4893
      10.2467       7.7782       0.0130      67.8295      49.1433    -999.2500
    -999.2500       9.1932       8.3411      13.5986       0.1664       4.0167
       0.0046       2.5819    -999.2500    -999.2500    -999.2500      -0.1683
       4.4771
   3116.6416
      10.1741       7.1193       0.0134      67.4673      48.4197    -999.2500
    -999.2500       9.4044       8.5655      15.0409       0.1628       3.9908
       0.0040       2.5812    -999.2500    -999.2500    -999.2500      -0.2161
       4.4397
   3116.7939
      10.1941       7.8585       0.0144      67.5648      48.8030    -999.2500
    -999.2500       9.5784       8.7670      17.3919       0.1631       3.9459
       0.0040       2.5817    -999.2500    -999.2500    -999.2500      -0.1347
       4.4561
   3116.9463
      10.2526       9.0895       0.0134      67.8188      49.5257    -999.2500
    -999.2500       9.9829       9.0320      18.0351       0.1644       3.9317
       0.0044       2.5794    -999.2500    -999.2500    -999.2500       0.0208
       4.5056
   3117.0989
      10.3685      11.0500       0.0094      68.2694      50.7516    -999.2500
    -999.2500      10.7245       9.3893      16.1696       0.1677       3.9633
       0.0054       2.5729    -999.2500    -999.2500    -999.2500       0.2861
       4.6038
   3117.2512
      10.4082      11.8743       0.0074      68.8098      51.4288    -999.2500
    -999.2500      11.0933       9.7401      15.4531       0.1745       3.9745
       0.0058       2.5570    -999.2500    -999.2500    -999.2500       0.4293
       4.6510
   3117.4036
      10.3378      11.0522       0.0084      69.4884      51.3109    -999.2500
    -999.2500      10.9141      10.0804      16.4239       0.1855       3.9560
       0.0053       2.5275    -999.2500    -999.2500    -999.2500       0.3958
       4.6240
   3117.5559
      10.1609      10.7900       0.0114      70.3590      51.9871    -999.2500
    -999.2500      10.8313      10.3337      16.5621       0.1921       3.9084
       0.0050       2.5110    -999.2500    -999.2500    -999.2500       0.4108
       4.6342
   3117.7085
       9.8293      11.3423       0.0174      71.5345      53.8183    -999.2500
    -999.2500      10.8888      10.4612      15.4856       0.1894       3.8185
       0.0050       2.5135    -999.2500    -999.2500    -999.2500       0.4962
       4.6987
   3117.8608
       9.7692      12.1446       0.0299      72.1451      54.8973    -999.2500
    -999.2500      11.0469      10.6671      15.1899       0.1883       3.7701
       0.0052       2.5269    -999.2500    -999.2500    -999.2500       0.6211
       4.7240
   3118.0132
      10.1081      13.3141       0.0519      72.0849      54.8708    -999.2500
    -999.2500      11.3530      10.9887      16.0420       0.1889       3.7826
       0.0057       2.5564    -999.2500    -999.2500    -999.2500       0.8040
       4.6921
   3118.1655
      10.2760      12.9485       0.0632      71.8998      53.4121    -999.2500
    -999.2500      11.8160      11.4746      17.3466       0.1893       3.8044
       0.0056       2.5736    -999.2500    -999.2500    -999.2500       0.8141
       4.5723
   3118.3179
      10.1917      10.3193       0.0587      71.5875      49.8412    -999.2500
    -999.2500      12.5083      12.2004      19.3116       0.1887       3.8400
       0.0046       2.5726    -999.2500    -999.2500    -999.2500       0.5695
       4.3231
   3118.4705
      10.0040       9.0172       0.0515      71.1270      47.8958    -999.2500
    -999.2500      13.1865      12.9052      21.0299       0.1869       3.8389
       0.0040       2.5708    -999.2500    -999.2500    -999.2500       0.4533
       4.1948
   3118.6228
       9.6672       9.6279       0.0405      70.5097      48.2931    -999.2500
    -999.2500      13.8427      13.5779      22.3839       0.1838       3.7849
       0.0040       2.5678    -999.2500    -999.2500    -999.2500       0.5222
       4.2408
   3118.7751
       9.5121      10.9529       0.0303      69.6940      49.7138    -999.2500
    -999.2500      14.4174      14.1799      25.3165       0.1817       3.7691
       0.0044       2.5648    -999.2500    -999.2500    -999.2500       0.6865
       4.3131
   3118.9275
       9.6200      13.3110       0.0213      68.6154      52.6147    -999.2500
    -999.2500      14.8760      14.6815      30.5592       0.1819       3.8086
       0.0054       2.5618    -999.2500    -999.2500    -999.2500       0.9886
       4.4235
   3119.0801
       9.6306      14.0253       0.0144      68.0383      54.1510    -999.2500
    -999.2500      15.6616      15.4979      32.7066       0.1830       3.7967
       0.0058       2.5578    -999.2500    -999.2500    -999.2500       1.0693
       4.4721
   3119.2324
       9.4992      12.3375       0.0104      68.0291      53.6932    -999.2500
    -999.2500      16.9302      16.7795      30.3294       0.1851       3.7097
       0.0053       2.5523    -999.2500    -999.2500    -999.2500       0.8264
       4.4307
   3119.3848
       9.5172      11.5794       0.0070      68.3051      53.1335    -999.2500
    -999.2500      18.4560      18.3061      27.2386       0.1862       3.7113
       0.0050       2.5496    -999.2500    -999.2500    -999.2500       0.7209
       4.4340
   3119.5371
       9.7546      12.1846       0.0045      68.9293      52.4243    -999.2500
    -999.2500      20.3593      20.1925      23.1005       0.1853       3.8427
       0.0050       2.5511    -999.2500    -999.2500    -999.2500       0.8169
       4.5029
   3119.6897
       9.7000      11.9787       0.0032      69.2375      51.8261    -999.2500
    -999.2500      21.1380      21.0597      20.9531       0.1839       3.9019
       0.0048       2.5498    -999.2500    -999.2500    -999.2500       0.8225
       4.4890
   3119.8420
       9.2157      10.5788       0.0037      69.1052      51.3914    -999.2500
    -999.2500      20.2643      20.4297      21.7307       0.1817       3.8548
       0.0043       2.5443    -999.2500    -999.2500    -999.2500       0.6951
       4.3532
   3119.9944
       8.9771      10.6644       0.0050      69.0693      50.7090    -999.2500
    -999.2500      19.8148      20.1355      23.8829       0.1797       3.7504
       0.0040       2.5418    -999.2500    -999.2500    -999.2500       0.7130
       4.3123
   3120.1467
       9.0920      12.8866       0.0075      69.1695      49.6703    -999.2500
    -999.2500      19.9838      20.3311      28.0401       0.1781       3.5636
       0.0040       2.5438    -999.2500    -999.2500    -999.2500       0.9397
       4.4082
   3120.2991
       9.0716      14.1072       0.0116      69.3087      49.7854    -999.2500
    -999.2500      20.2145      20.6225      29.1862       0.1784       3.5170
       0.0042       2.5479    -999.2500    -999.2500    -999.2500       1.0671
       4.4603
   3120.4517
       8.8547      13.8723       0.0181      69.5041      51.5771    -999.2500
    -999.2500      20.5368      21.0558      25.9353       0.1820       3.6739
       0.0047       2.5548    -999.2500    -999.2500    -999.2500       1.0501
       4.4488
   3120.6040
       8.7693      13.2235       0.0248      70.0186      52.2795    -999.2500
    -999.2500      20.8335      21.4822      24.3679       0.1836       3.7635
       0.0048       2.5555    -999.2500    -999.2500    -999.2500       1.0119
       4.4121
   3120.7563
       8.8758      11.9711       0.0318      70.8738      51.3934    -999.2500
    -999.2500      21.0937      21.8994      25.2604       0.1828       3.7550
       0.0043       2.5470    -999.2500    -999.2500    -999.2500       0.9430
       4.3386
   3120.9087
       8.8545      11.8913       0.0386      71.2757      49.4906    -999.2500
    -999.2500      21.4400      22.3950      27.1096       0.1828       3.7307
       0.0044       2.5448    -999.2500    -999.2500    -999.2500       0.9419
       4.2091
