#------------------------------------------------------------------------------
#
#   Created by  : [OpenWorks] Log Export Utility (LEXP)
#   Created on  : 2016-05-19 10:22:34
#   Project     : CANT971
#   User        : R5K
#   Interpreter : PEP
#
#------------------------------------------------------------------------------
~VERSION INFORMATION
VERS. 2.0 : CWLS Log ASCII Standard - version 2.0
WRAP.  NO : One line per depth step
~WELL INFORMATION
#MNEMONIC   .UNIT                                           VALUE :DESCRIPTION
#------------------------------------------------------------------------------
STRT        .M                                           501.0914 :START DEPTH
STOP        .M                                          3797.8081 :STOP DEPTH
STEP        .M                                             0.1524 :STEP
NULL        .                                           -999.2500 :NULL VALUE
COMP        .                                   PEMEX EXPL & PROD :COMPANY
WELL        .                                                2076 :WELL
FLD         .                                           CANTARELL :FIELD
LOC         .                                             UNKNOWN :LOCATION
CNTY        .                                      CD. DEL CARMEN :COUNTY
STAT        .                                            CAMPECHE :STATE
CTRY        .                                              MEXICO :COUNTRY
SRVC        .                                             UNKNOWN :SERVICE COMPANY
DATE        .                                             UNKNOWN :LOG DATE
UWI         .                                          3060000519 :UNIQUE WELL ID
XCOORD      .                                       600031.350000 :SURFACE X
YCOORD      .                                      2139442.240000 :SURFACE Y
LAT         .                                           19.347648 :LATITUDE
LON         .                                          -92.047636 :LONGITUDE
ELEV        .M                                            27.4000 :SURFACE ELEV
ELEV_TYPE   .                                                  KB :ELEV TYPE
~CURVE INFORMATION
#MNEMONIC.UNIT        API CODE       : CURVE DESCRIPTION
#------------------------------------------------------------------------------
DEPTH    .M                          : Measured Depth
CALI     .inches      UNKNOWN        : CALI:UNKNOWN:rC:NONE:v0 (auto-composite)
DT       .us/ft       UNKNOWN        : DT:UNKNOWN:rC:NONE:v0 (auto-composite)
GR       .API         UNKNOWN        : GR:UNKNOWN:rC:NONE:v0 (auto-composite)
ILD      .ohm.m       UNKNOWN        : ILD:UNKNOWN:rC:NONE:v0 (auto-composite)
LLD      .ohm.m       UNKNOWN        : LLD:UNKNOWN:rC:NONE:v0 (auto-composite)
LLS      .ohm.m       UNKNOWN        : LLS:UNKNOWN:rC:NONE:v0 (auto-composite)
NPHI     .UNKNOWN     UNKNOWN        : NPHI:UNKNOWN:rC:NONE:v0 (auto-composite)
RHOB     .g/cm3       UNKNOWN        : RHOB:UNKNOWN:rC:NONE:v0 (auto-composite)
SIGM     .UNKNOWN     UNKNOWN        : SIGM:UNKNOWN:rC:NONE:v0 (auto-composite)
TAU      .UNKNOWN     UNKNOWN        : TAU:UNKNOWN:rC:NONE:v0 (auto-composite)
~A     DEPTH         CALI           DT           GR          ILD          LLD          LLS         NPHI         RHOB         SIGM          TAU
# ...
   3778.3010       5.8900      64.0000      23.3410    -999.2500     814.0000     448.2280       0.0440       2.4550    -999.2500    -999.2500
   3778.4534       5.8900      61.7477      23.6466    -999.2500     798.3763     381.3364       0.0509       2.4845    -999.2500    -999.2500
   3778.6057       5.8900      59.5000      23.9520    -999.2500     782.7590     314.5790       0.0577       2.5140    -999.2500    -999.2500
   3778.7583       5.8900      63.1034      25.3738    -999.2500     659.8153     286.2628       0.0582       2.5776    -999.2500    -999.2500
   3778.9106       5.8900      66.7000      26.7930    -999.2500     537.1030     258.0000       0.0579       2.6410    -999.2500    -999.2500
   3779.0630       5.9400      66.2176      32.2012    -999.2500     412.9425     261.4866       0.0561       2.6860    -999.2500    -999.2500
   3779.2153       5.9900      65.7360      37.6000    -999.2500     289.0000     264.9670       0.0540       2.7310    -999.2500    -999.2500
   3779.3679       5.9895      59.4629      37.5400    -999.2500     294.4219     383.5803       0.0505       2.7360    -999.2500    -999.2500
   3779.5203       5.9890      53.2000      37.4800    -999.2500     299.8350     502.0000       0.0471       2.7410    -999.2500    -999.2500
   3779.6726       5.9795      53.2220      36.9396    -999.2500     427.0132     497.0908       0.0468       2.7455    -999.2500    -999.2500
   3779.8250       5.9700      53.2440      36.4000    -999.2500     554.0000     492.1890       0.0471       2.7500    -999.2500    -999.2500
   3779.9773       5.9260      53.8184      34.6488    -999.2500     542.0333     440.2246       0.0485       2.7490    -999.2500    -999.2500
   3780.1299       5.8820      54.3920      32.9000    -999.2500     530.0830     388.3320       0.0503       2.7480    -999.2500    -999.2500
   3780.2822       5.8310      58.0403      33.0021    -999.2500     439.5663     240.6552       0.0542       2.7340    -999.2500    -999.2500
   3780.4346       5.7800      61.6840      33.1040    -999.2500     349.1630      93.4000       0.0586       2.7200    -999.2500    -999.2500
   3780.5869       5.7800      66.8949      34.2752    -999.2500     270.9043      94.6237       0.0658       2.6450    -999.2500    -999.2500
   3780.7395       5.7800      72.1000      35.4450    -999.2500     192.7340      95.8440       0.0726       2.5700    -999.2500    -999.2500
   3780.8918       5.7800      71.7999      39.9247    -999.2500     145.5934     110.9326       0.0732       2.5735    -999.2500    -999.2500
   3781.0442       5.7800      71.5000      44.4000    -999.2500      98.5000     125.9820       0.0728       2.5770    -999.2500    -999.2500
   3781.1965       5.7800      68.4837      44.3120    -999.2500     104.1040     240.1323       0.0712       2.6090    -999.2500    -999.2500
   3781.3491       5.7800      65.4700      44.2240    -999.2500     109.7030     354.0000       0.0690       2.6410    -999.2500    -999.2500
   3781.5015       5.7840      57.7321      43.3657    -999.2500     321.4312     352.6559       0.0634       2.6815    -999.2500    -999.2500
   3781.6538       5.7880      50.0000      42.5080    -999.2500     533.0000     351.3150       0.0575       2.7220    -999.2500    -999.2500
   3781.8062       5.8215      50.2706      40.6504    -999.2500     515.6876     330.9543       0.0526       2.7460    -999.2500    -999.2500
   3781.9585       5.8550      50.5410      38.7940    -999.2500     498.3860     310.6390       0.0479       2.7700    -999.2500    -999.2500
   3782.1111       5.8725      54.3245      33.4914    -999.2500     391.8438     226.2308       0.0441       2.7695    -999.2500    -999.2500
   3782.2634       5.8900      58.1000      28.2000    -999.2500     285.3550     142.0000       0.0408       2.7690    -999.2500    -999.2500
   3782.4158       5.8900      57.9093      29.1009    -999.2500     221.6655     143.5881       0.0407       2.7595    -999.2500    -999.2500
   3782.5681       5.8900      57.7190      30.0000    -999.2500     158.0000     145.1730       0.0413       2.7500    -999.2500    -999.2500
   3782.7207       5.8900      56.1581      29.7998    -999.2500     161.5062     160.2690       0.0439       2.7550    -999.2500    -999.2500
   3782.8730       5.8900      54.6000      29.6000    -999.2500     165.0060     175.3370       0.0471       2.7600    -999.2500    -999.2500
   3783.0254       5.8900      54.7766      30.0724    -999.2500     198.9222     197.0607       0.0518       2.7595    -999.2500    -999.2500
   3783.1777       5.8900      54.9530      30.5440    -999.2500     232.7800     218.7470       0.0567       2.7590    -999.2500    -999.2500
   3783.3301       5.8900      56.3776      38.0280    -999.2500     270.1849     221.9366       0.0611       2.7530    -999.2500    -999.2500
   3783.4827       5.8900      57.8000      45.5000    -999.2500     307.5300     225.1210       0.0651       2.7470    -999.2500    -999.2500
   3783.6350       5.8900      57.5878      44.7494    -999.2500     360.8043     263.0885       0.0673       2.7380    -999.2500    -999.2500
   3783.7874       5.8900      57.3760      44.0000    -999.2500     414.0000     301.0000       0.0691       2.7290    -999.2500    -999.2500
   3783.9397       5.8900      55.1865      44.0390    -999.2500     413.9350     297.1034       0.0690       2.7095    -999.2500    -999.2500
   3784.0923       5.8900      53.0000      44.0780    -999.2500     413.8700     293.2120       0.0685       2.6900    -999.2500    -999.2500
   3784.2446       5.8900      53.1636      46.6406    -999.2500     404.0135     261.0613       0.0660       2.6900    -999.2500    -999.2500
   3784.3970       5.8900      53.3270      49.2000    -999.2500     394.1690     228.9500       0.0636       2.6900    -999.2500    -999.2500
   3784.5493       5.8900      54.5862      48.6497    -999.2500     329.8867     183.5756       0.0633       2.6935    -999.2500    -999.2500
   3784.7019       5.8900      55.8440      48.1000    -999.2500     265.6750     138.2510       0.0633       2.6970    -999.2500    -999.2500
   3784.8542       5.8900      57.0226      50.0009    -999.2500     206.2841     115.4962       0.0635       2.7200    -999.2500    -999.2500
   3785.0066       5.8900      58.2000      51.9000    -999.2500     146.9510      92.8000       0.0639       2.7430    -999.2500    -999.2500
   3785.1589       5.8880      58.1125      51.6234    -999.2500     126.4668      93.5800       0.0652       2.7515    -999.2500    -999.2500
   3785.3113       5.8860      58.0250      51.3470    -999.2500     106.0000      94.3580       0.0665       2.7600    -999.2500    -999.2500
   3785.4639       5.8330      57.3328      49.4568    -999.2500     111.1033     103.1177       0.0667       2.7600    -999.2500    -999.2500
   3785.6162       5.7800      56.6410      47.5680    -999.2500     116.2030     111.8570       0.0667       2.7600    -999.2500    -999.2500
   3785.7686       5.7800      55.6892      46.3301    -999.2500     167.9524     142.9141       0.0665       2.7595    -999.2500    -999.2500
   3785.9209       5.7800      54.7380      45.0930    -999.2500     219.6710     173.9030       0.0661       2.7590    -999.2500    -999.2500
   3786.0735       5.7800      53.5177      37.1883    -999.2500     270.2614     236.0158       0.0643       2.7445    -999.2500    -999.2500
   3786.2258       5.7800      52.3000      29.3000    -999.2500     320.8280     298.0000       0.0617       2.7300    -999.2500    -999.2500
   3786.3782       5.7815      52.3140      31.4020    -999.2500     381.9246     291.0963       0.0547       2.7320    -999.2500    -999.2500
   3786.5305       5.7830      52.3280      33.5000    -999.2500     443.0000     284.2060       0.0481       2.7340    -999.2500    -999.2500
   3786.6831       5.7980      52.6058      33.4785    -999.2500     437.2393     235.5587       0.0476       2.7485    -999.2500    -999.2500
