#------------------------------------------------------------------------------
#
#   Created by  : [OpenWorks] Log Export Utility (LEXP)
#   Created on  : 2016-05-19 10:22:36
#   Project     : CANT971
#   User        : R5K
#   Interpreter : PEP
#
#------------------------------------------------------------------------------
~VERSION INFORMATION
VERS. 2.0 : CWLS Log ASCII Standard - version 2.0
WRAP. YES : Mulitple lines per depth step
~WELL INFORMATION
#MNEMONIC   .UNIT                                           VALUE :DESCRIPTION
#------------------------------------------------------------------------------
STRT        .M                                          2616.0618 :START DEPTH
STOP        .M                                          3329.4463 :STOP DEPTH
STEP        .M                                             0.1524 :STEP
NULL        .                                           -999.2500 :NULL VALUE
COMP        .                                             UNKNOWN :COMPANY
WELL        .                                            2076D-V2 :WELL
FLD         .                                             UNKNOWN :FIELD
LOC         .                                             UNKNOWN :LOCATION
CNTY        .                                             UNKNOWN :COUNTY
STAT        .                                             UNKNOWN :STATE
CTRY        .                                             UNKNOWN :COUNTRY
SRVC        .                                             UNKNOWN :SERVICE COMPANY
DATE        .                                             UNKNOWN :LOG DATE
UWI         .                                            2076D-V2 :UNIQUE WELL ID
XCOORD      .                                            0.000000 :SURFACE X
YCOORD      .                                            0.000000 :SURFACE Y
LAT         .                                            0.000000 :LATITUDE
LON         .                                          -97.488695 :LONGITUDE
ELEV        .M                                             0.0000 :SURFACE ELEV
ELEV_TYPE   .                                                  KB :ELEV TYPE
~CURVE INFORMATION
#MNEMONIC.UNIT        API CODE       : CURVE DESCRIPTION
#------------------------------------------------------------------------------
DEPTH    .M                          : Measured Depth
CALI     .UNKNOWN     UNKNOWN        : CALI:litodensidad:rC:NONE:v0 (auto-composite)
CGR      .API         UNKNOWN        : CGR:Espectrometria:rC:NONE:v0 (auto-composite)
DRHO     .g/cm3       UNKNOWN        : DRHO:litodensidad:rC:NONE:v0 (auto-composite)
DT       .us/ft       UNKNOWN        : DT:sonico:rC:NONE:v0 (auto-composite)
GR       .API         UNKNOWN        : GR:Espectrometria:rC:NONE:v0 (auto-composite)
GR-LWD   .API         UNKNOWN        : GR-LWD:PETROWORKS:rC:NONE:v1 
ILD-LWD  .UNKNOWN     UNKNOWN        : ILD-LWD:PETROWORKS:rC:NONE:v1 
ILM-LWD  .UNKNOWN     UNKNOWN        : ILM-LWD:PETROWORKS:rC:NONE:v1 
LLD      .ohm.m       UNKNOWN        : LLD:resistivos:rC:NONE:v0 (auto-composite)
LLS      .ohm.m       UNKNOWN        : LLS:resistivos:rC:NONE:v0 (auto-composite)
MSFL     .ohm.m       UNKNOWN        : MSFL:resistivos:rC:NONE:v0 (auto-composite)
NPHI     .UNKNOWN     UNKNOWN        : NPHI:porosidad:rC:NONE:v0 (auto-composite)
PEF      .UNKNOWN     UNKNOWN        : PEF:litodensidad:rC:NONE:v0 (auto-composite)
POTA     .wtpercent   UNKNOWN        : POTA:Espectrometria:rC:NONE:v0 (auto-composite)
RHOB     .g/cm3       UNKNOWN        : RHOB:litodensidad:rC:NONE:v0 (auto-composite)
SIGM     .UNKNOWN     UNKNOWN        : SIGM:TMDL:rC:NONE:v0 (auto-composite)
SP       .UNKNOWN     UNKNOWN        : SP:resistivos:rC:NONE:v0 (auto-composite)
THOR     .UNKNOWN     UNKNOWN        : THOR:Espectrometria:rC:NONE:v0 (auto-composite)
URAN     .UNKNOWN     UNKNOWN        : URAN:Espectrometria:rC:NONE:v0 (auto-composite)
~A
# ...
   3154.6433
       7.3389      48.8461       0.0435      90.7837      51.3940      47.4903
       1.8030       1.7787       2.7911       2.6863       2.6796       0.1726
       4.2917       0.0198       2.5782    -999.2500      57.1805       6.0150
       0.2837
   3154.7957
       7.3920      52.2536       0.0416      90.5137      54.0311      47.1494
       1.8487       1.8187       2.5283       2.4630       2.1947       0.1844
       4.2741       0.0222       2.5796    -999.2500      56.6786       5.9991
       0.1979
   3154.9482
       7.4274      53.0117       0.0405      89.3078      57.2535      46.7689
       1.8993       1.8693       2.4386       2.4049       2.1077       0.1954
       4.2720       0.0245       2.5807    -999.2500      55.5058       5.3356
       0.4722
   3155.1006
       7.3937      51.6118       0.0375      87.6508      58.8490      46.7400
       1.9300       1.9200       2.5326       2.5812       1.8493       0.1957
       4.2582       0.0255       2.5811    -999.2500      53.7029       4.5148
       0.8058
   3155.2529
       7.3997      50.2031       0.0302      86.0278      59.6657      45.5880
       1.9618       1.9977       2.7419       2.8698       1.6787       0.1774
       4.2461       0.0258       2.5869    -999.2500      52.4301       4.0026
       1.0535
   3155.4053
       7.4079      50.0072       0.0232      84.8234      59.9685      44.6007
       2.0111       2.0611       3.1824       3.3695       1.7671       0.1627
       4.2242       0.0243       2.5910    -999.2500      51.0185       4.5609
       1.1090
   3155.5579
       7.4407      50.0914       0.0155      84.1771      59.5560      44.3477
       2.0358       2.0858       3.3533       3.5612       2.3104       0.1618
       4.1436       0.0231       2.5900    -999.2500      50.3969       5.0508
       1.0538
   3155.7102
       7.4100      51.4349       0.0143      84.1865      58.8069      43.9610
       2.0751       2.1141       3.1800       3.3304       2.5368       0.1638
       4.0890       0.0225       2.5862    -999.2500      50.2154       5.6739
       0.8208
   3155.8625
       7.4038      49.8413       0.0194      84.6207      56.1313      45.0298
       2.1638       2.1750       2.9631       3.0318       2.6198       0.1725
       4.1087       0.0218       2.5735    -999.2500      49.9116       5.4894
       0.7003
   3156.0149
       7.4131      45.8205       0.0202      85.1373      53.2341      46.8725
       2.2505       2.2260       2.9223       2.8821       2.4106       0.1731
       4.1909       0.0209       2.5657    -999.2500      49.1578       4.7146
       0.8254
   3156.1675
       7.4559      41.8951       0.0167      85.5445      48.6621      48.8516
       2.3706       2.2937       3.0659       2.9913       2.2361       0.1736
       4.3768       0.0194       2.5637    -999.2500      48.2642       4.1712
       0.7534
   3156.3198
       7.3895      41.5496       0.0224      85.8400      46.6005      50.5801
       2.4959       2.3700       3.3911       3.1947       2.7251       0.1589
       4.4753       0.0193       2.5613    -999.2500      47.2497       4.1155
       0.5623
   3156.4722
       7.4030      40.8512       0.0409      86.0492      49.2790      51.2405
       2.4622       2.3267       3.3860       3.1334       4.1448       0.1471
       4.3831       0.0184       2.5354    -999.2500      47.6696       4.2706
       0.9383
   3156.6245
       7.3924      42.8984       0.0437      86.0774      53.1587      50.8661
       2.3130       2.2004       3.0639       2.7778       4.4057       0.1609
       4.2448       0.0188       2.5096    -999.2500      50.1561       4.7138
       1.1423
   3156.7769
       7.3915      46.1715       0.0350      85.8825      56.6739      50.5384
       2.1684       2.0938       2.7415       2.4342       3.3569       0.1873
       4.1679       0.0199       2.5022    -999.2500      52.8272       5.1918
       1.1693
   3156.9294
       7.4324      53.0049       0.0255      85.5139      58.9947      50.1192
       2.0394       1.9953       2.6181       2.3226       2.0952       0.1998
       4.1674       0.0230       2.5148    -999.2500      54.0657       5.9140
       0.6668
   3157.0818
       7.4366      57.2294       0.0212      85.0641      59.4329      49.1816
       1.9573       1.9355       2.6679       2.4080       1.8893       0.1978
       4.1588       0.0259       2.5244    -999.2500      53.8470       5.9717
       0.2453
   3157.2341
       7.3899      58.0149       0.0176      84.5401      59.5059      48.0635
       1.9366       1.9066       2.8822       2.6368       2.3050       0.1888
       4.1356       0.0282       2.5266    -999.2500      52.0298       5.2795
       0.1660
   3157.3865
       7.3629      57.2808       0.0158      83.8811      58.8821      47.4821
       1.9213       1.8913       3.0301       2.7951       2.4528       0.1878
       4.1193       0.0283       2.5259    -999.2500      50.0432       5.0305
       0.1783
   3157.5391
       7.3652      53.9214       0.0164      83.0436      58.2801      46.9622
       1.9495       1.9295       3.2085       2.9798       2.2731       0.1951
       4.1194       0.0251       2.5352    -999.2500      48.4043       5.3177
       0.4852
   3157.6914
       7.3989      49.2326       0.0183      82.0979      57.3113      46.7672
       2.0440       2.0148       3.3557       3.1425       2.1554       0.1879
       4.1609       0.0230       2.5565    -999.2500      47.5195       4.8398
       0.8994
   3157.8438
       7.3745      45.9352       0.0161      81.2248      55.6301      46.2343
       2.1682       2.1469       3.5117       3.2847       2.4801       0.1753
       4.2503       0.0225       2.5738    -999.2500      47.3699       4.1175
       1.0793
   3157.9961
       7.3416      44.9256       0.0093      80.6712      53.7030      45.9254
       2.2589       2.2585       3.6545       3.3971       2.8397       0.1629
       4.3734       0.0221       2.5758    -999.2500      47.3747       3.9570
       0.9772
   3158.1487
       7.3513      42.3586       0.0032      80.6119      51.7025      45.5844
       2.3143       2.3194       3.7489       3.4177       3.0824       0.1577
       4.5154       0.0206       2.5806    -999.2500      47.1548       3.8473
       1.0403
   3158.3010
       7.4003      38.6742       0.0014      81.1166      50.5852      45.8500
       2.3800       2.3900       3.8545       3.3708       3.0272       0.1592
       4.5562       0.0185       2.5888    -999.2500      46.6234       3.6269
       1.3261
   3158.4534
       7.3950      33.2849       0.0007      81.9398      51.3506      46.5498
       2.4460       2.4660       3.8720       3.2586       2.8863       0.1489
       4.4782       0.0165       2.5885    -999.2500      46.3310       2.8940
       2.0113
   3158.6057
       7.3434      32.4982       0.0003      82.4661      52.5638      47.1642
       2.4794       2.5000       3.7059       3.0135       3.2436       0.1468
       4.4037       0.0169       2.5829    -999.2500      45.9771       2.4946
       2.2340
   3158.7581
       7.3086      36.4535       0.0012      82.0998      54.7656      47.4523
       2.4584       2.4942       3.5657       2.8569       3.4036       0.1464
       4.3300       0.0188       2.5806    -999.2500      45.8075       2.8763
       2.0387
   3158.9106
       7.3170      41.1544       0.0029      80.5947      55.6387      47.2525
       2.4389       2.4800       3.5313       2.8422       3.1069       0.1494
       4.3181       0.0203       2.5839    -999.2500      45.2973       3.6012
       1.6126
   3159.0630
       7.3708      45.9068       0.0053      78.6909      54.9321      46.2730
       2.4426       2.4989       3.6790       2.9700       2.5621       0.1465
       4.4312       0.0210       2.5953    -999.2500      44.7791       4.7005
       1.0048
   3159.2153
       7.3940      47.8368       0.0065      77.4941      53.2499      44.1506
       2.5192       2.5808       4.1799       3.3858       2.7460       0.1358
       4.5255       0.0215       2.6069    -999.2500      43.9576       5.0504
       0.6026
