#------------------------------------------------------------------------------
#
#   Created by  : [OpenWorks] Log Export Utility (LEXP)
#   Created on  : 2016-05-19 10:22:36
#   Project     : CANT971
#   User        : R5K
#   Interpreter : PEP
#
#------------------------------------------------------------------------------
~VERSION INFORMATION
VERS. 2.0 : CWLS Log ASCII Standard - version 2.0
WRAP. YES : Mulitple lines per depth step
~WELL INFORMATION
#MNEMONIC   .UNIT                                           VALUE :DESCRIPTION
#------------------------------------------------------------------------------
STRT        .M                                          2616.0618 :START DEPTH
STOP        .M                                          3329.4463 :STOP DEPTH
STEP        .M                                             0.1524 :STEP
NULL        .                                           -999.2500 :NULL VALUE
COMP        .                                             UNKNOWN :COMPANY
WELL        .                                            2076D-V2 :WELL
FLD         .                                             UNKNOWN :FIELD
LOC         .                                             UNKNOWN :LOCATION
CNTY        .                                             UNKNOWN :COUNTY
STAT        .                                             UNKNOWN :STATE
CTRY        .                                             UNKNOWN :COUNTRY
SRVC        .                                             UNKNOWN :SERVICE COMPANY
DATE        .                                             UNKNOWN :LOG DATE
UWI         .                                            2076D-V2 :UNIQUE WELL ID
XCOORD      .                                            0.000000 :SURFACE X
YCOORD      .                                            0.000000 :SURFACE Y
LAT         .                                            0.000000 :LATITUDE
LON         .                                          -97.488695 :LONGITUDE
ELEV        .M                                             0.0000 :SURFACE ELEV
ELEV_TYPE   .                                                  KB :ELEV TYPE
~CURVE INFORMATION
#MNEMONIC.UNIT        API CODE       : CURVE DESCRIPTION
#------------------------------------------------------------------------------
DEPTH    .M                          : Measured Depth
CALI     .UNKNOWN     UNKNOWN        : CALI:litodensidad:rC:NONE:v0 (auto-composite)
CGR      .API         UNKNOWN        : CGR:Espectrometria:rC:NONE:v0 (auto-composite)
DRHO     .g/cm3       UNKNOWN        : DRHO:litodensidad:rC:NONE:v0 (auto-composite)
DT       .us/ft       UNKNOWN        : DT:sonico:rC:NONE:v0 (auto-composite)
GR       .API         UNKNOWN        : GR:Espectrometria:rC:NONE:v0 (auto-composite)
GR-LWD   .API         UNKNOWN        : GR-LWD:PETROWORKS:rC:NONE:v1 
ILD-LWD  .UNKNOWN     UNKNOWN        : ILD-LWD:PETROWORKS:rC:NONE:v1 
ILM-LWD  .UNKNOWN     UNKNOWN        : ILM-LWD:PETROWORKS:rC:NONE:v1 
LLD      .ohm.m       UNKNOWN        : LLD:resistivos:rC:NONE:v0 (auto-composite)
LLS      .ohm.m       UNKNOWN        : LLS:resistivos:rC:NONE:v0 (auto-composite)
MSFL     .ohm.m       UNKNOWN        : MSFL:resistivos:rC:NONE:v0 (auto-composite)
NPHI     .UNKNOWN     UNKNOWN        : NPHI:porosidad:rC:NONE:v0 (auto-composite)
PEF      .UNKNOWN     UNKNOWN        : PEF:litodensidad:rC:NONE:v0 (auto-composite)
POTA     .wtpercent   UNKNOWN        : POTA:Espectrometria:rC:NONE:v0 (auto-composite)
RHOB     .g/cm3       UNKNOWN        : RHOB:litodensidad:rC:NONE:v0 (auto-composite)
SIGM     .UNKNOWN     UNKNOWN        : SIGM:TMDL:rC:NONE:v0 (auto-composite)
SP       .UNKNOWN     UNKNOWN        : SP:resistivos:rC:NONE:v0 (auto-composite)
THOR     .UNKNOWN     UNKNOWN        : THOR:Espectrometria:rC:NONE:v0 (auto-composite)
URAN     .UNKNOWN     UNKNOWN        : URAN:Espectrometria:rC:NONE:v0 (auto-composite)
~A
# ...
   3112.1238
       7.4558      40.4273       0.0964      93.3855      52.2491      48.2512
       1.4576       1.5176       2.4514       1.7764       1.4742       0.2627
       4.3319       0.0177       2.5131    -999.2500      43.4743       4.4443
       1.3161
   3112.2761
       7.4564      41.0093       0.0902      93.5498      51.6534      49.5162
       1.4500       1.5100       2.5927       1.8927       1.2772       0.2337
       4.3859       0.0181       2.5488    -999.2500      43.5496       4.4457
       1.1851
   3112.4285
       7.3866      41.9130       0.1108      96.2405      50.7063      49.5860
       1.4529       1.5200       2.6779       1.9805       1.2347       0.2041
       4.4470       0.0182       2.5631    -999.2500      43.7138       4.6534
       0.9790
   3112.5811
       7.4023      40.3110       0.1195     100.1833      50.3367      50.3368
       1.4681       1.5200       2.7152       2.0208       1.2391       0.1958
       4.4365       0.0184       2.5576    -999.2500      43.5157       4.1259
       1.1162
   3112.7334
       7.4311      37.5015       0.1070     103.2576      50.2172      49.8065
       1.4733       1.5300       2.6973       1.9866       1.3421       0.2091
       4.3525       0.0193       2.5210    -999.2500      42.2294       2.9774
       1.4157
   3112.8857
       7.3855      36.8094       0.0991     104.2897      50.7084      49.7517
       1.4972       1.5386       2.6612       1.9273       1.4334       0.2256
       4.2277       0.0203       2.4702    -999.2500      41.4431       2.3939
       1.5474
   3113.0381
       7.4423      38.2222       0.0925     103.7644      52.2144      49.5342
       1.5076       1.5538       2.6762       1.9268       1.2035       0.2573
       4.0515       0.0208       2.4240    -999.2500      42.2359       2.5707
       1.5578
   3113.1907
       7.4381      39.7770       0.0852     102.8615      53.9649      49.8464
       1.5291       1.5600       2.7158       1.9619       1.3694       0.2761
       3.9940       0.0215       2.4235    -999.2500      43.0672       2.7373
       1.5796
   3113.3430
       7.4014      41.4143       0.0763     102.1916      55.4308      50.7480
       1.5443       1.5700       2.7810       2.0374       1.5907       0.2573
       4.0981       0.0226       2.4656    -999.2500      42.9322       2.7923
       1.5605
   3113.4954
       7.4880      38.7781       0.0606     101.8176      55.0261      51.1586
       1.5691       1.5795       2.7395       2.0358       1.7057       0.2449
       4.2244       0.0226       2.4954    -999.2500      42.6180       2.0169
       1.8089
   3113.6477
       7.4303      34.6929       0.0428     101.6139      52.8163      51.5180
       1.5848       1.5848       2.5774       1.9400       1.5682       0.2560
       4.2733       0.0218       2.4679    -999.2500      42.4451       1.1853
       2.0178
   3113.8000
       7.3211      34.4438       0.0340     101.4159      52.2192      51.6900
       1.6000       1.5900       2.3129       1.7486       1.3660       0.2804
       4.2407       0.0196       2.3857    -999.2500      41.1639       2.0009
       1.9790
   3113.9526
       7.3834      39.3483       0.0284     101.0915      53.1932      50.6975
       1.5947       1.5695       2.1835       1.6540       1.3719       0.3213
       4.1708       0.0187       2.2976    -999.2500      40.1628       3.7416
       1.5414
   3114.1050
       7.4383      44.0368       0.0276     100.6147      53.9470      50.8551
       1.5476       1.5180       2.2189       1.6868       1.3368       0.3333
       4.1591       0.0192       2.3193    -999.2500      39.6259       4.8644
       1.1034
   3114.2573
       7.4178      45.9923       0.0300     100.0940      54.5609      50.9436
       1.4828       1.4628       2.3454       1.7716       1.3753       0.2901
       4.2216       0.0199       2.4405    -999.2500      39.6617       5.1628
       0.9540
   3114.4097
       7.3585      44.5506       0.0403      99.2452      54.7553      51.7293
       1.4261       1.4051       2.5276       1.8941       1.4454       0.2532
       4.2243       0.0185       2.4932    -999.2500      40.2962       5.2956
       1.1361
   3114.5623
       7.3780      36.8437       0.0678      96.9419      55.5498      52.6272
       1.3776       1.3476       2.5624       1.9013       1.3365       0.2543
       4.1220       0.0143       2.4592    -999.2500      40.9175       4.7786
       2.0826
   3114.7146
       7.3611      32.1521       0.0799      91.0784      55.7132      53.3266
       1.3529       1.3000       2.4625       1.7915       1.5158       0.2808
       4.0519       0.0117       2.4157    -999.2500      41.5297       4.4873
       2.6232
   3114.8669
       7.3477      31.5787       0.0928      82.3508      54.9899      53.3978
       1.3834       1.3000       2.3536       1.6974       1.6409       0.3057
       4.0364       0.0126       2.3572    -999.2500      42.1026       3.9478
       2.6065
   3115.0193
       7.5589      33.9969       0.1130      73.9132      54.5227      54.4864
       1.4119       1.3000       2.2710       1.6304       1.8009       0.3151
       4.1009       0.0153       2.3343    -999.2500      41.7118       3.5717
       2.2852
   3115.1719
       7.7179      33.5923       0.1084      68.3935      52.8333      54.9946
       1.4272       1.3000       2.3729       1.7167       1.4244       0.3180
       4.3048       0.0189       2.4020    -999.2500      40.5290       2.0406
       2.1422
   3115.3242
       7.6897      31.8810       0.0800      66.4472      50.8504      55.8239
       1.4300       1.2924       2.9166       2.2430       1.4115       0.2729
       4.4341       0.0204       2.4922    -999.2500      39.1842       0.9366
       2.1120
   3115.4766
       7.6961      31.8775       0.0547      66.6455      48.6076      56.8755
       1.4453       1.3153       3.6796       2.9141       1.7894       0.1992
       4.4809       0.0198       2.5686    -999.2500      39.1705       1.1916
       1.8627
   3115.6289
       7.7376      30.8936       0.0393      67.7716      46.0251      55.0999
       1.5589       1.4031       4.5996       3.5369       2.2913       0.1273
       4.5611       0.0166       2.6263    -999.2500      41.0824       2.1956
       1.6847
   3115.7812
       7.4061      28.9604       0.0454      69.3492      44.2214      51.0460
       1.8415       1.6389       4.9712       3.7445       2.4955       0.1032
       4.6885       0.0143       2.6496    -999.2500      42.9394       2.5450
       1.6991
   3115.9338
       7.2579      31.6456       0.0919      72.7261      45.0218      46.9599
       2.4147       2.0844       4.1829       3.2305       4.0150       0.1127
       4.7300       0.0145       2.6373    -999.2500      43.6015       3.2290
       1.4892
   3116.0862
       7.2263      36.5400       0.1365      80.3993      47.7314      41.9753
       2.8324       2.4194       3.2483       2.5694       3.9921       0.1444
       4.6085       0.0165       2.5958    -999.2500      44.1095       3.8002
       1.2460
   3116.2385
       7.2928      41.4740       0.1442      92.4825      52.0210      39.5278
       3.1317       2.6879       2.5139       1.9404       2.5565       0.2082
       4.3817       0.0188       2.5268    -999.2500      46.1264       4.3101
       1.1742
   3116.3909
       7.3509      45.5611       0.1075     104.3350      55.2191      38.9876
       3.2391       2.8073       2.1350       1.6036       1.6401       0.2506
       4.2124       0.0198       2.4843    -999.2500      47.4709       5.0873
       1.0752
   3116.5435
       7.4244      50.4242       0.0577     111.5090      57.7106      40.5528
       3.0450       2.7053       1.9700       1.4444       1.2942       0.2718
       4.1167       0.0199       2.4790    -999.2500      47.1748       6.4246
       0.8112
   3116.6958
       7.4832      51.8925       0.0369     113.6253      59.2820      44.3228
       2.7684       2.5259       1.8854       1.3708       1.1392       0.2739
       4.0824       0.0199       2.4673    -999.2500      46.3912       6.8286
       0.8227
