#------------------------------------------------------------------------------
#
#   Created by  : [OpenWorks] Log Export Utility (LEXP)
#   Created on  : 2016-05-19 10:22:36
#   Project     : CANT971
#   User        : R5K
#   Interpreter : PEP
#
#------------------------------------------------------------------------------
~VERSION INFORMATION
VERS. 2.0 : CWLS Log ASCII Standard - version 2.0
WRAP. YES : Mulitple lines per depth step
~WELL INFORMATION
#MNEMONIC   .UNIT                                           VALUE :DESCRIPTION
#------------------------------------------------------------------------------
STRT        .M                                          2616.0618 :START DEPTH
STOP        .M                                          3329.4463 :STOP DEPTH
STEP        .M                                             0.1524 :STEP
NULL        .                                           -999.2500 :NULL VALUE
COMP        .                                             UNKNOWN :COMPANY
WELL        .                                            2076D-V2 :WELL
FLD         .                                             UNKNOWN :FIELD
LOC         .                                             UNKNOWN :LOCATION
CNTY        .                                             UNKNOWN :COUNTY
STAT        .                                             UNKNOWN :STATE
CTRY        .                                             UNKNOWN :COUNTRY
SRVC        .                                             UNKNOWN :SERVICE COMPANY
DATE        .                                             UNKNOWN :LOG DATE
UWI         .                                            2076D-V2 :UNIQUE WELL ID
XCOORD      .                                            0.000000 :SURFACE X
YCOORD      .                                            0.000000 :SURFACE Y
LAT         .                                            0.000000 :LATITUDE
LON         .                                          -97.488695 :LONGITUDE
ELEV        .M                                             0.0000 :SURFACE ELEV
ELEV_TYPE   .                                                  KB :ELEV TYPE
~CURVE INFORMATION
#MNEMONIC.UNIT        API CODE       : CURVE DESCRIPTION
#------------------------------------------------------------------------------
DEPTH    .M                          : Measured Depth
CALI     .UNKNOWN     UNKNOWN        : CALI:litodensidad:rC:NONE:v0 (auto-composite)
CGR      .API         UNKNOWN        : CGR:Espectrometria:rC:NONE:v0 (auto-composite)
DRHO     .g/cm3       UNKNOWN        : DRHO:litodensidad:rC:NONE:v0 (auto-composite)
DT       .us/ft       UNKNOWN        : DT:sonico:rC:NONE:v0 (auto-composite)
GR       .API         UNKNOWN        : GR:Espectrometria:rC:NONE:v0 (auto-composite)
GR-LWD   .API         UNKNOWN        : GR-LWD:PETROWORKS:rC:NONE:v1 
ILD-LWD  .UNKNOWN     UNKNOWN        : ILD-LWD:PETROWORKS:rC:NONE:v1 
ILM-LWD  .UNKNOWN     UNKNOWN        : ILM-LWD:PETROWORKS:rC:NONE:v1 
LLD      .ohm.m       UNKNOWN        : LLD:resistivos:rC:NONE:v0 (auto-composite)
LLS      .ohm.m       UNKNOWN        : LLS:resistivos:rC:NONE:v0 (auto-composite)
MSFL     .ohm.m       UNKNOWN        : MSFL:resistivos:rC:NONE:v0 (auto-composite)
NPHI     .UNKNOWN     UNKNOWN        : NPHI:porosidad:rC:NONE:v0 (auto-composite)
PEF      .UNKNOWN     UNKNOWN        : PEF:litodensidad:rC:NONE:v0 (auto-composite)
POTA     .wtpercent   UNKNOWN        : POTA:Espectrometria:rC:NONE:v0 (auto-composite)
RHOB     .g/cm3       UNKNOWN        : RHOB:litodensidad:rC:NONE:v0 (auto-composite)
SIGM     .UNKNOWN     UNKNOWN        : SIGM:TMDL:rC:NONE:v0 (auto-composite)
SP       .UNKNOWN     UNKNOWN        : SP:resistivos:rC:NONE:v0 (auto-composite)
THOR     .UNKNOWN     UNKNOWN        : THOR:Espectrometria:rC:NONE:v0 (auto-composite)
URAN     .UNKNOWN     UNKNOWN        : URAN:Espectrometria:rC:NONE:v0 (auto-composite)
~A
# ...
   3182.9897
       7.3970      32.8567       0.0038      79.6162      49.1390      44.5352
       2.1941       2.2231       3.3618       2.8077       4.3807       0.1398
       4.3590       0.0164       2.6143    -999.2500      43.5122       2.8217
       1.8127
   3183.1421
       7.4062      32.5022       0.0042      80.9096      49.1982      45.1985
       2.1374       2.1716       3.2776       2.7122      10.5645       0.1361
       4.3174       0.0168       2.6065    -999.2500      42.9772       2.5450
       1.8588
   3183.2947
       7.4117      34.4623       0.0026      82.1692      50.3041      46.5170
       2.1011       2.1411       3.1279       2.5827      11.3419       0.1418
       4.3111       0.0188       2.5940    -999.2500      42.8875       2.2973
       1.7637
   3183.4470
       7.4282      37.4586       0.0004      83.3266      52.3683      47.3964
       2.1047       2.1347       2.9831       2.4735       9.7140       0.1510
       4.3341       0.0212       2.5852    -999.2500      42.8368       2.2226
       1.6600
   3183.5994
       7.4202      40.0429      -0.0018      84.4251      54.1251      47.9100
       2.1200       2.1400       2.8675       2.3994       5.4524       0.1547
       4.3254       0.0222       2.5841    -999.2500      42.5902       2.5582
       1.5678
   3183.7517
       7.4025      43.8444      -0.0055      85.4973      55.8227      48.0869
       2.1148       2.1248       2.8390       2.3952       3.6837       0.1589
       4.2557       0.0237       2.5833    -999.2500      42.3626       3.0387
       1.3336
   3183.9041
       7.4075      46.8805      -0.0069      86.5014      56.3155      48.5947
       2.0479       2.0683       2.8886       2.4497       2.9724       0.1598
       4.2262       0.0242       2.5791    -999.2500      41.8900       3.6874
       1.0505
   3184.0566
       7.4205      46.8500      -0.0063      87.4051      54.5504      49.7377
       1.9717       2.0017       2.9696       2.5445       2.8206       0.1582
       4.3121       0.0236       2.5732    -999.2500      41.7488       3.9305
       0.8573
   3184.2090
       7.4298      44.1339      -0.0061      88.1922      52.9883      51.2530
       1.9064       1.9464       3.0759       2.6394       2.9598       0.1548
       4.3953       0.0227       2.5759    -999.2500      42.1084       3.5005
       0.9858
   3184.3613
       7.4184      41.9209       0.0039      88.8657      52.5891      52.4506
       1.8516       1.8977       3.0566       2.6304       3.0769       0.1553
       4.4354       0.0238       2.5835    -999.2500      42.2159       2.4551
       1.1877
   3184.5137
       7.3863      44.3014       0.0258      89.3287      53.8335      53.4952
       1.8300       1.8786       2.8227       2.4457       3.0567       0.1576
       4.4265       0.0259       2.5816    -999.2500      42.0114       2.2890
       1.0612
   3184.6663
       7.4492      52.3897       0.0645      89.4781      56.8759      54.1543
       1.8300       1.8700       2.5812       2.2481       2.8511       0.1687
       4.3718       0.0295       2.5720    -999.2500      42.0322       3.1710
       0.4995
   3184.8186
       7.4626      54.1830       0.0728      89.2755      59.0120      54.2912
       1.8300       1.8600       2.4124       2.1243       2.2708       0.1863
       4.3503       0.0300       2.5678    -999.2500      42.1086       3.4796
       0.5376
   3184.9709
       7.4617      47.0388       0.0388      89.0665      60.2830      54.7943
       1.8229       1.8458       2.3958       2.1364       2.0949       0.1902
       4.3672       0.0267       2.5757    -999.2500      42.3421       2.7320
       1.4746
   3185.1233
       7.4388      41.1743       0.0146      89.4085      60.1418      55.4634
       1.7730       1.8030       2.4765       2.2363       2.6655       0.1815
       4.3773       0.0244       2.5830    -999.2500      42.7696       1.9894
       2.1118
   3185.2759
       7.4334      39.3025       0.0088      90.3798      59.3684      57.5164
       1.7349       1.7649       2.5232       2.2985       8.1454       0.1748
       4.3673       0.0242       2.5793    -999.2500      43.1897       1.5505
       2.2340
   3185.4282
       7.4612      41.6837       0.0161      91.3925      59.6981      58.7867
       1.6972       1.7372       2.4090       2.2126      15.5959       0.1815
       4.3125       0.0262       2.5596    -999.2500      42.9547       1.4313
       2.0056
   3185.5806
       7.4692      46.4780       0.0211      91.5348      60.7499      59.6188
       1.6900       1.7220       2.2550       2.0797      24.8511       0.1969
       4.2298       0.0277       2.5434    -999.2500      42.6703       2.1857
       1.5890
   3185.7329
       7.4806      52.3768       0.0214      90.3511      62.2037      60.0991
       1.6800       1.7167       2.1140       1.9631      14.1557       0.2091
       4.1536       0.0281       2.5331    -999.2500      42.5283       3.6875
       1.0941
   3185.8853
       7.4640      53.0255       0.0252      88.4898      63.0871      60.4851
       1.6715       1.7100       2.0714       1.9361       7.3318       0.2075
       4.1717       0.0275       2.5339    -999.2500      42.0512       4.1313
       1.1202
   3186.0378
       7.4355      49.5911       0.0379      87.0201      63.5700      61.1575
       1.6449       1.6787       2.0959       1.9930       3.4088       0.2024
       4.2382       0.0273       2.5400    -999.2500      41.3071       3.2164
       1.5563
   3186.1902
       7.4456      47.9061       0.0458      86.6295      63.6054      62.2938
       1.5749       1.6239       2.1177       2.0365       2.5144       0.1976
       4.2747       0.0280       2.5440    -999.2500      40.8251       2.4745
       1.7478
   3186.3425
       7.4472      48.7257       0.0444      87.2747      63.0824      62.8316
       1.5557       1.6015       2.1355       2.0931       6.0354       0.1980
       4.3475       0.0292       2.5546    -999.2500      40.5867       2.2235
       1.5984
   3186.4949
       7.4449      52.1849       0.0434      88.4260      62.9195      63.4129
       1.5500       1.5900       2.1409       2.1151       9.9143       0.1999
       4.4178       0.0308       2.5665    -999.2500      40.6520       2.5754
       1.1951
   3186.6475
       7.4389      54.0511       0.0489      89.5303      64.3697      64.0210
       1.5400       1.5753       2.1227       2.0873       7.9512       0.2040
       4.4018       0.0319       2.5678    -999.2500      41.3703       2.6765
       1.1488
   3186.7998
       7.4478      53.7064       0.0534      90.2759      66.2060      64.6700
       1.5300       1.5500       2.0876       2.0272       3.5531       0.2135
       4.2998       0.0324       2.5593    -999.2500      41.8908       2.3751
       1.3916
   3186.9521
       7.4220      50.2015       0.0475      90.6939      68.5764      65.7894
       1.4896       1.5196       2.0477       1.9560       2.2098       0.2325
       4.1487       0.0317       2.5501    -999.2500      41.8215       1.6660
       2.0457
   3187.1045
       7.4340      48.3544       0.0374      90.9131      69.5977      66.9543
       1.4696       1.5000       2.0419       1.9243       2.8769       0.2358
       4.1243       0.0311       2.5490    -999.2500      41.4628       1.3621
       2.3651
   3187.2571
       7.3978      50.6157       0.0329      91.0543      68.2682      68.4867
       1.4714       1.5114       2.0088       1.9065       4.5797       0.2281
       4.2063       0.0324       2.5577    -999.2500      41.0856       1.5023
       1.9653
   3187.4094
       7.4003      53.9961       0.0357      91.0887      68.2802      69.7492
       1.5147       1.5547       1.9064       1.8294       5.1854       0.2203
       4.2357       0.0335       2.5552    -999.2500      40.4644       2.0049
       1.5903
   3187.5618
       7.4280      61.3669       0.0408      90.7853      69.4909      70.1274
       1.5970       1.6309       1.8019       1.7613       3.0092       0.2202
       4.2301       0.0353       2.5268    -999.2500      40.3510       3.4152
       0.9045
