#------------------------------------------------------------------------------
#
#   Created by  : [OpenWorks] Log Export Utility (LEXP)
#   Created on  : 2016-05-19 10:22:34
#   Project     : CANT971
#   User        : R5K
#   Interpreter : PEP
#
#------------------------------------------------------------------------------
~VERSION INFORMATION
VERS. 2.0 : CWLS Log ASCII Standard - version 2.0
WRAP.  NO : One line per depth step
~WELL INFORMATION
#MNEMONIC   .UNIT                                           VALUE :DESCRIPTION
#------------------------------------------------------------------------------
STRT        .M                                           501.0914 :START DEPTH
STOP        .M                                          3797.8081 :STOP DEPTH
STEP        .M                                             0.1524 :STEP
NULL        .                                           -999.2500 :NULL VALUE
COMP        .                                   PEMEX EXPL & PROD :COMPANY
WELL        .                                                2076 :WELL
FLD         .                                           CANTARELL :FIELD
LOC         .                                             UNKNOWN :LOCATION
CNTY        .                                      CD. DEL CARMEN :COUNTY
STAT        .                                            CAMPECHE :STATE
CTRY        .                                              MEXICO :COUNTRY
SRVC        .                                             UNKNOWN :SERVICE COMPANY
DATE        .                                             UNKNOWN :LOG DATE
UWI         .                                          3060000519 :UNIQUE WELL ID
XCOORD      .                                       600031.350000 :SURFACE X
YCOORD      .                                      2139442.240000 :SURFACE Y
LAT         .                                           19.347648 :LATITUDE
LON         .                                          -92.047636 :LONGITUDE
ELEV        .M                                            27.4000 :SURFACE ELEV
ELEV_TYPE   .                                                  KB :ELEV TYPE
~CURVE INFORMATION
#MNEMONIC.UNIT        API CODE       : CURVE DESCRIPTION
#------------------------------------------------------------------------------
DEPTH    .M                          : Measured Depth
CALI     .inches      UNKNOWN        : CALI:UNKNOWN:rC:NONE:v0 (auto-composite)
DT       .us/ft       UNKNOWN        : DT:UNKNOWN:rC:NONE:v0 (auto-composite)
GR       .API         UNKNOWN        : GR:UNKNOWN:rC:NONE:v0 (auto-composite)
ILD      .ohm.m       UNKNOWN        : ILD:UNKNOWN:rC:NONE:v0 (auto-composite)
LLD      .ohm.m       UNKNOWN        : LLD:UNKNOWN:rC:NONE:v0 (auto-composite)
LLS      .ohm.m       UNKNOWN        : LLS:UNKNOWN:rC:NONE:v0 (auto-composite)
NPHI     .UNKNOWN     UNKNOWN        : NPHI:UNKNOWN:rC:NONE:v0 (auto-composite)
RHOB     .g/cm3       UNKNOWN        : RHOB:UNKNOWN:rC:NONE:v0 (auto-composite)
SIGM     .UNKNOWN     UNKNOWN        : SIGM:UNKNOWN:rC:NONE:v0 (auto-composite)
TAU      .UNKNOWN     UNKNOWN        : TAU:UNKNOWN:rC:NONE:v0 (auto-composite)
~A     DEPTH         CALI           DT           GR          ILD          LLD          LLS         NPHI         RHOB         SIGM          TAU
# ...
   3616.1475       6.5600      60.3990      27.2620    -999.2500    -999.2500    -999.2500       0.1300       2.7700       9.5710     510.5490
   3616.2998       6.5600      63.8549      31.4342    -999.2500    -999.2500    -999.2500       0.1299       2.7600       9.7311     506.1721
   3616.4521       6.5600      67.3000      35.6000    -999.2500    -999.2500    -999.2500       0.1266       2.7500       9.8910     501.7950
   3616.6045       6.5600      62.6931      34.6018    -999.2500    -999.2500    -999.2500       0.1205       2.7555       9.9455     484.7840
   3616.7571       6.5600      58.1000      33.6050    -999.2500    -999.2500    -999.2500       0.1121       2.7610      10.0000     467.7970
   3616.9094       6.5600      58.2517      31.0423    -999.2500    -999.2500    -999.2500       0.1015       2.7820       9.8654     470.8134
   3617.0618       6.5600      58.4030      28.4830    -999.2500    -999.2500    -999.2500       0.0933       2.8030       9.7310     473.8260
   3617.2141       6.4999      62.3069      26.2697    -999.2500    -999.2500    -999.2500       0.0923       2.8215       9.4558     486.0316
   3617.3667       6.4400      66.2000      24.0590    -999.2500    -999.2500    -999.2500       0.0935       2.8400       9.1810     498.2230
   3617.5190       6.4495      65.3243      22.4607    -999.2500    -999.2500    -999.2500       0.0924       2.8350       9.0915     511.6500
   3617.6714       6.4590      64.4510      20.8640    -999.2500    -999.2500    -999.2500       0.0894       2.8300       9.0020     525.0630
   3617.8237       6.5281      58.9686      19.9336    -999.2500    -999.2500    -999.2500       0.0841       2.8415       7.2827     522.9280
   3617.9763       6.5970      53.5000      19.0040    -999.2500    -999.2500    -999.2500       0.0794       2.8530       5.5650     520.7950
   3618.1287       6.6936      54.1127      18.3337    -999.2500    -999.2500    -999.2500       0.0781       2.8850    -999.2500     512.9564
   3618.2810       6.7900      54.7240      17.6640    -999.2500       1.1290    -999.2500       0.0787       2.9170    -999.2500     505.1240
   3618.4333       6.7349      55.7139      17.1933    -999.2500       6.3437    -999.2500       0.0799       2.9436    -999.2500     493.8278
   3618.5857       6.6800      56.7000      16.7230    -999.2500      11.5550    -999.2500       0.0816       2.9700    -999.2500     482.5390
   3618.7383       6.6995      56.7501      16.1609    -999.2500      41.0264    -999.2500       0.0839       2.9545    -999.2500     473.8687
   3618.8906       6.7190      56.8000      15.6000    -999.2500      70.4820       2.9700       0.0866       2.9390    -999.2500     465.2030
   3619.0430       6.7496      56.7614      15.6971    -999.2500     129.2776      16.0216       0.0891       2.8949    -999.2500     467.5455
   3619.1953       6.7800      56.7230      15.7940    -999.2500     188.0490      28.9430       0.0902       2.8510    -999.2500     469.8870
   3619.3479       6.7800      54.9584      16.5302    -999.2500     659.0919      67.9777       0.0884       2.8004    -999.2500     477.4056
   3619.5002       6.7800      53.2000      17.2650    -999.2500    1130.0000     106.6280       0.0814       2.7500    -999.2500     484.9220
   3619.6526       6.7800      53.4349      18.5742    -999.2500    1102.1877     171.3614       0.0664       2.7600    -999.2500     482.8653
   3619.8049       6.7800      53.6690      19.8810    -999.2500    1074.3800     235.4650       0.0522       2.7700    -999.2500     480.8090
   3619.9575       6.7249      56.1515      21.7836    -999.2500     869.1574     361.3365       0.0477       2.7660    -999.2500     472.1884
   3620.1099       6.6700      58.6260      23.6830    -999.2500     663.9420     486.0000       0.0481       2.7620    -999.2500     463.5680
   3620.2622       6.6700      63.6498      28.1949    -999.2500     465.8025     452.7896       0.0494       2.7520    -999.2500     449.9021
   3620.4146       6.6700      68.6580      32.7000    -999.2500     267.6450     419.8940       0.0520       2.7420    -999.2500     436.2350
   3620.5669       6.6840      74.1872      31.9995    -999.2500     202.8900     336.8740       0.0565       2.7320    -999.2500     425.1803
   3620.7195       6.6980      79.7000      31.3000    -999.2500     138.1210     254.6300       0.0603       2.7220    -999.2500     414.1410
   3620.8718       6.7446      76.9486      31.5967    -999.2500     108.5656     182.9843       0.0606       2.7110    -999.2500     418.5172
   3621.0242       6.7910      74.2050      31.8930    -999.2500      79.0000     112.0000       0.0586       2.7000    -999.2500     422.8880
   3621.1765       6.9042      65.7910      34.2979    -999.2500     101.8967     124.8409       0.0554       2.7100    -999.2500     434.3780
   3621.3291       7.0170      57.4000      36.7000    -999.2500     124.8040     137.5650       0.0511       2.7200    -999.2500     445.8550
   3621.4814       7.2738      58.2010      36.5209    -999.2500     204.9532     198.2234       0.0458       2.7450    -999.2500     453.7360
   3621.6338       7.5300      59.0000      36.3420    -999.2500     285.1500     258.3370       0.0414       2.7700    -999.2500     461.6090
   3621.7861       7.4920      57.8596      34.8203    -999.2500     328.0596     392.3581       0.0400       2.7660    -999.2500     460.0783
   3621.9387       7.4540      56.7220      33.3000    -999.2500     371.0000     525.1930       0.0401       2.7620    -999.2500     458.5490
   3622.0911       7.3268      54.9289      33.3000    -999.2500     349.0093     663.5888       0.0405       2.7520    -999.2500     454.6520
   3622.2434       7.2000      53.1400      33.3000    -999.2500     327.0000     800.7760       0.0411       2.7420    -999.2500     450.7580
   3622.3958       7.0748      52.6771      33.8502    -999.2500     341.1765     864.6628       0.0421       2.7310    -999.2500      11.6941
   3622.5481       6.9500      52.2160      34.4000    -999.2500     355.3440     928.0000       0.0428       2.7200    -999.2500    -427.0920
   3622.7007       6.9159      51.1059      34.3394    -999.2500     392.6760     864.7316       0.0425       2.7240    -999.2500    -418.5008
   3622.8530       6.8820      50.0000      34.2790    -999.2500     429.9890     802.0000       0.0413       2.7280    -999.2500    -409.9140
   3623.0054       6.8414      50.2029      33.4186    -999.2500     521.6185     809.2307       0.0392       2.7340    -999.2500    -339.7986
   3623.1577       6.8010      50.4050      32.5600    -999.2500     613.2130     816.4010       0.0373       2.7400    -999.2500    -269.7100
   3623.3103       6.6803      51.7213      30.5782    -999.2500     762.8226     860.4227       0.0367       2.7360    -999.2500    -181.6177
   3623.4626       6.5600      53.0330      28.6000    -999.2500     912.3940     904.0820       0.0374       2.7320    -999.2500     -93.5480
   3623.6150       6.5765      56.5223      32.4608    -999.2500    1216.2168     957.2990       0.0394       2.7055    -999.2500     -87.9161
   3623.7673       6.5930      60.0000      36.3150    -999.2500    1520.0000    1010.0000       0.0451       2.6790    -999.2500     -82.2850
   3623.9199       6.6676      66.1819      48.3587    -999.2500    1392.7262     824.5023       0.0570       2.6269    -999.2500     -82.2850
   3624.0723       6.7420      72.3440      60.3830    -999.2500    1265.4530     640.7790       0.0739       2.5750    -999.2500     -82.2850
   3624.2246       6.8882      80.5777      72.3919    -999.2500     815.0298     420.1441       0.0948       2.5159    -999.2500     -41.1450
   3624.3770       7.0340      88.7860      84.3830    -999.2500     364.5520     201.5940       0.1161       2.4570    -999.2500       0.0000
   3624.5293       7.2463      96.4042      89.2548    -999.2500     212.4683     133.0974       0.1345       2.3884    -999.2500    -999.2500
