#------------------------------------------------------------------------------
#
#   Created by  : [OpenWorks] Log Export Utility (LEXP)
#   Created on  : 2016-05-19 10:22:34
#   Project     : CANT971
#   User        : R5K
#   Interpreter : PEP
#
#------------------------------------------------------------------------------
~VERSION INFORMATION
VERS. 2.0 : CWLS Log ASCII Standard - version 2.0
WRAP.  NO : One line per depth step
~WELL INFORMATION
#MNEMONIC   .UNIT                                           VALUE :DESCRIPTION
#------------------------------------------------------------------------------
STRT        .M                                           501.0914 :START DEPTH
STOP        .M                                          3797.8081 :STOP DEPTH
STEP        .M                                             0.1524 :STEP
NULL        .                                           -999.2500 :NULL VALUE
COMP        .                                   PEMEX EXPL & PROD :COMPANY
WELL        .                                                2076 :WELL
FLD         .                                           CANTARELL :FIELD
LOC         .                                             UNKNOWN :LOCATION
CNTY        .                                      CD. DEL CARMEN :COUNTY
STAT        .                                            CAMPECHE :STATE
CTRY        .                                              MEXICO :COUNTRY
SRVC        .                                             UNKNOWN :SERVICE COMPANY
DATE        .                                             UNKNOWN :LOG DATE
UWI         .                                          3060000519 :UNIQUE WELL ID
XCOORD      .                                       600031.350000 :SURFACE X
YCOORD      .                                      2139442.240000 :SURFACE Y
LAT         .                                           19.347648 :LATITUDE
LON         .                                          -92.047636 :LONGITUDE
ELEV        .M                                            27.4000 :SURFACE ELEV
ELEV_TYPE   .                                                  KB :ELEV TYPE
~CURVE INFORMATION
#MNEMONIC.UNIT        API CODE       : CURVE DESCRIPTION
#------------------------------------------------------------------------------
DEPTH    .M                          : Measured Depth
CALI     .inches      UNKNOWN        : CALI:UNKNOWN:rC:NONE:v0 (auto-composite)
DT       .us/ft       UNKNOWN        : DT:UNKNOWN:rC:NONE:v0 (auto-composite)
GR       .API         UNKNOWN        : GR:UNKNOWN:rC:NONE:v0 (auto-composite)
ILD      .ohm.m       UNKNOWN        : ILD:UNKNOWN:rC:NONE:v0 (auto-composite)
LLD      .ohm.m       UNKNOWN        : LLD:UNKNOWN:rC:NONE:v0 (auto-composite)
LLS      .ohm.m       UNKNOWN        : LLS:UNKNOWN:rC:NONE:v0 (auto-composite)
NPHI     .UNKNOWN     UNKNOWN        : NPHI:UNKNOWN:rC:NONE:v0 (auto-composite)
RHOB     .g/cm3       UNKNOWN        : RHOB:UNKNOWN:rC:NONE:v0 (auto-composite)
SIGM     .UNKNOWN     UNKNOWN        : SIGM:UNKNOWN:rC:NONE:v0 (auto-composite)
TAU      .UNKNOWN     UNKNOWN        : TAU:UNKNOWN:rC:NONE:v0 (auto-composite)
~A     DEPTH         CALI           DT           GR          ILD          LLD          LLS         NPHI         RHOB         SIGM          TAU
# ...
   3658.8193       6.4400      73.4350      23.5000    -999.2500     488.0000     368.9150       0.0351       2.7640    -999.2500    -999.2500
   3658.9717       6.4400      71.3737      24.0960    -999.2500     483.0001     343.8578       0.0343       2.7820    -999.2500    -999.2500
   3659.1243       6.4400      69.3190      24.6910    -999.2500     478.0000     319.0000       0.0339       2.8000    -999.2500    -999.2500
   3659.2766       6.4400      62.3489      26.3467    -999.2500     491.4990     356.6474       0.0346       2.7850    -999.2500    -999.2500
   3659.4290       6.4400      55.4000      28.0000    -999.2500     505.0000     394.0000       0.0358       2.7700    -999.2500    -999.2500
   3659.5813       6.4570      58.5671      27.8289    -999.2500     458.0684     379.8891       0.0373       2.7700    -999.2500    -999.2500
   3659.7339       6.4740      61.7250      27.6580    -999.2500     411.1240     365.8870       0.0387       2.7700    -999.2500    -999.2500
   3659.8862       6.5040      72.6778      26.5864    -999.2500     342.2347     297.6850       0.0395       2.7700    -999.2500    -999.2500
   3660.0386       6.5340      83.6000      25.5160    -999.2500     273.3180     230.0000       0.0399       2.7700    -999.2500    -999.2500
   3660.1909       6.5470      81.7941      22.9566    -999.2500     246.6446     254.0899       0.0400       2.7650    -999.2500    -999.2500
   3660.3435       6.5600      79.9930      20.4000    -999.2500     220.0000     278.0000       0.0400       2.7600    -999.2500    -999.2500
   3660.4958       6.5545      74.1891      21.0598    -999.2500     232.5060     258.8860       0.0400       2.7685    -999.2500    -999.2500
   3660.6482       6.5490      68.4000      21.7190    -999.2500     245.0000     239.9120       0.0400       2.7770    -999.2500    -999.2500
   3660.8005       6.4944      72.3177      23.6778    -999.2500     186.9760     204.5008       0.0400       2.7935    -999.2500    -999.2500
   3660.9529       6.4400      76.2260      25.6350    -999.2500     129.0000     169.3450       0.0398       2.8100    -999.2500    -999.2500
   3661.1055       6.4400      79.6670      27.8713    -999.2500     131.5584     151.1079       0.0391       2.8015    -999.2500    -999.2500
   3661.2578       6.4400      83.1000      30.1060    -999.2500     134.1150     133.0000       0.0385       2.7930    -999.2500    -999.2500
   3661.4102       6.4400      76.7911      31.6474    -999.2500     191.9502     168.8960       0.0385       2.7805    -999.2500    -999.2500
   3661.5625       6.4400      70.4960      33.1880    -999.2500     249.7520     204.5420       0.0396       2.7680    -999.2500    -999.2500
   3661.7151       6.4400      61.6389      34.7086    -999.2500     425.2405     316.0770       0.0426       2.7590    -999.2500    -999.2500
   3661.8674       6.4400      52.8000      36.2260    -999.2500     600.6500     426.8500       0.0455       2.7500    -999.2500    -999.2500
   3662.0198       6.4400      53.2945      38.5923    -999.2500     980.3867     555.7622       0.0462       2.7500    -999.2500    -999.2500
   3662.1721       6.4400      53.7880      40.9540    -999.2500    1360.0000     683.8090       0.0454       2.7500    -999.2500    -999.2500
   3662.3247       6.4400      54.7949      43.2290    -999.2500    1248.5314     777.2119       0.0436       2.7530    -999.2500    -999.2500
   3662.4771       6.4400      55.8000      45.5000    -999.2500    1137.0850     870.0000       0.0411       2.7560    -999.2500    -999.2500
   3662.6294       6.4605      54.4979      42.0972    -999.2500     916.3339     767.8524       0.0380       2.7730    -999.2500    -999.2500
   3662.7817       6.4810      53.2000      38.7000    -999.2500     695.5990     666.3650       0.0355       2.7900    -999.2500    -999.2500
   3662.9341       6.5100      53.4504      39.7533    -999.2500     521.8040     523.6165       0.0351       2.7810    -999.2500    -999.2500
   3663.0867       6.5390      53.7000      40.8050    -999.2500     348.0000     382.0000       0.0359       2.7720    -999.2500    -999.2500
   3663.2390       6.5495      53.5237      44.3050    -999.2500     458.5852     497.8693       0.0377       2.7610    -999.2500    -999.2500
   3663.3914       6.5600      53.3480      47.8000    -999.2500     569.1900     612.8350       0.0390       2.7500    -999.2500    -999.2500
   3663.5437       6.5600      51.7717      47.4178    -999.2500     954.5366     832.2601       0.0386       2.7500    -999.2500    -999.2500
   3663.6963       6.5600      50.2000      47.0360    -999.2500    1340.0000    1050.0000       0.0374       2.7500    -999.2500    -999.2500
   3663.8486       6.5600      50.2295      44.9168    -999.2500    1166.7747     951.2297       0.0362       2.7550    -999.2500    -999.2500
   3664.0010       6.5600      50.2590      42.8000    -999.2500     993.4750     853.2050       0.0357       2.7600    -999.2500    -999.2500
   3664.1533       6.5365      50.8703      44.5124    -999.2500     747.0519     666.2775       0.0369       2.7510    -999.2500    -999.2500
   3664.3059       6.5130      51.4800      46.2230    -999.2500     500.8870     480.7390       0.0391       2.7420    -999.2500    -999.2500
   3664.4583       6.4765      52.6600      50.0137    -999.2500     368.3824     383.5146       0.0417       2.7210    -999.2500    -999.2500
   3664.6106       6.4400      53.8370      53.8010    -999.2500     236.0000     287.0000       0.0441       2.7000    -999.2500    -999.2500
   3664.7629       6.4400      54.6194      57.4520    -999.2500     265.5623     310.1486       0.0456       2.7060    -999.2500    -999.2500
   3664.9153       6.4400      55.4000      61.1000    -999.2500     295.1010     333.1310       0.0463       2.7120    -999.2500    -999.2500
   3665.0679       6.4400      54.8994      59.8816    -999.2500     463.5255     441.1955       0.0460       2.7190    -999.2500    -999.2500
   3665.2202       6.4400      54.4000      58.6640    -999.2500     631.8370     548.4980       0.0448       2.7260    -999.2500    -999.2500
   3665.3726       6.4400      54.4000      54.1963    -999.2500    1046.0314     749.9472       0.0426       2.7310    -999.2500    -999.2500
   3665.5249       6.4400      54.4000      49.7310    -999.2500    1460.0000     950.0000       0.0406       2.7360    -999.2500    -999.2500
   3665.6775       6.4400      53.0987      44.8125    -999.2500    1269.8816     860.6446       0.0400       2.7380    -999.2500    -999.2500
   3665.8298       6.4400      51.8000      39.9040    -999.2500    1079.8430     771.8970       0.0400       2.7400    -999.2500    -999.2500
   3665.9822       6.4400      52.8510      36.2415    -999.2500     834.4419     627.1147       0.0400       2.7460    -999.2500    -999.2500
   3666.1345       6.4400      53.9000      32.5860    -999.2500     589.1130     483.3000       0.0401       2.7520    -999.2500    -999.2500
   3666.2871       6.4400      53.7799      30.0407    -999.2500     461.5457     431.9819       0.0402       2.7560    -999.2500    -999.2500
   3666.4395       6.4400      53.6600      27.5000    -999.2500     334.0000     381.0000       0.0408       2.7600    -999.2500    -999.2500
   3666.5918       6.4400      53.0791      29.2514    -999.2500     356.2120     422.7412       0.0419       2.7690    -999.2500    -999.2500
   3666.7441       6.4400      52.5000      31.0000    -999.2500     378.4230     464.2140       0.0428       2.7780    -999.2500    -999.2500
   3666.8965       6.4400      52.8505      30.8499    -999.2500     436.5871     506.2731       0.0426       2.7840    -999.2500    -999.2500
   3667.0491       6.4400      53.2000      30.7000    -999.2500     494.7560     548.0000       0.0417       2.7900    -999.2500    -999.2500
   3667.2014       6.4400      52.9276      31.0933    -999.2500     534.9603     539.9688       0.0403       2.7840    -999.2500    -999.2500
