#------------------------------------------------------------------------------
#
#   Created by  : [OpenWorks] Log Export Utility (LEXP)
#   Created on  : 2016-05-19 10:22:34
#   Project     : CANT971
#   User        : R5K
#   Interpreter : PEP
#
#------------------------------------------------------------------------------
~VERSION INFORMATION
VERS. 2.0 : CWLS Log ASCII Standard - version 2.0
WRAP.  NO : One line per depth step
~WELL INFORMATION
#MNEMONIC   .UNIT                                           VALUE :DESCRIPTION
#------------------------------------------------------------------------------
STRT        .M                                           501.0914 :START DEPTH
STOP        .M                                          3797.8081 :STOP DEPTH
STEP        .M                                             0.1524 :STEP
NULL        .                                           -999.2500 :NULL VALUE
COMP        .                                   PEMEX EXPL & PROD :COMPANY
WELL        .                                                2076 :WELL
FLD         .                                           CANTARELL :FIELD
LOC         .                                             UNKNOWN :LOCATION
CNTY        .                                      CD. DEL CARMEN :COUNTY
STAT        .                                            CAMPECHE :STATE
CTRY        .                                              MEXICO :COUNTRY
SRVC        .                                             UNKNOWN :SERVICE COMPANY
DATE        .                                             UNKNOWN :LOG DATE
UWI         .                                          3060000519 :UNIQUE WELL ID
XCOORD      .                                       600031.350000 :SURFACE X
YCOORD      .                                      2139442.240000 :SURFACE Y
LAT         .                                           19.347648 :LATITUDE
LON         .                                          -92.047636 :LONGITUDE
ELEV        .M                                            27.4000 :SURFACE ELEV
ELEV_TYPE   .                                                  KB :ELEV TYPE
~CURVE INFORMATION
#MNEMONIC.UNIT        API CODE       : CURVE DESCRIPTION
#------------------------------------------------------------------------------
DEPTH    .M                          : Measured Depth
CALI     .inches      UNKNOWN        : CALI:UNKNOWN:rC:NONE:v0 (auto-composite)
DT       .us/ft       UNKNOWN        : DT:UNKNOWN:rC:NONE:v0 (auto-composite)
GR       .API         UNKNOWN        : GR:UNKNOWN:rC:NONE:v0 (auto-composite)
ILD      .ohm.m       UNKNOWN        : ILD:UNKNOWN:rC:NONE:v0 (auto-composite)
LLD      .ohm.m       UNKNOWN        : LLD:UNKNOWN:rC:NONE:v0 (auto-composite)
LLS      .ohm.m       UNKNOWN        : LLS:UNKNOWN:rC:NONE:v0 (auto-composite)
NPHI     .UNKNOWN     UNKNOWN        : NPHI:UNKNOWN:rC:NONE:v0 (auto-composite)
RHOB     .g/cm3       UNKNOWN        : RHOB:UNKNOWN:rC:NONE:v0 (auto-composite)
SIGM     .UNKNOWN     UNKNOWN        : SIGM:UNKNOWN:rC:NONE:v0 (auto-composite)
TAU      .UNKNOWN     UNKNOWN        : TAU:UNKNOWN:rC:NONE:v0 (auto-composite)
~A     DEPTH         CALI           DT           GR          ILD          LLD          LLS         NPHI         RHOB         SIGM          TAU
# ...
   3752.6978       6.0000      50.9920      18.6800    -999.2500     204.6620     226.6260       0.0293       2.7800    -999.2500    -999.2500
   3752.8501       6.0000      51.3462      19.3830    -999.2500     224.8446     248.8457       0.0313       2.8000    -999.2500    -999.2500
   3753.0027       6.0000      51.7000      20.0850    -999.2500     245.0000     271.0000       0.0333       2.8200    -999.2500    -999.2500
   3753.1550       5.9850      51.6009      21.2932    -999.2500     237.4954     257.1079       0.0350       2.8200    -999.2500    -999.2500
   3753.3074       5.9700      51.5020      22.5000    -999.2500     230.0000     243.2550       0.0367       2.8200    -999.2500    -999.2500
   3753.4597       5.9300      51.3009      21.0102    -999.2500     230.9930     241.1246       0.0367       2.8250    -999.2500    -999.2500
   3753.6123       5.8900      51.1000      19.5220    -999.2500     231.9850     239.0000       0.0367       2.8300    -999.2500    -999.2500
   3753.7646       5.8900      51.1000      18.4605    -999.2500     252.3598     250.9348       0.0378       2.8050    -999.2500    -999.2500
   3753.9170       5.8900      51.1000      17.4000    -999.2500     272.7150     262.8390       0.0389       2.7800    -999.2500    -999.2500
   3754.0693       5.8900      51.1000      18.9932    -999.2500     279.3283     280.3654       0.0394       2.7650    -999.2500    -999.2500
   3754.2217       5.8900      51.1000      20.5850    -999.2500     285.9360     297.8210       0.0400       2.7500    -999.2500    -999.2500
   3754.3743       5.9451      51.1000      20.7926    -999.2500     288.4589     314.8719       0.0398       2.7550    -999.2500    -999.2500
   3754.5266       6.0000      51.1000      21.0000    -999.2500     290.9800     331.8560       0.0396       2.7600    -999.2500    -999.2500
   3754.6790       6.0200      51.1000      20.4999    -999.2500     306.9948     335.9292       0.0376       2.7550    -999.2500    -999.2500
   3754.8313       6.0400      51.1000      20.0000    -999.2500     323.0000     339.9870       0.0356       2.7500    -999.2500    -999.2500
   3754.9839       6.0750      50.9498      20.0000    -999.2500     311.9974     376.0280       0.0345       2.7500    -999.2500    -999.2500
   3755.1362       6.1100      50.8000      20.0000    -999.2500     301.0000     411.9370       0.0333       2.7500    -999.2500    -999.2500
   3755.2886       6.1100      49.5488      19.4495    -999.2500     365.5110     421.4854       0.0333       2.7550    -999.2500    -999.2500
   3755.4409       6.1100      48.3000      18.9000    -999.2500     430.0000     431.0000       0.0333       2.7600    -999.2500    -999.2500
   3755.5935       6.0550      48.3015      18.9010    -999.2500     429.8620     400.8606       0.0333       2.7600    -999.2500    -999.2500
   3755.7458       6.0000      48.3030      18.9020    -999.2500     429.7240     370.8240       0.0333       2.7600    -999.2500    -999.2500
   3755.8982       6.0000      49.1047      19.5551    -999.2500     326.8574     304.3026       0.0333       2.7600    -999.2500    -999.2500
   3756.0505       6.0000      49.9050      20.2070    -999.2500     224.0000     238.0000       0.0333       2.7600    -999.2500    -999.2500
   3756.2029       6.0000      50.6531      21.3644    -999.2500     224.0025     238.0746       0.0340       2.7650    -999.2500    -999.2500
   3756.3555       6.0000      51.4000      22.5200    -999.2500     224.0050     238.1490       0.0347       2.7700    -999.2500    -999.2500
   3756.5078       5.9995      51.4505      26.5629    -999.2500     264.0313     282.1413       0.0357       2.7650    -999.2500    -999.2500
   3756.6602       5.9990      51.5010      30.6000    -999.2500     304.0000     326.0000       0.0367       2.7600    -999.2500    -999.2500
   3756.8125       5.9445      51.6026      28.1984    -999.2500     303.9635     325.9444       0.0367       2.7600    -999.2500    -999.2500
   3756.9651       5.8900      51.7040      25.8000    -999.2500     303.9270     325.8890       0.0367       2.7600    -999.2500    -999.2500
   3757.1174       5.8900      52.0092      27.3509    -999.2500     298.3252     271.8692       0.0367       2.7650    -999.2500    -999.2500
   3757.2698       5.8900      52.3140      28.9000    -999.2500     292.7300     218.0000       0.0367       2.7700    -999.2500    -999.2500
   3757.4221       5.8900      53.1074      28.8910    -999.2500     232.8332     218.1142       0.0372       2.7700    -999.2500    -999.2500
   3757.5747       5.8900      53.9000      28.8820    -999.2500     173.0000     218.2280       0.0376       2.7700    -999.2500    -999.2500
   3757.7271       5.8900      53.8910      28.0091    -999.2500     173.2386     230.1041       0.0388       2.7650    -999.2500    -999.2500
   3757.8794       5.8900      53.8820      27.1370    -999.2500     173.4770     241.9500       0.0400       2.7600    -999.2500    -999.2500
   3758.0317       5.8900      51.4900      20.9660    -999.2500     329.3018     345.0993       0.0400       2.7600    -999.2500    -999.2500
   3758.1841       5.8900      49.1000      14.8000    -999.2500     485.0000     448.0000       0.0400       2.7600    -999.2500    -999.2500
   3758.3367       5.8910      49.1065      14.8060    -999.2500     484.8675     410.4571       0.0400       2.7650    -999.2500    -999.2500
   3758.4890       5.8920      49.1130      14.8120    -999.2500     484.7350     373.0000       0.0400       2.7700    -999.2500    -999.2500
   3758.6414       5.9461      49.5570      15.2061    -999.2500     475.3044     373.2470       0.0397       2.7900    -999.2500    -999.2500
   3758.7937       6.0000      50.0000      15.6000    -999.2500     465.8790     373.4930       0.0394       2.8100    -999.2500    -999.2500
   3758.9463       6.0000      49.6496      15.5940    -999.2500     433.4324     389.6959       0.0363       2.8100    -999.2500    -999.2500
   3759.0986       6.0000      49.3000      15.5880    -999.2500     401.0000     405.8400       0.0333       2.8100    -999.2500    -999.2500
   3759.2510       6.0000      49.3000      14.1426    -999.2500     489.0136     432.3205       0.0333       2.7950    -999.2500    -999.2500
   3759.4033       6.0000      49.3000      12.7000    -999.2500     577.0000     458.7080       0.0333       2.7800    -999.2500    -999.2500
   3759.5559       6.0000      49.6503      12.7175    -999.2500     576.5071     480.3907       0.0333       2.7800    -999.2500    -999.2500
   3759.7083       6.0000      50.0000      12.7350    -999.2500     576.0150     502.0000       0.0333       2.7800    -999.2500    -999.2500
   3759.8606       5.9450      49.6998      13.6473    -999.2500     551.6989     501.4175       0.0316       2.8000    -999.2500    -999.2500
   3760.0129       5.8900      49.4000      14.5580    -999.2500     527.4230     500.8370       0.0300       2.8200    -999.2500    -999.2500
   3760.1653       5.8900      49.4035      15.9045    -999.2500     514.0858     474.4217       0.0300       2.8200    -999.2500    -999.2500
   3760.3179       5.8900      49.4070      17.2490    -999.2500     500.7690     448.0890       0.0300       2.8200    -999.2500    -999.2500
   3760.4702       5.8900      49.5621      18.3423    -999.2500     473.6915     369.4262       0.0308       2.8150    -999.2500    -999.2500
   3760.6226       5.8900      49.7170      19.4340    -999.2500     446.6520     291.0000       0.0315       2.8100    -999.2500    -999.2500
   3760.7749       5.8900      50.0677      20.1600    -999.2500     367.2751     291.1136       0.0325       2.7950    -999.2500    -999.2500
   3760.9275       5.8900      50.4180      20.8850    -999.2500     288.0000     291.2270       0.0334       2.7800    -999.2500    -999.2500
   3761.0798       5.8915      51.2095      22.5305    -999.2500     301.5078     297.1216       0.0367       2.7805    -999.2500    -999.2500
