#------------------------------------------------------------------------------
#
#   Created by  : [OpenWorks] Log Export Utility (LEXP)
#   Created on  : 2016-05-19 10:22:36
#   Project     : CANT971
#   User        : R5K
#   Interpreter : PEP
#
#------------------------------------------------------------------------------
~VERSION INFORMATION
VERS. 2.0 : CWLS Log ASCII Standard - version 2.0
WRAP. YES : Mulitple lines per depth step
~WELL INFORMATION
#MNEMONIC   .UNIT                                           VALUE :DESCRIPTION
#------------------------------------------------------------------------------
STRT        .M                                          2616.0618 :START DEPTH
STOP        .M                                          3329.4463 :STOP DEPTH
STEP        .M                                             0.1524 :STEP
NULL        .                                           -999.2500 :NULL VALUE
COMP        .                                             UNKNOWN :COMPANY
WELL        .                                            2076D-V2 :WELL
FLD         .                                             UNKNOWN :FIELD
LOC         .                                             UNKNOWN :LOCATION
CNTY        .                                             UNKNOWN :COUNTY
STAT        .                                             UNKNOWN :STATE
CTRY        .                                             UNKNOWN :COUNTRY
SRVC        .                                             UNKNOWN :SERVICE COMPANY
DATE        .                                             UNKNOWN :LOG DATE
UWI         .                                            2076D-V2 :UNIQUE WELL ID
XCOORD      .                                            0.000000 :SURFACE X
YCOORD      .                                            0.000000 :SURFACE Y
LAT         .                                            0.000000 :LATITUDE
LON         .                                          -97.488695 :LONGITUDE
ELEV        .M                                             0.0000 :SURFACE ELEV
ELEV_TYPE   .                                                  KB :ELEV TYPE
~CURVE INFORMATION
#MNEMONIC.UNIT        API CODE       : CURVE DESCRIPTION
#------------------------------------------------------------------------------
DEPTH    .M                          : Measured Depth
CALI     .UNKNOWN     UNKNOWN        : CALI:litodensidad:rC:NONE:v0 (auto-composite)
CGR      .API         UNKNOWN        : CGR:Espectrometria:rC:NONE:v0 (auto-composite)
DRHO     .g/cm3       UNKNOWN        : DRHO:litodensidad:rC:NONE:v0 (auto-composite)
DT       .us/ft       UNKNOWN        : DT:sonico:rC:NONE:v0 (auto-composite)
GR       .API         UNKNOWN        : GR:Espectrometria:rC:NONE:v0 (auto-composite)
GR-LWD   .API         UNKNOWN        : GR-LWD:PETROWORKS:rC:NONE:v1 
ILD-LWD  .UNKNOWN     UNKNOWN        : ILD-LWD:PETROWORKS:rC:NONE:v1 
ILM-LWD  .UNKNOWN     UNKNOWN        : ILM-LWD:PETROWORKS:rC:NONE:v1 
LLD      .ohm.m       UNKNOWN        : LLD:resistivos:rC:NONE:v0 (auto-composite)
LLS      .ohm.m       UNKNOWN        : LLS:resistivos:rC:NONE:v0 (auto-composite)
MSFL     .ohm.m       UNKNOWN        : MSFL:resistivos:rC:NONE:v0 (auto-composite)
NPHI     .UNKNOWN     UNKNOWN        : NPHI:porosidad:rC:NONE:v0 (auto-composite)
PEF      .UNKNOWN     UNKNOWN        : PEF:litodensidad:rC:NONE:v0 (auto-composite)
POTA     .wtpercent   UNKNOWN        : POTA:Espectrometria:rC:NONE:v0 (auto-composite)
RHOB     .g/cm3       UNKNOWN        : RHOB:litodensidad:rC:NONE:v0 (auto-composite)
SIGM     .UNKNOWN     UNKNOWN        : SIGM:TMDL:rC:NONE:v0 (auto-composite)
SP       .UNKNOWN     UNKNOWN        : SP:resistivos:rC:NONE:v0 (auto-composite)
THOR     .UNKNOWN     UNKNOWN        : THOR:Espectrometria:rC:NONE:v0 (auto-composite)
URAN     .UNKNOWN     UNKNOWN        : URAN:Espectrometria:rC:NONE:v0 (auto-composite)
~A
# ...
   3197.1631
       7.3520      57.4776       0.0606      76.0182      59.3364      50.3163
       1.9352       1.9726       2.4936       2.3257       2.0772       0.2010
       4.3934       0.0238       2.5431    -999.2500      35.7979       6.8762
       0.2069
   3197.3154
       7.4240      56.1198       0.0368      73.7554      57.7012      48.1060
       2.0123       2.0392       2.6532       2.5223       1.6588       0.2008
       4.3544       0.0225       2.5624    -999.2500      35.2323       6.9965
       0.1760
   3197.4678
       7.3457      44.7482       0.0075      72.6472      51.7298      46.7291
       2.1275       2.1375       2.8901       2.8025       1.6728       0.1647
       4.3701       0.0199       2.5886    -999.2500      34.7316       4.7950
       0.7773
   3197.6201
       7.2937      37.4977      -0.0029      72.8512      48.8194      44.5772
       2.2461       2.2341       3.2452       3.1480       2.4429       0.1368
       4.4576       0.0193       2.6036    -999.2500      35.0154       2.9682
       1.2605
   3197.7725
       7.2799      34.7358       0.0045      73.7609      46.7900      43.5637
       2.4043       2.3698       3.4616       3.3062       2.9620       0.1185
       4.5637       0.0200       2.6160    -999.2500      35.3470       1.8997
       1.3420
   3197.9250
       7.3013      37.9180       0.0096      74.5285      45.8905      41.7622
       2.5775       2.5400       3.4670       3.2381       3.5749       0.1194
       4.5457       0.0215       2.6148    -999.2500      35.4286       2.2168
       0.8876
   3198.0774
       7.2938      41.4694       0.0103      74.4998      46.4100      40.1402
       2.6386       2.6086       3.2907       3.0293       3.5460       0.1297
       4.4875       0.0226       2.6089    -999.2500      35.5189       2.8129
       0.5501
   3198.2297
       7.2749      42.7461       0.0104      73.2982      47.3994      38.2645
       2.8206       2.7877       3.1438       2.8626       3.3321       0.1378
       4.5155       0.0234       2.6097    -999.2500      35.3119       2.8581
       0.5181
   3198.3821
       7.2722      40.2648       0.0086      71.0770      47.5326      36.3398
       3.1703       3.1220       3.1104       2.8414       3.6073       0.1388
       4.5826       0.0228       2.6113    -999.2500      35.5696       2.3809
       0.8091
   3198.5347
       7.2676      36.4157       0.0022      68.2587      45.3745      33.6894
       3.7623       3.7023       3.5217       3.2914       3.9065       0.1290
       4.6062       0.0214       2.6068    -999.2500      35.9799       1.8190
       0.9974
   3198.6870
       7.2535      32.5081      -0.0036      65.5163      41.9959      31.6946
       4.4876       4.4450       4.3130       4.2487       3.8000       0.1125
       4.5890       0.0194       2.6072    -999.2500      36.2557       1.5342
       1.0563
   3198.8394
       7.1957      27.3173      -0.0067      63.4452      37.3723      29.3420
       5.3229       5.2729       5.7436       5.7619       4.0855       0.0908
       4.6196       0.0165       2.6183    -999.2500      36.0224       1.2148
       1.1195
   3198.9917
       7.1575      23.8531      -0.0057      62.3610      33.8063      27.4403
       5.8861       5.8361       7.1734       7.2364       7.0748       0.0773
       4.7138       0.0149       2.6294    -999.2500      35.9940       0.8452
       1.1081
   3199.1443
       7.1595      20.7220      -0.0025      62.3394      32.4980      26.5699
       6.1541       6.0753       8.0530       8.0773      16.6807       0.0660
       4.7970       0.0142       2.6413    -999.2500      35.3656       0.2507
       1.3110
   3199.2966
       7.1549      19.6493       0.0016      63.3304      32.6256      26.5827
       6.1328       6.0235       7.9587       8.1780      29.2555       0.0619
       4.8048       0.0139       2.6558    -999.2500      34.3510       0.0739
       1.4447
   3199.4490
       7.1423      19.6694       0.0069      64.9812      33.5378      28.0092
       5.7580       5.6778       7.4271       8.0577      19.6521       0.0644
       4.7921       0.0139       2.6716    -999.2500      33.6822       0.0695
       1.5440
   3199.6013
       7.1161      19.6907       0.0099      66.7770      34.9082      29.7900
       5.2000       5.1500       6.5247       7.4925      13.6085       0.0689
       4.7797       0.0139       2.6771    -999.2500      33.1290       0.0721
       1.6942
   3199.7537
       7.1275      19.2170       0.0142      68.4081      36.9428      32.3059
       4.5004       4.4704       5.8175       7.0205      12.1658       0.0754
       4.7452       0.0135       2.6775    -999.2500      32.8057       0.0801
       1.9734
   3199.9062
       7.1339      17.7159       0.0148      69.9411      37.7820      33.5007
       3.7425       3.7325       5.0539       6.1831      10.5848       0.0831
       4.6581       0.0124       2.6732    -999.2500      32.5171       0.1019
       2.2340
   3200.0586
       7.1222      16.7519       0.0103      71.5680      38.0032      34.2584
       3.0843       3.0626       4.3182       5.3189       8.0570       0.0992
       4.4971       0.0109       2.6615    -999.2500      33.0791       0.4407
       2.3660
   3200.2109
       7.0788      18.0407       0.0189      73.2309      39.4588      35.3027
       2.4260       2.3649       3.2962       4.0451       4.8590       0.1098
       4.4850       0.0101       2.6408      10.1046      33.9872       1.0953
       2.3846
   3200.3633
       6.9946      21.8743       0.0530      74.6065      41.7639      36.3046
       1.8417       1.7590       2.5892       3.2198       4.3033       0.1526
       4.4619       0.0111       2.5191      10.0853      34.4149       1.8059
       2.2144
   3200.5159
       6.9978      24.2156       0.0799      75.1532      43.8870      37.7874
       1.4568       1.3605       1.7451       2.1807      12.2106       0.2054
       4.2854       0.0118       2.3640       9.7343      34.6334       2.1838
       2.1901
   3200.6682
       7.0284      26.0164       0.0966      74.5462      46.6883      39.4512
       1.7263       1.4600       1.3282       1.6414      21.3186       0.2965
       4.0579       0.0121       2.1761       9.1740      35.5494       2.5687
       2.3015
   3200.8206
       7.2022      24.3829       0.0893      72.4261      49.1146      40.6197
       2.7678       2.2049       1.2469       1.5185      13.8087       0.3699
       3.9760       0.0113       2.1102       8.5506      36.4806       2.4411
       2.7535
   3200.9729
       7.5053      19.6665       0.0583      69.1063      50.9800      40.0106
       4.4859       3.7959       1.5317       1.9123       4.8416       0.3612
       4.0329       0.0090       2.2252       7.9916      36.6649       1.9998
       3.4862
   3201.1255
       7.4960      13.9981       0.0348      64.9914      50.7332      38.9768
       7.0790       6.6347       3.2580       4.9067       1.7599       0.2959
       4.1844       0.0063       2.3959       7.5970      36.1173       1.4666
       4.0899
   3201.2778
       7.3889      10.2187       0.0132      60.7921      48.8733      37.8657
      10.1782      10.0536       6.4617      11.2639       4.4238       0.2089
       4.3197       0.0044       2.5345       7.5030      36.1941       1.1336
       4.3035
   3201.4302
       7.0899       7.7881      -0.0060      57.5401      46.1541      37.2144
      12.6568      13.1629      15.0477      25.0485      20.1043       0.1153
       4.3323       0.0028       2.5950       7.5000      37.2580       1.0985
       4.2714
   3201.5825
       6.9623       7.6259      -0.0081      55.9218      44.6249      37.2080
      15.8174      16.7447      29.0773      39.6403      28.1708       0.0837
       4.2886       0.0027       2.5973       7.5000      39.1093       1.1088
       4.1193
   3201.7349
       6.9562       7.8059      -0.0060      55.9671      44.1543      37.7720
      19.2067      20.1407      41.6170      49.6594      18.4126       0.0864
       4.2553       0.0030       2.5790       7.5000      41.5723       1.0255
       4.0468
