#------------------------------------------------------------------------------
#
#   Created by  : [OpenWorks] Log Export Utility (LEXP)
#   Created on  : 2016-05-19 10:22:35
#   Project     : CANT971
#   User        : R5K
#   Interpreter : PEP
#
#------------------------------------------------------------------------------
~VERSION INFORMATION
VERS. 2.0 : CWLS Log ASCII Standard - version 2.0
WRAP. YES : Mulitple lines per depth step
~WELL INFORMATION
#MNEMONIC   .UNIT                                           VALUE :DESCRIPTION
#------------------------------------------------------------------------------
STRT        .M                                          1391.9308 :START DEPTH
STOP        .M                                          3430.8904 :STOP DEPTH
STEP        .M                                             0.1524 :STEP
NULL        .                                           -999.2500 :NULL VALUE
COMP        .                                   PEMEX EXPL & PROD :COMPANY
WELL        .                                               2076D :WELL
FLD         .                                           CANTARELL :FIELD
LOC         .                                             UNKNOWN :LOCATION
CNTY        .                                      CD. DEL CARMEN :COUNTY
STAT        .                                            CAMPECHE :STATE
CTRY        .                                              MEXICO :COUNTRY
SRVC        .                                             UNKNOWN :SERVICE COMPANY
DATE        .                                             UNKNOWN :LOG DATE
UWI         .                                               2076D :UNIQUE WELL ID
XCOORD      .                                       600029.690000 :SURFACE X
YCOORD      .                                      2139443.800000 :SURFACE Y
LAT         .                                           19.347662 :LATITUDE
LON         .                                          -92.047651 :LONGITUDE
ELEV        .M                                            27.4000 :SURFACE ELEV
ELEV_TYPE   .                                                  KB :ELEV TYPE
~CURVE INFORMATION
#MNEMONIC.UNIT        API CODE       : CURVE DESCRIPTION
#------------------------------------------------------------------------------
DEPTH    .M                          : Measured Depth
CALI     .UNKNOWN     UNKNOWN        : CALI:UNKNOWN:rC:NONE:v0 (auto-composite)
CGR      .UNKNOWN     UNKNOWN        : CGR:UNKNOWN:rC:NONE:v0 (auto-composite)
DRHO     .UNKNOWN     UNKNOWN        : DRHO:UNKNOWN:rC:NONE:v0 (auto-composite)
DT       .us/ft       UNKNOWN        : DT:DT:rC:NONE:v0 (auto-composite)
GR       .API         UNKNOWN        : GR:UNKNOWN:rC:NONE:v0 (auto-composite)
ILD      .UNKNOWN     UNKNOWN        : ILD:UNKNOWN:rC:NONE:v0 (auto-composite)
ILM      .UNKNOWN     UNKNOWN        : ILM:UNKNOWN:rC:NONE:v0 (auto-composite)
LLD      .ohm.m       UNKNOWN        : LLD:resistivos:rC:NONE:v0 (auto-composite)
LLS      .ohm.m       UNKNOWN        : LLS:resistivos:rC:NONE:v0 (auto-composite)
MSFL     .ohm.m       UNKNOWN        : MSFL:resistivos:rC:NONE:v0 (auto-composite)
NPHI     .v/v_decimal UNKNOWN        : NPHI:UNKNOWN:rC:NONE:v0 (auto-composite)
PEF      .UNKNOWN     UNKNOWN        : PEF:UNKNOWN:rC:NONE:v0 (auto-composite)
POTA     .UNKNOWN     UNKNOWN        : POTA:UNKNOWN:rC:NONE:v0 (auto-composite)
RHOB     .UNKNOWN     UNKNOWN        : RHOB:UNKNOWN:rC:NONE:v0 (auto-composite)
SIGM     .UNKNOWN     UNKNOWN        : SIGM:UNKNOWN:rC:NONE:v0 (auto-composite)
SP       .UNKNOWN     UNKNOWN        : SP:UNKNOWN:rC:NONE:v0 (auto-composite)
TAU      .UNKNOWN     UNKNOWN        : TAU:UNKNOWN:rC:NONE:v0 (auto-composite)
THOR     .UNKNOWN     UNKNOWN        : THOR:UNKNOWN:rC:NONE:v0 (auto-composite)
URAN     .UNKNOWN     UNKNOWN        : URAN:UNKNOWN:rC:NONE:v0 (auto-composite)
~A
# ...
   3376.1787
       8.7410       2.7793       0.0202      62.6102      15.2653    -999.2500
    -999.2500      29.5856      30.2669      31.7322       0.0550       4.9651
       0.0005       2.5743    -999.2500    -999.2500    -999.2500       0.4336
       1.3824
   3376.3313
       8.6821       3.7581       0.0162      61.7579      15.2992    -999.2500
    -999.2500      30.3135      30.9095      30.4895       0.0569       4.8852
       0.0010       2.5588    -999.2500    -999.2500    -999.2500       0.5110
       1.2765
   3376.4836
       8.6672       4.2293       0.0136      60.7724      15.4995    -999.2500
    -999.2500      30.0674      30.5308      30.1342       0.0593       4.6029
       0.0015       2.5329    -999.2500    -999.2500    -999.2500       0.5543
       1.2516
   3376.6360
       8.6547       4.6726       0.0111      59.8403      15.7089    -999.2500
    -999.2500      28.9290      29.2631      30.0375       0.0619       4.3095
       0.0020       2.5064    -999.2500    -999.2500    -999.2500       0.5958
       1.2311
   3376.7883
       8.6772       4.5530       0.0167      60.2026      16.1015    -999.2500
    -999.2500      26.9335      27.2049      29.4383       0.0640       4.2793
       0.0020       2.4988    -999.2500    -999.2500    -999.2500       0.5620
       1.2840
   3376.9407
       8.7017       4.4021       0.0227      60.7220      16.5044    -999.2500
    -999.2500      24.5675      24.7692      28.6071       0.0658       4.2638
       0.0020       2.4923    -999.2500    -999.2500    -999.2500       0.5240
       1.3409
   3377.0933
       8.7262       4.0724       0.0310      61.1674      16.7350    -999.2500
    -999.2500      22.4041      22.4372      27.8607       0.0670       4.2034
       0.0015       2.4986    -999.2500    -999.2500    -999.2500       0.4804
       1.3974
   3377.2456
       8.7507       3.7326       0.0395      61.5842      16.9559    -999.2500
    -999.2500      20.9883      20.8715      27.4967       0.0675       4.1404
       0.0010       2.5056    -999.2500    -999.2500    -999.2500       0.4364
       1.4539
   3377.3979
       8.7056       3.9025       0.0395      61.2930      17.5965    -999.2500
    -999.2500      21.0599      20.9608      27.9156       0.0658       4.1806
       0.0015       2.5084    -999.2500    -999.2500    -999.2500       0.4013
       1.5200
   3377.5503
       8.6565       4.1019       0.0390      60.9328      18.2613    -999.2500
    -999.2500      22.3248      22.3511      28.6171       0.0636       4.2267
       0.0020       2.5109    -999.2500    -999.2500    -999.2500       0.3668
       1.5866
   3377.7029
       8.7465       3.6266       0.0409      60.4786      19.3673    -999.2500
    -999.2500      24.4937      24.6865      28.9996       0.0615       4.3087
       0.0015       2.5210    -999.2500    -999.2500    -999.2500       0.2900
       1.7081
   3377.8552
       8.8440       3.1153       0.0429      59.9777      20.4968    -999.2500
    -999.2500      26.8060      27.1151      29.0125       0.0593       4.3927
       0.0010       2.5315    -999.2500    -999.2500    -999.2500       0.2111
       1.8326
   3378.0076
       8.7798       4.0077       0.0383      59.3462      21.5491    -999.2500
    -999.2500      28.3282      28.5869      28.5644       0.0566       4.4629
       0.0015       2.5429    -999.2500    -999.2500    -999.2500       0.5019
       1.9139
   3378.1599
       8.7068       4.9763       0.0333      58.7586      22.5971    -999.2500
    -999.2500      29.2971      29.4329      27.7716       0.0538       4.5324
       0.0020       2.5544    -999.2500    -999.2500    -999.2500       0.8127
       1.9929
   3378.3125
       8.7721       5.6948       0.0306      58.4394      23.1346    -999.2500
    -999.2500      29.9649      30.0159      26.7511       0.0520       4.6506
       0.0020       2.5668    -999.2500    -999.2500    -999.2500       0.9886
       1.9463
   3378.4648
       8.8451       6.3995       0.0281      58.2591      23.6439    -999.2500
    -999.2500      30.5333      30.6414      26.1442       0.0512       4.7716
       0.0020       2.5793    -999.2500    -999.2500    -999.2500       1.1570
       1.8928
   3378.6172
       8.8145       5.6351       0.0294      58.3740      23.4441    -999.2500
    -999.2500      31.2438      31.6911      26.7821       0.0526       4.8362
       0.0015       2.5847    -999.2500    -999.2500    -999.2500       1.1206
       1.9633
   3378.7695
       8.7780       4.7882       0.0309      58.4981      23.2044    -999.2500
    -999.2500      31.3192      32.0905      26.4544       0.0552       4.8976
       0.0010       2.5897    -999.2500    -999.2500    -999.2500       1.0727
       2.0407
   3378.9219
       8.7414       5.1406       0.0277      58.1121      23.4131    -999.2500
    -999.2500      29.7449      30.4537      22.3388       0.0597       4.9337
       0.0010       2.5796    -999.2500    -999.2500    -999.2500       1.1865
       2.0246
   3379.0745
       8.7048       5.5638       0.0242      57.5484      23.6482    -999.2500
    -999.2500      27.4665      27.9395      18.7168       0.0644       4.9683
       0.0010       2.5686    -999.2500    -999.2500    -999.2500       1.3098
       2.0031
   3379.2268
       8.7723       6.1679       0.0340      56.7235      25.5484    -999.2500
    -999.2500      25.6146      25.9332      20.9442       0.0685       4.9709
       0.0015       2.5628    -999.2500    -999.2500    -999.2500       1.2016
       2.1468
   3379.3792
       8.8453       6.7817       0.0445      55.8195      27.5365    -999.2500
    -999.2500      23.8873      24.1355      25.2395       0.0727       4.9719
       0.0020       2.5573    -999.2500    -999.2500    -999.2500       1.0811
       2.2992
   3379.5315
       8.7684       6.8965       0.0412      55.4109      28.8726    -999.2500
    -999.2500      21.9220      22.1932      27.1112       0.0790       4.9260
       0.0025       2.5399    -999.2500    -999.2500    -999.2500       0.9465
       2.4355
   3379.6841
       8.6834       6.9844       0.0372      54.9984      30.1735    -999.2500
    -999.2500      20.1555      20.4228      26.1740       0.0854       4.8775
       0.0030       2.5219    -999.2500    -999.2500    -999.2500       0.8110
       2.5710
   3379.8364
       8.7339       7.1613       0.0346      54.4369      30.3395    -999.2500
    -999.2500      19.1410      19.2267      21.7276       0.0910       4.8973
       0.0030       2.5191    -999.2500    -999.2500    -999.2500       0.7410
       2.5690
   3379.9888
       8.7919       7.3431       0.0321      53.8219      30.4434    -999.2500
    -999.2500      19.8722      19.9595      18.6221       0.0947       4.9207
       0.0030       2.5171    -999.2500    -999.2500    -999.2500       0.6746
       2.5595
   3380.1411
       8.7629       6.4730       0.0344      53.4786      29.4381    -999.2500
    -999.2500      23.7112      24.4443      22.9734       0.0868       4.9839
       0.0030       2.5397    -999.2500    -999.2500    -999.2500       0.5500
       2.5358
   3380.2937
       8.7289       5.5424       0.0369      53.1118      28.3690    -999.2500
    -999.2500      29.6830      31.0032      28.7371       0.0750       5.0494
       0.0030       2.5637    -999.2500    -999.2500    -999.2500       0.4221
       2.5114
   3380.4460
       8.7867       4.3982       0.0365      52.5805      27.0007    -999.2500
    -999.2500      36.7322      37.6973      28.4633       0.0586       4.9895
       0.0021       2.6086    -999.2500    -999.2500    -999.2500       0.4861
       2.5304
   3380.5984
       8.8499       3.2415       0.0360      52.0753      25.6148    -999.2500
    -999.2500      42.1124      42.4297      25.4140       0.0426       4.9223
       0.0010       2.6547    -999.2500    -999.2500    -999.2500       0.5613
       2.5519
   3380.7507
       8.8976       2.9071       0.0336      52.2269      25.3418    -999.2500
    -999.2500      42.3159      42.4841      23.4883       0.0357       4.9095
       0.0005       2.6561    -999.2500    -999.2500    -999.2500       0.6519
       2.5126
