#------------------------------------------------------------------------------
#
#   Created by  : [OpenWorks] Log Export Utility (LEXP)
#   Created on  : 2016-05-19 10:22:34
#   Project     : CANT971
#   User        : R5K
#   Interpreter : PEP
#
#------------------------------------------------------------------------------
~VERSION INFORMATION
VERS. 2.0 : CWLS Log ASCII Standard - version 2.0
WRAP.  NO : One line per depth step
~WELL INFORMATION
#MNEMONIC   .UNIT                                           VALUE :DESCRIPTION
#------------------------------------------------------------------------------
STRT        .M                                           501.0914 :START DEPTH
STOP        .M                                          3797.8081 :STOP DEPTH
STEP        .M                                             0.1524 :STEP
NULL        .                                           -999.2500 :NULL VALUE
COMP        .                                   PEMEX EXPL & PROD :COMPANY
WELL        .                                                2076 :WELL
FLD         .                                           CANTARELL :FIELD
LOC         .                                             UNKNOWN :LOCATION
CNTY        .                                      CD. DEL CARMEN :COUNTY
STAT        .                                            CAMPECHE :STATE
CTRY        .                                              MEXICO :COUNTRY
SRVC        .                                             UNKNOWN :SERVICE COMPANY
DATE        .                                             UNKNOWN :LOG DATE
UWI         .                                          3060000519 :UNIQUE WELL ID
XCOORD      .                                       600031.350000 :SURFACE X
YCOORD      .                                      2139442.240000 :SURFACE Y
LAT         .                                           19.347648 :LATITUDE
LON         .                                          -92.047636 :LONGITUDE
ELEV        .M                                            27.4000 :SURFACE ELEV
ELEV_TYPE   .                                                  KB :ELEV TYPE
~CURVE INFORMATION
#MNEMONIC.UNIT        API CODE       : CURVE DESCRIPTION
#------------------------------------------------------------------------------
DEPTH    .M                          : Measured Depth
CALI     .inches      UNKNOWN        : CALI:UNKNOWN:rC:NONE:v0 (auto-composite)
DT       .us/ft       UNKNOWN        : DT:UNKNOWN:rC:NONE:v0 (auto-composite)
GR       .API         UNKNOWN        : GR:UNKNOWN:rC:NONE:v0 (auto-composite)
ILD      .ohm.m       UNKNOWN        : ILD:UNKNOWN:rC:NONE:v0 (auto-composite)
LLD      .ohm.m       UNKNOWN        : LLD:UNKNOWN:rC:NONE:v0 (auto-composite)
LLS      .ohm.m       UNKNOWN        : LLS:UNKNOWN:rC:NONE:v0 (auto-composite)
NPHI     .UNKNOWN     UNKNOWN        : NPHI:UNKNOWN:rC:NONE:v0 (auto-composite)
RHOB     .g/cm3       UNKNOWN        : RHOB:UNKNOWN:rC:NONE:v0 (auto-composite)
SIGM     .UNKNOWN     UNKNOWN        : SIGM:UNKNOWN:rC:NONE:v0 (auto-composite)
TAU      .UNKNOWN     UNKNOWN        : TAU:UNKNOWN:rC:NONE:v0 (auto-composite)
~A     DEPTH         CALI           DT           GR          ILD          LLD          LLS         NPHI         RHOB         SIGM          TAU
# ...
   3675.8882       6.4400      69.4640      25.6000    -999.2500     499.0000     351.0000       0.0366       2.7900    -999.2500    -999.2500
   3676.0405       6.4785      70.2830      24.9997    -999.2500     465.1708     325.9079       0.0365       2.7850    -999.2500    -999.2500
   3676.1931       6.5170      71.1000      24.4000    -999.2500     431.3740     301.0000       0.0360       2.7800    -999.2500    -999.2500
   3676.3455       6.5385      70.5834      24.5611    -999.2500     391.1703     301.0000       0.0348       2.7850    -999.2500    -999.2500
   3676.4978       6.5600      70.0680      24.7220    -999.2500     351.0000     301.0000       0.0336       2.7900    -999.2500    -999.2500
   3676.6501       6.5600      66.9689      25.2637    -999.2500     354.8564     322.5544       0.0333       2.7850    -999.2500    -999.2500
   3676.8025       6.5600      63.8770      25.8050    -999.2500     358.7100     343.9560       0.0333       2.7800    -999.2500    -999.2500
   3676.9551       6.5600      60.2621      26.4742    -999.2500     373.8854     393.7713       0.0333       2.7830    -999.2500    -999.2500
   3677.1074       6.5600      56.6550      27.1420    -999.2500     389.0520     443.2400       0.0333       2.7860    -999.2500    -999.2500
   3677.2598       6.5600      54.7756      29.6235    -999.2500     446.8646     498.3083       0.0333       2.7980    -999.2500    -999.2500
   3677.4121       6.5600      52.9000      32.1000    -999.2500     504.6510     553.0000       0.0334       2.8100    -999.2500    -999.2500
   3677.5647       6.5700      53.2503      31.0490    -999.2500     596.8406     527.4142       0.0336       2.8000    -999.2500    -999.2500
   3677.7170       6.5800      53.6000      30.0000    -999.2500     689.0000     502.0000       0.0341       2.7900    -999.2500    -999.2500
   3677.8694       6.6110      53.4499      30.0000    -999.2500     652.4963     502.0000       0.0349       2.7750    -999.2500    -999.2500
   3678.0217       6.6420      53.3000      30.0000    -999.2500     616.0000     502.0000       0.0357       2.7600    -999.2500    -999.2500
   3678.1743       6.6560      53.4001      30.5234    -999.2500     628.0004     502.0000       0.0363       2.7600    -999.2500    -999.2500
   3678.3267       6.6700      53.5000      31.0460    -999.2500     640.0000     502.0000       0.0368       2.7600    -999.2500    -999.2500
   3678.4790       6.6149      52.8991      31.8806    -999.2500     632.7497     510.1468       0.0377       2.7565    -999.2500    -999.2500
   3678.6313       6.5600      52.3000      32.7140    -999.2500     625.4990     518.2420       0.0386       2.7530    -999.2500    -999.2500
   3678.7837       6.5600      52.3000      34.2226    -999.2500     619.2501     535.3181       0.0393       2.7365    -999.2500    -999.2500
   3678.9363       6.5600      52.3000      35.7290    -999.2500     613.0000     552.2880       0.0398       2.7200    -999.2500    -999.2500
   3679.0886       6.5600      52.5308      36.4650    -999.2500     663.2490     592.5075       0.0400       2.7235    -999.2500    -999.2500
   3679.2410       6.5600      52.7610      37.2000    -999.2500     713.5130     632.4820       0.0400       2.7270    -999.2500    -999.2500
   3679.3933       6.5370      53.5316      35.1883    -999.2500     785.1251     711.0988       0.0400       2.7385    -999.2500    -999.2500
   3679.5459       6.5140      54.3000      33.1790    -999.2500     856.6530     789.2470       0.0400       2.7500    -999.2500    -999.2500
   3679.6982       6.4770      54.2339      30.5211    -999.2500    1025.9799     858.8267       0.0400       2.7550    -999.2500    -999.2500
   3679.8506       6.4400      54.1680      27.8660    -999.2500    1195.1290     928.0000       0.0398       2.7600    -999.2500    -999.2500
   3680.0029       6.4400      51.8311      25.5819    -999.2500    1447.6813     927.6678       0.0389       2.7450    -999.2500    -999.2500
   3680.1555       6.4400      49.5000      23.3000    -999.2500    1700.0000     927.3380       0.0375       2.7300    -999.2500    -999.2500
   3680.3079       6.4400      50.0311      23.8637    -999.2500    1524.6760     908.3448       0.0355       2.7335    -999.2500    -999.2500
   3680.4602       6.4400      50.5610      24.4270    -999.2500    1349.4919     889.4880       0.0338       2.7370    -999.2500    -999.2500
   3680.6125       6.4400      51.2813      26.5422    -999.2500    1247.8132     856.1915       0.0333       2.7520    -999.2500    -999.2500
   3680.7649       6.4400      52.0000      28.6560    -999.2500    1146.2030     823.1300       0.0335       2.7670    -999.2500    -999.2500
   3680.9175       6.4400      50.9989      30.2787    -999.2500    1078.4750     788.1363       0.0341       2.7885    -999.2500    -999.2500
   3681.0698       6.4400      50.0000      31.8980    -999.2500    1010.7840     753.3850       0.0348       2.8100    -999.2500    -999.2500
   3681.2222       6.4400      50.3003      33.4851    -999.2500     948.8789     719.5774       0.0356       2.8000    -999.2500    -999.2500
   3681.3745       6.4400      50.6000      35.0690    -999.2500     887.0000     686.0000       0.0365       2.7900    -999.2500    -999.2500
   3681.5271       6.4800      52.2015      36.2857    -999.2500     900.6040     686.3351       0.0379       2.7750    -999.2500    -999.2500
   3681.6794       6.5200      53.8000      37.5000    -999.2500     914.2040     686.6680       0.0397       2.7600    -999.2500    -999.2500
   3681.8318       6.5400      53.2996      36.9630    -999.2500     938.3776     701.4801       0.0421       2.7500    -999.2500    -999.2500
   3681.9841       6.5600      52.8000      36.4270    -999.2500     962.5470     716.1950       0.0444       2.7400    -999.2500    -999.2500
   3682.1367       6.5600      53.4005      35.9951    -999.2500     991.2742     731.9918       0.0457       2.7435    -999.2500    -999.2500
   3682.2891       6.5600      54.0000      35.5640    -999.2500    1020.0000     747.6870       0.0465       2.7470    -999.2500    -999.2500
   3682.4414       6.5600      53.8988      33.7306    -999.2500     980.2131     751.8567       0.0467       2.7485    -999.2500    -999.2500
   3682.5938       6.5600      53.7980      31.9000    -999.2500     940.4230     756.0000       0.0460       2.7500    -999.2500    -999.2500
   3682.7461       6.5600      53.0739      32.6005    -999.2500     868.7189     702.8357       0.0434       2.7350    -999.2500    -999.2500
   3682.8987       6.5600      52.3520      33.3000    -999.2500     797.0000     650.0000       0.0401       2.7200    -999.2500    -999.2500
   3683.0510       6.5600      51.1743      32.7927    -999.2500     881.7139     692.6292       0.0370       2.7235    -999.2500    -999.2500
   3683.2034       6.5600      50.0000      32.2860    -999.2500     966.4560     735.0000       0.0348       2.7270    -999.2500    -999.2500
   3683.3557       6.5600      50.0000      31.1288    -999.2500    1058.2805     734.6605       0.0349       2.7335    -999.2500    -999.2500
   3683.5083       6.5600      50.0000      29.9730    -999.2500    1150.0000     734.3230       0.0357       2.7400    -999.2500    -999.2500
   3683.6606       6.5600      50.2373      28.1856    -999.2500    1052.0035     670.6455       0.0363       2.7300    -999.2500    -999.2500
   3683.8130       6.5600      50.4740      26.4000    -999.2500     954.1070     607.3380       0.0366       2.7200    -999.2500    -999.2500
   3683.9653       6.5600      51.0637      26.7742    -999.2500     808.9886     543.9891       0.0367       2.7270    -999.2500    -999.2500
   3684.1179       6.5600      51.6520      27.1480    -999.2500     664.0000     481.0000       0.0369       2.7340    -999.2500    -999.2500
   3684.2703       6.4999      52.7273      28.2774    -999.2500     672.0031     488.1198       0.0378       2.7470    -999.2500    -999.2500
