#------------------------------------------------------------------------------
#
#   Created by  : [OpenWorks] Log Export Utility (LEXP)
#   Created on  : 2016-05-19 10:22:35
#   Project     : CANT971
#   User        : R5K
#   Interpreter : PEP
#
#------------------------------------------------------------------------------
~VERSION INFORMATION
VERS. 2.0 : CWLS Log ASCII Standard - version 2.0
WRAP. YES : Mulitple lines per depth step
~WELL INFORMATION
#MNEMONIC   .UNIT                                           VALUE :DESCRIPTION
#------------------------------------------------------------------------------
STRT        .M                                          1391.9308 :START DEPTH
STOP        .M                                          3430.8904 :STOP DEPTH
STEP        .M                                             0.1524 :STEP
NULL        .                                           -999.2500 :NULL VALUE
COMP        .                                   PEMEX EXPL & PROD :COMPANY
WELL        .                                               2076D :WELL
FLD         .                                           CANTARELL :FIELD
LOC         .                                             UNKNOWN :LOCATION
CNTY        .                                      CD. DEL CARMEN :COUNTY
STAT        .                                            CAMPECHE :STATE
CTRY        .                                              MEXICO :COUNTRY
SRVC        .                                             UNKNOWN :SERVICE COMPANY
DATE        .                                             UNKNOWN :LOG DATE
UWI         .                                               2076D :UNIQUE WELL ID
XCOORD      .                                       600029.690000 :SURFACE X
YCOORD      .                                      2139443.800000 :SURFACE Y
LAT         .                                           19.347662 :LATITUDE
LON         .                                          -92.047651 :LONGITUDE
ELEV        .M                                            27.4000 :SURFACE ELEV
ELEV_TYPE   .                                                  KB :ELEV TYPE
~CURVE INFORMATION
#MNEMONIC.UNIT        API CODE       : CURVE DESCRIPTION
#------------------------------------------------------------------------------
DEPTH    .M                          : Measured Depth
CALI     .UNKNOWN     UNKNOWN        : CALI:UNKNOWN:rC:NONE:v0 (auto-composite)
CGR      .UNKNOWN     UNKNOWN        : CGR:UNKNOWN:rC:NONE:v0 (auto-composite)
DRHO     .UNKNOWN     UNKNOWN        : DRHO:UNKNOWN:rC:NONE:v0 (auto-composite)
DT       .us/ft       UNKNOWN        : DT:DT:rC:NONE:v0 (auto-composite)
GR       .API         UNKNOWN        : GR:UNKNOWN:rC:NONE:v0 (auto-composite)
ILD      .UNKNOWN     UNKNOWN        : ILD:UNKNOWN:rC:NONE:v0 (auto-composite)
ILM      .UNKNOWN     UNKNOWN        : ILM:UNKNOWN:rC:NONE:v0 (auto-composite)
LLD      .ohm.m       UNKNOWN        : LLD:resistivos:rC:NONE:v0 (auto-composite)
LLS      .ohm.m       UNKNOWN        : LLS:resistivos:rC:NONE:v0 (auto-composite)
MSFL     .ohm.m       UNKNOWN        : MSFL:resistivos:rC:NONE:v0 (auto-composite)
NPHI     .v/v_decimal UNKNOWN        : NPHI:UNKNOWN:rC:NONE:v0 (auto-composite)
PEF      .UNKNOWN     UNKNOWN        : PEF:UNKNOWN:rC:NONE:v0 (auto-composite)
POTA     .UNKNOWN     UNKNOWN        : POTA:UNKNOWN:rC:NONE:v0 (auto-composite)
RHOB     .UNKNOWN     UNKNOWN        : RHOB:UNKNOWN:rC:NONE:v0 (auto-composite)
SIGM     .UNKNOWN     UNKNOWN        : SIGM:UNKNOWN:rC:NONE:v0 (auto-composite)
SP       .UNKNOWN     UNKNOWN        : SP:UNKNOWN:rC:NONE:v0 (auto-composite)
TAU      .UNKNOWN     UNKNOWN        : TAU:UNKNOWN:rC:NONE:v0 (auto-composite)
THOR     .UNKNOWN     UNKNOWN        : THOR:UNKNOWN:rC:NONE:v0 (auto-composite)
URAN     .UNKNOWN     UNKNOWN        : URAN:UNKNOWN:rC:NONE:v0 (auto-composite)
~A
# ...
   3347.8323
       8.9422       6.3557       0.0084      65.8333      24.4456    -999.2500
    -999.2500      18.3386      17.6116      21.7085       0.0706       4.8621
       0.0015       2.5587    -999.2500    -999.2500    -999.2500       1.3321
       1.9848
   3347.9849
       9.0142       5.3981       0.0109      67.8876      25.7181    -999.2500
    -999.2500      15.5738      15.2559      17.0971       0.0788       4.8326
       0.0010       2.5542    -999.2500    -999.2500    -999.2500       1.1317
       2.2442
   3348.1372
       9.1229       6.1908       0.0219      67.5318      25.2650    -999.2500
    -999.2500      12.9915      12.6477      12.2069       0.0902       4.8546
       0.0015       2.5370    -999.2500    -999.2500    -999.2500       1.0435
       2.1242
   3348.2896
       9.2338       7.0822       0.0334      66.9026      24.7147    -999.2500
    -999.2500      10.9712      10.4357       9.9336       0.1018       4.8796
       0.0020       2.5190    -999.2500    -999.2500    -999.2500       0.9616
       1.9829
   3348.4419
       9.1590       6.1062       0.0321      66.2309      22.7152    -999.2500
    -999.2500      10.0254       9.4561      14.0754       0.1100       4.8531
       0.0020       2.5081    -999.2500    -999.2500    -999.2500       0.6554
       1.8368
   3348.5945
       9.0733       5.0196       0.0301      65.3591      20.6299    -999.2500
    -999.2500      10.0041       9.4913      19.8511       0.1139       4.8235
       0.0020       2.4975    -999.2500    -999.2500    -999.2500       0.3361
       1.6904
   3348.7468
       9.1355       3.6350       0.0352      63.3096      19.7879    -999.2500
    -999.2500      10.7776      10.3329      21.4101       0.1067       4.7313
       0.0015       2.4961    -999.2500    -999.2500    -999.2500       0.2365
       1.7646
   3348.8992
       9.2054       2.2346       0.0407      61.0738      19.0117    -999.2500
    -999.2500      12.2481      11.9321      20.6322       0.0951       4.6359
       0.0010       2.4951    -999.2500    -999.2500    -999.2500       0.1485
       1.8506
   3349.0515
       9.3551       2.7207       0.0467      59.3290      18.1862    -999.2500
    -999.2500      14.3468      14.2857      19.6568       0.0843       4.4565
       0.0010       2.5059    -999.2500    -999.2500    -999.2500       0.2697
       1.7094
   3349.2041
       9.5090       3.3084       0.0527      58.1334      17.3581    -999.2500
    -999.2500      16.9941      17.1620      19.0604       0.0750       4.2726
       0.0010       2.5174    -999.2500    -999.2500    -999.2500       0.4021
       1.5560
   3349.3564
       9.5246       4.8070       0.0473      58.6698      17.2946    -999.2500
    -999.2500      20.1378      20.3192      19.5848       0.0701       4.2256
       0.0019       2.5114    -999.2500    -999.2500    -999.2500       0.3735
       1.3851
   3349.5088
       9.5326       6.3556       0.0413      59.8942      17.2732    -999.2500
    -999.2500      22.9564      23.0229      20.3101       0.0674       4.1861
       0.0029       2.5044    -999.2500    -999.2500    -999.2500       0.3360
       1.2134
   3349.6611
       9.2098       4.6141       0.0486      63.0360      15.7211    -999.2500
    -999.2500      24.4080      24.3293      20.1082       0.0650       4.1689
       0.0021       2.5125    -999.2500    -999.2500    -999.2500       0.4271
       1.1742
   3349.8135
       8.8679       2.6829       0.0566      66.0163      14.0808    -999.2500
    -999.2500      24.8094      24.5670      19.2652       0.0631       4.1529
       0.0011       2.5215    -999.2500    -999.2500    -999.2500       0.5256
       1.1427
   3349.9661
       9.0574       2.0834       0.0542      67.6676      13.8896    -999.2500
    -999.2500      24.4826      24.0712      18.0921       0.0627       4.2733
       0.0005       2.5296    -999.2500    -999.2500    -999.2500       0.4623
       1.2414
   3350.1184
       9.2780       1.5620       0.0511      68.8036      13.7833    -999.2500
    -999.2500      23.9593      23.4121      17.2658       0.0631       4.4016
       0.0000       2.5376    -999.2500    -999.2500    -999.2500       0.3896
       1.3477
   3350.2708
       9.3469       1.6699       0.0463      68.5780      13.7528    -999.2500
    -999.2500      23.8908      23.2912      17.6526       0.0641       4.6122
       0.0000       2.5408    -999.2500    -999.2500    -999.2500       0.3727
       1.3369
   3350.4231
       9.4079       1.8109       0.0413      68.2252      13.7263    -999.2500
    -999.2500      24.1025      23.4988      18.1586       0.0647       4.8271
       0.0000       2.5438    -999.2500    -999.2500    -999.2500       0.3587
       1.3199
   3350.5757
       9.3878       2.2238       0.0391      67.6544      13.8606    -999.2500
    -999.2500      24.4023      23.8033      17.4552       0.0636       4.8584
       0.0005       2.5416    -999.2500    -999.2500    -999.2500       0.3822
       1.2834
   3350.7280
       9.3633       2.6513       0.0371      67.0261      14.0034    -999.2500
    -999.2500      24.4999      23.9429      16.1536       0.0618       4.8799
       0.0010       2.5391    -999.2500    -999.2500    -999.2500       0.4076
       1.2460
   3350.8804
       9.4429       3.1638       0.0299      66.6570      14.5249    -999.2500
    -999.2500      24.0191      23.5797      14.9646       0.0607       4.9189
       0.0015       2.5362    -999.2500    -999.2500    -999.2500       0.3579
       1.2785
   3351.0327
       9.5284       3.6811       0.0224      66.3150      15.0677    -999.2500
    -999.2500      23.1134      22.7796      14.8400       0.0600       4.9588
       0.0020       2.5332    -999.2500    -999.2500    -999.2500       0.3039
       1.3150
   3351.1853
       9.6373       2.8529       0.0244      65.9060      15.4357    -999.2500
    -999.2500      21.9413      21.5919      17.0372       0.0603       4.9477
       0.0015       2.5463    -999.2500    -999.2500    -999.2500       0.2507
       1.3839
   3351.3376
       9.7477       1.9479       0.0269      65.4394      15.7937    -999.2500
    -999.2500      20.7400      20.3424      19.4060       0.0615       4.9337
       0.0010       2.5603    -999.2500    -999.2500    -999.2500       0.1976
       1.4546
   3351.4900
       9.6588       2.8157       0.0251      64.7897      16.4920    -999.2500
    -999.2500      19.8057      19.4340      19.2852       0.0647       4.9482
       0.0020       2.5539    -999.2500    -999.2500    -999.2500       0.1455
       1.5117
   3351.6423
       9.5599       3.7737       0.0231      64.1235      17.2077    -999.2500
    -999.2500      18.9687      18.6507      17.8123       0.0687       4.9642
       0.0030       2.5464    -999.2500    -999.2500    -999.2500       0.0936
       1.5682
   3351.7947
       9.3475       4.6808       0.0202      63.7426      18.3653    -999.2500
    -999.2500      18.0309      17.7398      16.2668       0.0721       4.9693
       0.0030       2.5394    -999.2500    -999.2500    -999.2500       0.2401
       1.5743
   3351.9473
       9.1293       5.5852       0.0172      63.4576      19.5459    -999.2500
    -999.2500      16.9884      16.7212      16.6062       0.0743       4.9738
       0.0030       2.5324    -999.2500    -999.2500    -999.2500       0.3969
       1.5778
   3352.0996
       9.2455       5.2633       0.0194      63.3278      19.8852    -999.2500
    -999.2500      15.8265      15.6096      21.3934       0.0733       4.9351
       0.0025       2.5287    -999.2500    -999.2500    -999.2500       0.4273
       1.6235
   3352.2520
       9.3799       4.8745       0.0219      63.2558      20.1786    -999.2500
    -999.2500      14.7176      14.5620      25.0458       0.0703       4.8942
       0.0020       2.5252    -999.2500    -999.2500    -999.2500       0.4508
       1.6715
   3352.4043
       9.3638       5.4619       0.0244      63.4181      19.9611    -999.2500
    -999.2500      13.8784      13.7767      20.5793       0.0654       4.9138
       0.0025       2.5378    -999.2500    -999.2500    -999.2500       0.5457
       1.5930
