#------------------------------------------------------------------------------
#
#   Created by  : [OpenWorks] Log Export Utility (LEXP)
#   Created on  : 2016-05-19 10:22:35
#   Project     : CANT971
#   User        : R5K
#   Interpreter : PEP
#
#------------------------------------------------------------------------------
~VERSION INFORMATION
VERS. 2.0 : CWLS Log ASCII Standard - version 2.0
WRAP. YES : Mulitple lines per depth step
~WELL INFORMATION
#MNEMONIC   .UNIT                                           VALUE :DESCRIPTION
#------------------------------------------------------------------------------
STRT        .M                                          1391.9308 :START DEPTH
STOP        .M                                          3430.8904 :STOP DEPTH
STEP        .M                                             0.1524 :STEP
NULL        .                                           -999.2500 :NULL VALUE
COMP        .                                   PEMEX EXPL & PROD :COMPANY
WELL        .                                               2076D :WELL
FLD         .                                           CANTARELL :FIELD
LOC         .                                             UNKNOWN :LOCATION
CNTY        .                                      CD. DEL CARMEN :COUNTY
STAT        .                                            CAMPECHE :STATE
CTRY        .                                              MEXICO :COUNTRY
SRVC        .                                             UNKNOWN :SERVICE COMPANY
DATE        .                                             UNKNOWN :LOG DATE
UWI         .                                               2076D :UNIQUE WELL ID
XCOORD      .                                       600029.690000 :SURFACE X
YCOORD      .                                      2139443.800000 :SURFACE Y
LAT         .                                           19.347662 :LATITUDE
LON         .                                          -92.047651 :LONGITUDE
ELEV        .M                                            27.4000 :SURFACE ELEV
ELEV_TYPE   .                                                  KB :ELEV TYPE
~CURVE INFORMATION
#MNEMONIC.UNIT        API CODE       : CURVE DESCRIPTION
#------------------------------------------------------------------------------
DEPTH    .M                          : Measured Depth
CALI     .UNKNOWN     UNKNOWN        : CALI:UNKNOWN:rC:NONE:v0 (auto-composite)
CGR      .UNKNOWN     UNKNOWN        : CGR:UNKNOWN:rC:NONE:v0 (auto-composite)
DRHO     .UNKNOWN     UNKNOWN        : DRHO:UNKNOWN:rC:NONE:v0 (auto-composite)
DT       .us/ft       UNKNOWN        : DT:DT:rC:NONE:v0 (auto-composite)
GR       .API         UNKNOWN        : GR:UNKNOWN:rC:NONE:v0 (auto-composite)
ILD      .UNKNOWN     UNKNOWN        : ILD:UNKNOWN:rC:NONE:v0 (auto-composite)
ILM      .UNKNOWN     UNKNOWN        : ILM:UNKNOWN:rC:NONE:v0 (auto-composite)
LLD      .ohm.m       UNKNOWN        : LLD:resistivos:rC:NONE:v0 (auto-composite)
LLS      .ohm.m       UNKNOWN        : LLS:resistivos:rC:NONE:v0 (auto-composite)
MSFL     .ohm.m       UNKNOWN        : MSFL:resistivos:rC:NONE:v0 (auto-composite)
NPHI     .v/v_decimal UNKNOWN        : NPHI:UNKNOWN:rC:NONE:v0 (auto-composite)
PEF      .UNKNOWN     UNKNOWN        : PEF:UNKNOWN:rC:NONE:v0 (auto-composite)
POTA     .UNKNOWN     UNKNOWN        : POTA:UNKNOWN:rC:NONE:v0 (auto-composite)
RHOB     .UNKNOWN     UNKNOWN        : RHOB:UNKNOWN:rC:NONE:v0 (auto-composite)
SIGM     .UNKNOWN     UNKNOWN        : SIGM:UNKNOWN:rC:NONE:v0 (auto-composite)
SP       .UNKNOWN     UNKNOWN        : SP:UNKNOWN:rC:NONE:v0 (auto-composite)
TAU      .UNKNOWN     UNKNOWN        : TAU:UNKNOWN:rC:NONE:v0 (auto-composite)
THOR     .UNKNOWN     UNKNOWN        : THOR:UNKNOWN:rC:NONE:v0 (auto-composite)
URAN     .UNKNOWN     UNKNOWN        : URAN:UNKNOWN:rC:NONE:v0 (auto-composite)
~A
# ...
   3324.2104
       8.1385      15.1304       0.0110      64.2811      38.9766    -999.2500
    -999.2500      16.5358      14.2424       9.5727       0.1349       4.7980
       0.0050       2.5116    -999.2500    -999.2500    -999.2500       1.6713
       2.6706
   3324.3628
       8.1683      14.6681       0.0119      65.1082      37.7205    -999.2500
    -999.2500      14.7166      12.7290      10.3322       0.1355       4.8916
       0.0050       2.5167    -999.2500    -999.2500    -999.2500       1.4391
       2.4969
   3324.5151
       8.2013      14.2018       0.0129      64.7345      36.3641    -999.2500
    -999.2500      13.4647      11.6899      11.5036       0.1347       4.9890
       0.0050       2.5227    -999.2500    -999.2500    -999.2500       1.2002
       2.3200
   3324.6675
       8.1959      13.5457       0.0121      62.4145      31.6381    -999.2500
    -999.2500      12.4430      10.8413       9.3259       0.1318       4.9328
       0.0050       2.5382    -999.2500    -999.2500    -999.2500       1.2819
       1.9472
   3324.8201
       8.1884      12.8795       0.0111      60.3929      26.7312    -999.2500
    -999.2500      11.5219      10.0914       7.3440       0.1279       4.8683
       0.0050       2.5542    -999.2500    -999.2500    -999.2500       1.3809
       1.5639
   3324.9724
       8.2391      14.1789       0.0110      60.5472      27.9458    -999.2500
    -999.2500      10.5490       9.3348       9.9413       0.1224       4.9124
       0.0055       2.5616    -999.2500    -999.2500    -999.2500       1.3382
       1.5918
   3325.1248
       8.2931      15.5857       0.0110      61.5159      29.4949    -999.2500
    -999.2500       9.9825       8.9275      13.1437       0.1163       4.9623
       0.0060       2.5686    -999.2500    -999.2500    -999.2500       1.2877
       1.6423
   3325.2771
       8.2360      15.1544       0.0119      61.1492      28.3189    -999.2500
    -999.2500      10.4201       9.3366      12.0703       0.1109       4.9045
       0.0060       2.5959    -999.2500    -999.2500    -999.2500       1.0373
       1.5982
   3325.4297
       8.1725      14.6176       0.0129      60.5671      26.9865    -999.2500
    -999.2500      11.1645       9.9833      14.2964       0.1055       4.8405
       0.0060       2.6244    -999.2500    -999.2500    -999.2500       0.7754
       1.5487
   3325.5820
       8.2292      13.1421       0.0135      59.5199      24.3548    -999.2500
    -999.2500      11.3677      10.1619      29.5388       0.0998       4.3647
       0.0055       2.6251    -999.2500    -999.2500    -999.2500       0.7733
       1.4257
   3325.7344
       8.2928      11.6119       0.0140      58.2710      21.6473    -999.2500
    -999.2500      11.2286      10.0388      43.7004       0.0939       3.8648
       0.0050       2.6240    -999.2500    -999.2500    -999.2500       0.7864
       1.2983
   3325.8867
       8.2471      10.1045       0.0164      56.6865      19.5205    -999.2500
    -999.2500      10.9750       9.8035      39.2111       0.0874       4.4527
       0.0036       2.6174    -999.2500    -999.2500    -999.2500       0.8349
       1.1515
   3326.0393
       8.1957       8.5984       0.0189      55.3869      17.4241    -999.2500
    -999.2500      10.7841       9.6127      36.9907       0.0815       5.0974
       0.0021       2.6104    -999.2500    -999.2500    -999.2500       0.8854
       1.0037
   3326.1917
       8.2427      10.6212       0.0285      55.3505      20.2675    -999.2500
    -999.2500      10.8789       9.6626      62.9632       0.0780       5.0178
       0.0020       2.6019    -999.2500    -999.2500    -999.2500       1.1888
       1.0926
   3326.3440
       8.2952      12.8377       0.0385      55.8475      23.3822    -999.2500
    -999.2500      11.2626       9.9347      89.7030       0.0763       4.8983
       0.0020       2.5934    -999.2500    -999.2500    -999.2500       1.5062
       1.1946
   3326.4963
       8.2033      10.1599       0.0357      57.0201      19.4881    -999.2500
    -999.2500      11.9602      10.4226      83.2664       0.0783       4.9687
       0.0025       2.5854    -999.2500    -999.2500    -999.2500       0.8262
       1.0566
   3326.6487
       8.1034       7.2087       0.0322      58.6109      15.2025    -999.2500
    -999.2500      12.8266      11.0113      59.6513       0.0821       5.0496
       0.0030       2.5774    -999.2500    -999.2500    -999.2500       0.0906
       0.9051
   3326.8013
       8.1448       7.3702       0.0230      61.8141      15.7286    -999.2500
    -999.2500      13.6950      11.5667      37.4069       0.0882       5.0393
       0.0035       2.5529    -999.2500    -999.2500    -999.2500       0.1167
       0.9391
   3326.9536
       8.1943       7.7085       0.0135      64.6957      16.5283    -999.2500
    -999.2500      14.2880      11.9100      19.7713       0.0936       5.0238
       0.0040       2.5274    -999.2500    -999.2500    -999.2500       0.1862
       0.9836
   3327.1060
       8.1866      10.2461       0.0225      64.7445      18.8747    -999.2500
    -999.2500      14.2373      11.8014      11.1764       0.0953       4.9354
       0.0040       2.5326    -999.2500    -999.2500    -999.2500       0.5490
       1.3095
   3327.2583
       8.1756      12.9109       0.0325      63.9142      21.3105    -999.2500
    -999.2500      13.6631      11.2971       9.6097       0.0953       4.8427
       0.0040       2.5396    -999.2500    -999.2500    -999.2500       0.9287
       1.6517
   3327.4109
       8.1945      12.7011       0.0311      64.3578      24.1810    -999.2500
    -999.2500      12.6815      10.4410      13.0111       0.0953       4.9742
       0.0045       2.5613    -999.2500    -999.2500    -999.2500       0.8968
       1.6249
   3327.5632
       8.2149      12.3377       0.0291      64.8303      27.0748    -999.2500
    -999.2500      11.3629       9.4042      16.8940       0.0953       5.1176
       0.0050       2.5838    -999.2500    -999.2500    -999.2500       0.8428
       1.5784
   3327.7156
       8.2004      11.5525       0.0214      64.9126      27.1984    -999.2500
    -999.2500       9.7714       8.3862      15.7461       0.0953       5.1018
       0.0050       2.5675    -999.2500    -999.2500    -999.2500       0.7101
       1.5807
   3327.8679
       8.1839      10.7444       0.0134      64.8422      27.1714    -999.2500
    -999.2500       8.4228       7.4819      13.6592       0.0953       5.0773
       0.0050       2.5490    -999.2500    -999.2500    -999.2500       0.5732
       1.5857
   3328.0205
       8.1934      11.9300       0.0135      64.4535      23.8090    -999.2500
    -999.2500       7.9695       6.8158      15.6073       0.0953       5.0973
       0.0055       2.5504    -999.2500    -999.2500    -999.2500       0.6773
       1.6225
   3328.1729
       8.2044      13.2259       0.0140      63.9966      20.2620    -999.2500
    -999.2500       8.0225       6.4139      17.7443       0.0953       5.1198
       0.0060       2.5529    -999.2500    -999.2500    -999.2500       0.7947
       1.6609
   3328.3252
       8.2012      10.7137       0.0225      63.3665      22.7016    -999.2500
    -999.2500       8.1356       6.3293      15.2939       0.0953       5.0709
       0.0046       2.5653    -999.2500    -999.2500    -999.2500       0.6488
       1.5103
   3328.4775
       8.1972       7.9870       0.0315      62.6957      25.4782    -999.2500
    -999.2500       8.3097       6.4521      11.9852       0.0953       5.0180
       0.0031       2.5783    -999.2500    -999.2500    -999.2500       0.4880
       1.3490
   3328.6299
       8.1620       9.9815       0.0282      62.2888      25.5535    -999.2500
    -999.2500       8.5504       6.6601      12.4004       0.0953       4.9099
       0.0035       2.5639    -999.2500    -999.2500    -999.2500       0.8582
       1.5682
   3328.7825
       8.1249      12.2548       0.0242      61.9288      25.4692    -999.2500
    -999.2500       8.8337       6.9106      13.4074       0.0953       4.7986
       0.0040       2.5478    -999.2500    -999.2500    -999.2500       1.2598
       1.8099
