#------------------------------------------------------------------------------
#
#   Created by  : [OpenWorks] Log Export Utility (LEXP)
#   Created on  : 2016-05-19 10:22:36
#   Project     : CANT971
#   User        : R5K
#   Interpreter : PEP
#
#------------------------------------------------------------------------------
~VERSION INFORMATION
VERS. 2.0 : CWLS Log ASCII Standard - version 2.0
WRAP. YES : Mulitple lines per depth step
~WELL INFORMATION
#MNEMONIC   .UNIT                                           VALUE :DESCRIPTION
#------------------------------------------------------------------------------
STRT        .M                                          2616.0618 :START DEPTH
STOP        .M                                          3329.4463 :STOP DEPTH
STEP        .M                                             0.1524 :STEP
NULL        .                                           -999.2500 :NULL VALUE
COMP        .                                             UNKNOWN :COMPANY
WELL        .                                            2076D-V2 :WELL
FLD         .                                             UNKNOWN :FIELD
LOC         .                                             UNKNOWN :LOCATION
CNTY        .                                             UNKNOWN :COUNTY
STAT        .                                             UNKNOWN :STATE
CTRY        .                                             UNKNOWN :COUNTRY
SRVC        .                                             UNKNOWN :SERVICE COMPANY
DATE        .                                             UNKNOWN :LOG DATE
UWI         .                                            2076D-V2 :UNIQUE WELL ID
XCOORD      .                                            0.000000 :SURFACE X
YCOORD      .                                            0.000000 :SURFACE Y
LAT         .                                            0.000000 :LATITUDE
LON         .                                          -97.488695 :LONGITUDE
ELEV        .M                                             0.0000 :SURFACE ELEV
ELEV_TYPE   .                                                  KB :ELEV TYPE
~CURVE INFORMATION
#MNEMONIC.UNIT        API CODE       : CURVE DESCRIPTION
#------------------------------------------------------------------------------
DEPTH    .M                          : Measured Depth
CALI     .UNKNOWN     UNKNOWN        : CALI:litodensidad:rC:NONE:v0 (auto-composite)
CGR      .API         UNKNOWN        : CGR:Espectrometria:rC:NONE:v0 (auto-composite)
DRHO     .g/cm3       UNKNOWN        : DRHO:litodensidad:rC:NONE:v0 (auto-composite)
DT       .us/ft       UNKNOWN        : DT:sonico:rC:NONE:v0 (auto-composite)
GR       .API         UNKNOWN        : GR:Espectrometria:rC:NONE:v0 (auto-composite)
GR-LWD   .API         UNKNOWN        : GR-LWD:PETROWORKS:rC:NONE:v1 
ILD-LWD  .UNKNOWN     UNKNOWN        : ILD-LWD:PETROWORKS:rC:NONE:v1 
ILM-LWD  .UNKNOWN     UNKNOWN        : ILM-LWD:PETROWORKS:rC:NONE:v1 
LLD      .ohm.m       UNKNOWN        : LLD:resistivos:rC:NONE:v0 (auto-composite)
LLS      .ohm.m       UNKNOWN        : LLS:resistivos:rC:NONE:v0 (auto-composite)
MSFL     .ohm.m       UNKNOWN        : MSFL:resistivos:rC:NONE:v0 (auto-composite)
NPHI     .UNKNOWN     UNKNOWN        : NPHI:porosidad:rC:NONE:v0 (auto-composite)
PEF      .UNKNOWN     UNKNOWN        : PEF:litodensidad:rC:NONE:v0 (auto-composite)
POTA     .wtpercent   UNKNOWN        : POTA:Espectrometria:rC:NONE:v0 (auto-composite)
RHOB     .g/cm3       UNKNOWN        : RHOB:litodensidad:rC:NONE:v0 (auto-composite)
SIGM     .UNKNOWN     UNKNOWN        : SIGM:TMDL:rC:NONE:v0 (auto-composite)
SP       .UNKNOWN     UNKNOWN        : SP:resistivos:rC:NONE:v0 (auto-composite)
THOR     .UNKNOWN     UNKNOWN        : THOR:Espectrometria:rC:NONE:v0 (auto-composite)
URAN     .UNKNOWN     UNKNOWN        : URAN:Espectrometria:rC:NONE:v0 (auto-composite)
~A
# ...
   3097.9507
    -999.2500    -999.2500    -999.2500      54.0957    -999.2500      51.7295
       1.7161       1.7227       1.0911       2.7418       0.1251    -999.2500
    -999.2500    -999.2500    -999.2500    -999.2500     -32.0761    -999.2500
    -999.2500
   3098.1030
    -999.2500    -999.2500    -999.2500      54.0157    -999.2500      52.3162
       1.6310       1.6491       1.0713       2.9779       0.1463    -999.2500
    -999.2500    -999.2500    -999.2500    -999.2500     -31.7898    -999.2500
    -999.2500
   3098.2554
    -999.2500    -999.2500    -999.2500      53.9844    -999.2500      53.2440
       1.5640       1.5794       1.0611       3.1259       0.3888    -999.2500
    -999.2500    -999.2500    -999.2500    -999.2500     -31.4636    -999.2500
    -999.2500
   3098.4077
    -999.2500    -999.2500    -999.2500      53.9841    -999.2500      53.7018
       1.5787       1.5779       1.0669       3.3075       1.1729    -999.2500
    -999.2500    -999.2500    -999.2500    -999.2500     -31.0687    -999.2500
    -999.2500
   3098.5601
    -999.2500    -999.2500    -999.2500      54.0713    -999.2500      54.4984
       1.6254       1.6058       1.0867       3.4754       1.4365    -999.2500
    -999.2500    -999.2500    -999.2500    -999.2500     -30.5942    -999.2500
    -999.2500
   3098.7126
    -999.2500    -999.2500    -999.2500      54.3196    -999.2500      54.5508
       1.6869       1.6509       1.1614       3.8349       3.3016    -999.2500
    -999.2500    -999.2500    -999.2500    -999.2500     -29.2620    -999.2500
    -999.2500
   3098.8650
    -999.2500    -999.2500    -999.2500      54.6427    -999.2500      54.7355
       1.5959       1.6149       1.2439       4.1759       4.0339    -999.2500
    -999.2500    -999.2500    -999.2500    -999.2500     -27.9752    -999.2500
    -999.2500
   3099.0173
    -999.2500    -999.2500    -999.2500      54.8571    -999.2500      55.0349
       1.5675       1.6120       1.4123       4.7090       2.2007    -999.2500
    -999.2500    -999.2500    -999.2500    -999.2500     -26.7602    -999.2500
    -999.2500
   3099.1697
    -999.2500    -999.2500    -999.2500      54.8937    -999.2500      55.5760
       1.6282       1.6688       1.5579       5.1547       0.4612    -999.2500
    -999.2500    -999.2500    -999.2500    -999.2500     -25.9561    -999.2500
    -999.2500
   3099.3223
    -999.2500    -999.2500    -999.2500      54.7858    -999.2500      55.8720
       1.6498       1.6908       1.7509       5.7972       0.1000    -999.2500
    -999.2500    -999.2500    -999.2500    -999.2500     -25.0853    -999.2500
    -999.2500
   3099.4746
    -999.2500    -999.2500    -999.2500      54.5866    -999.2500      55.6071
       1.6831       1.7219       1.9884       6.5564       0.1000    -999.2500
    -999.2500    -999.2500    -999.2500    -999.2500     -23.9112    -999.2500
    -999.2500
   3099.6270
    -999.2500    -999.2500    -999.2500      54.2444    -999.2500      54.7273
       1.7150       1.7504       2.4841       7.4919       0.1000    -999.2500
    -999.2500    -999.2500    -999.2500    -999.2500     -21.8821    -999.2500
    -999.2500
   3099.7793
    -999.2500    -999.2500    -999.2500      53.7064    -999.2500      53.1065
       1.7341       1.7681       3.2473       8.4184       0.1000    -999.2500
    -999.2500    -999.2500    -999.2500    -999.2500     -19.6231    -999.2500
    -999.2500
   3099.9319
    -999.2500    -999.2500    -999.2500      52.9541    -999.2500      51.6322
       1.7889       1.8156       4.9570       9.4046       0.1000    -999.2500
    -999.2500    -999.2500    -999.2500    -999.2500     -16.6951    -999.2500
    -999.2500
   3100.0842
       6.6926      19.2105      -0.7407      52.0122      29.7396      49.6822
       1.7955       1.8224       7.8028      10.1828       0.1000       0.2617
       5.7235       0.0114       2.1256    -999.2500     -13.8277       0.9325
       1.1722
   3100.2366
       6.5977      16.2774      -0.4710      50.9252      30.4171      48.5789
       1.7999       1.8292      16.8157      11.3216       0.3998       0.2638
       3.4562       0.0109       2.1387    -999.2500     -10.5799       0.2773
       1.5743
   3100.3889
       6.6049      17.5737      -0.2238      49.8231      32.3341      48.2509
       1.8216       1.8542      43.4893      12.3351       1.1876       0.2778
       2.6021       0.0116       2.1704    -999.2500       0.1577       0.3647
       1.6433
   3100.5413
       6.7525      22.0534      -0.0143      48.8729      36.3978      48.2201
       1.8504       1.8861   23725.5312      15.2176       2.4767       0.2711
       3.6416       0.0140       2.2357    -999.2500      25.1306       0.7132
       1.5970
   3100.6938
       7.0075      25.7689       0.0751      48.2935      39.5083      47.3733
       1.8732       1.9159   37891.3242      18.4012       2.9390       0.2431
       4.8912       0.0163       2.3376    -999.2500      46.7799       0.8521
       1.5296
   3100.8462
       7.2907      27.5143       0.0921      48.6360      41.5405      46.5965
       1.9114       1.9651   40000.0000      20.7007       2.8798       0.2190
       5.2846       0.0171       2.4788    -999.2500      55.4110       1.0221
       1.5616
   3100.9985
       7.6026      27.8453       0.0825      51.4062      41.6494      45.9070
       1.9750       2.0410    9618.2139      18.5659       2.9670       0.1996
       5.0459       0.0162       2.5655    -999.2500      58.2344       1.4688
       1.5369
   3101.1509
       7.8049      27.0162       0.0641      57.5426      40.0257      44.5534
       2.0953       2.1824      10.6070      13.7422       3.3301       0.1873
       4.9201       0.0140       2.6170    -999.2500      58.3154       2.1187
       1.4484
   3101.3035
       7.9082      24.5278       0.0551      65.6631      38.7493      44.2068
       2.3505       2.4404       9.0419       7.7983       3.7803       0.1780
       4.9881       0.0118       2.6467    -999.2500      56.9567       2.2950
       1.5833
   3101.4558
       8.0503      15.7995       0.0370      72.6520      37.4907      43.0891
       2.5793       2.6661       9.2304       4.7724       4.8601       0.1641
       4.9219       0.0087       2.6520    -999.2500      56.0160       1.0404
       2.4149
   3101.6082
       7.9924      10.2531       0.0221      76.6137      36.8989      39.1799
       2.7941       2.8534      78.4215       4.3847       6.5166       0.1498
       4.8211       0.0066       2.6443    -999.2500      55.1704       0.3030
       2.9666
   3101.7605
       7.8424      11.9290       0.0113      78.7033      36.4702      37.8283
       2.9029       2.9332     231.2863       4.3411       9.1748       0.1324
       4.7486       0.0055       2.6245    -999.2500      54.6472       1.1996
       2.7323
   3101.9131
       7.8260      16.4567       0.0041      80.2460      37.1472      38.8881
       2.8910       2.9022     220.9977       3.7005       7.2454       0.1294
       4.6861       0.0058       2.5966    -999.2500      54.1853       2.3537
       2.3035
   3102.0654
       7.8446      23.7808       0.0028      81.5115      39.6678      40.9635
       2.6737       2.6913     184.0172       3.1086       5.7282       0.1386
       4.6071       0.0092       2.5538    -999.2500      53.8914       3.1108
       1.7687
   3102.2178
       7.8542      27.6912       0.0068      82.1107      40.9530      41.9436
       2.4849       2.5053     151.2264       2.6687       4.2855       0.1510
       4.5844       0.0116       2.5266    -999.2500      53.8034       3.2420
       1.4764
   3102.3701
       7.8581      28.6034       0.0085      81.9416      42.0233      42.7054
       2.3253       2.3580     137.5996       2.5460       3.9733       0.1599
       4.6043       0.0126       2.5209    -999.2500      53.8520       3.1198
       1.4941
   3102.5225
       7.8466      26.6387       0.0101      81.0466      42.6571      43.3760
       2.2668       2.3026     126.2902       2.6947       3.7770       0.1649
       4.6386       0.0117       2.5459    -999.2500      53.5616       2.9243
       1.7834
