#------------------------------------------------------------------------------
#
#   Created by  : [OpenWorks] Log Export Utility (LEXP)
#   Created on  : 2016-05-19 10:22:36
#   Project     : CANT971
#   User        : R5K
#   Interpreter : PEP
#
#------------------------------------------------------------------------------
~VERSION INFORMATION
VERS. 2.0 : CWLS Log ASCII Standard - version 2.0
WRAP. YES : Mulitple lines per depth step
~WELL INFORMATION
#MNEMONIC   .UNIT                                           VALUE :DESCRIPTION
#------------------------------------------------------------------------------
STRT        .M                                          2616.0618 :START DEPTH
STOP        .M                                          3329.4463 :STOP DEPTH
STEP        .M                                             0.1524 :STEP
NULL        .                                           -999.2500 :NULL VALUE
COMP        .                                             UNKNOWN :COMPANY
WELL        .                                            2076D-V2 :WELL
FLD         .                                             UNKNOWN :FIELD
LOC         .                                             UNKNOWN :LOCATION
CNTY        .                                             UNKNOWN :COUNTY
STAT        .                                             UNKNOWN :STATE
CTRY        .                                             UNKNOWN :COUNTRY
SRVC        .                                             UNKNOWN :SERVICE COMPANY
DATE        .                                             UNKNOWN :LOG DATE
UWI         .                                            2076D-V2 :UNIQUE WELL ID
XCOORD      .                                            0.000000 :SURFACE X
YCOORD      .                                            0.000000 :SURFACE Y
LAT         .                                            0.000000 :LATITUDE
LON         .                                          -97.488695 :LONGITUDE
ELEV        .M                                             0.0000 :SURFACE ELEV
ELEV_TYPE   .                                                  KB :ELEV TYPE
~CURVE INFORMATION
#MNEMONIC.UNIT        API CODE       : CURVE DESCRIPTION
#------------------------------------------------------------------------------
DEPTH    .M                          : Measured Depth
CALI     .UNKNOWN     UNKNOWN        : CALI:litodensidad:rC:NONE:v0 (auto-composite)
CGR      .API         UNKNOWN        : CGR:Espectrometria:rC:NONE:v0 (auto-composite)
DRHO     .g/cm3       UNKNOWN        : DRHO:litodensidad:rC:NONE:v0 (auto-composite)
DT       .us/ft       UNKNOWN        : DT:sonico:rC:NONE:v0 (auto-composite)
GR       .API         UNKNOWN        : GR:Espectrometria:rC:NONE:v0 (auto-composite)
GR-LWD   .API         UNKNOWN        : GR-LWD:PETROWORKS:rC:NONE:v1 
ILD-LWD  .UNKNOWN     UNKNOWN        : ILD-LWD:PETROWORKS:rC:NONE:v1 
ILM-LWD  .UNKNOWN     UNKNOWN        : ILM-LWD:PETROWORKS:rC:NONE:v1 
LLD      .ohm.m       UNKNOWN        : LLD:resistivos:rC:NONE:v0 (auto-composite)
LLS      .ohm.m       UNKNOWN        : LLS:resistivos:rC:NONE:v0 (auto-composite)
MSFL     .ohm.m       UNKNOWN        : MSFL:resistivos:rC:NONE:v0 (auto-composite)
NPHI     .UNKNOWN     UNKNOWN        : NPHI:porosidad:rC:NONE:v0 (auto-composite)
PEF      .UNKNOWN     UNKNOWN        : PEF:litodensidad:rC:NONE:v0 (auto-composite)
POTA     .wtpercent   UNKNOWN        : POTA:Espectrometria:rC:NONE:v0 (auto-composite)
RHOB     .g/cm3       UNKNOWN        : RHOB:litodensidad:rC:NONE:v0 (auto-composite)
SIGM     .UNKNOWN     UNKNOWN        : SIGM:TMDL:rC:NONE:v0 (auto-composite)
SP       .UNKNOWN     UNKNOWN        : SP:resistivos:rC:NONE:v0 (auto-composite)
THOR     .UNKNOWN     UNKNOWN        : THOR:Espectrometria:rC:NONE:v0 (auto-composite)
URAN     .UNKNOWN     UNKNOWN        : URAN:Espectrometria:rC:NONE:v0 (auto-composite)
~A
# ...
   3286.9265
       6.8670      12.0290       0.0204      59.7256      46.5855      37.8227
      29.7539      66.9408      16.7871      19.5376       7.5558       0.0774
       4.5272       0.0075       2.6624       7.5382      34.5460       0.4464
       3.8473
   3287.0789
       6.8682      10.7681       0.0210      58.1486      46.0516      37.4346
      29.7165      74.0662      15.3849      16.9589       3.1876       0.0790
       4.5449       0.0058       2.6619       7.5241      34.1954       0.7403
       3.9282
   3287.2314
       6.9055       7.9276       0.0199      56.1132      43.2813      36.3647
      28.2967      66.9269      20.4189      24.6083       3.4543       0.0788
       4.3751       0.0033       2.6458       7.5051      34.7923       0.9335
       3.9361
   3287.3838
       6.8629       5.8254       0.0193      54.6342      40.1631      34.2036
      26.7851      56.4464      30.2599      38.6633       5.8414       0.0752
       4.2454       0.0017       2.6417       7.5000      36.4130       0.9706
       3.8229
   3287.5361
       6.7912       6.7409       0.0178      54.1707      37.6976      32.4635
      25.8460      47.2214      55.0961      68.2236      19.5855       0.0678
       4.2713       0.0007       2.6565       7.5000      37.8136       1.6158
       3.4465
   3287.6885
       6.7611       9.4212       0.0152      54.4591      36.6197      30.7640
      25.4327      37.2632      84.3467      99.6409      30.0451       0.0586
       4.5143       0.0005       2.6575       7.5000      38.4356       2.4738
       3.0281
   3287.8411
       6.7651      12.3288       0.0111      55.0626      35.6796      29.9510
      26.0087      34.9669     104.3013     121.0214      23.5370       0.0488
       4.9175       0.0010       2.6459       7.5000      37.6240       3.1213
       2.5997
   3287.9934
       6.7667      13.3077       0.0078      55.6713      35.2131      29.9353
      27.9880      35.4402     103.2975     121.3214      15.1130       0.0456
       5.1133       0.0020       2.6452       7.5000      37.1337       2.9755
       2.4388
   3288.1458
       6.7874      13.5383       0.0065      56.1328      34.8629      30.3913
      30.4193      36.4652      85.4814     101.7275      18.5096       0.0498
       5.0498       0.0036       2.6487       7.5000      36.7418       2.4310
       2.3741
   3288.2981
       6.7916      12.8961       0.0080      56.2242      34.7838      30.6100
      32.4800      37.0500      57.4160      69.4674      36.1052       0.0557
       4.8492       0.0041       2.6516       7.5000      35.7104       2.0295
       2.4368
   3288.4507
       6.7156      11.3111       0.0108      55.6570      34.7425      29.6143
      35.2785      37.9701      41.8833      49.0827      71.2198       0.0658
       4.5022       0.0038       2.6677       7.5000      35.3206       1.7035
       2.6087
   3288.6030
       6.7145      10.3469       0.0107      54.3108      34.2197      28.6528
      37.7920      40.0307      35.5023      38.6317      52.6055       0.0714
       4.2574       0.0038       2.6736       7.5000      36.6937       1.4212
       2.6578
   3288.7554
       6.7543      10.6228       0.0065      52.7042      33.5378      28.3082
      40.5062      42.7449      36.9051      40.4210      29.7234       0.0668
       4.0921       0.0045       2.6348       7.5000      38.6216       1.2194
       2.5512
   3288.9077
       6.7791      11.2246       0.0016      51.6035      33.3162      28.5795
      43.1839      45.9735      52.3511      59.3996      16.5992       0.0626
       4.0079       0.0048       2.5995       7.5000      40.2578       1.2604
       2.4595
   3289.0601
       6.7294       9.4964      -0.0049      51.1534      34.4612      29.8951
      45.0623      49.3241      69.0767      76.9675      17.0359       0.0652
       3.9659       0.0042       2.6000       7.5000      41.2603       1.0464
       2.7794
   3289.2126
       6.6935       5.9898      -0.0068      51.0996      36.3523      31.5869
      45.6725      50.6879      83.5512      90.4444      42.0824       0.0704
       3.9572       0.0030       2.6155       7.5000      41.3152       0.4952
       3.3803
   3289.3650
       6.6802       2.7845      -0.0034      51.1515      38.7089      34.0637
      45.0399      50.4544      84.5612      88.9171      33.5937       0.0771
       3.9526       0.0016       2.6277       7.5000      41.4850       0.1590
       3.9996
   3289.5173
       6.6993       2.2320      -0.0006      51.3673      40.4005      35.3983
      42.1382      47.5478      76.4843      80.8271      26.3948       0.0794
       3.9735       0.0012       2.6383       7.5000      41.7532       0.1725
       4.2494
   3289.6697
       6.7174       3.1140      -0.0000      52.1511      38.6429      35.1386
      39.3220      44.6750      71.3041      75.4011      24.9993       0.0745
       4.0340       0.0016       2.6650       7.5000      41.3195       0.2553
       3.9556
   3289.8223
       6.6928       5.6645      -0.0014      54.0760      36.7640      33.8279
      37.1385      42.3652      68.1891      72.1711      27.5695       0.0674
       4.1255       0.0025       2.6772       7.5000      40.0350       0.5957
       3.4624
   3289.9746
       6.6984       8.5046      -0.0039      56.6971      35.1880      31.5354
      36.2257      41.3908      65.4257      68.8708      30.5177       0.0628
       4.2834       0.0037       2.6688       7.5000      39.3159       0.9473
       2.9707
   3290.1270
       6.7538      10.1875      -0.0060      58.6650      32.9482      29.4079
      37.0121      42.1911      63.1149      66.4278      23.9355       0.0629
       4.4551       0.0049       2.6415       7.5000      39.3690       0.9329
       2.5340
   3290.2793
       6.7538       9.6929      -0.0013      59.0416      31.7669      27.0725
      38.9041      44.1103      59.1504      62.6683      14.6747       0.0701
       4.3895       0.0052       2.6275       7.5000      39.4658       0.6792
       2.4576
   3290.4319
       6.7568       8.3110       0.0134      57.9898      31.3153      25.8395
      41.7417      46.9858      55.6494      59.0888      10.7911       0.0863
       4.1088       0.0044       2.6161       7.5000      40.5377       0.6157
       2.5611
   3290.5842
       6.7550       6.0957       0.0216      56.5075      31.1723      25.1723
      44.4697      49.4184      53.0868      56.7086      13.1301       0.0961
       3.9307       0.0029       2.5836       7.5000      41.2591       0.5707
       2.7919
   3290.7366
       6.7316       2.8388       0.0168      55.3284      31.0354      24.4537
      44.4580      48.8317      51.9618      55.1033      18.0230       0.0999
       3.9849       0.0009       2.5467       7.5000      40.7009       0.4294
       3.1393
   3290.8889
       6.6976       1.6866       0.0081      54.6446      31.1704      24.0842
      44.1083      47.8454      52.5449      55.6838      19.5609       0.0948
       4.2336       0.0003       2.5614       7.5000      40.5765       0.3533
       3.2825
   3291.0413
       6.7333       1.4045      -0.0039      54.2915      31.5975      23.9759
      43.7871      47.0929      55.1050      58.1565      25.7680       0.0787
       4.4532       0.0005       2.5928       7.5000      42.3575       0.1970
       3.3615
   3291.1938
       6.7866       1.9250      -0.0114      53.9932      32.5113      24.1858
      43.5574      46.4810      58.6926      63.3916      27.4378       0.0663
       4.4224       0.0011       2.6021       7.5000      43.6154       0.1293
       3.4053
   3291.3462
       6.7883       3.3857      -0.0082      53.6307      30.5589      24.6108
      43.4708      45.9414      60.7224      66.8033      27.6284       0.0594
       4.3290       0.0020       2.6170       7.5000      43.9582       0.1498
       3.0253
   3291.4985
       6.7626       4.9059      -0.0024      53.3579      28.9367      24.9300
      43.4200      45.3700      61.6031      68.7012      28.1692       0.0581
       4.3450       0.0027       2.6300       7.5000      43.9242       0.3077
       2.6755
