#------------------------------------------------------------------------------
#
#   Created by  : [OpenWorks] Log Export Utility (LEXP)
#   Created on  : 2016-05-19 10:22:36
#   Project     : CANT971
#   User        : R5K
#   Interpreter : PEP
#
#------------------------------------------------------------------------------
~VERSION INFORMATION
VERS. 2.0 : CWLS Log ASCII Standard - version 2.0
WRAP. YES : Mulitple lines per depth step
~WELL INFORMATION
#MNEMONIC   .UNIT                                           VALUE :DESCRIPTION
#------------------------------------------------------------------------------
STRT        .M                                          2616.0618 :START DEPTH
STOP        .M                                          3329.4463 :STOP DEPTH
STEP        .M                                             0.1524 :STEP
NULL        .                                           -999.2500 :NULL VALUE
COMP        .                                             UNKNOWN :COMPANY
WELL        .                                            2076D-V2 :WELL
FLD         .                                             UNKNOWN :FIELD
LOC         .                                             UNKNOWN :LOCATION
CNTY        .                                             UNKNOWN :COUNTY
STAT        .                                             UNKNOWN :STATE
CTRY        .                                             UNKNOWN :COUNTRY
SRVC        .                                             UNKNOWN :SERVICE COMPANY
DATE        .                                             UNKNOWN :LOG DATE
UWI         .                                            2076D-V2 :UNIQUE WELL ID
XCOORD      .                                            0.000000 :SURFACE X
YCOORD      .                                            0.000000 :SURFACE Y
LAT         .                                            0.000000 :LATITUDE
LON         .                                          -97.488695 :LONGITUDE
ELEV        .M                                             0.0000 :SURFACE ELEV
ELEV_TYPE   .                                                  KB :ELEV TYPE
~CURVE INFORMATION
#MNEMONIC.UNIT        API CODE       : CURVE DESCRIPTION
#------------------------------------------------------------------------------
DEPTH    .M                          : Measured Depth
CALI     .UNKNOWN     UNKNOWN        : CALI:litodensidad:rC:NONE:v0 (auto-composite)
CGR      .API         UNKNOWN        : CGR:Espectrometria:rC:NONE:v0 (auto-composite)
DRHO     .g/cm3       UNKNOWN        : DRHO:litodensidad:rC:NONE:v0 (auto-composite)
DT       .us/ft       UNKNOWN        : DT:sonico:rC:NONE:v0 (auto-composite)
GR       .API         UNKNOWN        : GR:Espectrometria:rC:NONE:v0 (auto-composite)
GR-LWD   .API         UNKNOWN        : GR-LWD:PETROWORKS:rC:NONE:v1 
ILD-LWD  .UNKNOWN     UNKNOWN        : ILD-LWD:PETROWORKS:rC:NONE:v1 
ILM-LWD  .UNKNOWN     UNKNOWN        : ILM-LWD:PETROWORKS:rC:NONE:v1 
LLD      .ohm.m       UNKNOWN        : LLD:resistivos:rC:NONE:v0 (auto-composite)
LLS      .ohm.m       UNKNOWN        : LLS:resistivos:rC:NONE:v0 (auto-composite)
MSFL     .ohm.m       UNKNOWN        : MSFL:resistivos:rC:NONE:v0 (auto-composite)
NPHI     .UNKNOWN     UNKNOWN        : NPHI:porosidad:rC:NONE:v0 (auto-composite)
PEF      .UNKNOWN     UNKNOWN        : PEF:litodensidad:rC:NONE:v0 (auto-composite)
POTA     .wtpercent   UNKNOWN        : POTA:Espectrometria:rC:NONE:v0 (auto-composite)
RHOB     .g/cm3       UNKNOWN        : RHOB:litodensidad:rC:NONE:v0 (auto-composite)
SIGM     .UNKNOWN     UNKNOWN        : SIGM:TMDL:rC:NONE:v0 (auto-composite)
SP       .UNKNOWN     UNKNOWN        : SP:resistivos:rC:NONE:v0 (auto-composite)
THOR     .UNKNOWN     UNKNOWN        : THOR:Espectrometria:rC:NONE:v0 (auto-composite)
URAN     .UNKNOWN     UNKNOWN        : URAN:Espectrometria:rC:NONE:v0 (auto-composite)
~A
# ...
   3244.4070
       6.8109       3.1238       0.0057      57.2525      39.1626      28.8886
      59.5369      54.7855      71.3405      69.4307     428.4055       0.0724
       4.6950       0.0018       2.6158       7.5000      51.4694       0.1694
       4.0123
   3244.5593
       6.7982       2.1456       0.0088      57.3728      42.9493      28.9473
      61.1921      57.6640      75.4004      75.0538     467.6104       0.0759
       4.6992       0.0013       2.6298       7.5000      50.6071       0.1025
       4.5428
   3244.7117
       6.7798       1.6796       0.0133      57.4919      44.5375      29.0776
      62.8503      60.6812      80.6398      79.9517     277.3329       0.0737
       4.6240       0.0010       2.6430       7.5000      50.5055       0.0811
       4.7716
   3244.8643
       6.8125       3.0443       0.0117      57.3755      44.3765      28.8008
      64.1330      63.1695      82.5291      81.6874     146.2981       0.0706
       4.4057       0.0020       2.6488       7.5000      50.7907       0.0793
       4.6017
   3245.0166
       6.8553       4.0184       0.0075      56.9499      43.9330      29.3963
      65.2945      65.3723      86.9032      83.5864      66.5906       0.0681
       4.2881       0.0027       2.6487       7.5000      50.8354       0.0781
       4.4439
   3245.1689
       6.8528       4.9688       0.0014      56.4411      42.4672      29.8145
      65.9650      66.9595      88.1429      83.8230      42.9687       0.0684
       4.2330       0.0034       2.6397       7.5000      50.6923       0.0762
       4.1749
   3245.3213
       6.8200       5.4948      -0.0027      56.0589      39.7850      30.3905
      66.2142      68.1181      88.6595      84.3980      37.3890       0.0697
       4.1628       0.0037       2.6356       7.5000      49.8603       0.0997
       3.8177
   3245.4739
       6.8140       5.2591      -0.0055      55.7608      36.4105      30.8714
      66.4876      69.1877      90.7023      86.5053      42.4861       0.0705
       4.0716       0.0033       2.6338       7.5000      48.7940       0.1947
       3.4682
   3245.6262
       6.8325       4.3645      -0.0090      55.3921      36.1456      31.1189
      66.5853      70.0688      91.4558      87.1589      63.2988       0.0707
       4.0249       0.0026       2.6309       7.5000      48.4919       0.2245
       3.5383
   3245.7786
       6.8410       3.4497      -0.0095      54.9825      35.5163      31.3806
      66.5058      70.5007      91.3343      86.9463      80.6744       0.0705
       4.0830       0.0023       2.6287       7.5000      48.5475       0.0805
       3.5701
   3245.9309
       6.8229       2.5921      -0.0087      54.9099      33.7271      31.1769
      66.3255      70.6531      92.8609      88.8074      69.7516       0.0704
       4.1794       0.0016       2.6291       7.5000      48.4501       0.0957
       3.4664
   3246.0833
       6.8237       2.3518      -0.0080      55.5992      32.8839      29.8934
      65.9847      70.3431      95.3530      91.0030      57.2677       0.0694
       4.2313       0.0006       2.6378       7.5000      48.7133       0.4144
       3.3992
   3246.2358
       6.8369       3.8505      -0.0044      57.0330      33.3047      29.6096
      65.5069      69.7160      97.0348      94.5638      64.4896       0.0657
       4.3581       0.0003       2.6555       7.5000      49.1073       0.9618
       3.2792
   3246.3882
       6.8563       5.4425       0.0003      58.4558      34.6830      29.2765
      64.8705      68.5011      93.4048      92.0285      65.2426       0.0636
       4.4693       0.0003       2.6628       7.5000      48.9610       1.4062
       3.2554
   3246.5405
       6.8366       5.3394       0.0058      58.9318      38.1042      29.8891
      64.2634      67.3187      84.9093      84.1028      54.2875       0.0635
       4.4921       0.0004       2.6517       7.5000      47.7831       1.3689
       3.6479
   3246.6929
       6.8033       4.5720       0.0098      57.8453      41.0963      30.8816
      63.3781      65.4805      74.7082      73.6211      57.3661       0.0660
       4.4701       0.0004       2.6384       7.5000      46.5873       1.1467
       4.0664
   3246.8455
       6.7866       4.7411       0.0118      55.4387      43.5852      32.4516
      62.5022      63.3966      66.8818      64.2660      99.4240       0.0723
       4.3730       0.0014       2.6368       7.5000      45.6960       0.7992
       4.3247
   3246.9978
       6.7851       7.0057       0.0100      52.8499      45.1640      34.3661
      61.6618      61.2092      62.3332      60.1427     117.0090       0.0771
       4.2031       0.0034       2.6416       7.5000      44.8421       0.6191
       4.2483
   3247.1501
       6.7719       9.4016       0.0047      51.2815      46.3291      35.8063
      61.3901      59.6321      60.2446      58.0486     103.1182       0.0812
       4.0083       0.0060       2.6483       7.5000      44.5943       0.2974
       4.1113
   3247.3025
       6.7617       9.2742       0.0027      51.4253      49.0945      36.9961
      61.8993      59.3033      59.9316      57.6716     105.7083       0.0830
       3.9765       0.0063       2.6487       7.5000      45.3603       0.1407
       4.4333
   3247.4551
       6.7575       5.6133       0.0030      52.9651      47.6049      37.8015
      62.6231      59.6941      61.1580      58.8659     102.3390       0.0780
       4.0830       0.0036       2.6309       7.5000      46.2570       0.1602
       4.6751
   3247.6074
       6.7643       2.9578      -0.0004      55.2730      44.0453      37.7757
      63.5713      60.4693      62.0292      58.7558      58.1547       0.0737
       4.1408       0.0017       2.6147       7.5000      48.2627       0.1797
       4.5744
   3247.7598
       6.7830       4.3674      -0.0062      57.6333      39.7311      37.3550
      64.4744      61.1587      64.2226      60.9415      42.1233       0.0732
       4.1380       0.0024       2.6061       7.5000      49.4289       0.2993
       3.9372
   3247.9121
       6.7813       3.7510      -0.0069      59.4239      37.9826      35.9244
      65.5282      61.6543      68.7066      64.9458      60.8280       0.0738
       4.1153       0.0022       2.6064       7.5000      48.9957       0.1741
       3.8111
   3248.0645
       6.7267       2.0512      -0.0058      60.4741      37.4723      34.9038
      66.6450      62.0423      70.9753      67.0442      75.4026       0.0795
       4.0413       0.0013       2.6143       7.5000      48.4114       0.0751
       3.9436
   3248.2170
       6.7287       1.4452      -0.0046      60.7075      37.9280      33.9022
      67.4923      62.0737      73.0307      68.9975      70.9884       0.0846
       3.9534       0.0009       2.6215       7.5000      48.4753       0.0641
       4.0618
   3248.3694
       6.7618       2.4094      -0.0001      60.4100      39.3024      33.1965
      68.0179      61.7778      73.5011      68.9333      71.9200       0.0900
       3.8630       0.0015       2.6214       7.5000      48.4632       0.1047
       4.1074
   3248.5217
       6.7471       3.7795       0.0022      59.9649      40.6603      32.8162
      68.5676      61.5764      72.3082      68.1383      58.9770       0.0920
       3.8365       0.0022       2.6163       7.5000      48.3936       0.1914
       4.1061
   3248.6741
       6.7213       5.0754       0.0008      59.6838      42.4508      33.3480
      68.9436      61.4645      71.4666      67.8478      42.9147       0.0865
       3.8741       0.0031       2.6190       7.5000      48.3126       0.2193
       4.1612
   3248.8267
       6.7116       6.0006      -0.0018      59.5659      43.5372      33.9622
      70.0137      62.6190      67.5593      64.1684      39.0191       0.0727
       4.0630       0.0038       2.6221       7.5000      47.4310       0.1760
       4.1791
   3248.9790
       6.7307       7.0604       0.0015      59.3549      43.5537      34.4027
      71.1260      63.8724      63.6093      59.9837      38.8994       0.0662
       4.2859       0.0044       2.6027       7.5000      46.0500       0.2513
       4.0630
