#------------------------------------------------------------------------------
#
#   Created by  : [OpenWorks] Log Export Utility (LEXP)
#   Created on  : 2016-05-19 10:22:34
#   Project     : CANT971
#   User        : R5K
#   Interpreter : PEP
#
#------------------------------------------------------------------------------
~VERSION INFORMATION
VERS. 2.0 : CWLS Log ASCII Standard - version 2.0
WRAP.  NO : One line per depth step
~WELL INFORMATION
#MNEMONIC   .UNIT                                           VALUE :DESCRIPTION
#------------------------------------------------------------------------------
STRT        .M                                           501.0914 :START DEPTH
STOP        .M                                          3797.8081 :STOP DEPTH
STEP        .M                                             0.1524 :STEP
NULL        .                                           -999.2500 :NULL VALUE
COMP        .                                   PEMEX EXPL & PROD :COMPANY
WELL        .                                                2076 :WELL
FLD         .                                           CANTARELL :FIELD
LOC         .                                             UNKNOWN :LOCATION
CNTY        .                                      CD. DEL CARMEN :COUNTY
STAT        .                                            CAMPECHE :STATE
CTRY        .                                              MEXICO :COUNTRY
SRVC        .                                             UNKNOWN :SERVICE COMPANY
DATE        .                                             UNKNOWN :LOG DATE
UWI         .                                          3060000519 :UNIQUE WELL ID
XCOORD      .                                       600031.350000 :SURFACE X
YCOORD      .                                      2139442.240000 :SURFACE Y
LAT         .                                           19.347648 :LATITUDE
LON         .                                          -92.047636 :LONGITUDE
ELEV        .M                                            27.4000 :SURFACE ELEV
ELEV_TYPE   .                                                  KB :ELEV TYPE
~CURVE INFORMATION
#MNEMONIC.UNIT        API CODE       : CURVE DESCRIPTION
#------------------------------------------------------------------------------
DEPTH    .M                          : Measured Depth
CALI     .inches      UNKNOWN        : CALI:UNKNOWN:rC:NONE:v0 (auto-composite)
DT       .us/ft       UNKNOWN        : DT:UNKNOWN:rC:NONE:v0 (auto-composite)
GR       .API         UNKNOWN        : GR:UNKNOWN:rC:NONE:v0 (auto-composite)
ILD      .ohm.m       UNKNOWN        : ILD:UNKNOWN:rC:NONE:v0 (auto-composite)
LLD      .ohm.m       UNKNOWN        : LLD:UNKNOWN:rC:NONE:v0 (auto-composite)
LLS      .ohm.m       UNKNOWN        : LLS:UNKNOWN:rC:NONE:v0 (auto-composite)
NPHI     .UNKNOWN     UNKNOWN        : NPHI:UNKNOWN:rC:NONE:v0 (auto-composite)
RHOB     .g/cm3       UNKNOWN        : RHOB:UNKNOWN:rC:NONE:v0 (auto-composite)
SIGM     .UNKNOWN     UNKNOWN        : SIGM:UNKNOWN:rC:NONE:v0 (auto-composite)
TAU      .UNKNOWN     UNKNOWN        : TAU:UNKNOWN:rC:NONE:v0 (auto-composite)
~A     DEPTH         CALI           DT           GR          ILD          LLD          LLS         NPHI         RHOB         SIGM          TAU
# ...
   3718.5603       6.2200      53.2170      30.4730    -999.2500     526.0000     431.0000       0.0499       2.7800    -999.2500    -999.2500
   3718.7126       6.2200      54.1372      32.8097    -999.2500     554.9559     437.2626       0.0564       2.7715    -999.2500    -999.2500
   3718.8650       6.2200      55.0550      35.1440    -999.2500     583.8830     443.4990       0.0645       2.7630    -999.2500    -999.2500
   3719.0173       6.2200      56.3591      37.4905    -999.2500     598.2972     469.8030       0.0766       2.7405    -999.2500    -999.2500
   3719.1699       6.2200      57.6600      39.8350    -999.2500     612.6990     496.0000       0.0887       2.7180    -999.2500    -999.2500
   3719.3223       6.2285      59.0136      43.9190    -999.2500     658.2374     486.4736       0.0971       2.6840    -999.2500    -999.2500
   3719.4746       6.2370      60.3640      48.0000    -999.2500     703.7420     477.0000       0.1043       2.6500    -999.2500    -999.2500
   3719.6270       6.3226      61.8336      47.9580    -999.2500     729.8791     487.4904       0.1079       2.6550    -999.2500    -999.2500
   3719.7793       6.4080      63.3000      47.9160    -999.2500     756.0000     497.9240       0.1100       2.6600    -999.2500    -999.2500
   3719.9319       6.4240      62.7950      45.5080    -999.2500     717.7606     535.0601       0.1062       2.6550    -999.2500    -999.2500
   3720.0842       6.4400      62.2910      43.1050    -999.2500     679.5400     572.0000       0.1014       2.6500    -999.2500    -999.2500
   3720.2366       6.4850      59.9157      40.8503    -999.2500     638.6895     551.5658       0.0968       2.6500    -999.2500    -999.2500
   3720.3889       6.5300      57.5450      38.6000    -999.2500     597.8540     531.2370       0.0926       2.6500    -999.2500    -999.2500
   3720.5415       6.4960      56.8218      39.2506    -999.2500     564.4230     498.0876       0.0911       2.6585    -999.2500    -999.2500
   3720.6938       6.4620      56.1000      39.9000    -999.2500     531.0000     465.1050       0.0896       2.6670    -999.2500    -999.2500
   3720.8462       6.4435      56.7005      39.3075    -999.2500     539.0160     450.0155       0.0853       2.6810    -999.2500    -999.2500
   3720.9985       6.4250      57.3000      38.7160    -999.2500     547.0310     435.0000       0.0807       2.6950    -999.2500    -999.2500
   3721.1509       6.3775      56.2407      37.2568    -999.2500     612.0151     451.0238       0.0768       2.7145    -999.2500    -999.2500
   3721.3035       6.3300      55.1830      35.8000    -999.2500     677.0000     466.9710       0.0733       2.7340    -999.2500    -999.2500
   3721.4558       6.3300      54.6411      35.8000    -999.2500     676.5755     501.5660       0.0717       2.7370    -999.2500    -999.2500
   3721.6082       6.3300      54.1000      35.8000    -999.2500     676.1510     536.0000       0.0703       2.7400    -999.2500    -999.2500
   3721.7605       6.3300      54.7805      36.9483    -999.2500     649.0574     534.7216       0.0690       2.7300    -999.2500    -999.2500
   3721.9131       6.3300      55.4600      38.0950    -999.2500     622.0000     533.4490       0.0675       2.7200    -999.2500    -999.2500
   3722.0654       6.3300      55.7304      39.9987    -999.2500     639.3690     506.1644       0.0657       2.7370    -999.2500    -999.2500
   3722.2178       6.3300      56.0000      41.9000    -999.2500     656.7170     479.0000       0.0638       2.7540    -999.2500    -999.2500
   3722.3701       6.3430      55.7497      38.5982    -999.2500     815.0242     513.1923       0.0619       2.7620    -999.2500    -999.2500
   3722.5227       6.3560      55.5000      35.3000    -999.2500     973.1590     547.2380       0.0603       2.7700    -999.2500    -999.2500
   3722.6750       6.3920      59.6008      35.4000    -999.2500    1206.6919     708.4540       0.0607       2.7530    -999.2500    -999.2500
   3722.8274       6.4280      63.6910      35.5000    -999.2500    1440.0000     869.0000       0.0615       2.7360    -999.2500    -999.2500
   3722.9797       6.4340      66.5805      33.3176    -999.2500    1327.1718     832.7338       0.0632       2.7230    -999.2500    -999.2500
   3723.1321       6.4400      69.4630      31.1370    -999.2500    1214.4380     796.6140       0.0653       2.7100    -999.2500    -999.2500
   3723.2847       6.4400      71.9329      27.4697    -999.2500     922.5422     632.8557       0.0685       2.7250    -999.2500    -999.2500
   3723.4370       6.4400      74.3970      23.8050    -999.2500     630.8540     469.7370       0.0717       2.7400    -999.2500    -999.2500
   3723.5894       6.4400      80.0317      22.4521    -999.2500     495.4603     414.5701       0.0742       2.7200    -999.2500    -999.2500
   3723.7417       6.4400      85.6540      21.1000    -999.2500     360.1460     359.6120       0.0763       2.7000    -999.2500    -999.2500
   3723.8943       6.4230      86.8783      21.4439    -999.2500     338.5680     345.2112       0.0757       2.7045    -999.2500    -999.2500
   3724.0466       6.4060      88.1000      21.7870    -999.2500     317.0000     330.8860       0.0744       2.7090    -999.2500    -999.2500
   3724.1990       6.3680      84.5225      23.5677    -999.2500     344.6216     328.9380       0.0718       2.7140    -999.2500    -999.2500
   3724.3513       6.3300      80.9520      25.3450    -999.2500     372.2340     327.0000       0.0689       2.7190    -999.2500    -999.2500
   3724.5039       6.3300      76.7082      26.5736    -999.2500     460.7078     385.9475       0.0656       2.7240    -999.2500    -999.2500
   3724.6562       6.3300      72.4720      27.8000    -999.2500     549.1630     444.6000       0.0622       2.7290    -999.2500    -999.2500
   3724.8086       6.2750      70.0705      24.9976    -999.2500     594.2990     482.4352       0.0584       2.7380    -999.2500    -999.2500
   3724.9609       6.2200      67.6730      22.2000    -999.2500     639.4310     520.0860       0.0545       2.7470    -999.2500    -999.2500
   3725.1133       6.2200      61.8014      22.7504    -999.2500     709.0663     539.6641       0.0510       2.7535    -999.2500    -999.2500
   3725.2659       6.2200      55.9390      23.3000    -999.2500     778.5930     559.1490       0.0478       2.7600    -999.2500    -999.2500
   3725.4182       6.2200      53.5678      22.8662    -999.2500     885.8734     675.8444       0.0458       2.7500    -999.2500    -999.2500
   3725.5706       6.2200      51.2000      22.4330    -999.2500     993.0000     792.0000       0.0441       2.7400    -999.2500    -999.2500
   3725.7229       6.2200      52.6509      21.4158    -999.2500     883.4283     752.5587       0.0420       2.7400    -999.2500    -999.2500
   3725.8755       6.2200      54.1000      20.4000    -999.2500     774.0000     713.2950       0.0402       2.7400    -999.2500    -999.2500
   3726.0278       6.2636      52.9694      21.0954    -999.2500     795.6348     612.4268       0.0400       2.7445    -999.2500    -999.2500
   3726.1802       6.3070      51.8420      21.7900    -999.2500     817.2440     512.0000       0.0402       2.7490    -999.2500    -999.2500
   3726.3325       6.3656      50.2188      21.9821    -999.2500     835.1315     526.0298       0.0416       2.7645    -999.2500    -999.2500
   3726.4851       6.4240      48.6000      22.1740    -999.2500     853.0000     540.0000       0.0432       2.7800    -999.2500    -999.2500
   3726.6375       6.4320      50.0824      22.3871    -999.2500     697.5396     458.1276       0.0448       2.7650    -999.2500    -999.2500
   3726.7898       6.4400      51.5610      22.6000    -999.2500     542.2240     376.5930       0.0462       2.7500    -999.2500    -999.2500
   3726.9421       6.4400      52.4801      22.4254    -999.2500     402.5126     314.3689       0.0465       2.7585    -999.2500    -999.2500
