#------------------------------------------------------------------------------
#
#   Created by  : [OpenWorks] Log Export Utility (LEXP)
#   Created on  : 2016-05-19 10:22:34
#   Project     : CANT971
#   User        : R5K
#   Interpreter : PEP
#
#------------------------------------------------------------------------------
~VERSION INFORMATION
VERS. 2.0 : CWLS Log ASCII Standard - version 2.0
WRAP.  NO : One line per depth step
~WELL INFORMATION
#MNEMONIC   .UNIT                                           VALUE :DESCRIPTION
#------------------------------------------------------------------------------
STRT        .M                                           501.0914 :START DEPTH
STOP        .M                                          3797.8081 :STOP DEPTH
STEP        .M                                             0.1524 :STEP
NULL        .                                           -999.2500 :NULL VALUE
COMP        .                                   PEMEX EXPL & PROD :COMPANY
WELL        .                                                2076 :WELL
FLD         .                                           CANTARELL :FIELD
LOC         .                                             UNKNOWN :LOCATION
CNTY        .                                      CD. DEL CARMEN :COUNTY
STAT        .                                            CAMPECHE :STATE
CTRY        .                                              MEXICO :COUNTRY
SRVC        .                                             UNKNOWN :SERVICE COMPANY
DATE        .                                             UNKNOWN :LOG DATE
UWI         .                                          3060000519 :UNIQUE WELL ID
XCOORD      .                                       600031.350000 :SURFACE X
YCOORD      .                                      2139442.240000 :SURFACE Y
LAT         .                                           19.347648 :LATITUDE
LON         .                                          -92.047636 :LONGITUDE
ELEV        .M                                            27.4000 :SURFACE ELEV
ELEV_TYPE   .                                                  KB :ELEV TYPE
~CURVE INFORMATION
#MNEMONIC.UNIT        API CODE       : CURVE DESCRIPTION
#------------------------------------------------------------------------------
DEPTH    .M                          : Measured Depth
CALI     .inches      UNKNOWN        : CALI:UNKNOWN:rC:NONE:v0 (auto-composite)
DT       .us/ft       UNKNOWN        : DT:UNKNOWN:rC:NONE:v0 (auto-composite)
GR       .API         UNKNOWN        : GR:UNKNOWN:rC:NONE:v0 (auto-composite)
ILD      .ohm.m       UNKNOWN        : ILD:UNKNOWN:rC:NONE:v0 (auto-composite)
LLD      .ohm.m       UNKNOWN        : LLD:UNKNOWN:rC:NONE:v0 (auto-composite)
LLS      .ohm.m       UNKNOWN        : LLS:UNKNOWN:rC:NONE:v0 (auto-composite)
NPHI     .UNKNOWN     UNKNOWN        : NPHI:UNKNOWN:rC:NONE:v0 (auto-composite)
RHOB     .g/cm3       UNKNOWN        : RHOB:UNKNOWN:rC:NONE:v0 (auto-composite)
SIGM     .UNKNOWN     UNKNOWN        : SIGM:UNKNOWN:rC:NONE:v0 (auto-composite)
TAU      .UNKNOWN     UNKNOWN        : TAU:UNKNOWN:rC:NONE:v0 (auto-composite)
~A     DEPTH         CALI           DT           GR          ILD          LLD          LLS         NPHI         RHOB         SIGM          TAU
# ...
   3786.8354       5.8130      52.8830      33.4570    -999.2500     431.4890     187.0000       0.0483       2.7630    -999.2500    -999.2500
   3786.9878       5.8515      54.1646      32.6278    -999.2500     399.6455     195.5072       0.0509       2.7865    -999.2500    -999.2500
   3787.1401       5.8900      55.4440      31.8000    -999.2500     367.8560     204.0000       0.0539       2.8100    -999.2500    -999.2500
   3787.2925       5.8900      56.7826      33.4013    -999.2500     362.5608     201.3339       0.0580       2.8070    -999.2500    -999.2500
   3787.4451       5.8900      58.1190      35.0000    -999.2500     357.2740     198.6720       0.0625       2.8040    -999.2500    -999.2500
   3787.5974       5.8350      63.1731      33.0986    -999.2500     313.3178     177.4592       0.0683       2.7670    -999.2500    -999.2500
   3787.7498       5.7800      68.2200      31.2000    -999.2500     269.4250     156.2770       0.0745       2.7300    -999.2500    -999.2500
   3787.9021       5.7800      78.3987      31.5502    -999.2500     193.5244     120.9617       0.0825       2.7700    -999.2500    -999.2500
   3788.0547       5.7800      88.5640      31.9000    -999.2500     117.7240      85.6930       0.0893       2.8100    -999.2500    -999.2500
   3788.2070       5.7835      99.1783      31.3212    -999.2500      88.1614      61.3320       0.0863       2.8020    -999.2500    -999.2500
   3788.3594       5.7870     109.7800      30.7430    -999.2500      58.6340      37.0000       0.0831       2.7940    -999.2500    -999.2500
   3788.5117       5.8130     122.3967      27.2696    -999.2500      47.5111      39.6394       0.0878       2.7425    -999.2500    -999.2500
   3788.6643       5.8390     135.0000      23.8000    -999.2500      36.4000      42.2760       0.0930       2.6910    -999.2500    -999.2500
   3788.8167       5.8645     133.4903      25.2007    -999.2500      41.9956      72.7198       0.0936       2.6355    -999.2500    -999.2500
   3788.9690       5.8900     131.9820      26.6000    -999.2500      47.5860     103.1350       0.0929       2.5800    -999.2500    -999.2500
   3789.1213       5.8990     122.1700      25.0994    -999.2500     249.3754     193.1042       0.0891       2.5905    -999.2500    -999.2500
   3789.2737       5.9080     112.3660      23.6000    -999.2500     451.0000     283.0000       0.0832       2.6010    -999.2500    -999.2500
   3789.4263       6.0090     105.0345      23.8696    -999.2500     440.9966     270.4857       0.0673       2.6635    -999.2500    -999.2500
   3789.5786       6.1100      97.7080      24.1390    -999.2500     431.0000     258.0000       0.0511       2.7260    -999.2500    -999.2500
   3789.7310       6.1055      95.6939      25.8200    -999.2500     432.9751     263.8548       0.0432       2.7440    -999.2500    -999.2500
   3789.8833       6.1010      93.6810      27.5000    -999.2500     434.9490     269.6970       0.0375       2.7620    -999.2500    -999.2500
   3790.0359       6.0645      83.9260      25.6481    -999.2500     463.1938     323.2221       0.0367       2.7810    -999.2500    -999.2500
   3790.1882       6.0280      74.1910      23.8000    -999.2500     491.3810     376.6380       0.0367       2.8000    -999.2500    -999.2500
   3790.3406       5.9584      72.9833      24.1003    -999.2500     625.8407     529.9658       0.0367       2.7950    -999.2500    -999.2500
   3790.4929       5.8890      71.7780      24.4000    -999.2500     760.0430     683.0000       0.0368       2.7900    -999.2500    -999.2500
   3790.6455       5.7794      70.1335      24.2083    -999.2500     885.1335     676.3550       0.0372       2.7350    -999.2500    -999.2500
   3790.7979       5.6700      68.4920      24.0170    -999.2500    1010.0000     669.7220       0.0383       2.6800    -999.2500    -999.2500
   3790.9502       5.6700      62.8358      22.3071    -999.2500     998.1136     628.8500       0.0422       2.6815    -999.2500    -999.2500
   3791.1025       5.6700      57.1890      20.6000    -999.2500     986.2470     588.0460       0.0477       2.6830    -999.2500    -999.2500
   3791.2549       5.6755      56.5870      20.6080    -999.2500     913.8468     543.6578       0.0594       2.6965    -999.2500    -999.2500
   3791.4075       5.6810      55.9860      20.6160    -999.2500     841.5580     499.3380       0.0705       2.7100    -999.2500    -999.2500
   3791.5598       5.7140      55.6187      20.7731    -999.2500     761.8077     466.8676       0.0720       2.6950    -999.2500    -999.2500
   3791.7122       5.7470      55.2520      20.9300    -999.2500     682.1700     434.4430       0.0718       2.6800    -999.2500    -999.2500
   3791.8645       5.7635      54.8177      22.7162    -999.2500     579.5189     411.7068       0.0708       2.6800    -999.2500    -999.2500
   3792.0171       5.7800      54.3840      24.5000    -999.2500     477.0000     389.0000       0.0693       2.6800    -999.2500    -999.2500
   3792.1694       5.7800      53.9507      24.4750    -999.2500     477.0000     389.0000       0.0664       2.6835    -999.2500    -999.2500
   3792.3218       5.7800      53.5180      24.4500    -999.2500     477.0000     389.0000       0.0628       2.6870    -999.2500    -999.2500
   3792.4741       5.7800      52.6571      22.7741    -999.2500     477.0000     389.9160       0.0566       2.7085    -999.2500    -999.2500
   3792.6267       5.7800      51.7970      21.1000    -999.2500     477.0000     390.8310       0.0504       2.7300    -999.2500    -999.2500
   3792.7791       5.7800      50.8981      21.3791    -999.2500     506.5135     397.4805       0.0465       2.7650    -999.2500    -999.2500
   3792.9314       5.7800      50.0000      21.6580    -999.2500     536.0000     404.1240       0.0433       2.8000    -999.2500    -999.2500
   3793.0837       5.7800      50.0000      24.6802    -999.2500     528.8937     417.5673       0.0416       2.7965    -999.2500    -999.2500
   3793.2361       5.7800      50.0000      27.7000    -999.2500     521.7930     431.0000       0.0404       2.7930    -999.2500    -999.2500
   3793.3887       5.7800      48.5995      27.4164    -999.2500     483.4524     417.2815       0.0404       2.7740    -999.2500    -999.2500
   3793.5410       5.7800      47.2000      27.1330    -999.2500     445.1370     403.5940       0.0410       2.7550    -999.2500    -999.2500
   3793.6934       5.7755      47.7396      25.6616    -999.2500     388.2923     333.8105       0.0434       2.7400    -999.2500    -999.2500
   3793.8457       5.7710      48.2790      24.1910    -999.2500     331.4780     264.1760       0.0475       2.7250    -999.2500    -999.2500
   3793.9983       5.7204      51.1924      23.6450    -999.2500     223.6306     197.0205       0.0591       2.7100    -999.2500    -999.2500
   3794.1506       5.6700      54.1000      23.1000    -999.2500     116.0000     130.0000       0.0702       2.6950    -999.2500    -999.2500
   3794.3030       5.6700      52.8488      23.3032    -999.2500     117.5745     131.7416       0.0716       2.6775    -999.2500    -999.2500
   3794.4553       5.6700      51.6000      23.5060    -999.2500     119.1460     133.4800       0.0703       2.6600    -999.2500    -999.2500
   3794.6079       5.6700      51.6175      24.4713    -999.2500     130.7562     161.7649       0.0642       2.6655    -999.2500    -999.2500
   3794.7603       5.6700      51.6350      25.4350    -999.2500     142.3460     190.0000       0.0584       2.6710    -999.2500    -999.2500
   3794.9126       5.6700      51.9603      25.7423    -999.2500     165.0345     189.3610       0.0587       2.6975    -999.2500    -999.2500
   3795.0649       5.6700      52.2850      26.0490    -999.2500     187.6860     188.7230       0.0610       2.7240    -999.2500    -999.2500
   3795.2173       5.6700      53.9437      27.4756    -999.2500     204.8560     185.6777       0.0681       2.7320    -999.2500    -999.2500
