#------------------------------------------------------------------------------
#
#   Created by  : [OpenWorks] Log Export Utility (LEXP)
#   Created on  : 2016-05-19 10:22:34
#   Project     : CANT971
#   User        : R5K
#   Interpreter : PEP
#
#------------------------------------------------------------------------------
~VERSION INFORMATION
VERS. 2.0 : CWLS Log ASCII Standard - version 2.0
WRAP.  NO : One line per depth step
~WELL INFORMATION
#MNEMONIC   .UNIT                                           VALUE :DESCRIPTION
#------------------------------------------------------------------------------
STRT        .M                                           501.0914 :START DEPTH
STOP        .M                                          3797.8081 :STOP DEPTH
STEP        .M                                             0.1524 :STEP
NULL        .                                           -999.2500 :NULL VALUE
COMP        .                                   PEMEX EXPL & PROD :COMPANY
WELL        .                                                2076 :WELL
FLD         .                                           CANTARELL :FIELD
LOC         .                                             UNKNOWN :LOCATION
CNTY        .                                      CD. DEL CARMEN :COUNTY
STAT        .                                            CAMPECHE :STATE
CTRY        .                                              MEXICO :COUNTRY
SRVC        .                                             UNKNOWN :SERVICE COMPANY
DATE        .                                             UNKNOWN :LOG DATE
UWI         .                                          3060000519 :UNIQUE WELL ID
XCOORD      .                                       600031.350000 :SURFACE X
YCOORD      .                                      2139442.240000 :SURFACE Y
LAT         .                                           19.347648 :LATITUDE
LON         .                                          -92.047636 :LONGITUDE
ELEV        .M                                            27.4000 :SURFACE ELEV
ELEV_TYPE   .                                                  KB :ELEV TYPE
~CURVE INFORMATION
#MNEMONIC.UNIT        API CODE       : CURVE DESCRIPTION
#------------------------------------------------------------------------------
DEPTH    .M                          : Measured Depth
CALI     .inches      UNKNOWN        : CALI:UNKNOWN:rC:NONE:v0 (auto-composite)
DT       .us/ft       UNKNOWN        : DT:UNKNOWN:rC:NONE:v0 (auto-composite)
GR       .API         UNKNOWN        : GR:UNKNOWN:rC:NONE:v0 (auto-composite)
ILD      .ohm.m       UNKNOWN        : ILD:UNKNOWN:rC:NONE:v0 (auto-composite)
LLD      .ohm.m       UNKNOWN        : LLD:UNKNOWN:rC:NONE:v0 (auto-composite)
LLS      .ohm.m       UNKNOWN        : LLS:UNKNOWN:rC:NONE:v0 (auto-composite)
NPHI     .UNKNOWN     UNKNOWN        : NPHI:UNKNOWN:rC:NONE:v0 (auto-composite)
RHOB     .g/cm3       UNKNOWN        : RHOB:UNKNOWN:rC:NONE:v0 (auto-composite)
SIGM     .UNKNOWN     UNKNOWN        : SIGM:UNKNOWN:rC:NONE:v0 (auto-composite)
TAU      .UNKNOWN     UNKNOWN        : TAU:UNKNOWN:rC:NONE:v0 (auto-composite)
~A     DEPTH         CALI           DT           GR          ILD          LLD          LLS         NPHI         RHOB         SIGM          TAU
# ...
   3761.2322       5.8930      52.0000      24.1740    -999.2500     315.0000     303.0000       0.0399       2.7810    -999.2500    -999.2500
   3761.3845       5.9465      51.1996      26.8884    -999.2500     314.1706     300.6324       0.0400       2.8005    -999.2500    -999.2500
   3761.5371       6.0000      50.4000      29.6000    -999.2500     313.3420     298.2710       0.0399       2.8200    -999.2500    -999.2500
   3761.6895       6.0000      50.4230      29.5870    -999.2500     285.1112     235.0287       0.0383       2.8050    -999.2500    -999.2500
   3761.8418       6.0000      50.4460      29.5740    -999.2500     256.9060     171.9450       0.0367       2.7900    -999.2500    -999.2500
   3761.9941       6.0000      51.2483      29.0383    -999.2500     186.9257     152.9499       0.0367       2.7900    -999.2500    -999.2500
   3762.1465       6.0000      52.0500      28.5030    -999.2500     117.0000     134.0000       0.0367       2.7900    -999.2500    -999.2500
   3762.2991       5.9449      54.3276      23.6999    -999.2500     117.0475     134.5266       0.0367       2.7900    -999.2500    -999.2500
   3762.4514       5.8900      56.6000      18.9000    -999.2500     117.0950     135.0520       0.0367       2.7900    -999.2500    -999.2500
   3762.6038       5.8900      56.5665      18.9490    -999.2500     119.4181     215.1112       0.0377       2.7900    -999.2500    -999.2500
   3762.7561       5.8900      56.5330      18.9980    -999.2500     121.7400     295.0000       0.0386       2.7900    -999.2500    -999.2500
   3762.9087       5.8910      55.5225      21.0511    -999.2500     202.3863     293.8243       0.0374       2.8050    -999.2500    -999.2500
   3763.0610       5.8920      54.5140      23.1000    -999.2500     283.0000     292.6510       0.0361       2.8200    -999.2500    -999.2500
   3763.2134       5.9170      52.4551      21.3984    -999.2500     282.0329     261.7478       0.0362       2.8195    -999.2500    -999.2500
   3763.3657       5.9420      50.4000      19.7000    -999.2500     281.0660     230.9520       0.0363       2.8190    -999.2500    -999.2500
   3763.5183       5.9710      50.4190      19.8281    -999.2500     256.6376     192.9123       0.0381       2.7695    -999.2500    -999.2500
   3763.6707       6.0000      50.4380      19.9560    -999.2500     232.2520     155.0000       0.0399       2.7200    -999.2500    -999.2500
   3763.8230       6.0000      50.9254      23.3898    -999.2500     189.0909     156.8360       0.0401       2.7200    -999.2500    -999.2500
   3763.9753       6.0000      51.4120      26.8180    -999.2500     146.0000     158.6660       0.0402       2.7200    -999.2500    -999.2500
   3764.1277       6.0000      51.5561      31.4125    -999.2500     148.8401     341.6165       0.0421       2.7400    -999.2500    -999.2500
   3764.2803       6.0000      51.7000      36.0000    -999.2500     151.6760     524.0000       0.0442       2.7600    -999.2500    -999.2500
   3764.4326       6.0000      51.3998      35.9435    -999.2500     347.4728     518.6545       0.0482       2.7590    -999.2500    -999.2500
   3764.5850       6.0000      51.1000      35.8870    -999.2500     543.0000     513.3250       0.0522       2.7580    -999.2500    -999.2500
   3764.7373       6.0000      51.1585      34.4426    -999.2500     540.4034     413.4973       0.0563       2.7340    -999.2500    -999.2500
   3764.8899       6.0000      51.2170      33.0000    -999.2500     537.8100     313.9540       0.0604       2.7100    -999.2500    -999.2500
   3765.0422       6.0000      52.6283      33.0530    -999.2500     479.1365     256.3810       0.0645       2.7050    -999.2500    -999.2500
   3765.1946       6.0000      54.0380      33.1060    -999.2500     420.5290     198.9650       0.0687       2.7000    -999.2500    -999.2500
   3765.3469       6.0005      56.8204      34.8038    -999.2500     307.2708     123.4844       0.0744       2.6935    -999.2500    -999.2500
   3765.4995       6.0010      59.6000      36.5000    -999.2500     194.1260      48.2000       0.0805       2.6870    -999.2500    -999.2500
   3765.6519       6.0125      59.4534      36.4785    -999.2500     121.3812      49.4140       0.0936       2.6135    -999.2500    -999.2500
   3765.8042       6.0240      59.3070      36.4570    -999.2500      48.7000      50.6250       0.1064       2.5400    -999.2500    -999.2500
   3765.9565       6.0670      55.5021      36.0113    -999.2500      49.9175      95.9317       0.1063       2.5415    -999.2500    -999.2500
   3766.1089       6.1100      51.7000      35.5660    -999.2500      51.1340     141.1320       0.1051       2.5430    -999.2500    -999.2500
   3766.2615       6.1551      51.7000      35.1084    -999.2500      94.7011     218.2783       0.0924       2.5735    -999.2500    -999.2500
   3766.4138       6.2000      51.7000      34.6510    -999.2500     138.2410     295.2530       0.0792       2.6040    -999.2500    -999.2500
   3766.5662       6.1975      52.2005      29.0241    -999.2500     240.6901     373.2083       0.0692       2.6490    -999.2500    -999.2500
   3766.7185       6.1950      52.7000      23.4000    -999.2500     343.0880     451.0000       0.0593       2.6940    -999.2500    -999.2500
   3766.8711       6.1490      52.6259      24.2008    -999.2500     488.0711     448.3564       0.0509       2.7270    -999.2500    -999.2500
   3767.0234       6.1030      52.5520      25.0000    -999.2500     633.0000     445.7180       0.0429       2.7600    -999.2500    -999.2500
   3767.1758       5.9964      51.1247      23.6488    -999.2500     595.9954     389.7625       0.0425       2.7605    -999.2500    -999.2500
   3767.3281       5.8900      49.7000      22.3000    -999.2500     559.0000     334.0000       0.0426       2.7610    -999.2500    -999.2500
   3767.4807       5.8900      49.7385      22.3500    -999.2500     584.5220     335.6773       0.0430       2.7805    -999.2500    -999.2500
   3767.6331       5.8900      49.7770      22.4000    -999.2500     610.0000     337.3490       0.0435       2.8000    -999.2500    -999.2500
   3767.7854       5.8900      51.9903      23.3763    -999.2500     609.4801     384.2495       0.0463       2.7990    -999.2500    -999.2500
   3767.9377       5.8900      54.2000      24.3510    -999.2500     608.9610     431.0000       0.0491       2.7980    -999.2500    -999.2500
   3768.0901       5.8900      54.0999      26.5111    -999.2500     505.9046     375.9155       0.0512       2.7490    -999.2500    -999.2500
   3768.2427       5.8900      54.0000      28.6680    -999.2500     403.0000     321.0000       0.0533       2.7000    -999.2500    -999.2500
   3768.3950       5.8900      54.0420      30.1945    -999.2500     403.2091     322.9684       0.0558       2.7000    -999.2500    -999.2500
   3768.5474       5.8900      54.0840      31.7190    -999.2500     403.4180     324.9310       0.0585       2.7000    -999.2500    -999.2500
   3768.6997       5.8920      54.8004      37.5130    -999.2500     410.6459     401.0728       0.0633       2.7005    -999.2500    -999.2500
   3768.8523       5.8940      55.5160      43.3000    -999.2500     417.8650     477.0000       0.0681       2.7010    -999.2500    -999.2500
   3769.0046       5.9235      57.7592      43.1949    -999.2500     490.4723     467.9879       0.0712       2.7055    -999.2500    -999.2500
   3769.1570       5.9530      60.0000      43.0900    -999.2500     563.0000     459.0000       0.0743       2.7100    -999.2500    -999.2500
   3769.3093       5.9765      57.2487      41.3917    -999.2500     545.9918     459.5677       0.0788       2.7400    -999.2500    -999.2500
   3769.4619       6.0000      54.5000      39.6950    -999.2500     529.0000     460.1340       0.0830       2.7700    -999.2500    -999.2500
   3769.6143       5.9960      56.3008      36.2961    -999.2500     530.8533     548.1746       0.0830       2.7450    -999.2500    -999.2500
