#------------------------------------------------------------------------------
#
#   Created by  : [OpenWorks] Log Export Utility (LEXP)
#   Created on  : 2016-05-19 10:22:36
#   Project     : CANT971
#   User        : R5K
#   Interpreter : PEP
#
#------------------------------------------------------------------------------
~VERSION INFORMATION
VERS. 2.0 : CWLS Log ASCII Standard - version 2.0
WRAP. YES : Mulitple lines per depth step
~WELL INFORMATION
#MNEMONIC   .UNIT                                           VALUE :DESCRIPTION
#------------------------------------------------------------------------------
STRT        .M                                          2616.0618 :START DEPTH
STOP        .M                                          3329.4463 :STOP DEPTH
STEP        .M                                             0.1524 :STEP
NULL        .                                           -999.2500 :NULL VALUE
COMP        .                                             UNKNOWN :COMPANY
WELL        .                                            2076D-V2 :WELL
FLD         .                                             UNKNOWN :FIELD
LOC         .                                             UNKNOWN :LOCATION
CNTY        .                                             UNKNOWN :COUNTY
STAT        .                                             UNKNOWN :STATE
CTRY        .                                             UNKNOWN :COUNTRY
SRVC        .                                             UNKNOWN :SERVICE COMPANY
DATE        .                                             UNKNOWN :LOG DATE
UWI         .                                            2076D-V2 :UNIQUE WELL ID
XCOORD      .                                            0.000000 :SURFACE X
YCOORD      .                                            0.000000 :SURFACE Y
LAT         .                                            0.000000 :LATITUDE
LON         .                                          -97.488695 :LONGITUDE
ELEV        .M                                             0.0000 :SURFACE ELEV
ELEV_TYPE   .                                                  KB :ELEV TYPE
~CURVE INFORMATION
#MNEMONIC.UNIT        API CODE       : CURVE DESCRIPTION
#------------------------------------------------------------------------------
DEPTH    .M                          : Measured Depth
CALI     .UNKNOWN     UNKNOWN        : CALI:litodensidad:rC:NONE:v0 (auto-composite)
CGR      .API         UNKNOWN        : CGR:Espectrometria:rC:NONE:v0 (auto-composite)
DRHO     .g/cm3       UNKNOWN        : DRHO:litodensidad:rC:NONE:v0 (auto-composite)
DT       .us/ft       UNKNOWN        : DT:sonico:rC:NONE:v0 (auto-composite)
GR       .API         UNKNOWN        : GR:Espectrometria:rC:NONE:v0 (auto-composite)
GR-LWD   .API         UNKNOWN        : GR-LWD:PETROWORKS:rC:NONE:v1 
ILD-LWD  .UNKNOWN     UNKNOWN        : ILD-LWD:PETROWORKS:rC:NONE:v1 
ILM-LWD  .UNKNOWN     UNKNOWN        : ILM-LWD:PETROWORKS:rC:NONE:v1 
LLD      .ohm.m       UNKNOWN        : LLD:resistivos:rC:NONE:v0 (auto-composite)
LLS      .ohm.m       UNKNOWN        : LLS:resistivos:rC:NONE:v0 (auto-composite)
MSFL     .ohm.m       UNKNOWN        : MSFL:resistivos:rC:NONE:v0 (auto-composite)
NPHI     .UNKNOWN     UNKNOWN        : NPHI:porosidad:rC:NONE:v0 (auto-composite)
PEF      .UNKNOWN     UNKNOWN        : PEF:litodensidad:rC:NONE:v0 (auto-composite)
POTA     .wtpercent   UNKNOWN        : POTA:Espectrometria:rC:NONE:v0 (auto-composite)
RHOB     .g/cm3       UNKNOWN        : RHOB:litodensidad:rC:NONE:v0 (auto-composite)
SIGM     .UNKNOWN     UNKNOWN        : SIGM:TMDL:rC:NONE:v0 (auto-composite)
SP       .UNKNOWN     UNKNOWN        : SP:resistivos:rC:NONE:v0 (auto-composite)
THOR     .UNKNOWN     UNKNOWN        : THOR:Espectrometria:rC:NONE:v0 (auto-composite)
URAN     .UNKNOWN     UNKNOWN        : URAN:Espectrometria:rC:NONE:v0 (auto-composite)
~A
# ...
   3315.2729
       6.6592       8.7425       0.0313      58.9180      29.4891      27.3979
      39.9774      49.8414      63.3774      62.0363      22.0323       0.0764
       5.0555       0.0033       2.5580    -999.2500    -999.2500       1.1701
       2.3098
   3315.4253
       6.6494      11.1021       0.0250      58.6953      28.6513      27.6075
      40.0326      48.2652      66.7487      66.8451      28.3108       0.0709
       5.1066       0.0039       2.5705    -999.2500    -999.2500       1.6019
       1.9538
   3315.5779
       6.6800      12.2442       0.0248      58.4617      29.4120      29.7506
      38.6487      43.8063      55.8304      61.4103      37.7686       0.0640
       5.1368       0.0042       2.5768    -999.2500    -999.2500       1.7989
       1.9114
   3315.7302
       6.6981      12.5918       0.0296      58.2175      34.6775      32.4740
      35.7828      37.8439      36.9386      44.9066      35.1368       0.0556
       5.1370       0.0048       2.5751    -999.2500    -999.2500       1.6654
       2.4589
   3315.8826
       6.6722      12.2675       0.0349      58.0069      39.9778      37.1447
      32.0133      31.2089      24.0299      29.0709      24.4897       0.0526
       5.1113       0.0050       2.5696    -999.2500    -999.2500       1.5013
       3.0851
   3316.0349
       6.6561      12.5367       0.0383      57.8790      46.3572      41.2534
      28.4572      25.8336      18.3907      19.5373      15.3935       0.0547
       5.0530       0.0053       2.5740    -999.2500    -999.2500       1.4441
       3.7653
   3316.1873
       6.6654      11.9270       0.0359      57.8253      50.3349      44.2449
      26.2796      23.0410      18.2095      18.7754       9.4113       0.0597
       4.9942       0.0054       2.5803    -999.2500    -999.2500       1.2434
       4.2761
   3316.3398
       6.6721       8.4571       0.0307      57.8060      51.3126      44.3671
      25.4261      22.1001      23.0925      24.7308      12.8286       0.0689
       4.9803       0.0033       2.5776    -999.2500    -999.2500       1.0982
       4.7712
   3316.4922
       6.6589       4.6788       0.0280      57.7923      50.3046      42.3862
      25.4867      22.4087      29.3501      31.0662      20.4018       0.0742
       4.9854       0.0011       2.5673    -999.2500    -999.2500       0.9063
       5.0797
   3316.6445
       6.6115       4.0433       0.0247      57.7774      47.4054      39.2836
      26.3095      23.8250      35.3312      36.1371      22.8125       0.0744
       4.9476       0.0003       2.5525    -999.2500    -999.2500       1.0192
       4.8276
   3316.7969
       6.6273       5.9885       0.0224      57.7620      43.3769      35.5807
      27.6141      25.9768      37.3206      37.9159      74.1808       0.0756
       4.9201       0.0006       2.5448    -999.2500    -999.2500       1.4440
       4.1626
   3316.9495
       6.6552       8.0624       0.0239      57.7466      39.1347      32.3275
      28.5619      27.9475      35.9516      36.9653      82.5875       0.0802
       4.9351       0.0023       2.5463    -999.2500    -999.2500       1.3918
       3.4594
   3317.1018
       6.6649       8.9007       0.0256      57.7312      36.2707      30.7600
      28.9500      29.4400      34.4511      35.5847      45.7137       0.0832
       4.9473       0.0036       2.5477    -999.2500    -999.2500       1.1151
       3.0472
   3317.2542
       6.6587       8.0175       0.0284      57.7157      34.5329      29.8763
      28.8231      30.2163      34.2630      35.2653      24.3404       0.0862
       4.9213       0.0037       2.5333    -999.2500    -999.2500       0.7946
       2.9520
   3317.4065
       6.5978       6.8428       0.0337      57.7003      33.6690      29.5860
      28.3887      30.4627      35.4977      36.2837      22.6187       0.0887
       4.8293       0.0034       2.5240    -999.2500    -999.2500       0.5876
       2.9867
   3317.5591
       6.4563       4.3902       0.0410      57.6849      33.3748      29.3605
      27.3612      29.6489      37.3762      37.9175      24.8183       0.0829
       4.5597       0.0023       2.5456    -999.2500    -999.2500       0.3435
       3.2270
   3317.7114
       6.4967       3.1847       0.0480      57.6695      33.1065      29.5120
      25.8019      27.8054      38.4624      38.9493      28.6050       0.0755
       4.4512       0.0016       2.5716    -999.2500    -999.2500       0.2880
       3.3313
   3317.8638
       6.4933       2.6292       0.0646      57.6541      32.9426      30.5493
      24.0879      25.5779      36.4681      37.1125      28.2612       0.0620
       4.7164       0.0010       2.6079    -999.2500    -999.2500       0.3428
       3.3749
   3318.0161
       6.4705       3.9730       0.0706      57.6387      33.4818      32.0186
      22.2625      23.1942      28.8705      30.4209      24.0718       0.0536
       4.9552       0.0018       2.6401    -999.2500    -999.2500       0.4141
       3.2853
   3318.1685
       6.5009       6.0177       0.0576      57.6232      35.6166      33.9944
      20.4094      20.8883      22.5593      24.1427      20.3308       0.0469
       5.0645       0.0026       2.6583    -999.2500    -999.2500       0.6913
       3.2954
   3318.3210
       6.5310       8.2473       0.0484      57.6078      38.3402      35.5597
      18.6434      18.9349      17.9449      18.8946      15.8121       0.0440
       5.0740       0.0030       2.6578    -999.2500    -999.2500       1.1590
       3.3503
   3318.4734
       6.5641       9.9768       0.0464      57.5924      41.4666      36.5383
      17.3742      17.6269      16.1482      16.6952      12.7472       0.0434
       5.0657       0.0030       2.6590    -999.2500    -999.2500       1.6448
       3.5059
   3318.6257
       6.5808      11.7838       0.0454      57.5770      44.9947      35.4376
      16.5331      16.8031      18.4301      20.0388      12.0063       0.0425
       5.0641       0.0031       2.6660    -999.2500    -999.2500       2.1090
       3.6975
   3318.7781
       6.5842      12.1431       0.0450      57.5616      45.1816      33.1310
      15.9663      16.2050      22.0123      24.8826      15.2676       0.0410
       5.0242       0.0033       2.6784    -999.2500    -999.2500       2.1313
       3.6783
   3318.9307
       6.5747      19.8629       0.0469      57.5462      40.7486      31.8113
      15.7163      15.8157      22.4449      25.4268      23.0003       0.0361
       4.9401       0.0119       2.6948    -999.2500    -999.2500       0.9277
       2.3253
   3319.0830
       6.5633       6.4575       0.0475      57.5307      30.4588      31.7028
      15.6068      15.5703      19.1274      22.3826      32.9566       0.0341
       4.9104       0.0042       2.6796    -999.2500    -999.2500       0.1577
       2.6722
   3319.2354
       6.5409       4.4098       0.0562      57.5153      26.3886      32.0673
      15.5010      15.3084      13.2385      14.9111      23.9484       0.0372
       4.8847       0.0031       2.6357    -999.2500    -999.2500       0.0342
       2.4470
   3319.3877
       6.5503    -999.2500       0.0654      57.4999    -999.2500      32.7415
      15.2718      14.9227       9.9234      10.3541      13.0216       0.0437
       4.8441    -999.2500       2.6100    -999.2500    -999.2500    -999.2500
    -999.2500
   3319.5403
       6.5486    -999.2500       0.0581      57.4845    -999.2500      31.5611
      15.0376      14.6255      10.1096      10.9496       7.2356       0.0544
       4.8322    -999.2500       2.5982    -999.2500    -999.2500    -999.2500
    -999.2500
   3319.6926
       6.5376    -999.2500       0.0403      57.4690    -999.2500      29.2617
      14.5410      14.0461      12.3483      14.2811       7.6322       0.0624
       4.8262    -999.2500       2.6000    -999.2500    -999.2500    -999.2500
    -999.2500
   3319.8450
       6.5451    -999.2500       0.0250      57.4536    -999.2500      26.3139
      13.8995      13.3531      15.7328      18.4015      11.0515       0.0642
       4.7217    -999.2500       2.6023    -999.2500    -999.2500    -999.2500
    -999.2500
