#------------------------------------------------------------------------------
#
#   Created by  : [OpenWorks] Log Export Utility (LEXP)
#   Created on  : 2016-05-19 11:11:51
#   Project     : CANT971
#   User        : R5K
#   Interpreter : PEP
#
#------------------------------------------------------------------------------
~VERSION INFORMATION
VERS. 2.0 : CWLS Log ASCII Standard - version 2.0
WRAP.  NO : One line per depth step
~WELL INFORMATION
#MNEMONIC   .UNIT                                           VALUE :DESCRIPTION
#------------------------------------------------------------------------------
STRT        .M                                           763.3251 :START DEPTH
STOP        .M                                          2737.0574 :STOP DEPTH
STEP        .M                                             0.1524 :STEP
NULL        .                                           -999.2500 :NULL VALUE
COMP        .                                   PEMEX EXPL & PROD :COMPANY
WELL        .                                                207D :WELL
FLD         .                                           CANTARELL :FIELD
LOC         .                                             UNKNOWN :LOCATION
CNTY        .                                      CD. DEL CARMEN :COUNTY
STAT        .                                            CAMPECHE :STATE
CTRY        .                                              MEXICO :COUNTRY
SRVC        .                                             UNKNOWN :SERVICE COMPANY
DATE        .                                             UNKNOWN :LOG DATE
UWI         .                                          3060000699 :UNIQUE WELL ID
XCOORD      .                                       597310.700000 :SURFACE X
YCOORD      .                                      2143073.700000 :SURFACE Y
LAT         .                                           19.380597 :LATITUDE
LON         .                                          -92.073350 :LONGITUDE
ELEV        .M                                            27.7000 :SURFACE ELEV
ELEV_TYPE   .                                                  KB :ELEV TYPE
~CURVE INFORMATION
#MNEMONIC.UNIT        API CODE       : CURVE DESCRIPTION
#------------------------------------------------------------------------------
DEPTH    .M                          : Measured Depth
DT       .us/ft       UNKNOWN        : DT:Import:rC:NONE:v0 (auto-composite)
GR       .API         UNKNOWN        : GR:Import:rC:NONE:v0 (auto-composite)
ILD      .ohm.m       UNKNOWN        : ILD:Import:rC:NONE:v0 (auto-composite)
ILM      .ohm.m       UNKNOWN        : ILM:Import:rC:NONE:v0 (auto-composite)
~A     DEPTH           DT           GR          ILD          ILM
# ...
    933.4035    -999.2500      37.0983       2.1668       2.2067
    933.5558    -999.2500      36.6295       2.1053       2.1449
    933.7083    -999.2500      35.8635       2.0348       2.0739
    933.8607    -999.2500      36.3996       1.9685       2.0058
    934.0131    -999.2500      37.2255       1.9030       1.9384
    934.1655    -999.2500      37.6777       1.8669       1.9019
    934.3179    -999.2500      38.0460       1.8374       1.8724
    934.4703    -999.2500      39.8074       1.8283       1.8633
    934.6227    -999.2500      41.8842       1.8238       1.8588
    934.7751    -999.2500      41.8433       1.8480       1.8834
    934.9275    -999.2500      41.3391       1.8785       1.9144
    935.0799    -999.2500      39.0596       1.9188       1.9556
    935.2323    -999.2500      36.3883       1.9613       1.9991
    935.3846    -999.2500      36.1317       1.9764       2.0139
    935.5370    -999.2500      36.4125       1.9854       2.0224
    935.6895    -999.2500      36.8954       1.9727       2.0077
    935.8419    -999.2500      37.4235       1.9552       1.9877
    935.9943    -999.2500      38.1857       1.9385       1.9697
    936.1467    -999.2500      39.0008       1.9220       1.9521
    936.2991    -999.2500      37.6582       1.8747       1.9035
    936.4515    -999.2500      35.8438       1.8208       1.8480
    936.6039    -999.2500      37.6969       1.7500       1.7745
    936.7563    -999.2500      40.3587       1.6755       1.6971
    936.9087    -999.2500      40.6202       1.6534       1.6740
    937.0611    -999.2500      40.3479       1.6429       1.6630
    937.2135    -999.2500      39.5029       1.6737       1.6961
    937.3658    -999.2500      38.5296       1.7136       1.7391
    937.5182    -999.2500      35.9969       1.6940       1.7196
    937.6707    -999.2500      33.1114       1.6609       1.6860
    937.8231    -999.2500      32.2376       1.6242       1.6484
    937.9755    -999.2500      31.8034       1.5868       1.6099
    938.1279    -999.2500      33.4840       1.5530       1.5756
    938.2803    -999.2500      35.6306       1.5200       1.5421
    938.4327    -999.2500      37.4044       1.4837       1.5049
    938.5851    -999.2500      39.0954       1.4468       1.4670
    938.7375    -999.2500      39.8217       1.4339       1.4539
    938.8899    -999.2500      40.3317       1.4264       1.4464
    939.0423    -999.2500      39.1274       1.4438       1.4642
    939.1947    -999.2500      37.5345       1.4669       1.4878
    939.3470    -999.2500      36.3578       1.4923       1.5137
    939.4995    -999.2500      35.2720       1.5183       1.5402
    939.6519    -999.2500      36.4347       1.5377       1.5602
    939.8043    -999.2500      38.0926       1.5557       1.5786
    939.9567    -999.2500      38.6924       1.5570       1.5836
    940.1091    -999.2500      39.0571       1.5545       1.5856
    940.2615    -999.2500      37.0492       1.5360       1.5652
    940.4139    -999.2500      34.5083       1.5141       1.5397
    940.5663    -999.2500      34.8860       1.4957       1.5203
    940.7187    -999.2500      35.9249       1.4781       1.5022
    940.8711    -999.2500      36.9857       1.4779       1.5023
    941.0235    -999.2500      38.0513       1.4814       1.5063
    941.1759    -999.2500      39.2174       1.4939       1.5193
    941.3282    -999.2500      40.4056       1.5084       1.5343
    941.4807    -999.2500      41.3356       1.5216       1.5484
    941.6331    -999.2500      42.2080       1.5346       1.5624
    941.7855    -999.2500      40.4489       1.5501       1.5785
    941.9379    -999.2500      38.0988       1.5660       1.5950
    942.0903    -999.2500      36.2221       1.5800       1.6090
    942.2427    -999.2500      34.4526       1.5936       1.6226
    942.3951    -999.2500      32.6102       1.5866       1.6152
    942.5475    -999.2500      30.7519       1.5751       1.6032
    942.6999    -999.2500      33.0634       1.5558       1.5830
    942.8523    -999.2500      36.2949       1.5348       1.5610
    943.0047    -999.2500      37.7365       1.5097       1.5349
    943.1570    -999.2500      38.7798       1.4838       1.5079
    943.3094    -999.2500      39.3183       1.4851       1.5091
    943.4619    -999.2500      39.7435       1.4926       1.5166
    943.6143    -999.2500      37.2458       1.5394       1.5650
    943.7667    -999.2500      34.0867       1.5950       1.6227
    943.9191    -999.2500      33.3392       1.6206       1.6494
    944.0715    -999.2500      33.1188       1.6396       1.6694
    944.2239    -999.2500      34.9279       1.6127       1.6419
    944.3763    -999.2500      37.1845       1.5757       1.6039
    944.5287    -999.2500      38.3308       1.5453       1.5729
    944.6811    -999.2500      39.2302       1.5163       1.5434
    944.8335    -999.2500      38.7313       1.4934       1.5200
    944.9859    -999.2500      37.9189       1.4720       1.4981
    945.1382    -999.2500      38.1864       1.4647       1.4903
    945.2906    -999.2500      38.6982       1.4607       1.4858
    945.4431    -999.2500      37.6327       1.4879       1.5133
    945.5955    -999.2500      36.2226       1.5219       1.5478
    945.7479    -999.2500      36.2473       1.5628       1.5896
    945.9003    -999.2500      36.5880       1.6053       1.6331
    946.0527    -999.2500      34.5294       1.6306       1.6582
    946.2051    -999.2500      31.9375       1.6521       1.6792
    946.3575    -999.2500      33.0967       1.6515       1.6773
    946.5099    -999.2500      35.0965       1.6460       1.6703
    946.6623    -999.2500      36.4961       1.6270       1.6498
    946.8147    -999.2500      37.7596       1.6050       1.6262
    946.9671    -999.2500      35.9866       1.5854       1.6056
    947.1194    -999.2500      33.5506       1.5664       1.5856
    947.2719    -999.2500      34.6946       1.5581       1.5763
    947.4243    -999.2500      36.6270       1.5521       1.5693
    947.5767    -999.2500      38.6443       1.5404       1.5570
    947.7291    -999.2500      40.6806       1.5274       1.5435
    947.8815    -999.2500      41.9403       1.5128       1.5284
    948.0339    -999.2500      43.0256       1.4978       1.5129
    948.1863    -999.2500      43.8076       1.4913       1.5059
    948.3387    -999.2500      44.5209       1.4868       1.5009
    948.4911    -999.2500      41.1945       1.4827       1.4959
    948.6435    -999.2500      36.9842       1.4787       1.4909
    948.7959    -999.2500      35.8603       1.4727       1.4839
    948.9483    -999.2500      35.4176       1.4662       1.4764
    949.1006    -999.2500      38.8209       1.4634       1.4734
    949.2531    -999.2500      43.0802       1.4614       1.4714
    949.4055    -999.2500      44.4135       1.4720       1.4816
    949.5579    -999.2500      45.0901       1.4855       1.4946
    949.7103    -999.2500      44.3018       1.5080       1.5174
    949.8627    -999.2500      43.1819       1.5326       1.5425
    950.0151    -999.2500      42.5480       1.5497       1.5605
    950.1675    -999.2500      42.0203       1.5652       1.5770
    950.3199    -999.2500      40.9592       1.5623       1.5751
    950.4723    -999.2500      39.7805       1.5553       1.5691
    950.6247    -999.2500      38.8523       1.5376       1.5521
    950.7771    -999.2500      37.9799       1.5177       1.5326
    950.9294    -999.2500      37.0140       1.5001       1.5159
    951.0818    -999.2500      36.0271       1.4831       1.5000
    951.2343    -999.2500      37.1626       1.4882       1.5060
    951.3867    -999.2500      38.7782       1.4982       1.5170
    951.5391    -999.2500      37.9793       1.5373       1.5575
    951.6915    -999.2500      36.6526       1.5828       1.6045
    951.8439    -999.2500      36.7029       1.6283       1.6511
    951.9963    -999.2500      37.0567       1.6737       1.6975
    952.1487    -999.2500      38.0371       1.7008       1.7244
