#------------------------------------------------------------------------------
#
#   Created by  : [OpenWorks] Log Export Utility (LEXP)
#   Created on  : 2016-05-19 11:11:51
#   Project     : CANT971
#   User        : R5K
#   Interpreter : PEP
#
#------------------------------------------------------------------------------
~VERSION INFORMATION
VERS. 2.0 : CWLS Log ASCII Standard - version 2.0
WRAP.  NO : One line per depth step
~WELL INFORMATION
#MNEMONIC   .UNIT                                           VALUE :DESCRIPTION
#------------------------------------------------------------------------------
STRT        .M                                           763.3251 :START DEPTH
STOP        .M                                          2737.0574 :STOP DEPTH
STEP        .M                                             0.1524 :STEP
NULL        .                                           -999.2500 :NULL VALUE
COMP        .                                   PEMEX EXPL & PROD :COMPANY
WELL        .                                                207D :WELL
FLD         .                                           CANTARELL :FIELD
LOC         .                                             UNKNOWN :LOCATION
CNTY        .                                      CD. DEL CARMEN :COUNTY
STAT        .                                            CAMPECHE :STATE
CTRY        .                                              MEXICO :COUNTRY
SRVC        .                                             UNKNOWN :SERVICE COMPANY
DATE        .                                             UNKNOWN :LOG DATE
UWI         .                                          3060000699 :UNIQUE WELL ID
XCOORD      .                                       597310.700000 :SURFACE X
YCOORD      .                                      2143073.700000 :SURFACE Y
LAT         .                                           19.380597 :LATITUDE
LON         .                                          -92.073350 :LONGITUDE
ELEV        .M                                            27.7000 :SURFACE ELEV
ELEV_TYPE   .                                                  KB :ELEV TYPE
~CURVE INFORMATION
#MNEMONIC.UNIT        API CODE       : CURVE DESCRIPTION
#------------------------------------------------------------------------------
DEPTH    .M                          : Measured Depth
DT       .us/ft       UNKNOWN        : DT:Import:rC:NONE:v0 (auto-composite)
GR       .API         UNKNOWN        : GR:Import:rC:NONE:v0 (auto-composite)
ILD      .ohm.m       UNKNOWN        : ILD:Import:rC:NONE:v0 (auto-composite)
ILM      .ohm.m       UNKNOWN        : ILM:Import:rC:NONE:v0 (auto-composite)
~A     DEPTH           DT           GR          ILD          ILM
# ...
   2331.8259      62.5437      13.0764      11.3506      10.2091
   2331.9783      63.3270      14.4690      12.2330      10.7490
   2332.1306      63.6524      15.5039      13.2609      11.5214
   2332.2830      63.9780      16.5430      14.2930      12.2970
   2332.4355      64.7626      16.9086      10.0793       8.8430
   2332.5879      65.5480      17.2740       5.8680       5.3910
   2332.7402      66.4512      15.5084       8.5283       7.5465
   2332.8926      67.3540      13.7380      11.1960       9.7080
   2333.0452      68.1786      13.5865       9.5725       8.4503
   2333.1975      69.0030      13.4340       7.9390       7.1850
   2333.3499      67.7569      13.1582       7.3299       6.6948
   2333.5022      66.5110      12.8820       6.7200       6.2040
   2333.6548      68.5311      14.1205       7.5363       6.9021
   2333.8071      70.5510      15.3550       8.3500       7.5980
   2333.9595      75.1219      19.9414       6.0396       5.5846
   2334.1118      79.6930      24.5280       3.7290       3.5710
   2334.2642      79.2700      27.9447       3.1235       3.0055
   2334.4167      78.8470      31.3730       2.5160       2.4380
   2334.5691      86.1844      32.1021       2.2951       2.2280
   2334.7214      93.5240      32.8350       2.0730       2.0170
   2334.8738      90.0573      34.3467       2.2285       2.1625
   2335.0264      86.5890      35.8590       2.3840       2.3080
   2335.1787      86.8699      37.9022       2.1477       2.0887
   2335.3311      87.1510      39.9400       1.9120       1.8700
   2335.4834      87.3729      38.5680       2.0240       1.9865
   2335.6360      87.5950      37.1950       2.1360       2.1030
   2335.7883      85.4839      38.6772       2.1615       2.1345
   2335.9407      83.3710      40.1630       2.1870       2.1660
   2336.0930      85.0827      39.2382       2.1302       2.1266
   2336.2454      86.7960      38.3080       2.0730       2.0870
   2336.3979      88.5551      41.6535       1.9736       1.9916
   2336.5503      90.3160      45.0080       1.8740       1.8960
   2336.7026      90.2425      45.1937       1.8039       1.8259
   2336.8550      90.1690      45.3790       1.7340       1.7560
   2337.0076      90.2285      41.4449       1.7885       1.8100
   2337.1599      90.2880      37.5120       1.8430       1.8640
   2337.3123      89.0029      39.5484       1.8705       1.8900
   2337.4646      87.7180      41.5910       1.8980       1.9160
   2337.6172      85.8970      42.6008       1.8422       1.8542
   2337.7695      84.0760      43.6170       1.7860       1.7920
   2337.9219      81.5251      39.1922       2.0548       2.0553
   2338.0742      78.9740      34.7600       2.3240       2.3190
   2338.2266      70.4994      30.7215       2.7326       2.7231
   2338.3792      62.0230      26.6950       3.1400       3.1260
   2338.5315      58.5001      23.6660       4.2808       4.2583
   2338.6838      54.9760      20.6360       5.4220       5.3910
   2338.8362      67.5686      21.7450       5.5408       5.5437
   2338.9888      80.1670      22.8580       5.6600       5.6970
   2339.1411      85.1915      26.6812       5.3269       5.3948
   2339.2935      90.2190      30.5250       4.9920       5.0910
   2339.4458      86.5298      35.4777       3.9769       4.0519
   2339.5984      82.8380      40.4340       2.9610       3.0120
   2339.7507      81.4911      41.7215       2.6046       2.6466
   2339.9031      80.1430      43.0060       2.2490       2.2820
   2340.0554      79.9066      40.2888       2.3350       2.3680
   2340.2078      79.6700      37.5690       2.4210       2.4540
   2340.3604      80.9668      39.9258       2.4420       2.4730
   2340.5127      82.2650      42.2890       2.4630       2.4920
   2340.6650      82.5981      41.0667       2.5931       2.6086
   2340.8174      82.9310      39.8370       2.7240       2.7260
   2340.9700      81.1248      37.2109       2.8458       2.8378
   2341.1223      79.3190      34.5770       2.9680       2.9500
   2341.2747      78.8105      33.7413       3.0035       2.9800
   2341.4270      78.3020      32.9070       3.0390       3.0100
   2341.5796      78.2405      31.9290       2.9480       2.9160
   2341.7319      78.1790      30.9510       2.8570       2.8220
   2341.8843      76.6956      30.3665       2.9498       2.9109
   2342.0366      75.2120      29.7800       3.0430       3.0000
   2342.1890      76.1379      30.2739       3.2388       3.2078
   2342.3416      77.0640      30.7710       3.4360       3.4170
   2342.4939      77.1530      31.8305       3.3191       3.3056
   2342.6462      77.2420      32.8920       3.2020       3.1940
   2342.7986      78.1708      35.7273       2.9462       2.9331
   2342.9512      79.1000      38.5550       2.6910       2.6730
   2343.1035      79.7598      37.8137       3.3608       3.2968
   2343.2559      80.4200      37.0720       4.0310       3.9210
   2343.4082      81.7895      36.5166       4.3579       4.2044
   2343.5608      83.1600      35.9590       4.6860       4.4890
   2343.7131      83.3169      38.2949       3.5281       3.3826
   2343.8655      83.4740      40.6290       2.3710       2.2770
   2344.0178      82.4855      40.7443       2.5650       2.4379
   2344.1702      81.4960      40.8590       2.7580       2.5980
   2344.3228      80.3212      35.7162       2.6959       2.5344
   2344.4751      79.1450      30.5840       2.6340       2.4710
   2344.6274      81.9735      25.4047       4.1351       3.6408
   2344.7798      84.8010      20.2190       5.6380       4.8120
   2344.9324      72.8791      18.1905       7.3265       5.8999
   2345.0847      60.9600      16.1560       9.0200       6.9910
   2345.2371      63.2881      19.5525      12.5422       8.6012
   2345.3894      65.6160      22.9650      16.0810      10.2190
   2345.5420      68.8720      28.1368      10.7423       7.4428
   2345.6943      72.1280      33.3170       5.3950       4.6620
   2345.8467      78.3640      39.6221       3.8904       3.4541
   2345.9990      84.6010      45.9180       2.3880       2.2480
   2346.1514      85.8968      47.6358       2.2340       2.1155
   2346.3040      87.1930      49.3540       2.0800       1.9830
   2346.4563      85.9577      47.7071       2.3497       2.2347
   2346.6086      84.7220      46.0570       2.6200       2.4870
   2346.7610      87.5358      47.3121       2.8264       2.6785
   2346.9136      90.3510      48.5740       3.0340       2.8710
   2347.0659      91.3142      52.3078       2.7831       2.6500
   2347.2183      92.2780      56.0740       2.5300       2.4270
   2347.3706      94.7820      55.6708       2.2311       2.1530
   2347.5232      97.2880      55.2660       1.9310       1.8780
   2347.6755      98.8343      55.5136       1.7224       1.6814
   2347.8279     100.3820      55.7610       1.5140       1.4850
   2347.9802      98.1257      52.9787       1.5969       1.5659
   2348.1326      95.8670      50.1890       1.6800       1.6470
   2348.2852      93.6013      47.4836       1.9816       1.9356
   2348.4375      91.3330      44.7620       2.2850       2.2260
   2348.5898      89.8628      43.5068       2.4189       2.3539
   2348.7422      88.3930      42.2500       2.5530       2.4820
   2348.8948      88.1935      44.5366       2.4884       2.4209
   2349.0471      87.9940      46.8190       2.4240       2.3600
   2349.1995      88.6420      45.8258       2.3351       2.2746
   2349.3518      89.2900      44.8310       2.2460       2.1890
   2349.5044      90.2085      47.3754       2.2160       2.1605
   2349.6567      91.1270      49.9280       2.1860       2.1320
   2349.8091      89.5811      46.9385       2.0359       1.9884
   2349.9614      88.0350      43.9340       1.8850       1.8440
   2350.1138      86.7257      44.7183       1.9464       1.9024
   2350.2664      85.4160      45.5040       2.0080       1.9610
   2350.4187      83.3030      43.7720       2.1036       2.0526
   2350.5710      81.1890      42.0420       2.1990       2.1440
