#------------------------------------------------------------------------------
#
#   Created by  : [OpenWorks] Log Export Utility (LEXP)
#   Created on  : 2016-05-19 11:11:51
#   Project     : CANT971
#   User        : R5K
#   Interpreter : PEP
#
#------------------------------------------------------------------------------
~VERSION INFORMATION
VERS. 2.0 : CWLS Log ASCII Standard - version 2.0
WRAP.  NO : One line per depth step
~WELL INFORMATION
#MNEMONIC   .UNIT                                           VALUE :DESCRIPTION
#------------------------------------------------------------------------------
STRT        .M                                           763.3251 :START DEPTH
STOP        .M                                          2737.0574 :STOP DEPTH
STEP        .M                                             0.1524 :STEP
NULL        .                                           -999.2500 :NULL VALUE
COMP        .                                   PEMEX EXPL & PROD :COMPANY
WELL        .                                                207D :WELL
FLD         .                                           CANTARELL :FIELD
LOC         .                                             UNKNOWN :LOCATION
CNTY        .                                      CD. DEL CARMEN :COUNTY
STAT        .                                            CAMPECHE :STATE
CTRY        .                                              MEXICO :COUNTRY
SRVC        .                                             UNKNOWN :SERVICE COMPANY
DATE        .                                             UNKNOWN :LOG DATE
UWI         .                                          3060000699 :UNIQUE WELL ID
XCOORD      .                                       597310.700000 :SURFACE X
YCOORD      .                                      2143073.700000 :SURFACE Y
LAT         .                                           19.380597 :LATITUDE
LON         .                                          -92.073350 :LONGITUDE
ELEV        .M                                            27.7000 :SURFACE ELEV
ELEV_TYPE   .                                                  KB :ELEV TYPE
~CURVE INFORMATION
#MNEMONIC.UNIT        API CODE       : CURVE DESCRIPTION
#------------------------------------------------------------------------------
DEPTH    .M                          : Measured Depth
DT       .us/ft       UNKNOWN        : DT:Import:rC:NONE:v0 (auto-composite)
GR       .API         UNKNOWN        : GR:Import:rC:NONE:v0 (auto-composite)
ILD      .ohm.m       UNKNOWN        : ILD:Import:rC:NONE:v0 (auto-composite)
ILM      .ohm.m       UNKNOWN        : ILM:Import:rC:NONE:v0 (auto-composite)
~A     DEPTH           DT           GR          ILD          ILM
# ...
   1179.0723    -999.2500      40.8669       1.5884       1.5995
   1179.2247    -999.2500      41.9539       1.5961       1.6075
   1179.3771    -999.2500      43.0305       1.6011       1.6130
   1179.5294    -999.2500      44.6979       1.5628       1.5756
   1179.6819    -999.2500      46.4982       1.5148       1.5287
   1179.8342    -999.2500      45.2120       1.4672       1.4816
   1179.9867    -999.2500      43.2283       1.4196       1.4345
   1180.1390    -999.2500      44.4231       1.3942       1.4092
   1180.2915    -999.2500      46.3138       1.3737       1.3887
   1180.4438    -999.2500      47.3551       1.3589       1.3748
   1180.5963    -999.2500      48.2094       1.3455       1.3623
   1180.7487    -999.2500      47.5438       1.3340       1.3514
   1180.9011    -999.2500      46.5397       1.3230       1.3409
   1181.0535    -999.2500      48.0164       1.3161       1.3337
   1181.2059    -999.2500      50.0487       1.3101       1.3272
   1181.3583    -999.2500      51.2097       1.2959       1.3121
   1181.5106    -999.2500      52.1734       1.2799       1.2951
   1181.6631    -999.2500      51.9445       1.2585       1.2723
   1181.8154    -999.2500      51.4554       1.2361       1.2483
   1181.9679    -999.2500      50.0183       1.2291       1.2407
   1182.1202    -999.2500      48.3720       1.2256       1.2367
   1182.2727    -999.2500      49.9978       1.2499       1.2605
   1182.4250    -999.2500      52.3499       1.2804       1.2905
   1182.5775    -999.2500      53.1919       1.3072       1.3172
   1182.7299    -999.2500      53.6949       1.3332       1.3432
   1182.8823    -999.2500      51.4628       1.3421       1.3521
   1183.0347    -999.2500      48.6099       1.3471       1.3571
   1183.1871    -999.2500      47.5230       1.3226       1.3330
   1183.3395    -999.2500      46.8223       1.2916       1.3025
   1183.4918    -999.2500      45.6132       1.2651       1.2761
   1183.6443    -999.2500      44.2923       1.2396       1.2506
   1183.7966    -999.2500      43.5747       1.2166       1.2280
   1183.9491    -999.2500      42.9911       1.1941       1.2060
   1184.1014    -999.2500      44.6328       1.1741       1.1857
   1184.2539    -999.2500      46.7748       1.1546       1.1657
   1184.4062    -999.2500      48.8732       1.1420       1.1534
   1184.5587    -999.2500      50.9616       1.1310       1.1429
   1184.7111    -999.2500      54.3822       1.1343       1.1467
   1184.8635    -999.2500      58.0946       1.1408       1.1537
   1185.0159    -999.2500      56.0722       1.1510       1.1648
   1185.1682    -999.2500      52.7860       1.1620       1.1768
   1185.3207    -999.2500      50.8093       1.1665       1.1815
   1185.4730    -999.2500      49.1245       1.1695       1.1845
   1185.6255    -999.2500      47.0236       1.1631       1.1777
   1185.7778    -999.2500      44.8295       1.1546       1.1687
   1185.9303    -999.2500      43.0551       1.1477       1.1617
   1186.0826    -999.2500      41.3760       1.1412       1.1552
   1186.2351    -999.2500      44.0916       1.1392       1.1528
   1186.3875    -999.2500      47.7671       1.1382       1.1513
   1186.5399    -999.2500      49.7129       1.1572       1.1706
   1186.6923    -999.2500      51.2767       1.1807       1.1946
   1186.8447    -999.2500      50.6368       1.2128       1.2268
   1186.9971    -999.2500      49.5072       1.2468       1.2608
   1187.1494    -999.2500      47.7765       1.2648       1.2788
   1187.3019    -999.2500      45.9109       1.2793       1.2933
   1187.4542    -999.2500      44.2069       1.2800       1.2944
   1187.6067    -999.2500      42.5394       1.2774       1.2924
   1187.7590    -999.2500      46.8817       1.2651       1.2793
   1187.9115    -999.2500      52.5392       1.2506       1.2638
   1188.0638    -999.2500      54.8264       1.2234       1.2356
   1188.2163    -999.2500      56.3716       1.1935       1.2046
   1188.3687    -999.2500      56.0979       1.1786       1.1888
   1188.5211    -999.2500      55.4192       1.1671       1.1763
   1188.6735    -999.2500      57.8453       1.1719       1.1809
   1188.8259    -999.2500      60.9667       1.1804       1.1894
   1188.9783    -999.2500      62.9089       1.1988       1.2074
   1189.1306    -999.2500      64.5840       1.2193       1.2274
   1189.2831    -999.2500      65.3909       1.2300       1.2384
   1189.4354    -999.2500      66.0084       1.2385       1.2474
   1189.5879    -999.2500      67.1191       1.2253       1.2343
   1189.7402    -999.2500      68.3385       1.2073       1.2163
   1189.8927    -999.2500      67.4790       1.1876       1.1962
   1190.0450    -999.2500      66.1581       1.1677       1.1758
   1190.1975    -999.2500      65.0799       1.1611       1.1696
   1190.3499    -999.2500      64.0563       1.1576       1.1666
   1190.5023    -999.2500      67.7616       1.1742       1.1832
   1190.6547    -999.2500      72.5399       1.1952       1.2042
   1190.8071    -999.2500      74.9340       1.2125       1.2223
   1190.9595    -999.2500      76.8069       1.2290       1.2398
   1191.1118    -999.2500      74.8646       1.2373       1.2487
   1191.2643    -999.2500      72.0788       1.2438       1.2557
   1191.4166    -999.2500      73.5317       1.2364       1.2488
   1191.5691    -999.2500      75.9272       1.2259       1.2388
   1191.7214    -999.2500      71.2001       1.2040       1.2174
   1191.8739    -999.2500      64.8713       1.1795       1.1934
   1192.0262    -999.2500      63.1624       1.1693       1.1825
   1192.1787    -999.2500      62.4983       1.1623       1.1744
   1192.3311    -999.2500      64.6732       1.1622       1.1734
   1192.4835    -999.2500      67.4700       1.1637       1.1739
   1192.6359    -999.2500      66.6167       1.1620       1.1703
   1192.7883    -999.2500      64.9591       1.1595       1.1658
   1192.9407    -999.2500      63.3745       1.1696       1.1740
   1193.0930    -999.2500      61.8061       1.1826       1.1850
   1193.2455    -999.2500      65.7071       1.2099       1.2107
   1193.3978    -999.2500      70.8338       1.2404       1.2396
   1193.5503    -999.2500      67.6391       1.2566       1.2548
   1193.7026    -999.2500      62.5585       1.2697       1.2668
   1193.8551    -999.2500      58.3664       1.2601       1.2575
   1194.0074    -999.2500      54.3682       1.2456       1.2435
   1194.1599    -999.2500      52.3726       1.2279       1.2267
   1194.3123    -999.2500      50.8193       1.2094       1.2092
   1194.4647    -999.2500      48.6288       1.1790       1.1802
   1194.6171    -999.2500      46.2967       1.1460       1.1488
   1194.7695    -999.2500      48.0455       1.1249       1.1287
   1194.9219    -999.2500      50.7109       1.1064       1.1112
   1195.0742    -999.2500      52.1562       1.0985       1.1039
   1195.2267    -999.2500      53.3260       1.0930       1.0989
   1195.3790    -999.2500      54.9958       1.1018       1.1091
   1195.5315    -999.2500      56.7750       1.1138       1.1226
   1195.6838    -999.2500      54.5389       1.1275       1.1369
   1195.8363    -999.2500      51.4190       1.1415       1.1514
   1195.9886    -999.2500      54.5719       1.1354       1.1454
   1196.1411    -999.2500      59.1209       1.1249       1.1349
   1196.2935    -999.2500      56.5776       1.1128       1.1228
   1196.4459    -999.2500      52.4465       1.1003       1.1103
   1196.5983    -999.2500      51.0229       1.1090       1.1199
   1196.7507    -999.2500      50.2122       1.1226       1.1344
   1196.9031    -999.2500      51.1149       1.1488       1.1620
   1197.0554    -999.2500      52.3913       1.1778       1.1925
   1197.2079    -999.2500      54.3287       1.2002       1.2160
   1197.3602    -999.2500      56.4118       1.2212       1.2380
   1197.5127    -999.2500      57.5468       1.2303       1.2481
   1197.6650    -999.2500      58.4716       1.2368       1.2556
   1197.8175    -999.2500      56.8893       1.2351       1.2546
