#------------------------------------------------------------------------------
#
#   Created by  : [OpenWorks] Log Export Utility (LEXP)
#   Created on  : 2016-05-19 11:11:51
#   Project     : CANT971
#   User        : R5K
#   Interpreter : PEP
#
#------------------------------------------------------------------------------
~VERSION INFORMATION
VERS. 2.0 : CWLS Log ASCII Standard - version 2.0
WRAP.  NO : One line per depth step
~WELL INFORMATION
#MNEMONIC   .UNIT                                           VALUE :DESCRIPTION
#------------------------------------------------------------------------------
STRT        .M                                           763.3251 :START DEPTH
STOP        .M                                          2737.0574 :STOP DEPTH
STEP        .M                                             0.1524 :STEP
NULL        .                                           -999.2500 :NULL VALUE
COMP        .                                   PEMEX EXPL & PROD :COMPANY
WELL        .                                                207D :WELL
FLD         .                                           CANTARELL :FIELD
LOC         .                                             UNKNOWN :LOCATION
CNTY        .                                      CD. DEL CARMEN :COUNTY
STAT        .                                            CAMPECHE :STATE
CTRY        .                                              MEXICO :COUNTRY
SRVC        .                                             UNKNOWN :SERVICE COMPANY
DATE        .                                             UNKNOWN :LOG DATE
UWI         .                                          3060000699 :UNIQUE WELL ID
XCOORD      .                                       597310.700000 :SURFACE X
YCOORD      .                                      2143073.700000 :SURFACE Y
LAT         .                                           19.380597 :LATITUDE
LON         .                                          -92.073350 :LONGITUDE
ELEV        .M                                            27.7000 :SURFACE ELEV
ELEV_TYPE   .                                                  KB :ELEV TYPE
~CURVE INFORMATION
#MNEMONIC.UNIT        API CODE       : CURVE DESCRIPTION
#------------------------------------------------------------------------------
DEPTH    .M                          : Measured Depth
DT       .us/ft       UNKNOWN        : DT:Import:rC:NONE:v0 (auto-composite)
GR       .API         UNKNOWN        : GR:Import:rC:NONE:v0 (auto-composite)
ILD      .ohm.m       UNKNOWN        : ILD:Import:rC:NONE:v0 (auto-composite)
ILM      .ohm.m       UNKNOWN        : ILM:Import:rC:NONE:v0 (auto-composite)
~A     DEPTH           DT           GR          ILD          ILM
# ...
   1557.0243    -999.2500      57.2834       1.0837       1.1006
   1557.1766    -999.2500      54.1734       1.0885       1.1059
   1557.3291    -999.2500      49.9454       1.0940       1.1119
   1557.4814    -999.2500      51.1254       1.1040       1.1228
   1557.6339    -999.2500      53.5218       1.1150       1.1348
   1557.7863    -999.2500      52.1396       1.1199       1.1403
   1557.9387    -999.2500      49.9024       1.1234       1.1443
   1558.0911    -999.2500      51.4458       1.1187       1.1397
   1558.2435    -999.2500      53.8134       1.1122       1.1332
   1558.3959    -999.2500      52.2327       1.1053       1.1263
   1558.5482    -999.2500      49.7818       1.0983       1.1193
   1558.7007    -999.2500      46.9246       1.0950       1.1164
   1558.8530    -999.2500      43.9769       1.0925       1.1144
   1559.0055    -999.2500      44.6706       1.0916       1.1140
   1559.1578    -999.2500      46.1809       1.0911       1.1140
   1559.3103    -999.2500      45.2391       1.0898       1.1132
   1559.4626    -999.2500      43.7415       1.0883       1.1122
   1559.6151    -999.2500      44.1700       1.0896       1.1136
   1559.7675    -999.2500      45.0193       1.0916       1.1156
   1559.9199    -999.2500      46.3360       1.0949       1.1193
   1560.0723    -999.2500      47.7559       1.0984       1.1233
   1560.2247    -999.2500      48.8597       1.1019       1.1269
   1560.3771    -999.2500      49.8934       1.1054       1.1304
   1560.5294    -999.2500      47.6414       1.1052       1.1302
   1560.6819    -999.2500      44.6512       1.1042       1.1292
   1560.8342    -999.2500      45.3979       1.0991       1.1241
   1560.9867    -999.2500      46.9892       1.0931       1.1181
   1561.1390    -999.2500      47.8244       1.0949       1.1195
   1561.2915    -999.2500      48.4941       1.0984       1.1225
   1561.4438    -999.2500      46.1171       1.1064       1.1308
   1561.5963    -999.2500      43.0691       1.1154       1.1403
   1561.7487    -999.2500      42.0811       1.1154       1.1400
   1561.9011    -999.2500      41.5518       1.1134       1.1375
   1562.0535    -999.2500      43.6016       1.1052       1.1288
   1562.2059    -999.2500      46.2289       1.0958       1.1188
   1562.3583    -999.2500      47.2683       1.0891       1.1117
   1562.5106    -999.2500      47.9482       1.0831       1.1052
   1562.6631    -999.2500      46.4648       1.0812       1.1036
   1562.8154    -999.2500      44.5095       1.0802       1.1031
   1562.9679    -999.2500      43.8370       1.0894       1.1124
   1563.1202    -999.2500      43.4477       1.1009       1.1239
   1563.2727    -999.2500      44.8059       1.1128       1.1358
   1563.4250    -999.2500      46.5520       1.1248       1.1478
   1563.5775    -999.2500      48.2193       1.1303       1.1533
   1563.7299    -999.2500      49.8689       1.1343       1.1573
   1563.8823    -999.2500      50.7404       1.1309       1.1535
   1564.0347    -999.2500      51.4353       1.1259       1.1480
   1564.1871    -999.2500      51.0187       1.1168       1.1384
   1564.3395    -999.2500      50.3589       1.1068       1.1279
   1564.4918    -999.2500      50.5361       1.0980       1.1182
   1564.6443    -999.2500      50.8973       1.0895       1.1087
   1564.7966    -999.2500      48.1002       1.0843       1.1033
   1564.9491    -999.2500      44.6006       1.0798       1.0988
   1565.1014    -999.2500      43.0073       1.0782       1.0968
   1565.2539    -999.2500      41.8428       1.0772       1.0953
   1565.4062    -999.2500      45.7877       1.0717       1.0889
   1565.5587    -999.2500      50.8883       1.0652       1.0814
   1565.7111    -999.2500      50.2258       1.0554       1.0710
   1565.8635    -999.2500      48.3007       1.0449       1.0600
   1566.0159    -999.2500      46.2767       1.0397       1.0547
   1566.1682    -999.2500      44.2309       1.0357       1.0507
   1566.3207    -999.2500      45.5974       1.0342       1.0492
   1566.4730    -999.2500      47.7245       1.0332       1.0482
   1566.6255    -999.2500      49.4750       1.0265       1.0411
   1566.7778    -999.2500      51.1411       1.0185       1.0326
   1566.9303    -999.2500      46.5552       1.0076       1.0208
   1567.0826    -999.2500      40.5520       0.9961       1.0082
   1567.2351    -999.2500      39.2406       0.9878       0.9986
   1567.3875    -999.2500      38.9539       0.9804       0.9896
   1567.5399    -999.2500      40.2308       0.9827       0.9909
   1567.6923    -999.2500      41.8531       0.9872       0.9944
   1567.8447    -999.2500      40.4491       0.9958       1.0015
   1567.9971    -999.2500      38.3729       1.0053       1.0095
   1568.1494    -999.2500      41.0312       1.0217       1.0245
   1568.3019    -999.2500      44.7530       1.0397       1.0410
   1568.4542    -999.2500      44.0556       1.0581       1.0579
   1568.6067    -999.2500      42.3595       1.0767       1.0749
   1568.7590    -999.2500      42.8862       1.0853       1.0829
   1568.9115    -999.2500      43.8992       1.0918       1.0889
   1569.0638    -999.2500      44.7113       1.0934       1.0900
   1569.2163    -999.2500      45.4792       1.0939       1.0900
   1569.3687    -999.2500      44.8787       1.0875       1.0835
   1569.5211    -999.2500      43.9736       1.0795       1.0755
   1569.6735    -999.2500      44.6529       1.0613       1.0573
   1569.8259    -999.2500      45.6871       1.0408       1.0368
   1569.9783    -999.2500      46.2864       1.0211       1.0171
   1570.1306    -999.2500      46.7873       1.0015       0.9975
   1570.2831    -999.2500      47.3540       0.9918       0.9874
   1570.4354    -999.2500      47.9350       0.9844       0.9794
   1570.5879    -999.2500      48.4965       0.9879       0.9829
   1570.7402    -999.2500      49.0538       0.9939       0.9889
   1570.8927    -999.2500      48.2179       0.9970       0.9912
   1571.0450    -999.2500      47.0728       0.9995       0.9927
   1571.1975    -999.2500      48.3209       0.9922       0.9848
   1571.3499    -999.2500      50.1059       0.9828       0.9748
   1571.5023    -999.2500      51.6502       0.9790       0.9710
   1571.6547    -999.2500      53.1398       0.9764       0.9684
   1571.8071    -999.2500      53.5263       0.9838       0.9758
   1571.9595    -999.2500      53.6717       0.9933       0.9853
   1572.1118    -999.2500      54.1257       1.0036       0.9956
   1572.2643    -999.2500      54.6480       1.0141       1.0061
   1572.4166    -999.2500      56.0545       1.0193       1.0125
   1572.5691    -999.2500      57.6577       1.0233       1.0180
   1572.7214    -999.2500      58.8199       1.0273       1.0239
   1572.8739    -999.2500      59.8829       1.0313       1.0299
   1573.0262    -999.2500      58.5695       1.0336       1.0343
   1573.1787    -999.2500      56.7186       1.0356       1.0383
   1573.3311    -999.2500      55.8276       1.0307       1.0357
   1573.4835    -999.2500      55.1469       1.0242       1.0317
   1573.6359    -999.2500      54.5119       1.0160       1.0257
   1573.7883    -999.2500      53.8869       1.0075       1.0192
   1573.9407    -999.2500      52.3147       1.0003       1.0127
   1574.0930    -999.2500      50.5315       0.9933       1.0062
   1574.2455    -999.2500      48.9039       0.9900       1.0038
   1574.3978    -999.2500      47.3113       0.9875       1.0023
   1574.5503    -999.2500      47.6457       0.9911       1.0065
   1574.7026    -999.2500      48.4168       0.9961       1.0120
   1574.8551    -999.2500      46.1980       1.0056       1.0220
   1575.0074    -999.2500      43.3264       1.0161       1.0330
   1575.1599    -999.2500      45.2293       1.0295       1.0461
   1575.3123    -999.2500      48.1866       1.0435       1.0595
   1575.4647    -999.2500      47.6321       1.0591       1.0747
   1575.6171    -999.2500      46.2977       1.0751       1.0902
   1575.7695    -999.2500      45.7126       1.0902       1.1044
