#------------------------------------------------------------------------------
#
#   Created by  : [OpenWorks] Log Export Utility (LEXP)
#   Created on  : 2016-05-19 11:11:51
#   Project     : CANT971
#   User        : R5K
#   Interpreter : PEP
#
#------------------------------------------------------------------------------
~VERSION INFORMATION
VERS. 2.0 : CWLS Log ASCII Standard - version 2.0
WRAP.  NO : One line per depth step
~WELL INFORMATION
#MNEMONIC   .UNIT                                           VALUE :DESCRIPTION
#------------------------------------------------------------------------------
STRT        .M                                           763.3251 :START DEPTH
STOP        .M                                          2737.0574 :STOP DEPTH
STEP        .M                                             0.1524 :STEP
NULL        .                                           -999.2500 :NULL VALUE
COMP        .                                   PEMEX EXPL & PROD :COMPANY
WELL        .                                                207D :WELL
FLD         .                                           CANTARELL :FIELD
LOC         .                                             UNKNOWN :LOCATION
CNTY        .                                      CD. DEL CARMEN :COUNTY
STAT        .                                            CAMPECHE :STATE
CTRY        .                                              MEXICO :COUNTRY
SRVC        .                                             UNKNOWN :SERVICE COMPANY
DATE        .                                             UNKNOWN :LOG DATE
UWI         .                                          3060000699 :UNIQUE WELL ID
XCOORD      .                                       597310.700000 :SURFACE X
YCOORD      .                                      2143073.700000 :SURFACE Y
LAT         .                                           19.380597 :LATITUDE
LON         .                                          -92.073350 :LONGITUDE
ELEV        .M                                            27.7000 :SURFACE ELEV
ELEV_TYPE   .                                                  KB :ELEV TYPE
~CURVE INFORMATION
#MNEMONIC.UNIT        API CODE       : CURVE DESCRIPTION
#------------------------------------------------------------------------------
DEPTH    .M                          : Measured Depth
DT       .us/ft       UNKNOWN        : DT:Import:rC:NONE:v0 (auto-composite)
GR       .API         UNKNOWN        : GR:Import:rC:NONE:v0 (auto-composite)
ILD      .ohm.m       UNKNOWN        : ILD:Import:rC:NONE:v0 (auto-composite)
ILM      .ohm.m       UNKNOWN        : ILM:Import:rC:NONE:v0 (auto-composite)
~A     DEPTH           DT           GR          ILD          ILM
# ...
   2709.7778      68.5257      49.0900       3.5652       3.2783
   2709.9302      79.7370      50.0390       3.6570       3.3950
   2710.0828      81.6363      49.1942       4.2381       3.9255
   2710.2351      83.5380      48.3510       4.8180       4.4550
   2710.3875      83.7439      51.9810       3.9946       3.7315
   2710.5398      83.9500      55.6160       3.1700       3.0070
   2710.6924      85.6397      53.5946       3.4660       3.2621
   2710.8447      87.3320      51.5670       3.7630       3.5180
   2710.9971      85.2785      50.1225       4.1266       3.8342
   2711.1494      83.2250      48.6710       4.4920       4.1520
   2711.3018      85.0319      49.7086       3.5848       3.3482
   2711.4543      86.8390      50.7480       2.6760       2.5430
   2711.6067      89.0577      51.5365       2.9822       2.8002
   2711.7590      91.2770      52.3240       3.2880       3.0570
   2711.9114      87.8047      51.7116       4.0214       3.6724
   2712.0640      84.3310      51.0990       4.7550       4.2880
   2712.2163      82.6290      54.1822       3.5348       3.2471
   2712.3687      80.9260      57.2720       2.3120       2.2040
   2712.5210      78.9806      57.4430       2.6930       2.5341
   2712.6736      77.0340      57.6150       3.0760       2.8660
   2712.8259      79.5895      54.1841       6.6179       5.7692
   2712.9783      82.1470      50.7230      10.1910       8.6980
   2713.1306      82.4169      51.1791       8.1462       7.1871
   2713.2830      82.6870      51.6370       6.0930       5.6700
   2713.4355      79.6146      52.3537       4.5556       4.3481
   2713.5879      76.5390      53.0700       3.0190       3.0270
   2713.7402      76.7679      49.7296       2.7024       2.7264
   2713.8926      76.9970      46.3800       2.3850       2.4250
   2714.0452      73.9704      43.1394       3.2972       3.4235
   2714.1975      70.9400      39.8790       4.2150       4.4280
   2714.3499      71.9518      41.0097       8.6264       8.8374
   2714.5022      72.9650      42.1420      13.0440      13.2530
   2714.6548      75.9677      44.4523       9.6855       9.9862
   2714.8071      78.9750      46.7550       6.3380       6.7300
   2714.9595      82.2759      48.8094       5.3215       5.5635
   2715.1118      85.5770      50.8640       4.3050       4.3970
   2715.2642      84.8406      53.6598       3.6032       3.6488
   2715.4167      84.1040      56.4650       2.8990       2.8980
   2715.5691      85.7043      57.8370       2.5629       2.5449
   2715.7214      87.3050      59.2160       2.2250       2.1900
   2715.8738      92.2994      57.3954       3.6677       3.4132
   2716.0264      97.2960      55.5740       5.1110       4.6370
   2716.1787      84.0122      48.5357      19.4740      10.7045
   2716.3311      70.7210      41.5160      33.7990      16.7560
   2716.4834      71.0419      37.2150      40.7321      15.3155
   2716.6360      71.3630      32.9110      47.6700      13.8740
   2716.7883      77.5790      34.4157      32.7041      11.5543
   2716.9407      83.8000      35.9240      17.7020       9.2290
   2717.0930      75.7398      42.9548      10.6423       5.9484
   2717.2454      67.6720      50.0260       3.5420       2.6490
   2717.3979      69.3941      51.3043       2.9907       2.2750
   2717.5503      71.1180      52.5860       2.4380       1.9000
   2717.7026      74.0558      47.8773       7.5842       3.3319
   2717.8550      76.9970      43.1780      12.7200       4.7610
   2718.0076      73.9615      42.4714      25.3223       6.4617
   2718.1599      70.9220      41.7650      37.9210       8.1620
   2718.3123      69.6169      42.9292      24.8034       6.5125
   2718.4646      68.3100      44.0970      11.6460       4.8580
   2718.6172      63.8670      44.5426       8.1756       4.0257
   2718.7695      59.4170      44.9910       4.6830       3.1880
   2718.9219      67.8086      42.4382       4.2454       3.1221
   2719.0742      76.2010      39.8810       3.8070       3.0560
   2719.2266      65.2152      41.0863       6.6502       6.0480
   2719.3792      54.2270      42.2880       9.4850       9.0310
   2719.5315      62.9000      45.3810      14.2897      22.2078
   2719.6838      71.5760      48.4750      19.0960      35.3890
   2719.8362      82.6349      51.9641      13.9704      24.7036
   2719.9888      93.6990      55.4660       8.8260      13.9790
   2720.1411      83.1806      56.9425       5.2013       7.9817
   2720.2935      72.6560      58.4270       1.5570       1.9520
   2720.4458      84.6487      56.3223       1.2256       1.4832
   2720.5984      96.6500      54.2160       0.8940       1.0140
   2720.7507      97.6331      53.1693       0.9376       1.0581
   2720.9031      98.6170      52.1250       0.9810       1.1020
   2721.0554      98.1047      51.2514       0.9605       1.0590
   2721.2078      97.5920      50.3770       0.9400       1.0160
   2721.3604      95.7030      51.8335       0.9540       1.0065
   2721.5127      93.8120      53.2940       0.9680       0.9970
   2721.6650      90.6284      57.3184       1.0159       1.0339
   2721.8174      87.4410      61.3670       1.0640       1.0710
   2721.9700      79.1965      63.4145       1.1469       1.1334
   2722.1223      70.9410      65.4680       1.2300       1.1960
   2722.2747      74.2942      67.1299       1.3226       1.2661
   2722.4270      77.6470      68.7890       1.4150       1.3360
   2722.5796      71.6845      68.4795       1.4730       1.3725
   2722.7319      65.7220      68.1700       1.5310       1.4090
   2722.8843      68.5283      69.0825       2.6461       2.2226
   2723.0366      71.3350      69.9980       3.7650       3.0390
   2723.1890      72.1389      67.6932       6.0494       4.3706
   2723.3416      72.9430      65.3730       8.3490       5.7110
   2723.4939      68.8792      67.6992       5.9119       4.2874
   2723.6462      64.8140      70.0300       3.4700       2.8610
   2723.7986      72.7106      71.5661       3.1766       2.6632
   2723.9512      80.6110      73.0980       2.8840       2.4660
   2724.1035      68.1264      73.2400       2.7835       2.3985
   2724.2559      55.6340      73.3820       2.6830       2.3310
   2724.4082      70.7689      71.8425       4.1411       3.3789
   2724.5608      85.9150      70.2970       5.6050       4.4310
   2724.7131      73.9267      69.7723       8.5706       6.2592
   2724.8655      61.9280      69.2480      11.5340       8.0860
   2725.0178      63.1544      63.2032      24.9532      16.0425
   2725.1702      64.3820      57.1910      38.3000      23.9560
   2725.3228      64.1231      51.8645      35.9871      28.7660
   2725.4751      63.8640      46.5490      33.6790      33.5660
   2725.6274      73.9012      43.6773      20.0295      19.8346
   2725.7798      83.9510      40.8020       6.3630       6.0860
   2725.9324      82.7348      47.5864       4.5767       4.4130
   2726.0847      81.5170      54.3910       2.7850       2.7350
   2726.2371      83.5911      59.5623       3.3651       3.2608
   2726.3894      85.6650      64.7580       3.9480       3.7890
   2726.5420      85.6695      68.0453       4.3352       4.1257
   2726.6943      85.6740      71.3380       4.7230       4.4630
   2726.8467      86.4814      72.0630       4.6099       4.4195
   2726.9990      87.2890      72.7870       4.4970       4.3760
   2727.1514      88.1924      67.6637       3.6761       3.6306
   2727.3040      89.0960      62.5390       2.8550       2.8850
   2727.4563      88.7621      61.0420       2.6172       2.6587
   2727.6086      88.4280      59.5420       2.3790       2.4320
   2727.7610      88.4280      56.5246       3.8586       4.0492
   2727.9136      88.4280      53.4910       5.3460       5.6750
   2728.0659      88.4280      49.8364      15.3714      16.7479
   2728.2183      88.4280      46.1500      25.4840      27.9170
   2728.3706      88.4280      48.8815      39.6816      41.7873
   2728.5232      88.4280      51.6240      53.9360      55.7130
