#------------------------------------------------------------------------------
#
#   Created by  : [OpenWorks] Log Export Utility (LEXP)
#   Created on  : 2016-05-19 11:11:51
#   Project     : CANT971
#   User        : R5K
#   Interpreter : PEP
#
#------------------------------------------------------------------------------
~VERSION INFORMATION
VERS. 2.0 : CWLS Log ASCII Standard - version 2.0
WRAP.  NO : One line per depth step
~WELL INFORMATION
#MNEMONIC   .UNIT                                           VALUE :DESCRIPTION
#------------------------------------------------------------------------------
STRT        .M                                           763.3251 :START DEPTH
STOP        .M                                          2737.0574 :STOP DEPTH
STEP        .M                                             0.1524 :STEP
NULL        .                                           -999.2500 :NULL VALUE
COMP        .                                   PEMEX EXPL & PROD :COMPANY
WELL        .                                                207D :WELL
FLD         .                                           CANTARELL :FIELD
LOC         .                                             UNKNOWN :LOCATION
CNTY        .                                      CD. DEL CARMEN :COUNTY
STAT        .                                            CAMPECHE :STATE
CTRY        .                                              MEXICO :COUNTRY
SRVC        .                                             UNKNOWN :SERVICE COMPANY
DATE        .                                             UNKNOWN :LOG DATE
UWI         .                                          3060000699 :UNIQUE WELL ID
XCOORD      .                                       597310.700000 :SURFACE X
YCOORD      .                                      2143073.700000 :SURFACE Y
LAT         .                                           19.380597 :LATITUDE
LON         .                                          -92.073350 :LONGITUDE
ELEV        .M                                            27.7000 :SURFACE ELEV
ELEV_TYPE   .                                                  KB :ELEV TYPE
~CURVE INFORMATION
#MNEMONIC.UNIT        API CODE       : CURVE DESCRIPTION
#------------------------------------------------------------------------------
DEPTH    .M                          : Measured Depth
DT       .us/ft       UNKNOWN        : DT:Import:rC:NONE:v0 (auto-composite)
GR       .API         UNKNOWN        : GR:Import:rC:NONE:v0 (auto-composite)
ILD      .ohm.m       UNKNOWN        : ILD:Import:rC:NONE:v0 (auto-composite)
ILM      .ohm.m       UNKNOWN        : ILM:Import:rC:NONE:v0 (auto-composite)
~A     DEPTH           DT           GR          ILD          ILM
# ...
   1046.7891    -999.2500      58.7757       0.9793       0.9832
   1046.9415    -999.2500      57.7186       0.9835       0.9875
   1047.0939    -999.2500      56.0808       0.9915       0.9955
   1047.2462    -999.2500      58.1233       1.0024       1.0060
   1047.3987    -999.2500      60.9971       1.0139       1.0170
   1047.5510    -999.2500      61.7086       1.0238       1.0264
   1047.7035    -999.2500      61.9470       1.0333       1.0354
   1047.8558    -999.2500      59.3567       1.0399       1.0411
   1048.0083    -999.2500      56.1438       1.0459       1.0461
   1048.1606    -999.2500      54.8583       1.0519       1.0519
   1048.3131    -999.2500      54.0017       1.0579       1.0579
   1048.4655    -999.2500      51.9823       1.0696       1.0696
   1048.6179    -999.2500      49.7027       1.0826       1.0826
   1048.7703    -999.2500      50.7032       1.0964       1.0973
   1048.9227    -999.2500      52.4460       1.1105       1.1123
   1049.0751    -999.2500      54.0635       1.1253       1.1294
   1049.2274    -999.2500      55.6537       1.1403       1.1468
   1049.3799    -999.2500      53.8887       1.1487       1.1586
   1049.5322    -999.2500      51.3838       1.1557       1.1691
   1049.6847    -999.2500      52.4079       1.1488       1.1653
   1049.8370    -999.2500      54.2192       1.1388       1.1583
   1049.9895    -999.2500      53.6312       1.1137       1.1346
   1050.1418    -999.2500      52.5052       1.0853       1.1071
   1050.2943    -999.2500      51.8070       1.0931       1.1175
   1050.4467    -999.2500      51.2058       1.1091       1.1366
   1050.5991    -999.2500      53.4091       1.1546       1.1867
   1050.7515    -999.2500      56.2253       1.2066       1.2437
   1050.9039    -999.2500      51.5182       1.2754       1.3179
   1051.0563    -999.2500      45.1484       1.3478       1.3958
   1051.2086    -999.2500      47.2431       1.3778       1.4280
   1051.3611    -999.2500      51.2193       1.3982       1.4500
   1051.5134    -999.2500      54.1227       1.3563       1.4038
   1051.6659    -999.2500      56.7851       1.3003       1.3423
   1051.8182    -999.2500      55.4541       1.2565       1.2946
   1051.9707    -999.2500      53.2203       1.2154       1.2500
   1052.1230    -999.2500      52.4631       1.1875       1.2199
   1052.2755    -999.2500      52.0293       1.1625       1.1929
   1052.4279    -999.2500      53.9084       1.1404       1.1683
   1052.5803    -999.2500      56.2969       1.1189       1.1444
   1052.7327    -999.2500      53.9154       1.1219       1.1457
   1052.8851    -999.2500      50.4714       1.1304       1.1527
   1053.0375    -999.2500      46.1041       1.1675       1.1891
   1053.1898    -999.2500      41.5299       1.2110       1.2321
   1053.3423    -999.2500      38.3124       1.2738       1.2948
   1053.4946    -999.2500      35.4024       1.3410       1.3620
   1053.6471    -999.2500      35.4317       1.4100       1.4322
   1053.7994    -999.2500      36.1027       1.4794       1.5032
   1053.9519    -999.2500      38.7451       1.5067       1.5307
   1054.1042    -999.2500      41.8228       1.5247       1.5487
   1054.2567    -999.2500      47.4439       1.4785       1.5001
   1054.4091    -999.2500      53.6298       1.4181       1.4366
   1054.5615    -999.2500      55.6464       1.3601       1.3772
   1054.7139    -999.2500      56.7269       1.3026       1.3188
   1054.8663    -999.2500      56.6010       1.2495       1.2647
   1055.0187    -999.2500      56.2025       1.1974       1.2115
   1055.1710    -999.2500      59.3949       1.1515       1.1647
   1055.3235    -999.2500      63.3726       1.1070       1.1192
   1055.4758    -999.2500      61.5336       1.0904       1.1020
   1055.6283    -999.2500      58.4147       1.0799       1.0910
   1055.7806    -999.2500      56.8952       1.0968       1.1086
   1055.9331    -999.2500      55.7317       1.1198       1.1326
   1056.0854    -999.2500      55.3846       1.1403       1.1541
   1056.2379    -999.2500      55.2212       1.1603       1.1751
   1056.3903    -999.2500      52.4504       1.1828       1.1990
   1056.5427    -999.2500      49.0895       1.2059       1.2236
   1056.6951    -999.2500      51.5995       1.2338       1.2538
   1056.8475    -999.2500      55.3894       1.2628       1.2853
   1056.9999    -999.2500      53.6172       1.2885       1.3135
   1057.1522    -999.2500      50.6187       1.3134       1.3410
   1057.3047    -999.2500      47.6956       1.3249       1.3554
   1057.4570    -999.2500      44.7894       1.3334       1.3669
   1057.6095    -999.2500      47.3902       1.3326       1.3678
   1057.7618    -999.2500      51.2260       1.3296       1.3663
   1057.9143    -999.2500      53.1002       1.3306       1.3693
   1058.0667    -999.2500      54.5297       1.3326       1.3733
   1058.2191    -999.2500      53.2025       1.3420       1.3851
   1058.3715    -999.2500      51.2732       1.3530       1.3986
   1058.5239    -999.2500      49.6288       1.3656       1.4137
   1058.6763    -999.2500      48.0475       1.3786       1.4292
   1058.8286    -999.2500      49.2797       1.3990       1.4524
   1058.9811    -999.2500      51.1372       1.4210       1.4774
   1059.1334    -999.2500      47.6874       1.4446       1.5040
   1059.2859    -999.2500      43.0449       1.4686       1.5310
   1059.4382    -999.2500      40.5146       1.4787       1.5421
   1059.5907    -999.2500      38.4617       1.4857       1.5496
   1059.7430    -999.2500      41.0578       1.4792       1.5416
   1059.8955    -999.2500      44.6718       1.4697       1.5301
   1060.0479    -999.2500      47.9426       1.4602       1.5190
   1060.2003    -999.2500      51.1380       1.4507       1.5080
   1060.3527    -999.2500      50.6462       1.4465       1.5023
   1060.5051    -999.2500      49.3333       1.4435       1.4978
   1060.6575    -999.2500      48.2910       1.4483       1.5007
   1060.8098    -999.2500      47.3093       1.4548       1.5052
   1060.9623    -999.2500      48.6561       1.4638       1.5134
   1061.1146    -999.2500      50.5303       1.4733       1.5224
   1061.2671    -999.2500      49.3355       1.4652       1.5129
   1061.4194    -999.2500      47.4711       1.4532       1.4994
   1061.5719    -999.2500      51.1546       1.4232       1.4667
   1061.7242    -999.2500      56.0624       1.3892       1.4297
   1061.8767    -999.2500      61.6273       1.3511       1.3891
   1062.0291    -999.2500      67.3381       1.3121       1.3476
   1062.1815    -999.2500      66.1451       1.2752       1.3086
   1062.3339    -999.2500      63.4024       1.2387       1.2701
   1062.4863    -999.2500      61.9866       1.2161       1.2462
   1062.6387    -999.2500      60.8720       1.1965       1.2257
   1062.7910    -999.2500      58.7232       1.1992       1.2282
   1062.9435    -999.2500      56.3482       1.2066       1.2356
   1063.0958    -999.2500      54.2644       1.2256       1.2550
   1063.2483    -999.2500      52.2445       1.2471       1.2770
   1063.4006    -999.2500      52.4340       1.2723       1.3035
   1063.5531    -999.2500      53.1150       1.2982       1.3310
   1063.7054    -999.2500      49.0522       1.3242       1.3580
   1063.8579    -999.2500      43.9225       1.3502       1.3850
   1064.0103    -999.2500      45.9641       1.3624       1.3978
   1064.1627    -999.2500      49.6283       1.3714       1.4073
   1064.3151    -999.2500      51.6401       1.3668       1.4024
   1064.4675    -999.2500      53.2917       1.3594       1.3944
   1064.6199    -999.2500      51.0193       1.3596       1.3946
   1064.7722    -999.2500      47.8819       1.3616       1.3966
   1064.9247    -999.2500      45.6875       1.3734       1.4084
   1065.0770    -999.2500      43.7034       1.3874       1.4224
   1065.2295    -999.2500      45.2902       1.3986       1.4336
   1065.3818    -999.2500      47.6778       1.4091       1.4441
   1065.5343    -999.2500      47.1891       1.4175       1.4521
