#------------------------------------------------------------------------------
#
#   Created by  : [OpenWorks] Log Export Utility (LEXP)
#   Created on  : 2016-05-19 11:11:51
#   Project     : CANT971
#   User        : R5K
#   Interpreter : PEP
#
#------------------------------------------------------------------------------
~VERSION INFORMATION
VERS. 2.0 : CWLS Log ASCII Standard - version 2.0
WRAP.  NO : One line per depth step
~WELL INFORMATION
#MNEMONIC   .UNIT                                           VALUE :DESCRIPTION
#------------------------------------------------------------------------------
STRT        .M                                           763.3251 :START DEPTH
STOP        .M                                          2737.0574 :STOP DEPTH
STEP        .M                                             0.1524 :STEP
NULL        .                                           -999.2500 :NULL VALUE
COMP        .                                   PEMEX EXPL & PROD :COMPANY
WELL        .                                                207D :WELL
FLD         .                                           CANTARELL :FIELD
LOC         .                                             UNKNOWN :LOCATION
CNTY        .                                      CD. DEL CARMEN :COUNTY
STAT        .                                            CAMPECHE :STATE
CTRY        .                                              MEXICO :COUNTRY
SRVC        .                                             UNKNOWN :SERVICE COMPANY
DATE        .                                             UNKNOWN :LOG DATE
UWI         .                                          3060000699 :UNIQUE WELL ID
XCOORD      .                                       597310.700000 :SURFACE X
YCOORD      .                                      2143073.700000 :SURFACE Y
LAT         .                                           19.380597 :LATITUDE
LON         .                                          -92.073350 :LONGITUDE
ELEV        .M                                            27.7000 :SURFACE ELEV
ELEV_TYPE   .                                                  KB :ELEV TYPE
~CURVE INFORMATION
#MNEMONIC.UNIT        API CODE       : CURVE DESCRIPTION
#------------------------------------------------------------------------------
DEPTH    .M                          : Measured Depth
DT       .us/ft       UNKNOWN        : DT:Import:rC:NONE:v0 (auto-composite)
GR       .API         UNKNOWN        : GR:Import:rC:NONE:v0 (auto-composite)
ILD      .ohm.m       UNKNOWN        : ILD:Import:rC:NONE:v0 (auto-composite)
ILM      .ohm.m       UNKNOWN        : ILM:Import:rC:NONE:v0 (auto-composite)
~A     DEPTH           DT           GR          ILD          ILM
# ...
   1311.3555    -999.2500      50.4547       1.0691       1.0716
   1311.5078    -999.2500      50.5505       1.0783       1.0838
   1311.6603    -999.2500      51.0797       1.0848       1.0933
   1311.8126    -999.2500      53.0757       1.0541       1.0656
   1311.9651    -999.2500      55.3978       1.0152       1.0296
   1312.1174    -999.2500      56.3422       0.9745       0.9899
   1312.2699    -999.2500      56.9769       0.9336       0.9495
   1312.4222    -999.2500      54.4669       0.9182       0.9346
   1312.5747    -999.2500      51.2458       0.9087       0.9256
   1312.7271    -999.2500      55.5044       0.9300       0.9478
   1312.8795    -999.2500      61.4014       0.9579       0.9768
   1313.0319    -999.2500      58.3406       0.9978       1.0172
   1313.1843    -999.2500      53.3063       1.0403       1.0602
   1313.3367    -999.2500      50.5379       1.0930       1.1142
   1313.4890    -999.2500      48.2744       1.1479       1.1707
   1313.6415    -999.2500      49.0472       1.2058       1.2300
   1313.7938    -999.2500      50.5005       1.2642       1.2899
   1313.9463    -999.2500      47.4106       1.3012       1.3280
   1314.0986    -999.2500      43.2911       1.3333       1.3611
   1314.2511    -999.2500      41.5770       1.3468       1.3752
   1314.4034    -999.2500      40.3880       1.3563       1.3852
   1314.5559    -999.2500      38.6906       1.3543       1.3829
   1314.7083    -999.2500      36.8809       1.3498       1.3779
   1314.8607    -999.2500      39.6536       1.3416       1.3692
   1315.0131    -999.2500      43.4439       1.3326       1.3597
   1315.1655    -999.2500      43.8998       1.3383       1.3653
   1315.3179    -999.2500      43.6070       1.3473       1.3743
   1315.4702    -999.2500      44.1442       1.3596       1.3874
   1315.6227    -999.2500      44.8689       1.3727       1.4015
   1315.7750    -999.2500      45.7326       1.3729       1.4024
   1315.9275    -999.2500      46.6267       1.3705       1.4004
   1316.0798    -999.2500      45.5031       1.3589       1.3889
   1316.2323    -999.2500      43.9354       1.3455       1.3755
   1316.3846    -999.2500      45.5518       1.3340       1.3648
   1316.5371    -999.2500      47.8768       1.3230       1.3548
   1316.6895    -999.2500      48.8960       1.3296       1.3624
   1316.8419    -999.2500      49.6228       1.3401       1.3739
   1316.9943    -999.2500      48.6502       1.3514       1.3862
   1317.1467    -999.2500      47.2930       1.3629       1.3988
   1317.2991    -999.2500      48.1451       1.3568       1.3928
   1317.4514    -999.2500      49.4790       1.3468       1.3828
   1317.6039    -999.2500      49.1772       1.3356       1.3716
   1317.7562    -999.2500      48.5148       1.3241       1.3601
   1317.9087    -999.2500      46.3385       1.3269       1.3645
   1318.0610    -999.2500      43.8246       1.3329       1.3725
   1318.2135    -999.2500      43.7872       1.3466       1.3887
   1318.3658    -999.2500      44.3052       1.3621       1.4067
   1318.5183    -999.2500      45.5793       1.3728       1.4198
   1318.6707    -999.2500      47.0248       1.3823       1.4318
   1318.8231    -999.2500      46.7108       1.3787       1.4287
   1318.9755    -999.2500      46.0124       1.3722       1.4222
   1319.1279    -999.2500      47.7255       1.3665       1.4161
   1319.2803    -999.2500      49.9715       1.3610       1.4101
   1319.4326    -999.2500      49.1693       1.3755       1.4249
   1319.5851    -999.2500      47.6896       1.3945       1.4444
   1319.7374    -999.2500      47.0573       1.4266       1.4774
   1319.8899    -999.2500      46.6155       1.4615       1.5134
   1320.0422    -999.2500      46.1326       1.4950       1.5470
   1320.1947    -999.2500      45.6404       1.5281       1.5801
   1320.3470    -999.2500      44.4905       1.5389       1.5901
   1320.4995    -999.2500      43.1966       1.5449       1.5951
   1320.6519    -999.2500      43.9579       1.5108       1.5551
   1320.8043    -999.2500      45.1718       1.4678       1.5051
   1320.9567    -999.2500      45.9125       1.4457       1.4788
   1321.1091    -999.2500      46.5477       1.4282       1.4578
   1321.2615    -999.2500      46.3714       1.4356       1.4634
   1321.4138    -999.2500      46.0132       1.4486       1.4749
   1321.5663    -999.2500      46.6358       1.4571       1.4819
   1321.7186    -999.2500      47.4806       1.4647       1.4879
   1321.8711    -999.2500      46.2279       1.4603       1.4820
   1322.0234    -999.2500      44.5173       1.4533       1.4735
   1322.1759    -999.2500      44.4921       1.4418       1.4614
   1322.3282    -999.2500      44.8390       1.4293       1.4484
   1322.4807    -999.2500      47.2817       1.4135       1.4321
   1322.6331    -999.2500      50.1898       1.3970       1.4151
   1322.7855    -999.2500      49.4055       1.3805       1.3989
   1322.9379    -999.2500      47.7922       1.3640       1.3829
   1323.0903    -999.2500      46.6487       1.3565       1.3759
   1323.2427    -999.2500      45.6112       1.3510       1.3709
   1323.3950    -999.2500      46.0889       1.3504       1.3708
   1323.5475    -999.2500      46.8981       1.3509       1.3718
   1323.6998    -999.2500      45.2115       1.3453       1.3663
   1323.8523    -999.2500      42.9759       1.3383       1.3593
   1324.0046    -999.2500      43.7165       1.3350       1.3560
   1324.1571    -999.2500      45.1194       1.3325       1.3535
   1324.3094    -999.2500      44.7112       1.3446       1.3661
   1324.4619    -999.2500      43.8955       1.3601       1.3820
   1324.6143    -999.2500      46.6026       1.3753       1.3973
   1324.7667    -999.2500      50.1068       1.3903       1.4123
   1324.9191    -999.2500      49.8062       1.4041       1.4269
   1325.0715    -999.2500      48.6761       1.4176       1.4414
   1325.2239    -999.2500      47.8367       1.4343       1.4587
   1325.3762    -999.2500      47.0614       1.4518       1.4767
   1325.5287    -999.2500      46.1901       1.4591       1.4845
   1325.6810    -999.2500      45.2975       1.4641       1.4900
   1325.8335    -999.2500      43.7731       1.4556       1.4820
   1325.9858    -999.2500      42.1070       1.4441       1.4710
   1326.1383    -999.2500      43.4948       1.4326       1.4596
   1326.2906    -999.2500      45.5750       1.4211       1.4481
   1326.4431    -999.2500      44.1731       1.4092       1.4362
   1326.5955    -999.2500      42.0104       1.3972       1.4242
   1326.7479    -999.2500      43.7218       1.3860       1.4122
   1326.9003    -999.2500      46.2892       1.3750       1.4002
   1327.0526    -999.2500      47.3511       1.3611       1.3853
   1327.2051    -999.2500      48.0785       1.3467       1.3698
   1327.3574    -999.2500      46.0826       1.3387       1.3609
   1327.5099    -999.2500      43.4748       1.3322       1.3534
   1327.6622    -999.2500      43.6162       1.3347       1.3549
   1327.8147    -999.2500      44.3790       1.3392       1.3584
   1327.9670    -999.2500      43.5213       1.3462       1.3647
   1328.1195    -999.2500      42.3088       1.3536       1.3717
   1328.2719    -999.2500      43.9107       1.3591       1.3771
   1328.4243    -999.2500      46.1324       1.3641       1.3821
   1328.5767    -999.2500      46.9106       1.3634       1.3810
   1328.7291    -999.2500      47.3674       1.3614       1.3785
   1328.8815    -999.2500      47.0335       1.3651       1.3825
   1329.0338    -999.2500      46.5224       1.3701       1.3880
   1329.1863    -999.2500      45.4763       1.3804       1.3992
   1329.3386    -999.2500      44.3091       1.3919       1.4118
   1329.4911    -999.2500      42.8718       1.3965       1.4169
   1329.6434    -999.2500      41.3755       1.3995       1.4204
   1329.7959    -999.2500      45.3573       1.3914       1.4132
   1329.9482    -999.2500      50.5481       1.3809       1.4037
   1330.1007    -999.2500      49.9934       1.3680       1.3910
