#------------------------------------------------------------------------------
#
#   Created by  : [OpenWorks] Log Export Utility (LEXP)
#   Created on  : 2016-05-19 11:11:51
#   Project     : CANT971
#   User        : R5K
#   Interpreter : PEP
#
#------------------------------------------------------------------------------
~VERSION INFORMATION
VERS. 2.0 : CWLS Log ASCII Standard - version 2.0
WRAP.  NO : One line per depth step
~WELL INFORMATION
#MNEMONIC   .UNIT                                           VALUE :DESCRIPTION
#------------------------------------------------------------------------------
STRT        .M                                           763.3251 :START DEPTH
STOP        .M                                          2737.0574 :STOP DEPTH
STEP        .M                                             0.1524 :STEP
NULL        .                                           -999.2500 :NULL VALUE
COMP        .                                   PEMEX EXPL & PROD :COMPANY
WELL        .                                                207D :WELL
FLD         .                                           CANTARELL :FIELD
LOC         .                                             UNKNOWN :LOCATION
CNTY        .                                      CD. DEL CARMEN :COUNTY
STAT        .                                            CAMPECHE :STATE
CTRY        .                                              MEXICO :COUNTRY
SRVC        .                                             UNKNOWN :SERVICE COMPANY
DATE        .                                             UNKNOWN :LOG DATE
UWI         .                                          3060000699 :UNIQUE WELL ID
XCOORD      .                                       597310.700000 :SURFACE X
YCOORD      .                                      2143073.700000 :SURFACE Y
LAT         .                                           19.380597 :LATITUDE
LON         .                                          -92.073350 :LONGITUDE
ELEV        .M                                            27.7000 :SURFACE ELEV
ELEV_TYPE   .                                                  KB :ELEV TYPE
~CURVE INFORMATION
#MNEMONIC.UNIT        API CODE       : CURVE DESCRIPTION
#------------------------------------------------------------------------------
DEPTH    .M                          : Measured Depth
DT       .us/ft       UNKNOWN        : DT:Import:rC:NONE:v0 (auto-composite)
GR       .API         UNKNOWN        : GR:Import:rC:NONE:v0 (auto-composite)
ILD      .ohm.m       UNKNOWN        : ILD:Import:rC:NONE:v0 (auto-composite)
ILM      .ohm.m       UNKNOWN        : ILM:Import:rC:NONE:v0 (auto-composite)
~A     DEPTH           DT           GR          ILD          ILM
# ...
   2577.4946      77.5058      45.2642       1.4337       1.4427
   2577.6470      79.6820      44.5570       1.5760       1.5860
   2577.7996      80.4211      45.8067       1.4140       1.4220
   2577.9519      81.1610      47.0560       1.2520       1.2580
   2578.1042      78.2761      49.4545       1.2310       1.2365
   2578.2566      75.3920      51.8600       1.2100       1.2150
   2578.4092      76.0686      48.1920       1.3456       1.3546
   2578.5615      76.7450      44.5010       1.4820       1.4950
   2578.7139      74.4655      45.2944       1.5385       1.5555
   2578.8662      72.1860      46.0890       1.5950       1.6160
   2579.0186      73.4194      44.2477       1.6761       1.7031
   2579.1711      74.6530      42.4120       1.7570       1.7900
   2579.3235      73.9301      45.0462       1.7050       1.7405
   2579.4758      73.2070      47.6810       1.6530       1.6910
   2579.6282      74.2993      49.3999       1.6046       1.6431
   2579.7808      75.3920      51.1250       1.5560       1.5950
   2579.9331      75.6394      51.6042       1.5181       1.5561
   2580.0854      75.8870      52.0860       1.4800       1.5170
   2580.2378      74.9818      48.3786       1.4935       1.5315
   2580.3904      74.0760      44.6690       1.5070       1.5460
   2580.5427      73.2928      43.9401       1.5736       1.6151
   2580.6951      72.5090      43.2130       1.6400       1.6840
   2580.8474      72.1731      40.0928       1.6670       1.7095
   2580.9998      71.8370      36.9700       1.6940       1.7350
   2581.1523      71.5866      39.9337       1.7185       1.7575
   2581.3047      71.3360      42.9050       1.7430       1.7800
   2581.4570      71.3840      43.7510       1.7261       1.7576
   2581.6094      71.4320      44.6020       1.7090       1.7350
   2581.7620      71.1502      43.3573       1.6900       1.7110
   2581.9143      70.8680      42.1090       1.6710       1.6870
   2582.0667      70.6595      43.2711       1.6905       1.7030
   2582.2190      70.4510      44.4310       1.7100       1.7190
   2582.3716      69.9770      44.7050       1.6805       1.6845
   2582.5239      69.5030      44.9790       1.6510       1.6500
   2582.6763      69.6315      41.0858       1.6615       1.6415
   2582.8286      69.7600      37.1800       1.6720       1.6330
   2582.9810      69.4660      36.8650       1.7732       1.7416
   2583.1335      69.1720      36.5480       1.8750       1.8510
   2583.2859      69.7724      39.1870       1.8181       1.7906
   2583.4382      70.3730      41.8310       1.7610       1.7300
   2583.5906      79.5122      41.3699       1.7290       1.6929
   2583.7432      88.6550      40.9100       1.6970       1.6560
   2583.8955      90.5155      42.4586       1.8385       1.7785
   2584.0479      92.3770      44.0080       1.9800       1.9010
   2584.2002      93.0613      45.4966       1.8098       1.7348
   2584.3528      93.7460      46.9910       1.6390       1.5680
   2584.5051      95.0615      45.4353       1.5552       1.4887
   2584.6575      96.3780      43.8710       1.4710       1.4090
   2584.8098      95.6728      47.2705       1.6784       1.5974
   2584.9622      94.9670      50.6730       1.8860       1.7860
   2585.1147      94.7871      52.8599       1.7854       1.6984
   2585.2671      94.6070      55.0420       1.6850       1.6110
   2585.4194      95.3421      53.7647       1.6140       1.5485
   2585.5718      96.0780      52.4860       1.5430       1.4860
   2585.7244      94.9672      51.7081       1.7617       1.6967
   2585.8767      93.8550      50.9280       1.9810       1.9080
   2586.0291      93.3304      53.0237       1.7555       1.6995
   2586.1814      92.8060      55.1290       1.5290       1.4900
   2586.3340      94.6851      55.2849       1.5500       1.5125
   2586.4863      96.5640      55.4410       1.5710       1.5350
   2586.6387      98.6210      52.3806       1.7001       1.6646
   2586.7910     100.6780      49.3250       1.8290       1.7940
   2586.9434      85.1863      50.0714       1.5740       1.5535
   2587.0959      69.6920      50.8180       1.3190       1.3130
   2587.2483      67.5333      45.8452       1.2366       1.2331
   2587.4006      65.3740      40.8630       1.1540       1.1530
   2587.5530      66.0988      40.3483       2.0831       2.1035
   2587.7056      66.8240      39.8310       3.0170       3.0590
   2587.8579      66.0742      41.1356       2.6399       2.6864
   2588.0103      65.3240      42.4430       2.2620       2.3130
   2588.1626      69.2787      42.7078       2.0813       2.1323
   2588.3152      73.2360      42.9720       1.9010       1.9520
   2588.4675      72.1354      45.9388       1.9295       1.9855
   2588.6199      71.0340      48.9080       1.9580       2.0190
   2588.7722      73.3764      49.1066       1.7444       1.7930
   2588.9246      75.7210      49.3060       1.5300       1.5660
   2589.0771      78.8788      47.1389       1.4680       1.4990
   2589.2295      82.0400      44.9730       1.4060       1.4320
   2589.3818      83.3892      45.9225       1.4521       1.4741
   2589.5342      84.7400      46.8670       1.4980       1.5160
   2589.6868      81.5011      42.6210       1.4745       1.4855
   2589.8391      78.2580      38.3830       1.4510       1.4550
   2589.9915      77.6684      39.8994       1.5494       1.5449
   2590.1438      77.0790      41.4180       1.6480       1.6350
   2590.2964      71.0268      42.6760       1.7324       1.7094
   2590.4487      64.9750      43.9380       1.8170       1.7840
   2590.6011      78.1065      44.1081       1.7367       1.6967
   2590.7534      91.2390      44.2790       1.6560       1.6090
   2590.9058      84.8801      42.6730       1.6025       1.5560
   2591.0583      78.5200      41.0640       1.5490       1.5030
   2591.2107      79.0349      41.4482       1.5760       1.5285
   2591.3630      79.5500      41.8320       1.6030       1.5540
   2591.5154      78.3963      42.3894       1.6465       1.5970
   2591.6680      77.2420      42.9470       1.6900       1.6400
   2591.8203      76.7681      43.0019       1.8998       1.8403
   2591.9727      76.2940      43.0570       2.1100       2.0410
   2592.1250      76.5984      42.2457       2.1549       2.0844
   2592.2776      76.9030      41.4300       2.2000       2.1280
   2592.4299      78.5313      41.9442       2.1139       2.0533
   2592.5823      80.1610      42.4630       2.0270       1.9780
   2592.7346      80.7352      41.8498       2.0769       2.0319
   2592.8870      81.3100      41.2340       2.1270       2.0860
   2593.0396      81.9856      42.9570       2.1760       2.1390
   2593.1919      82.6620      44.6790       2.2250       2.1920
   2593.3442      75.4693      46.2773       2.0672       2.0472
   2593.4966      68.2680      47.8800       1.9090       1.9020
   2593.6492      76.1183      48.1567       1.8896       1.8856
   2593.8015      83.9790      48.4350       1.8700       1.8690
   2593.9539      82.8929      45.1004       1.8485       1.8530
   2594.1062      81.8070      41.7610       1.8270       1.8370
   2594.2588      82.2560      43.7767       1.8435       1.8555
   2594.4111      82.7050      45.7860       1.8600       1.8740
   2594.5635      83.5165      48.2439       1.8835       1.8995
   2594.7158      84.3280      50.7020       1.9070       1.9250
   2594.8682      89.0070      53.6365       1.7108       1.7253
   2595.0208      93.6870      56.5810       1.5140       1.5250
   2595.1731      84.2317      54.5926       1.8013       1.8152
   2595.3254      74.7730      52.5940       2.0900       2.1070
   2595.4778      81.6608      53.4538       1.8226       1.8351
   2595.6304      88.5520      54.3140       1.5550       1.5630
   2595.7827      86.1402      48.8659       1.6446       1.6536
   2595.9351      83.7270      43.4320       1.7340       1.7440
   2596.0874      86.1976      42.8667       1.8310       1.8430
   2596.2400      88.6700      42.3010       1.9280       1.9420
