#------------------------------------------------------------------------------
#
#   Created by  : [OpenWorks] Log Export Utility (LEXP)
#   Created on  : 2016-05-19 11:11:51
#   Project     : CANT971
#   User        : R5K
#   Interpreter : PEP
#
#------------------------------------------------------------------------------
~VERSION INFORMATION
VERS. 2.0 : CWLS Log ASCII Standard - version 2.0
WRAP.  NO : One line per depth step
~WELL INFORMATION
#MNEMONIC   .UNIT                                           VALUE :DESCRIPTION
#------------------------------------------------------------------------------
STRT        .M                                           763.3251 :START DEPTH
STOP        .M                                          2737.0574 :STOP DEPTH
STEP        .M                                             0.1524 :STEP
NULL        .                                           -999.2500 :NULL VALUE
COMP        .                                   PEMEX EXPL & PROD :COMPANY
WELL        .                                                207D :WELL
FLD         .                                           CANTARELL :FIELD
LOC         .                                             UNKNOWN :LOCATION
CNTY        .                                      CD. DEL CARMEN :COUNTY
STAT        .                                            CAMPECHE :STATE
CTRY        .                                              MEXICO :COUNTRY
SRVC        .                                             UNKNOWN :SERVICE COMPANY
DATE        .                                             UNKNOWN :LOG DATE
UWI         .                                          3060000699 :UNIQUE WELL ID
XCOORD      .                                       597310.700000 :SURFACE X
YCOORD      .                                      2143073.700000 :SURFACE Y
LAT         .                                           19.380597 :LATITUDE
LON         .                                          -92.073350 :LONGITUDE
ELEV        .M                                            27.7000 :SURFACE ELEV
ELEV_TYPE   .                                                  KB :ELEV TYPE
~CURVE INFORMATION
#MNEMONIC.UNIT        API CODE       : CURVE DESCRIPTION
#------------------------------------------------------------------------------
DEPTH    .M                          : Measured Depth
DT       .us/ft       UNKNOWN        : DT:Import:rC:NONE:v0 (auto-composite)
GR       .API         UNKNOWN        : GR:Import:rC:NONE:v0 (auto-composite)
ILD      .ohm.m       UNKNOWN        : ILD:Import:rC:NONE:v0 (auto-composite)
ILM      .ohm.m       UNKNOWN        : ILM:Import:rC:NONE:v0 (auto-composite)
~A     DEPTH           DT           GR          ILD          ILM
# ...
   1821.5907    -999.2500      41.8513       0.9039       0.9538
   1821.7430    -999.2500      40.9389       0.8973       0.9485
   1821.8955    -999.2500      39.3761       0.8903       0.9430
   1822.0479    -999.2500      38.4131       0.8829       0.9367
   1822.2003    -999.2500      37.5823       0.8754       0.9302
   1822.3527    -999.2500      37.6288       0.8932       0.9548
   1822.5051    -999.2500      37.8707       0.9167       0.9862
   1822.6575    -999.2500      37.2742       0.9320       1.0071
   1822.8098    -999.2500      36.4898       0.9455       1.0256
   1822.9623    -999.2500      35.3635       0.9231       1.0041
   1823.1146    -999.2500      34.1596       0.8925       0.9735
   1823.2671    -999.2500      35.7537       0.8661       0.9459
   1823.4194    -999.2500      37.9584       0.8406       0.9189
   1823.5719    -999.2500      39.4424       0.8409       0.9226
   1823.7242    -999.2500      40.7673       0.8469       0.9331
   1823.8767    -999.2500      39.7046       0.8701       0.9644
   1824.0291    -999.2500      38.1120       0.8971       1.0004
   1824.1815    -999.2500      39.4516       0.9114       1.0201
   1824.3339    -999.2500      41.4494       0.9229       1.0360
   1824.4863    -999.2500      39.6070       0.9074       1.0178
   1824.6387    -999.2500      36.8930       0.8859       0.9917
   1824.7910    -999.2500      38.9527       0.8656       0.9665
   1824.9435    -999.2500      42.0564       0.8456       0.9415
   1825.0958    -999.2500      44.4821       0.8330       0.9251
   1825.2483    -999.2500      46.7587       0.8220       0.9106
   1825.4006    -999.2500      45.2281       0.8192       0.9068
   1825.5531    -999.2500      42.8506       0.8182       0.9053
   1825.7054    -999.2500      43.1521       0.8213       0.9091
   1825.8579    -999.2500      44.0562       0.8253       0.9141
   1826.0103    -999.2500      44.6397       0.8280       0.9179
   1826.1627    -999.2500      45.1506       0.8306       0.9214
   1826.3151    -999.2500      44.2371       0.8322       0.9236
   1826.4675    -999.2500      43.0131       0.8337       0.9256
   1826.6199    -999.2500      43.4167       0.8344       0.9276
   1826.7722    -999.2500      44.1790       0.8349       0.9296
   1826.9247    -999.2500      43.3789       0.8338       0.9292
   1827.0770    -999.2500      42.2304       0.8323       0.9282
   1827.2295    -999.2500      41.1063       0.8312       0.9276
   1827.3818    -999.2500      39.9877       0.8302       0.9271
   1827.5343    -999.2500      38.0550       0.8304       0.9286
   1827.6866    -999.2500      35.9376       0.8309       0.9306
   1827.8391    -999.2500      36.2124       0.8294       0.9302
   1827.9915    -999.2500      37.0097       0.8274       0.9292
   1828.1439    -999.2500      36.2690       0.8262       0.9282
   1828.2963    -999.2500      35.1884       0.8252       0.9272
   1828.4487    -999.2500      36.4594       0.8299       0.9339
   1828.6011    -999.2500      38.2530       0.8359       0.9424
   1828.7534    -999.2500      39.4969       0.8452       0.9550
   1828.9059    -999.2500      40.6175       0.8552       0.9685
   1829.0582    -999.2500      39.8016       0.8541       0.9685
   1829.2107    -999.2500      38.5481       0.8506       0.9655
   1829.3630    -999.2500      38.0331       0.8418       0.9547
   1829.5155    -999.2500      37.6798       0.8318       0.9423
   1829.6678    -999.2500      38.9295       0.8292       0.9416
   1829.8203    -999.2500      40.5321       0.8282       0.9436
   1829.9727    -999.2500      42.6299       0.8358       0.9522
   1830.1251    -999.2500      44.8380       0.8453       0.9622
   1830.2775    -999.2500      44.4599       0.8482       0.9664
   1830.4299    -999.2500      43.5027       0.8497       0.9694
   1830.5823    -999.2500      41.2398       0.8484       0.9680
   1830.7346    -999.2500      38.6812       0.8464       0.9654
   1830.8871    -999.2500      39.5485       0.8435       0.9621
   1831.0394    -999.2500      41.1631       0.8405       0.9586
   1831.1919    -999.2500      40.1255       0.8371       0.9547
   1831.3442    -999.2500      38.5027       0.8336       0.9507
   1831.4967    -999.2500      38.4047       0.8346       0.9529
   1831.6490    -999.2500      38.6450       0.8366       0.9564
   1831.8015    -999.2500      37.5102       0.8456       0.9684
   1831.9539    -999.2500      36.0669       0.8561       0.9824
   1832.1063    -999.2500      36.7910       0.8625       0.9911
   1832.2587    -999.2500      38.0069       0.8680       0.9987
   1832.4111    -999.2500      37.1689       0.8665       0.9963
   1832.5635    -999.2500      35.8820       0.8635       0.9918
   1832.7158    -999.2500      38.1243       0.8593       0.9857
   1832.8683    -999.2500      41.1428       0.8548       0.9792
   1833.0206    -999.2500      41.9581       0.8573       0.9817
   1833.1731    -999.2500      42.2833       0.8613       0.9862
   1833.3254    -999.2500      41.4013       0.8722       0.9996
   1833.4779    -999.2500      40.2478       0.8847       1.0151
   1833.6302    -999.2500      40.6681       0.8968       1.0294
   1833.7827    -999.2500      41.4445       0.9088       1.0435
   1833.9351    -999.2500      40.5878       0.9122       1.0472
   1834.0875    -999.2500      39.3733       0.9137       1.0487
   1834.2399    -999.2500      40.8803       0.9124       1.0453
   1834.3923    -999.2500      42.9870       0.9104       1.0408
   1834.5447    -999.2500      42.0411       0.9092       1.0384
   1834.6970    -999.2500      40.4148       0.9082       1.0364
   1834.8495    -999.2500      38.9555       0.9109       1.0393
   1835.0018    -999.2500      37.5337       0.9144       1.0433
   1835.1543    -999.2500      38.0578       0.9264       1.0587
   1835.3066    -999.2500      39.0230       0.9405       1.0768
   1835.4591    -999.2500      38.9135       0.9557       1.0964
   1835.6115    -999.2500      38.5693       0.9712       1.1164
   1835.7639    -999.2500      40.1793       0.9756       1.1220
   1835.9163    -999.2500      42.2209       0.9776       1.1245
   1836.0687    -999.2500      43.7476       0.9555       1.0943
   1836.2211    -999.2500      45.1599       0.9280       1.0569
   1836.3734    -999.2500      44.8774       0.9116       1.0341
   1836.5259    -999.2500      44.2142       0.8976       1.0146
   1836.6782    -999.2500      46.0474       0.8946       1.0094
   1836.8307    -999.2500      48.4446       0.8941       1.0074
   1836.9830    -999.2500      47.1245       0.8837       0.9935
   1837.1355    -999.2500      44.9909       0.8713       0.9770
   1837.2878    -999.2500      46.0964       0.8629       0.9658
   1837.4403    -999.2500      47.9149       0.8554       0.9558
   1837.5927    -999.2500      46.7290       0.8642       0.9667
   1837.7451    -999.2500      44.8743       0.8767       0.9822
   1837.8975    -999.2500      43.3088       0.8912       1.0013
   1838.0499    -999.2500      41.8081       0.9062       1.0213
   1838.2023    -999.2500      42.6050       0.9123       1.0299
   1838.3546    -999.2500      43.9221       0.9163       1.0359
   1838.5071    -999.2500      43.5051       0.9092       1.0296
   1838.6594    -999.2500      42.7097       0.8997       1.0206
   1838.8119    -999.2500      40.8643       0.8906       1.0112
   1838.9642    -999.2500      38.7872       0.8816       1.0017
   1839.1167    -999.2500      39.5311       0.8751       0.9959
   1839.2690    -999.2500      40.9010       0.8691       0.9909
   1839.4215    -999.2500      40.7619       0.8623       0.9847
   1839.5739    -999.2500      40.2843       0.8553       0.9782
   1839.7263    -999.2500      41.4167       0.8471       0.9696
   1839.8787    -999.2500      42.9144       0.8385       0.9606
   1840.0311    -999.2500      43.1350       0.8272       0.9483
   1840.1835    -999.2500      43.0766       0.8152       0.9354
   1840.3358    -999.2500      43.1401       0.8040       0.9232
