#------------------------------------------------------------------------------
#
#   Created by  : [OpenWorks] Log Export Utility (LEXP)
#   Created on  : 2016-05-19 11:11:51
#   Project     : CANT971
#   User        : R5K
#   Interpreter : PEP
#
#------------------------------------------------------------------------------
~VERSION INFORMATION
VERS. 2.0 : CWLS Log ASCII Standard - version 2.0
WRAP.  NO : One line per depth step
~WELL INFORMATION
#MNEMONIC   .UNIT                                           VALUE :DESCRIPTION
#------------------------------------------------------------------------------
STRT        .M                                           763.3251 :START DEPTH
STOP        .M                                          2737.0574 :STOP DEPTH
STEP        .M                                             0.1524 :STEP
NULL        .                                           -999.2500 :NULL VALUE
COMP        .                                   PEMEX EXPL & PROD :COMPANY
WELL        .                                                207D :WELL
FLD         .                                           CANTARELL :FIELD
LOC         .                                             UNKNOWN :LOCATION
CNTY        .                                      CD. DEL CARMEN :COUNTY
STAT        .                                            CAMPECHE :STATE
CTRY        .                                              MEXICO :COUNTRY
SRVC        .                                             UNKNOWN :SERVICE COMPANY
DATE        .                                             UNKNOWN :LOG DATE
UWI         .                                          3060000699 :UNIQUE WELL ID
XCOORD      .                                       597310.700000 :SURFACE X
YCOORD      .                                      2143073.700000 :SURFACE Y
LAT         .                                           19.380597 :LATITUDE
LON         .                                          -92.073350 :LONGITUDE
ELEV        .M                                            27.7000 :SURFACE ELEV
ELEV_TYPE   .                                                  KB :ELEV TYPE
~CURVE INFORMATION
#MNEMONIC.UNIT        API CODE       : CURVE DESCRIPTION
#------------------------------------------------------------------------------
DEPTH    .M                          : Measured Depth
DT       .us/ft       UNKNOWN        : DT:Import:rC:NONE:v0 (auto-composite)
GR       .API         UNKNOWN        : GR:Import:rC:NONE:v0 (auto-composite)
ILD      .ohm.m       UNKNOWN        : ILD:Import:rC:NONE:v0 (auto-composite)
ILM      .ohm.m       UNKNOWN        : ILM:Import:rC:NONE:v0 (auto-composite)
~A     DEPTH           DT           GR          ILD          ILM
# ...
   1443.6387    -999.2500      51.3090       1.1536       1.1679
   1443.7910    -999.2500      50.9614       1.1569       1.1696
   1443.9435    -999.2500      50.1282       1.1604       1.1716
   1444.0958    -999.2500      49.6909       1.1585       1.1687
   1444.2483    -999.2500      49.3407       1.1555       1.1647
   1444.4006    -999.2500      48.8307       1.1489       1.1562
   1444.5531    -999.2500      48.2852       1.1414       1.1467
   1444.7054    -999.2500      47.6872       1.1335       1.1377
   1444.8579    -999.2500      47.0775       1.1255       1.1287
   1445.0103    -999.2500      47.7909       1.1215       1.1241
   1445.1627    -999.2500      48.8038       1.1185       1.1206
   1445.3151    -999.2500      48.1244       1.1205       1.1221
   1445.4675    -999.2500      47.0763       1.1235       1.1245
   1445.6199    -999.2500      48.3119       1.1236       1.1246
   1445.7722    -999.2500      50.0510       1.1231       1.1241
   1445.9247    -999.2500      49.7386       1.1156       1.1166
   1446.0770    -999.2500      48.9690       1.1066       1.1076
   1446.2295    -999.2500      49.7956       1.0972       1.0991
   1446.3818    -999.2500      50.9801       1.0878       1.0906
   1446.5343    -999.2500      52.1440       1.0835       1.0870
   1446.6866    -999.2500      53.3032       1.0805       1.0844
   1446.8391    -999.2500      52.0038       1.0812       1.0865
   1446.9915    -999.2500      50.1673       1.0827       1.0895
   1447.1439    -999.2500      49.3687       1.0834       1.0912
   1447.2963    -999.2500      48.7995       1.0839       1.0927
   1447.4487    -999.2500      49.0128       1.0775       1.0881
   1447.6011    -999.2500      49.4000       1.0695       1.0821
   1447.7534    -999.2500      49.2200       1.0631       1.0769
   1447.9059    -999.2500      48.9127       1.0571       1.0719
   1448.0582    -999.2500      49.4246       1.0564       1.0722
   1448.2107    -999.2500      50.1218       1.0569       1.0737
   1448.3630    -999.2500      48.8763       1.0582       1.0756
   1448.5155    -999.2500      47.2055       1.0597       1.0776
   1448.6678    -999.2500      48.6785       1.0588       1.0768
   1448.8203    -999.2500      50.8437       1.0573       1.0753
   1448.9727    -999.2500      52.3825       1.0562       1.0738
   1449.1251    -999.2500      53.7819       1.0552       1.0723
   1449.2775    -999.2500      50.4845       1.0623       1.0798
   1449.4299    -999.2500      46.1351       1.0713       1.0892
   1449.5823    -999.2500      46.1643       1.0906       1.1090
   1449.7346    -999.2500      47.1852       1.1121       1.1310
   1449.8871    -999.2500      43.7541       1.1340       1.1543
   1450.0394    -999.2500      39.3518       1.1560       1.1778
   1450.1919    -999.2500      35.7603       1.1657       1.1886
   1450.3442    -999.2500      32.3478       1.1727       1.1965
   1450.4967    -999.2500      32.0469       1.1736       1.1976
   1450.6490    -999.2500      32.4366       1.1731       1.1971
   1450.8015    -999.2500      33.6664       1.1738       1.1978
   1450.9539    -999.2500      35.0847       1.1748       1.1988
   1451.1063    -999.2500      37.8079       1.1672       1.1908
   1451.2587    -999.2500      40.8273       1.1577       1.1808
   1451.4111    -999.2500      42.3434       1.1498       1.1720
   1451.5635    -999.2500      43.5309       1.1424       1.1635
   1451.7158    -999.2500      43.1762       1.1426       1.1628
   1451.8683    -999.2500      42.4823       1.1446       1.1638
   1452.0206    -999.2500      40.1156       1.1466       1.1652
   1452.1731    -999.2500      37.3768       1.1486       1.1667
   1452.3254    -999.2500      37.5827       1.1559       1.1735
   1452.4779    -999.2500      38.4509       1.1644       1.1815
   1452.6302    -999.2500      40.3600       1.1783       1.1957
   1452.7827    -999.2500      42.5046       1.1933       1.2112
   1452.9351    -999.2500      43.3754       1.2042       1.2226
   1453.0875    -999.2500      43.9671       1.2142       1.2331
   1453.2399    -999.2500      45.2906       1.2140       1.2330
   1453.3923    -999.2500      46.7754       1.2115       1.2305
   1453.5447    -999.2500      48.0052       1.2024       1.2214
   1453.6970    -999.2500      49.1782       1.1919       1.2109
   1453.8495    -999.2500      49.4803       1.1802       1.1992
   1454.0018    -999.2500      49.5872       1.1682       1.1872
   1454.1543    -999.2500      50.3125       1.1562       1.1748
   1454.3066    -999.2500      51.1779       1.1442       1.1622
   1454.4591    -999.2500      49.8208       1.1375       1.1555
   1454.6115    -999.2500      47.9783       1.1320       1.1500
   1454.7639    -999.2500      48.9689       1.1326       1.1506
   1454.9163    -999.2500      50.5852       1.1346       1.1526
   1455.0687    -999.2500      51.7293       1.1325       1.1497
   1455.2211    -999.2500      52.7684       1.1295       1.1457
   1455.3734    -999.2500      51.6996       1.1212       1.1368
   1455.5259    -999.2500      50.1572       1.1118       1.1268
   1455.6782    -999.2500      48.5329       1.1088       1.1234
   1455.8307    -999.2500      46.8900       1.1073       1.1214
   1455.9830    -999.2500      47.5590       1.1173       1.1308
   1456.1355    -999.2500      48.7340       1.1297       1.1428
   1456.2878    -999.2500      46.8275       1.1349       1.1475
   1456.4403    -999.2500      44.2426       1.1384       1.1505
   1456.5927    -999.2500      45.2170       1.1370       1.1485
   1456.7451    -999.2500      46.9838       1.1345       1.1455
   1456.8975    -999.2500      49.2332       1.1344       1.1454
   1457.0499    -999.2500      51.5908       1.1349       1.1459
   1457.2023    -999.2500      50.6805       1.1399       1.1513
   1457.3546    -999.2500      49.0305       1.1459       1.1578
   1457.5071    -999.2500      50.6810       1.1536       1.1660
   1457.6594    -999.2500      53.0516       1.1616       1.1745
   1457.8119    -999.2500      52.8961       1.1646       1.1776
   1457.9642    -999.2500      52.1834       1.1666       1.1796
   1458.1167    -999.2500      50.5363       1.1613       1.1747
   1458.2690    -999.2500      48.6818       1.1543       1.1682
   1458.4215    -999.2500      47.3705       1.1489       1.1633
   1458.5739    -999.2500      46.1810       1.1439       1.1588
   1458.7263    -999.2500      48.2843       1.1438       1.1596
   1458.8787    -999.2500      51.1347       1.1448       1.1616
   1459.0311    -999.2500      51.3635       1.1462       1.1632
   1459.1835    -999.2500      51.0193       1.1477       1.1647
   1459.3358    -999.2500      53.5164       1.1443       1.1617
   1459.4883    -999.2500      56.6415       1.1398       1.1577
   1459.6406    -999.2500      55.7186       1.1378       1.1554
   1459.7931    -999.2500      53.8956       1.1363       1.1534
   1459.9454    -999.2500      52.4589       1.1364       1.1538
   1460.0979    -999.2500      51.1090       1.1369       1.1548
   1460.2502    -999.2500      50.1353       1.1341       1.1517
   1460.4027    -999.2500      49.2467       1.1306       1.1477
   1460.5551    -999.2500      49.7335       1.1259       1.1433
   1460.7075    -999.2500      50.5217       1.1209       1.1388
   1460.8599    -999.2500      49.5222       1.1220       1.1396
   1461.0123    -999.2500      48.1289       1.1245       1.1416
   1461.1647    -999.2500      48.6037       1.1319       1.1489
   1461.3170    -999.2500      49.4949       1.1404       1.1574
   1461.4695    -999.2500      51.0395       1.1457       1.1623
   1461.6218    -999.2500      52.7306       1.1502       1.1663
   1461.7743    -999.2500      54.2509       1.1485       1.1641
   1461.9266    -999.2500      55.7325       1.1455       1.1606
   1462.0791    -999.2500      50.7686       1.1409       1.1555
   1462.2314    -999.2500      44.3974       1.1359       1.1500
   1462.3839    -999.2500      44.9951       1.1379       1.1519
