#------------------------------------------------------------------------------
#
#   Created by  : [OpenWorks] Log Export Utility (LEXP)
#   Created on  : 2016-05-19 11:11:51
#   Project     : CANT971
#   User        : R5K
#   Interpreter : PEP
#
#------------------------------------------------------------------------------
~VERSION INFORMATION
VERS. 2.0 : CWLS Log ASCII Standard - version 2.0
WRAP.  NO : One line per depth step
~WELL INFORMATION
#MNEMONIC   .UNIT                                           VALUE :DESCRIPTION
#------------------------------------------------------------------------------
STRT        .M                                           763.3251 :START DEPTH
STOP        .M                                          2737.0574 :STOP DEPTH
STEP        .M                                             0.1524 :STEP
NULL        .                                           -999.2500 :NULL VALUE
COMP        .                                   PEMEX EXPL & PROD :COMPANY
WELL        .                                                207D :WELL
FLD         .                                           CANTARELL :FIELD
LOC         .                                             UNKNOWN :LOCATION
CNTY        .                                      CD. DEL CARMEN :COUNTY
STAT        .                                            CAMPECHE :STATE
CTRY        .                                              MEXICO :COUNTRY
SRVC        .                                             UNKNOWN :SERVICE COMPANY
DATE        .                                             UNKNOWN :LOG DATE
UWI         .                                          3060000699 :UNIQUE WELL ID
XCOORD      .                                       597310.700000 :SURFACE X
YCOORD      .                                      2143073.700000 :SURFACE Y
LAT         .                                           19.380597 :LATITUDE
LON         .                                          -92.073350 :LONGITUDE
ELEV        .M                                            27.7000 :SURFACE ELEV
ELEV_TYPE   .                                                  KB :ELEV TYPE
~CURVE INFORMATION
#MNEMONIC.UNIT        API CODE       : CURVE DESCRIPTION
#------------------------------------------------------------------------------
DEPTH    .M                          : Measured Depth
DT       .us/ft       UNKNOWN        : DT:Import:rC:NONE:v0 (auto-composite)
GR       .API         UNKNOWN        : GR:Import:rC:NONE:v0 (auto-composite)
ILD      .ohm.m       UNKNOWN        : ILD:Import:rC:NONE:v0 (auto-composite)
ILM      .ohm.m       UNKNOWN        : ILM:Import:rC:NONE:v0 (auto-composite)
~A     DEPTH           DT           GR          ILD          ILM
# ...
   2464.1091      75.6584      47.1776       1.0718       1.0733
   2464.2615      73.3430      46.6140       1.1490       1.1500
   2464.4138      73.6464      48.3447       1.2669       1.2679
   2464.5662      73.9500      50.0770       1.3850       1.3860
   2464.7188      73.5997      51.7943       1.3920       1.3935
   2464.8711      73.2490      53.5080       1.3990       1.4010
   2465.0234      74.4183      54.7038       1.4385       1.4435
   2465.1758      75.5890      55.9010       1.4780       1.4860
   2465.3284      76.8372      57.4437       1.3881       1.3966
   2465.4807      78.0870      58.9910       1.2980       1.3070
   2465.6331      78.9491      61.5630       1.2551       1.2646
   2465.7854      79.8110      64.1470       1.2120       1.2220
   2465.9380      78.0610      62.1006       1.2580       1.2695
   2466.0903      76.3110      60.0510       1.3040       1.3170
   2466.2427      75.8120      58.4723       1.2660       1.2775
   2466.3950      75.3130      56.8960       1.2280       1.2380
   2466.5474      75.7220      55.3352       1.4480       1.4570
   2466.7000      76.1310      53.7740       1.6680       1.6760
   2466.8523      75.5471      51.9333       1.4742       1.4782
   2467.0046      74.9630      50.0890       1.2800       1.2800
   2467.1570      74.8595      52.8372       1.3807       1.3797
   2467.3096      74.7560      55.6000       1.4820       1.4800
   2467.4619      76.1941      55.4113       1.5870       1.5841
   2467.6143      77.6330      55.2210       1.6930       1.6890
   2467.7666      76.7503      56.8737       1.3522       1.3482
   2467.9192      75.8670      58.5330       1.0100       1.0060
   2468.0715      77.8297      55.9961       1.1619       1.1549
   2468.2239      79.7940      53.4570       1.3140       1.3040
   2468.3762      78.1913      54.1940       1.2536       1.2456
   2468.5286      76.5870      54.9340       1.1930       1.1870
   2468.6812      77.3646      51.1550       1.2790       1.2725
   2468.8335      78.1430      47.3780       1.3650       1.3580
   2468.9858      79.5481      46.4817       1.4011       1.3946
   2469.1382      80.9550      45.5900       1.4370       1.4310
   2469.2908      80.5253      50.2693       1.5676       1.5686
   2469.4431      80.0950      54.9400       1.6980       1.7060
   2469.5955      86.3249      54.3449       1.4996       1.5081
   2469.7478      92.5540      53.7490       1.3010       1.3100
   2469.9004      93.5800      55.0284       1.1782       1.1862
   2470.0527      94.6060      56.3120       1.0550       1.0620
   2470.2051      95.1835      53.4221       1.1458       1.1553
   2470.3574      95.7610      50.5180       1.2370       1.2490
   2470.5098      96.0060      51.7079       1.3129       1.3264
   2470.6624      96.2510      52.9000       1.3890       1.4040
   2470.8147      93.1946      53.9571       1.2819       1.2934
   2470.9670      90.1370      55.0130       1.1750       1.1830
   2471.1194      89.3657      51.7638       1.1375       1.1440
   2471.2720      88.5940      48.5130       1.1000       1.1050
   2471.4243      82.9093      51.3803       1.2009       1.2064
   2471.5767      77.2210      54.2540       1.3020       1.3080
   2471.7290      77.5104      56.0435       1.2631       1.2661
   2471.8816      77.8000      57.8430       1.2240       1.2240
   2472.0339      77.8555      56.2465       1.3224       1.3189
   2472.1863      77.9110      54.6460       1.4210       1.4140
   2472.3386      76.7811      55.4424       1.5386       1.5281
   2472.4910      75.6500      56.2370       1.6560       1.6420
   2472.6436      82.7775      56.5346       1.4855       1.4715
   2472.7959      89.9130      56.8320       1.3150       1.3010
   2472.9482      90.1900      54.4749       1.3624       1.3449
   2473.1006      90.4670      52.1110       1.4100       1.3890
   2473.2532      90.2780      55.2732       1.4613       1.4393
   2473.4055      90.0890      58.4550       1.5130       1.4900
   2473.5579      90.2415      56.3426       1.4780       1.4580
   2473.7102      90.3940      54.2270       1.4430       1.4260
   2473.8628      91.5205      54.3592       1.4160       1.4005
   2474.0151      92.6470      54.4910       1.3890       1.3750
   2474.1675      93.6869      52.2942       1.3710       1.3590
   2474.3198      94.7270      50.0970       1.3530       1.3430
   2474.4722      93.2607      50.5592       1.2951       1.2871
   2474.6248      91.7940      51.0230       1.2370       1.2310
   2474.7771      83.2373      49.4242       1.2624       1.2564
   2474.9294      74.6770      47.8170       1.2880       1.2820
   2475.0818      75.8857      52.2288       1.2540       1.2485
   2475.2344      77.0950      56.6430       1.2200       1.2150
   2475.3867      80.4079      60.3242       1.2751       1.2686
   2475.5391      83.7230      63.9960       1.3300       1.3220
   2475.6914      84.5317      60.1875       1.2265       1.2210
   2475.8440      85.3410      56.3760       1.1230       1.1200
   2475.9963      83.0191      58.3620       1.0831       1.0815
   2476.1487      80.6950      60.3530       1.0430       1.0430
   2476.3010      79.4332      61.5281       1.0729       1.0724
   2476.4534      78.1700      62.7100       1.1030       1.1020
   2476.6060      76.2081      60.1890       1.2663       1.2658
   2476.7583      74.2440      57.6610       1.4300       1.4300
   2476.9106      71.3961      58.7871       1.3940       1.3945
   2477.0630      68.5490      59.9110       1.3580       1.3590
   2477.2156      72.6769      56.6702       1.4350       1.4375
   2477.3679      76.8040      53.4300       1.5120       1.5160
   2477.5203      78.7996      51.5225       1.5390       1.5425
   2477.6726      80.7950      49.6090       1.5660       1.5690
   2477.8252      80.4415      51.0508       1.5206       1.5236
   2477.9775      80.0880      52.5020       1.4750       1.4780
   2478.1299      85.9909      54.0416       1.8562       1.8632
   2478.2822      91.8950      55.5840       2.2380       2.2490
   2478.4346      90.8752      55.2766       2.1459       2.1574
   2478.5872      89.8550      54.9700       2.0540       2.0660
   2478.7395      88.6988      54.0717       2.1305       2.1485
   2478.8918      87.5420      53.1730       2.2070       2.2310
   2479.0442      88.4273      53.5493       2.1152       2.1442
   2479.1968      89.3130      53.9270       2.0230       2.0570
   2479.3491      88.5977      56.6236       1.8824       1.9164
   2479.5015      87.8820      59.3350       1.7410       1.7750
   2479.6538      88.8456      57.4068       1.7110       1.7455
   2479.8062      89.8100      55.4770       1.6810       1.7160
   2479.9587      91.3368      56.8876       1.6635       1.6990
   2480.1111      92.8650      58.2950       1.6460       1.6820
   2480.2634      92.3818      58.9182       1.6265       1.6610
   2480.4158      91.8980      59.5420       1.6070       1.6400
   2480.5684      93.5310      61.2376       1.7188       1.7568
   2480.7207      95.1660      62.9380       1.8310       1.8740
   2480.8730      96.3967      60.6612       1.5776       1.6096
   2481.0254      97.6270      58.3740       1.3230       1.3440
   2481.1780      97.9175      60.5519       1.2740       1.2930
   2481.3303      98.2080      62.7330       1.2250       1.2420
   2481.4827      96.7695      60.7018       1.3741       1.3901
   2481.6350      95.3310      58.6740       1.5230       1.5380
   2481.7874      93.8671      56.9341       1.4780       1.4870
   2481.9399      92.4030      55.1940       1.4330       1.4360
   2482.0923      92.6315      57.8260       1.4610       1.4580
   2482.2446      92.8600      60.4670       1.4890       1.4800
   2482.3970      93.0050      58.8714       1.5119       1.4969
   2482.5496      93.1500      57.2650       1.5350       1.5140
   2482.7019      94.3652      57.6776       1.5205       1.4960
   2482.8542      95.5810      58.0910       1.5060       1.4780
