#------------------------------------------------------------------------------
#
#   Created by  : [OpenWorks] Log Export Utility (LEXP)
#   Created on  : 2016-05-19 11:11:51
#   Project     : CANT971
#   User        : R5K
#   Interpreter : PEP
#
#------------------------------------------------------------------------------
~VERSION INFORMATION
VERS. 2.0 : CWLS Log ASCII Standard - version 2.0
WRAP.  NO : One line per depth step
~WELL INFORMATION
#MNEMONIC   .UNIT                                           VALUE :DESCRIPTION
#------------------------------------------------------------------------------
STRT        .M                                           763.3251 :START DEPTH
STOP        .M                                          2737.0574 :STOP DEPTH
STEP        .M                                             0.1524 :STEP
NULL        .                                           -999.2500 :NULL VALUE
COMP        .                                   PEMEX EXPL & PROD :COMPANY
WELL        .                                                207D :WELL
FLD         .                                           CANTARELL :FIELD
LOC         .                                             UNKNOWN :LOCATION
CNTY        .                                      CD. DEL CARMEN :COUNTY
STAT        .                                            CAMPECHE :STATE
CTRY        .                                              MEXICO :COUNTRY
SRVC        .                                             UNKNOWN :SERVICE COMPANY
DATE        .                                             UNKNOWN :LOG DATE
UWI         .                                          3060000699 :UNIQUE WELL ID
XCOORD      .                                       597310.700000 :SURFACE X
YCOORD      .                                      2143073.700000 :SURFACE Y
LAT         .                                           19.380597 :LATITUDE
LON         .                                          -92.073350 :LONGITUDE
ELEV        .M                                            27.7000 :SURFACE ELEV
ELEV_TYPE   .                                                  KB :ELEV TYPE
~CURVE INFORMATION
#MNEMONIC.UNIT        API CODE       : CURVE DESCRIPTION
#------------------------------------------------------------------------------
DEPTH    .M                          : Measured Depth
DT       .us/ft       UNKNOWN        : DT:Import:rC:NONE:v0 (auto-composite)
GR       .API         UNKNOWN        : GR:Import:rC:NONE:v0 (auto-composite)
ILD      .ohm.m       UNKNOWN        : ILD:Import:rC:NONE:v0 (auto-composite)
ILM      .ohm.m       UNKNOWN        : ILM:Import:rC:NONE:v0 (auto-composite)
~A     DEPTH           DT           GR          ILD          ILM
# ...
   1689.3075    -999.2500      66.9347       0.6493       0.6510
   1689.4598    -999.2500      73.0829       0.6458       0.6482
   1689.6123    -999.2500      79.1613       0.6443       0.6472
   1689.7646    -999.2500      72.4180       0.6505       0.6552
   1689.9171    -999.2500      62.8206       0.6585       0.6652
   1690.0695    -999.2500      58.0607       0.6739       0.6813
   1690.2219    -999.2500      54.3837       0.6909       0.6988
   1690.3743    -999.2500      52.1077       0.7132       0.7220
   1690.5267    -999.2500      50.1487       0.7368       0.7466
   1690.6791    -999.2500      56.7646       0.7660       0.7764
   1690.8314    -999.2500      65.2505       0.7965       0.8074
   1690.9839    -999.2500      63.5807       0.8364       0.8490
   1691.1362    -999.2500      59.6709       0.8784       0.8930
   1691.2887    -999.2500      54.6065       0.9203       0.9370
   1691.4410    -999.2500      49.2859       0.9623       0.9809
   1691.5935    -999.2500      46.8653       0.9831       1.0033
   1691.7458    -999.2500      45.0953       0.9990       1.0208
   1691.8983    -999.2500      46.9794       0.9906       1.0130
   1692.0507    -999.2500      49.6924       0.9765       0.9994
   1692.2031    -999.2500      51.6639       0.9601       0.9827
   1692.3555    -999.2500      53.4734       0.9431       0.9652
   1692.5078    -999.2500      50.7856       0.9318       0.9538
   1692.6603    -999.2500      47.1037       0.9218       0.9438
   1692.8126    -999.2500      45.4694       0.9135       0.9346
   1692.9651    -999.2500      44.2904       0.9055       0.9257
   1693.1174    -999.2500      44.9982       0.8995       0.9191
   1693.2699    -999.2500      46.1302       0.8940       0.9131
   1693.4222    -999.2500      48.6244       0.8901       0.9087
   1693.5747    -999.2500      51.4265       0.8866       0.9047
   1693.7271    -999.2500      51.5327       0.8848       0.9020
   1693.8795    -999.2500      51.0484       0.8833       0.8995
   1694.0319    -999.2500      49.9142       0.8818       0.8974
   1694.1843    -999.2500      48.6368       0.8803       0.8954
   1694.3367    -999.2500      47.5432       0.8755       0.8901
   1694.4890    -999.2500      46.4907       0.8700       0.8841
   1694.6415    -999.2500      45.9527       0.8731       0.8867
   1694.7938    -999.2500      45.5301       0.8781       0.8912
   1694.9463    -999.2500      48.3342       0.8880       0.9010
   1695.0986    -999.2500      51.8695       0.8990       0.9120
   1695.2511    -999.2500      50.1742       0.9047       0.9177
   1695.4034    -999.2500      47.3371       0.9092       0.9222
   1695.5559    -999.2500      48.5181       0.9129       0.9259
   1695.7083    -999.2500      50.5862       0.9164       0.9294
   1695.8607    -999.2500      50.0230       0.9186       0.9316
   1696.0131    -999.2500      48.8754       0.9206       0.9336
   1696.1655    -999.2500      49.3258       0.9132       0.9258
   1696.3179    -999.2500      50.1349       0.9037       0.9158
   1696.4702    -999.2500      50.4970       0.8820       0.8940
   1696.6227    -999.2500      50.7581       0.8574       0.8694
   1696.7750    -999.2500      51.7715       0.8391       0.8502
   1696.9275    -999.2500      52.9495       0.8221       0.8322
   1697.0798    -999.2500      51.5380       0.8153       0.8253
   1697.2323    -999.2500      49.5567       0.8108       0.8208
   1697.3846    -999.2500      49.6359       0.8067       0.8171
   1697.5371    -999.2500      50.1736       0.8027       0.8136
   1697.6895    -999.2500      52.4400       0.7996       0.8097
   1697.8419    -999.2500      55.0933       0.7966       0.8057
   1697.9943    -999.2500      56.4220       0.7915       0.8005
   1698.1467    -999.2500      57.4508       0.7860       0.7950
   1698.2991    -999.2500      54.8136       0.7829       0.7915
   1698.4514    -999.2500      51.3769       0.7805       0.7885
   1698.6039    -999.2500      49.0847       0.7861       0.7941
   1698.7562    -999.2500      47.0449       0.7936       0.8016
   1698.9087    -999.2500      43.7953       0.7962       0.8042
   1699.0610    -999.2500      40.2758       0.7977       0.8057
   1699.2135    -999.2500      41.4877       0.7931       0.8007
   1699.3658    -999.2500      43.7608       0.7871       0.7942
   1699.5183    -999.2500      47.3231       0.7921       0.7999
   1699.6707    -999.2500      51.1777       0.7997       0.8085
   1699.8231    -999.2500      51.1040       0.7965       0.8063
   1699.9755    -999.2500      50.1717       0.7910       0.8018
   1700.1279    -999.2500      48.6592       0.7753       0.7867
   1700.2803    -999.2500      47.0184       0.7573       0.7692
   1700.4326    -999.2500      48.0128       0.7405       0.7525
   1700.5851    -999.2500      49.5930       0.7240       0.7360
   1700.7374    -999.2500      50.9232       0.7145       0.7265
   1700.8899    -999.2500      52.1971       0.7065       0.7185
   1701.0422    -999.2500      49.4218       0.7042       0.7162
   1701.1947    -999.2500      45.7310       0.7032       0.7152
   1701.3470    -999.2500      46.2808       0.7026       0.7150
   1701.4995    -999.2500      47.7591       0.7021       0.7150
   1701.6519    -999.2500      49.3164       0.7040       0.7170
   1701.8043    -999.2500      50.8911       0.7065       0.7195
   1701.9567    -999.2500      50.2256       0.7139       0.7274
   1702.1091    -999.2500      49.0611       0.7224       0.7364
   1702.2615    -999.2500      47.4917       0.7309       0.7449
   1702.4138    -999.2500      45.8316       0.7394       0.7534
   1702.5663    -999.2500      46.5147       0.7402       0.7562
   1702.7186    -999.2500      47.7285       0.7392       0.7577
   1702.8711    -999.2500      49.5843       0.7316       0.7482
   1703.0234    -999.2500      51.5801       0.7226       0.7362
   1703.1759    -999.2500      50.4110       0.7267       0.7397
   1703.3282    -999.2500      48.5433       0.7337       0.7467
   1703.4807    -999.2500      46.2073       0.7493       0.7631
   1703.6331    -999.2500      43.7674       0.7668       0.7816
   1703.7855    -999.2500      42.5649       0.7667       0.7813
   1703.9379    -999.2500      41.6403       0.7627       0.7768
   1704.0903    -999.2500      44.6031       0.7489       0.7621
   1704.2427    -999.2500      48.4437       0.7329       0.7451
   1704.3950    -999.2500      50.1266       0.7267       0.7387
   1704.5475    -999.2500      51.3376       0.7227       0.7347
   1704.6998    -999.2500      53.0920       0.7306       0.7430
   1704.8523    -999.2500      54.9659       0.7411       0.7540
   1705.0046    -999.2500      54.2187       0.7491       0.7629
   1705.1571    -999.2500      52.8883       0.7566       0.7714
   1705.3094    -999.2500      52.0206       0.7515       0.7669
   1705.4619    -999.2500      51.2569       0.7435       0.7594
   1705.6143    -999.2500      53.0189       0.7285       0.7449
   1705.7667    -999.2500      55.3524       0.7120       0.7289
   1705.9191    -999.2500      58.5300       0.7041       0.7215
   1706.0715    -999.2500      61.8917       0.6981       0.7160
   1706.2239    -999.2500      59.4077       0.7117       0.7318
   1706.3762    -999.2500      55.6348       0.7297       0.7523
   1706.5287    -999.2500      53.8305       0.7530       0.7793
   1706.6810    -999.2500      52.4651       0.7775       0.8078
   1706.8335    -999.2500      53.3070       0.7922       0.8265
   1706.9858    -999.2500      54.6439       0.8047       0.8430
   1707.1383    -999.2500      56.2156       0.8123       0.8542
   1707.2906    -999.2500      57.8406       0.8188       0.8642
   1707.4431    -999.2500      56.3214       0.8216       0.8717
   1707.5955    -999.2500      54.1152       0.8236       0.8787
   1707.7479    -999.2500      53.1360       0.8175       0.8767
   1707.9003    -999.2500      52.4278       0.8095       0.8727
   1708.0526    -999.2500      50.9698       0.7900       0.8552
