#------------------------------------------------------------------------------
#
#   Created by  : [OpenWorks] Log Export Utility (LEXP)
#   Created on  : 2016-05-19 11:11:51
#   Project     : CANT971
#   User        : R5K
#   Interpreter : PEP
#
#------------------------------------------------------------------------------
~VERSION INFORMATION
VERS. 2.0 : CWLS Log ASCII Standard - version 2.0
WRAP.  NO : One line per depth step
~WELL INFORMATION
#MNEMONIC   .UNIT                                           VALUE :DESCRIPTION
#------------------------------------------------------------------------------
STRT        .M                                           763.3251 :START DEPTH
STOP        .M                                          2737.0574 :STOP DEPTH
STEP        .M                                             0.1524 :STEP
NULL        .                                           -999.2500 :NULL VALUE
COMP        .                                   PEMEX EXPL & PROD :COMPANY
WELL        .                                                207D :WELL
FLD         .                                           CANTARELL :FIELD
LOC         .                                             UNKNOWN :LOCATION
CNTY        .                                      CD. DEL CARMEN :COUNTY
STAT        .                                            CAMPECHE :STATE
CTRY        .                                              MEXICO :COUNTRY
SRVC        .                                             UNKNOWN :SERVICE COMPANY
DATE        .                                             UNKNOWN :LOG DATE
UWI         .                                          3060000699 :UNIQUE WELL ID
XCOORD      .                                       597310.700000 :SURFACE X
YCOORD      .                                      2143073.700000 :SURFACE Y
LAT         .                                           19.380597 :LATITUDE
LON         .                                          -92.073350 :LONGITUDE
ELEV        .M                                            27.7000 :SURFACE ELEV
ELEV_TYPE   .                                                  KB :ELEV TYPE
~CURVE INFORMATION
#MNEMONIC.UNIT        API CODE       : CURVE DESCRIPTION
#------------------------------------------------------------------------------
DEPTH    .M                          : Measured Depth
DT       .us/ft       UNKNOWN        : DT:Import:rC:NONE:v0 (auto-composite)
GR       .API         UNKNOWN        : GR:Import:rC:NONE:v0 (auto-composite)
ILD      .ohm.m       UNKNOWN        : ILD:Import:rC:NONE:v0 (auto-composite)
ILM      .ohm.m       UNKNOWN        : ILM:Import:rC:NONE:v0 (auto-composite)
~A     DEPTH           DT           GR          ILD          ILM
# ...
   1953.8739    -999.2500      43.7942       0.7870       0.7958
   1954.0262    -999.2500      43.0301       0.7921       0.8015
   1954.1787    -999.2500      42.3705       0.7971       0.8070
   1954.3311    -999.2500      41.5915       0.7935       0.8035
   1954.4835    -999.2500      40.7864       0.7880       0.7980
   1954.6359    -999.2500      41.5248       0.7776       0.7876
   1954.7883    -999.2500      42.6034       0.7661       0.7761
   1954.9407    -999.2500      41.3609       0.7615       0.7711
   1955.0930    -999.2500      39.6012       0.7585       0.7676
   1955.2455    -999.2500      38.9958       0.7613       0.7703
   1955.3978    -999.2500      38.6491       0.7653       0.7743
   1955.5503    -999.2500      39.7054       0.7648       0.7730
   1955.7026    -999.2500      41.0797       0.7633       0.7704
   1955.8551    -999.2500      41.0779       0.7589       0.7655
   1956.0074    -999.2500      40.7757       0.7539       0.7600
   1956.1599    -999.2500      40.2392       0.7591       0.7651
   1956.3123    -999.2500      39.6509       0.7666       0.7726
   1956.4647    -999.2500      40.2500       0.7852       0.7920
   1956.6171    -999.2500      41.1128       0.8062       0.8140
   1956.7695    -999.2500      41.6155       0.8149       0.8237
   1956.9219    -999.2500      42.0373       0.8209       0.8307
   1957.0742    -999.2500      41.5892       0.7995       0.8107
   1957.2267    -999.2500      40.9447       0.7719       0.7847
   1957.3790    -999.2500      40.3677       0.7518       0.7656
   1957.5315    -999.2500      39.8054       0.7333       0.7482
   1957.6838    -999.2500      39.0198       0.7210       0.7368
   1957.8363    -999.2500      38.1850       0.7100       0.7268
   1957.9886    -999.2500      39.9327       0.6990       0.7164
   1958.1411    -999.2500      42.2552       0.6880       0.7059
   1958.2935    -999.2500      41.0480       0.6791       0.6967
   1958.4459    -999.2500      39.0507       0.6706       0.6877
   1958.5983    -999.2500      40.7785       0.6649       0.6819
   1958.7507    -999.2500      43.3497       0.6599       0.6769
   1958.9031    -999.2500      41.7060       0.6676       0.6842
   1959.0554    -999.2500      39.1431       0.6781       0.6942
   1959.2079    -999.2500      39.4072       0.7013       0.7177
   1959.3602    -999.2500      40.2948       0.7273       0.7442
   1959.5127    -999.2500      39.4547       0.7529       0.7707
   1959.6650    -999.2500      38.2312       0.7783       0.7971
   1959.8175    -999.2500      38.5668       0.7956       0.8142
   1959.9698    -999.2500      39.2523       0.8111       0.8292
   1960.1223    -999.2500      38.8563       0.8193       0.8369
   1960.2747    -999.2500      38.2150       0.8258       0.8429
   1960.4271    -999.2500      37.3354       0.8352       0.8526
   1960.5795    -999.2500      36.4037       0.8452       0.8631
   1960.7319    -999.2500      39.8820       0.8544       0.8720
   1960.8843    -999.2500      44.3351       0.8634       0.8805
   1961.0366    -999.2500      42.9649       0.8703       0.8877
   1961.1891    -999.2500      40.3001       0.8768       0.8947
   1961.3414    -999.2500      39.3903       0.8825       0.9005
   1961.4939    -999.2500      38.8750       0.8880       0.9060
   1961.6462    -999.2500      38.2977       0.8849       0.9021
   1961.7987    -999.2500      37.7063       0.8799       0.8961
   1961.9510    -999.2500      40.2485       0.8683       0.8839
   1962.1035    -999.2500      43.4771       0.8553       0.8704
   1962.2559    -999.2500      40.9052       0.8452       0.8590
   1962.4083    -999.2500      37.0554       0.8357       0.8480
   1962.5607    -999.2500      38.2129       0.8307       0.8423
   1962.7130    -999.2500      40.4859       0.8267       0.8378
   1962.8655    -999.2500      41.6236       0.8240       0.8341
   1963.0178    -999.2500      42.5068       0.8215       0.8306
   1963.1703    -999.2500      41.0075       0.8190       0.8271
   1963.3226    -999.2500      38.9684       0.8164       0.8236
   1963.4751    -999.2500      37.2990       0.8148       0.8218
   1963.6274    -999.2500      35.7103       0.8133       0.8203
   1963.7799    -999.2500      37.7656       0.8056       0.8122
   1963.9323    -999.2500      40.6254       0.7966       0.8027
   1964.0847    -999.2500      40.3621       0.7811       0.7871
   1964.2371    -999.2500      39.4054       0.7641       0.7701
   1964.3895    -999.2500      36.3347       0.7447       0.7503
   1964.5419    -999.2500      32.7892       0.7247       0.7298
   1964.6942    -999.2500      32.7775       0.7181       0.7231
   1964.8467    -999.2500      33.5639       0.7146       0.7196
   1964.9990    -999.2500      35.2514       0.7304       0.7350
   1965.1515    -999.2500      37.1361       0.7504       0.7545
   1965.3038    -999.2500      38.3318       0.7659       0.7699
   1965.4563    -999.2500      39.3759       0.7804       0.7844
   1965.6086    -999.2500      40.8529       0.7944       0.7984
   1965.7611    -999.2500      42.4263       0.8084       0.8124
   1965.9135    -999.2500      43.0871       0.8237       0.8281
   1966.0659    -999.2500      43.5437       0.8391       0.8440
   1966.2183    -999.2500      42.7849       0.8514       0.8564
   1966.3707    -999.2500      41.7511       0.8629       0.8679
   1966.5231    -999.2500      43.4183       0.8675       0.8733
   1966.6754    -999.2500      45.6744       0.8705       0.8773
   1966.8279    -999.2500      42.7337       0.8579       0.8657
   1966.9802    -999.2500      38.6471       0.8419       0.8507
   1967.1327    -999.2500      38.3720       0.8267       0.8361
   1967.2850    -999.2500      38.9467       0.8117       0.8217
   1967.4375    -999.2500      39.6980       0.8033       0.8141
   1967.5898    -999.2500      40.4888       0.7963       0.8081
   1967.7423    -999.2500      41.5623       0.7934       0.8054
   1967.8947    -999.2500      42.7000       0.7914       0.8034
   1968.0471    -999.2500      45.6219       0.7906       0.8026
   1968.1995    -999.2500      48.9336       0.7901       0.8021
   1968.3519    -999.2500      47.5952       0.7949       0.8065
   1968.5043    -999.2500      45.2293       0.8009       0.8120
   1968.6566    -999.2500      43.6938       0.8118       0.8232
   1968.8091    -999.2500      42.3429       0.8238       0.8357
   1968.9614    -999.2500      41.5600       0.8411       0.8527
   1969.1139    -999.2500      40.9048       0.8596       0.8707
   1969.2662    -999.2500      41.7970       0.8843       0.8957
   1969.4187    -999.2500      43.0389       0.9103       0.9222
   1969.5710    -999.2500      42.5388       0.9306       0.9430
   1969.7235    -999.2500      41.6571       0.9496       0.9625
   1969.8759    -999.2500      39.9914       0.9559       0.9689
   1970.0283    -999.2500      38.1529       0.9594       0.9724
   1970.1807    -999.2500      38.2108       0.9498       0.9628
   1970.3331    -999.2500      38.6911       0.9373       0.9503
   1970.4855    -999.2500      40.0720       0.9260       0.9386
   1970.6378    -999.2500      41.6547       0.9150       0.9271
   1970.7903    -999.2500      42.1277       0.9020       0.9136
   1970.9426    -999.2500      42.3493       0.8884       0.8995
   1971.0951    -999.2500      40.6773       0.8725       0.8831
   1971.2474    -999.2500      38.5920       0.8560       0.8661
   1971.3999    -999.2500      36.9884       0.8464       0.8556
   1971.5522    -999.2500      35.4910       0.8385       0.8466
   1971.7047    -999.2500      34.8032       0.8403       0.8483
   1971.8571    -999.2500      34.2952       0.8443       0.8523
   1972.0095    -999.2500      35.9930       0.8479       0.8559
   1972.1619    -999.2500      38.1860       0.8514       0.8594
   1972.3143    -999.2500      37.9473       0.8455       0.8535
   1972.4667    -999.2500      37.1594       0.8374       0.8454
   1972.6190    -999.2500      37.8714       0.8262       0.8337
