#------------------------------------------------------------------------------
#
#   Created by  : [OpenWorks] Log Export Utility (LEXP)
#   Created on  : 2016-05-19 11:11:51
#   Project     : CANT971
#   User        : R5K
#   Interpreter : PEP
#
#------------------------------------------------------------------------------
~VERSION INFORMATION
VERS. 2.0 : CWLS Log ASCII Standard - version 2.0
WRAP.  NO : One line per depth step
~WELL INFORMATION
#MNEMONIC   .UNIT                                           VALUE :DESCRIPTION
#------------------------------------------------------------------------------
STRT        .M                                           763.3251 :START DEPTH
STOP        .M                                          2737.0574 :STOP DEPTH
STEP        .M                                             0.1524 :STEP
NULL        .                                           -999.2500 :NULL VALUE
COMP        .                                   PEMEX EXPL & PROD :COMPANY
WELL        .                                                207D :WELL
FLD         .                                           CANTARELL :FIELD
LOC         .                                             UNKNOWN :LOCATION
CNTY        .                                      CD. DEL CARMEN :COUNTY
STAT        .                                            CAMPECHE :STATE
CTRY        .                                              MEXICO :COUNTRY
SRVC        .                                             UNKNOWN :SERVICE COMPANY
DATE        .                                             UNKNOWN :LOG DATE
UWI         .                                          3060000699 :UNIQUE WELL ID
XCOORD      .                                       597310.700000 :SURFACE X
YCOORD      .                                      2143073.700000 :SURFACE Y
LAT         .                                           19.380597 :LATITUDE
LON         .                                          -92.073350 :LONGITUDE
ELEV        .M                                            27.7000 :SURFACE ELEV
ELEV_TYPE   .                                                  KB :ELEV TYPE
~CURVE INFORMATION
#MNEMONIC.UNIT        API CODE       : CURVE DESCRIPTION
#------------------------------------------------------------------------------
DEPTH    .M                          : Measured Depth
DT       .us/ft       UNKNOWN        : DT:Import:rC:NONE:v0 (auto-composite)
GR       .API         UNKNOWN        : GR:Import:rC:NONE:v0 (auto-composite)
ILD      .ohm.m       UNKNOWN        : ILD:Import:rC:NONE:v0 (auto-composite)
ILM      .ohm.m       UNKNOWN        : ILM:Import:rC:NONE:v0 (auto-composite)
~A     DEPTH           DT           GR          ILD          ILM
# ...
   2067.2595    -999.2500      48.8278       0.7573       0.7652
   2067.4119    -999.2500      47.5407       0.7426       0.7518
   2067.5642    -999.2500      44.8579       0.7311       0.7418
   2067.7166    -999.2500      45.3756       0.7306       0.7420
   2067.8691    -999.2500      46.6066       0.7326       0.7445
   2068.0215    -999.2500      44.3530       0.7485       0.7613
   2068.1738    -999.2500      41.3183       0.7675       0.7813
   2068.3262    -999.2500      40.4035       0.8074       0.8226
   2068.4788    -999.2500      39.9666       0.8520       0.8687
   2068.6311    -999.2500      40.4560       0.9047       0.9233
   2068.7834    -999.2500      41.1487       0.9591       0.9798
   2068.9358    -999.2500      41.5041       0.9944       1.0150
   2069.0884    -999.2500      41.7850       1.0254       1.0455
   2069.2407    -999.2500      43.4035       1.0339       1.0535
   2069.3931    -999.2500      45.3192       1.0374       1.0565
   2069.5454    -999.2500      44.7289       1.0192       1.0362
   2069.6978    -999.2500      43.5789       0.9963       1.0107
   2069.8503    -999.2500      41.7336       0.9700       0.9824
   2070.0027    -999.2500      39.7305       0.9430       0.9534
   2070.1550    -999.2500      39.2482       0.9253       0.9337
   2070.3074    -999.2500      39.1133       0.9098       0.9162
   2070.4600    -999.2500      41.1011       0.9000       0.9048
   2070.6123    -999.2500      43.5560       0.8915       0.8948
   2070.7646    -999.2500      44.6446       0.8859       0.8885
   2070.9170    -999.2500      45.4306       0.8809       0.8830
   2071.0696    -999.2500      43.5487       0.8845       0.8865
   2071.2219    -999.2500      41.0662       0.8900       0.8920
   2071.3743    -999.2500      40.1983       0.8930       0.8946
   2071.5266    -999.2500      39.6959       0.8956       0.8966
   2071.6790    -999.2500      39.7155       0.8693       0.8707
   2071.8315    -999.2500      39.8490       0.8368       0.8388
   2071.9839    -999.2500      42.5960       0.8040       0.8060
   2072.1362    -999.2500      45.9164       0.7710       0.7730
   2072.2886    -999.2500      47.4006       0.7585       0.7605
   2072.4412    -999.2500      48.4751       0.7505       0.7525
   2072.5935    -999.2500      47.8609       0.7555       0.7575
   2072.7458    -999.2500      46.8678       0.7635       0.7655
   2072.8982    -999.2500      48.1622       0.7703       0.7723
   2073.0508    -999.2500      49.9727       0.7768       0.7788
   2073.2031    -999.2500      47.8298       0.7887       0.7903
   2073.3555    -999.2500      44.8275       0.8016       0.8027
   2073.5078    -999.2500      43.5493       0.8216       0.8234
   2073.6602    -999.2500      42.6522       0.8431       0.8459
   2073.8127    -999.2500      43.5067       0.8597       0.8639
   2073.9651    -999.2500      44.7507       0.8752       0.8809
   2074.1174    -999.2500      42.6374       0.8735       0.8807
   2074.2698    -999.2500      39.7735       0.8680       0.8767
   2074.4224    -999.2500      38.4484       0.8547       0.8646
   2074.5747    -999.2500      37.4732       0.8397       0.8505
   2074.7271    -999.2500      39.5218       0.8341       0.8455
   2074.8794    -999.2500      42.2326       0.8306       0.8425
   2075.0320    -999.2500      41.0379       0.8390       0.8518
   2075.1843    -999.2500      38.9828       0.8500       0.8638
   2075.3367    -999.2500      39.3009       0.8716       0.8860
   2075.4890    -999.2500      40.1448       0.8956       0.9105
   2075.6414    -999.2500      38.7549       0.9249       0.9407
   2075.7939    -999.2500      36.8617       0.9554       0.9722
   2075.9463    -999.2500      36.3456       0.9749       0.9923
   2076.0986    -999.2500      36.1416       0.9919       1.0099
   2076.2510    -999.2500      37.3755       1.0040       1.0220
   2076.4036    -999.2500      38.9233       1.0150       1.0330
   2076.5559    -999.2500      37.6321       1.0178       1.0338
   2076.7083    -999.2500      35.7175       1.0188       1.0323
   2076.8606    -999.2500      36.3751       1.0100       1.0246
   2077.0132    -999.2500      37.6071       0.9990       1.0156
   2077.1655    -999.2500      36.7127       0.9937       1.0107
   2077.3179    -999.2500      35.3408       0.9897       1.0067
   2077.4702    -999.2500      33.8327       0.9784       0.9945
   2077.6226    -999.2500      32.2940       0.9653       0.9805
   2077.7751    -999.2500      34.2092       0.9511       0.9653
   2077.9275    -999.2500      36.8759       0.9366       0.9498
   2078.0798    -999.2500      39.4195       0.9369       0.9499
   2078.2322    -999.2500      41.9359       0.9404       0.9534
   2078.3848    -999.2500      40.8785       0.9439       0.9565
   2078.5371    -999.2500      39.0258       0.9474       0.9595
   2078.6895    -999.2500      39.6675       0.9349       0.9465
   2078.8418    -999.2500      40.8676       0.9190       0.9301
   2078.9944    -999.2500      39.3083       0.9058       0.9160
   2079.1467    -999.2500      37.1213       0.8933       0.9024
   2079.2991    -999.2500      37.7192       0.8918       0.9004
   2079.4514    -999.2500      38.9277       0.8928       0.9009
   2079.6038    -999.2500      40.3257       0.8926       0.9002
   2079.7563    -999.2500      41.7656       0.8921       0.8992
   2079.9087    -999.2500      40.5580       0.8924       0.8994
   2080.0610    -999.2500      38.7633       0.8929       0.8999
   2080.2134    -999.2500      36.4441       0.8926       0.9000
   2080.3660    -999.2500      34.0066       0.8921       0.9000
   2080.5183    -999.2500      35.6645       0.8908       0.8992
   2080.6707    -999.2500      38.2511       0.8893       0.8982
   2080.8230    -999.2500      36.9817       0.8869       0.8959
   2080.9756    -999.2500      34.8696       0.8845       0.8935
   2081.1279    -999.2500      36.3817       0.8783       0.8877
   2081.2803    -999.2500      38.6903       0.8713       0.8812
   2081.4326    -999.2500      39.2754       0.8635       0.8739
   2081.5850    -999.2500      39.4753       0.8555       0.8664
   2081.7375    -999.2500      38.3748       0.8503       0.8613
   2081.8899    -999.2500      36.9819       0.8458       0.8568
   2082.0422    -999.2500      38.5548       0.8401       0.8507
   2082.1946    -999.2500      40.7699       0.8341       0.8442
   2082.3472    -999.2500      42.3618       0.8346       0.8446
   2082.4995    -999.2500      43.8180       0.8366       0.8466
   2082.6519    -999.2500      40.5312       0.8485       0.8589
   2082.8042    -999.2500      36.1941       0.8625       0.8734
   2082.9568    -999.2500      34.7165       0.8740       0.8846
   2083.1091    -999.2500      33.8759       0.8850       0.8951
   2083.2615    -999.2500      35.5745       0.8878       0.8978
   2083.4138    -999.2500      37.8420       0.8888       0.8988
   2083.5662    -999.2500      38.7480       0.8874       0.8970
   2083.7188    -999.2500      39.3472       0.8854       0.8945
   2083.8711    -999.2500      36.2099       0.8899       0.8989
   2084.0234    -999.2500      32.2526       0.8959       0.9049
   2084.1758    -999.2500      34.1409       0.8995       0.9085
   2084.3284    -999.2500      37.3195       0.9025       0.9115
   2084.4807    -999.2500      39.1579       0.8944       0.9030
   2084.6331    -999.2500      40.6987       0.8839       0.8920
   2084.7854    -999.2500      41.7675       0.8755       0.8835
   2084.9380    -999.2500      42.7308       0.8675       0.8755
   2085.0903    -999.2500      40.8675       0.8640       0.8724
   2085.2427    -999.2500      38.3626       0.8615       0.8704
   2085.3950    -999.2500      36.0014       0.8577       0.8667
   2085.5474    -999.2500      33.6729       0.8537       0.8627
   2085.7000    -999.2500      34.6151       0.8510       0.8600
   2085.8523    -999.2500      36.2769       0.8485       0.8575
   2086.0046    -999.2500      37.9674       0.8431       0.8529
