#------------------------------------------------------------------------------
#
#   Created by  : [OpenWorks] Log Export Utility (LEXP)
#   Created on  : 2016-05-19 11:11:51
#   Project     : CANT971
#   User        : R5K
#   Interpreter : PEP
#
#------------------------------------------------------------------------------
~VERSION INFORMATION
VERS. 2.0 : CWLS Log ASCII Standard - version 2.0
WRAP.  NO : One line per depth step
~WELL INFORMATION
#MNEMONIC   .UNIT                                           VALUE :DESCRIPTION
#------------------------------------------------------------------------------
STRT        .M                                           763.3251 :START DEPTH
STOP        .M                                          2737.0574 :STOP DEPTH
STEP        .M                                             0.1524 :STEP
NULL        .                                           -999.2500 :NULL VALUE
COMP        .                                   PEMEX EXPL & PROD :COMPANY
WELL        .                                                207D :WELL
FLD         .                                           CANTARELL :FIELD
LOC         .                                             UNKNOWN :LOCATION
CNTY        .                                      CD. DEL CARMEN :COUNTY
STAT        .                                            CAMPECHE :STATE
CTRY        .                                              MEXICO :COUNTRY
SRVC        .                                             UNKNOWN :SERVICE COMPANY
DATE        .                                             UNKNOWN :LOG DATE
UWI         .                                          3060000699 :UNIQUE WELL ID
XCOORD      .                                       597310.700000 :SURFACE X
YCOORD      .                                      2143073.700000 :SURFACE Y
LAT         .                                           19.380597 :LATITUDE
LON         .                                          -92.073350 :LONGITUDE
ELEV        .M                                            27.7000 :SURFACE ELEV
ELEV_TYPE   .                                                  KB :ELEV TYPE
~CURVE INFORMATION
#MNEMONIC.UNIT        API CODE       : CURVE DESCRIPTION
#------------------------------------------------------------------------------
DEPTH    .M                          : Measured Depth
DT       .us/ft       UNKNOWN        : DT:Import:rC:NONE:v0 (auto-composite)
GR       .API         UNKNOWN        : GR:Import:rC:NONE:v0 (auto-composite)
ILD      .ohm.m       UNKNOWN        : ILD:Import:rC:NONE:v0 (auto-composite)
ILM      .ohm.m       UNKNOWN        : ILM:Import:rC:NONE:v0 (auto-composite)
~A     DEPTH           DT           GR          ILD          ILM
# ...
   2199.5427    -999.2500      46.1352       0.8259       0.8349
   2199.6951    -999.2500      47.7873       0.8169       0.8263
   2199.8474    -999.2500      50.0494       0.8119       0.8218
   2199.9998    -999.2500      48.8581       0.8139       0.8243
   2200.1523    -999.2500      46.9054       0.8174       0.8283
   2200.3047    -999.2500      47.8079       0.8233       0.8343
   2200.4570    -999.2500      49.3435       0.8298       0.8408
   2200.6094    -999.2500      46.9363       0.8334       0.8444
   2200.7620    -999.2500      43.6403       0.8364       0.8474
   2200.9143    -999.2500      42.8884       0.8395       0.8496
   2201.0667    -999.2500      42.7134       0.8425       0.8516
   2201.2190    -999.2500      43.4515       0.8520       0.8606
   2201.3716    -999.2500      44.3891       0.8630       0.8711
   2201.5239    -999.2500      45.3031       0.8761       0.8836
   2201.6763    -999.2500      46.2120       0.8895       0.8966
   2201.8286    -999.2500      45.2485       0.9014       0.9084
   2201.9810    -999.2500      43.8666       0.9129       0.9199
   2202.1335    -999.2500      42.8066       0.9256       0.9330
   2202.2859    -999.2500      41.8191       0.9386       0.9465
   2202.4382    -999.2500      43.0777       0.9451       0.9531
   2202.5906    -999.2500      44.8441       0.9501       0.9581
   2202.7432    -999.2500      43.3794       0.9469       0.9557
   2202.8955    -999.2500      41.2111       0.9419       0.9517
   2203.0479    -999.2500      41.3025       0.9336       0.9440
   2203.2002    -999.2500      41.8942       0.9246       0.9355
   2203.3528    -999.2500      40.3208       0.9091       0.9197
   2203.5051    -999.2500      38.2652       0.8921       0.9022
   2203.6575    -999.2500      40.0466       0.8747       0.8843
   2203.8098    -999.2500      42.6874       0.8572       0.8663
   2203.9622    -999.2500      43.5757       0.8511       0.8597
   2204.1147    -999.2500      44.0692       0.8476       0.8557
   2204.2671    -999.2500      43.5481       0.8589       0.8665
   2204.4194    -999.2500      42.8045       0.8734       0.8805
   2204.5718    -999.2500      41.9162       0.8879       0.8945
   2204.7244    -999.2500      40.9961       0.9024       0.9085
   2204.8767    -999.2500      41.7472       0.9087       0.9143
   2205.0291    -999.2500      42.8692       0.9132       0.9183
   2205.1814    -999.2500      43.5247       0.9116       0.9166
   2205.3340    -999.2500      44.0760       0.9086       0.9136
   2205.4863    -999.2500      43.2143       0.9137       0.9187
   2205.6387    -999.2500      42.0318       0.9207       0.9257
   2205.7910    -999.2500      40.3388       0.9285       0.9339
   2205.9434    -999.2500      38.5293       0.9366       0.9425
   2206.0959    -999.2500      37.0281       0.9290       0.9350
   2206.2483    -999.2500      35.5947       0.9180       0.9240
   2206.4006    -999.2500      37.9267       0.9082       0.9142
   2206.5530    -999.2500      41.0918       0.8987       0.9047
   2206.7056    -999.2500      40.0926       0.9056       0.9120
   2206.8579    -999.2500      38.1568       0.9161       0.9230
   2207.0103    -999.2500      39.7562       0.9254       0.9332
   2207.1626    -999.2500      42.1217       0.9344       0.9432
   2207.3152    -999.2500      40.6839       0.9307       0.9401
   2207.4675    -999.2500      38.4172       0.9242       0.9341
   2207.6199    -999.2500      38.9433       0.9148       0.9248
   2207.7722    -999.2500      40.0883       0.9048       0.9148
   2207.9246    -999.2500      38.4865       0.9014       0.9118
   2208.0771    -999.2500      36.2725       0.8994       0.9103
   2208.2295    -999.2500      37.1142       0.9047       0.9161
   2208.3818    -999.2500      38.6410       0.9117       0.9236
   2208.5342    -999.2500      37.5370       0.9249       0.9377
   2208.6868    -999.2500      35.8396       0.9394       0.9532
   2208.8391    -999.2500      36.0122       0.9563       0.9716
   2208.9915    -999.2500      36.5955       0.9738       0.9906
   2209.1438    -999.2500      37.6106       0.9864       1.0042
   2209.2964    -999.2500      38.7211       0.9979       1.0167
   2209.4487    -999.2500      38.6118       0.9951       1.0145
   2209.6011    -999.2500      38.2315       0.9891       1.0090
   2209.7534    -999.2500      37.4730       0.9860       1.0064
   2209.9058    -999.2500      36.6301       0.9835       1.0044
   2210.0583    -999.2500      38.4462       0.9867       1.0085
   2210.2107    -999.2500      40.8664       0.9912       1.0140
   2210.3630    -999.2500      40.2628       0.9916       1.0142
   2210.5154    -999.2500      38.9973       0.9911       1.0132
   2210.6680    -999.2500      37.5754       1.0025       1.0245
   2210.8203    -999.2500      36.1191       1.0165       1.0385
   2210.9727    -999.2500      33.8394       1.0366       1.0578
   2211.1250    -999.2500      31.3775       1.0581       1.0782
   2211.2776    -999.2500      33.3053       1.0848       1.1044
   2211.4299    -999.2500      36.2215       1.1128       1.1319
   2211.5823    -999.2500      36.0957       1.1356       1.1546
   2211.7346    -999.2500      35.2809       1.1571       1.1761
   2211.8870    -999.2500      37.1478       1.1799       1.1989
   2212.0396    -999.2500      39.5997       1.2029       1.2219
   2212.1919    -999.2500      39.3768       1.2283       1.2481
   2212.3442    -999.2500      38.5668       1.2543       1.2751
   2212.4966    -999.2500      35.1877       1.2619       1.2833
   2212.6492    -999.2500      31.2354       1.2654       1.2873
   2212.8015    -999.2500      31.4445       1.2493       1.2721
   2212.9539    -999.2500      32.5875       1.2288       1.2526
   2213.1062    -999.2500      32.1300       1.2225       1.2478
   2213.2588    -999.2500      31.3112       1.2195       1.2463
   2213.4111    -999.2500      31.8705       1.2104       1.2382
   2213.5635    -999.2500      32.7295       1.1999       1.2287
   2213.7158    -999.2500      33.5051       1.1726       1.2016
   2213.8682    -999.2500      34.2622       1.1416       1.1706
   2214.0208    -999.2500      34.9152       1.1119       1.1397
   2214.1731    -999.2500      35.5449       1.0824       1.1087
   2214.3254    -999.2500      36.8027       1.0737       1.1001
   2214.4778    -999.2500      38.2009       1.0697       1.0966
   2214.6304    -999.2500      34.3873       1.0947       1.1226
   2214.7827    -999.2500      29.3884       1.1263       1.1551
   2214.9351    -999.2500      28.7991       1.1509       1.1811
   2215.0874    -999.2500      29.1759       1.1738       1.2056
   2215.2400    -999.2500      29.9685       1.1813       1.2133
   2215.3923    -999.2500      30.8526       1.1853       1.2173
   2215.5447    -999.2500      31.4299       1.1917       1.2233
   2215.6970    -999.2500      31.9393       1.1987       1.2298
   2215.8494    -999.2500      31.6924       1.2155       1.2469
   2216.0020    -999.2500      31.2751       1.2345       1.2664
   2216.1543    -999.2500      31.9162       1.2511       1.2831
   2216.3066    -999.2500      32.7971       1.2671       1.2991
   2216.4590    -999.2500      33.3993       1.2741       1.3061
   2216.6116    -999.2500      33.9405       1.2791       1.3111
   2216.7639    -999.2500      33.0299       1.2669       1.2973
   2216.9163    -999.2500      31.8005       1.2509       1.2793
   2217.0686    -999.2500      32.5704       1.2394       1.2662
   2217.2212    -999.2500      33.7869       1.2289       1.2542
   2217.3735    -999.2500      34.1830       1.2429       1.2683
   2217.5259    -999.2500      34.3949       1.2624       1.2883
   2217.6782    -999.2500      33.2852       1.2909       1.3186
   2217.8306    -999.2500      31.8768       1.3215       1.3512
   2217.9832    -999.2500      34.1870       1.3225       1.3607
   2218.1355    -999.2500      37.3067       1.3170       1.3652
   2218.2878    -999.2500      37.2275       1.2755       1.3177
