#------------------------------------------------------------------------------
#
#   Created by  : [OpenWorks] Log Export Utility (LEXP)
#   Created on  : 2016-05-19 11:11:51
#   Project     : CANT971
#   User        : R5K
#   Interpreter : PEP
#
#------------------------------------------------------------------------------
~VERSION INFORMATION
VERS. 2.0 : CWLS Log ASCII Standard - version 2.0
WRAP.  NO : One line per depth step
~WELL INFORMATION
#MNEMONIC   .UNIT                                           VALUE :DESCRIPTION
#------------------------------------------------------------------------------
STRT        .M                                           763.3251 :START DEPTH
STOP        .M                                          2737.0574 :STOP DEPTH
STEP        .M                                             0.1524 :STEP
NULL        .                                           -999.2500 :NULL VALUE
COMP        .                                   PEMEX EXPL & PROD :COMPANY
WELL        .                                                207D :WELL
FLD         .                                           CANTARELL :FIELD
LOC         .                                             UNKNOWN :LOCATION
CNTY        .                                      CD. DEL CARMEN :COUNTY
STAT        .                                            CAMPECHE :STATE
CTRY        .                                              MEXICO :COUNTRY
SRVC        .                                             UNKNOWN :SERVICE COMPANY
DATE        .                                             UNKNOWN :LOG DATE
UWI         .                                          3060000699 :UNIQUE WELL ID
XCOORD      .                                       597310.700000 :SURFACE X
YCOORD      .                                      2143073.700000 :SURFACE Y
LAT         .                                           19.380597 :LATITUDE
LON         .                                          -92.073350 :LONGITUDE
ELEV        .M                                            27.7000 :SURFACE ELEV
ELEV_TYPE   .                                                  KB :ELEV TYPE
~CURVE INFORMATION
#MNEMONIC.UNIT        API CODE       : CURVE DESCRIPTION
#------------------------------------------------------------------------------
DEPTH    .M                          : Measured Depth
DT       .us/ft       UNKNOWN        : DT:Import:rC:NONE:v0 (auto-composite)
GR       .API         UNKNOWN        : GR:Import:rC:NONE:v0 (auto-composite)
ILD      .ohm.m       UNKNOWN        : ILD:Import:rC:NONE:v0 (auto-composite)
ILM      .ohm.m       UNKNOWN        : ILM:Import:rC:NONE:v0 (auto-composite)
~A     DEPTH           DT           GR          ILD          ILM
# ...
    801.1203    -999.2500      24.8911    -999.2500    -999.2500
    801.2726    -999.2500      24.6590    -999.2500    -999.2500
    801.4250    -999.2500      25.0368    -999.2500    -999.2500
    801.5775    -999.2500      25.2758    -999.2500    -999.2500
    801.7299    -999.2500      25.4836    -999.2500    -999.2500
    801.8823    -999.2500      25.8989    -999.2500    -999.2500
    802.0347    -999.2500      26.3611    -999.2500    -999.2500
    802.1871    -999.2500      28.6270    -999.2500    -999.2500
    802.3395    -999.2500      31.2873    -999.2500    -999.2500
    802.4919    -999.2500      33.8973    -999.2500    -999.2500
    802.6443    -999.2500      36.4962    -999.2500    -999.2500
    802.7967    -999.2500      37.7874    -999.2500    -999.2500
    802.9491    -999.2500      38.7877    -999.2500    -999.2500
    803.1015    -999.2500      37.6115    -999.2500    -999.2500
    803.2538    -999.2500      35.9470    -999.2500    -999.2500
    803.4062    -999.2500      35.3183    -999.2500    -999.2500
    803.5587    -999.2500      34.9237    -999.2500    -999.2500
    803.7111    -999.2500      35.2840    -999.2500    -999.2500
    803.8635    -999.2500      35.8092    -999.2500    -999.2500
    804.0159    -999.2500      36.6926    -999.2500    -999.2500
    804.1683    -999.2500      37.6550    -999.2500    -999.2500
    804.3207    -999.2500      38.0769    -999.2500    -999.2500
    804.4731    -999.2500      38.3787    -999.2500    -999.2500
    804.6255    -999.2500      38.1328       0.9417       0.9311
    804.7779    -999.2500      37.7641       1.0492       1.0475
    804.9303    -999.2500      38.0818       1.0853       1.0882
    805.0827    -999.2500      38.5552       1.1054       1.1118
    805.2350    -999.2500      38.0978       1.1049       1.1189
    805.3875    -999.2500      37.4372       1.0999       1.1224
    805.5399    -999.2500      37.9310       1.1076       1.1357
    805.6923    -999.2500      38.6790       1.1181       1.1512
    805.8447    -999.2500      37.4223       1.1180       1.1528
    805.9971    -999.2500      35.7202       1.1155       1.1513
    806.1495    -999.2500      36.0780       1.1109       1.1469
    806.3019    -999.2500      36.8985       1.1059       1.1419
    806.4543    -999.2500      37.9747       1.1066       1.1426
    806.6067    -999.2500      39.1088       1.1086       1.1446
    806.7591    -999.2500      38.1002       1.1172       1.1532
    806.9115    -999.2500      36.6239       1.1272       1.1632
    807.0638    -999.2500      37.3345       1.1360       1.1724
    807.2162    -999.2500      38.5277       1.1445       1.1814
    807.3687    -999.2500      39.3625       1.1480       1.1855
    807.5211    -999.2500      40.1176       1.1505       1.1885
    807.6735    -999.2500      40.6722       1.1539       1.1914
    807.8259    -999.2500      41.1819       1.1574       1.1944
    807.9783    -999.2500      40.8223       1.1605       1.1979
    808.1307    -999.2500      40.2659       1.1635       1.2014
    808.2831    -999.2500      39.4653       1.1722       1.2106
    808.4355    -999.2500      38.6113       1.1822       1.2211
    808.5879    -999.2500      37.2141       1.1975       1.2377
    808.7403    -999.2500      35.6971       1.2140       1.2557
    808.8927    -999.2500      37.3711       1.2256       1.2684
    809.0450    -999.2500      39.7551       1.2361       1.2799
    809.1974    -999.2500      40.7862       1.2425       1.2873
    809.3499    -999.2500      41.5137       1.2480       1.2938
    809.5023    -999.2500      39.1491       1.2543       1.3011
    809.6547    -999.2500      36.0847       1.2608       1.3087
    809.8071    -999.2500      36.5339       1.2682       1.3166
    809.9595    -999.2500      37.7511       1.2756       1.3246
    810.1119    -999.2500      38.4987       1.2852       1.3350
    810.2643    -999.2500      39.1428       1.2952       1.3460
    810.4167    -999.2500      40.0919       1.3076       1.3594
    810.5691    -999.2500      41.1087       1.3206       1.3734
    810.7215    -999.2500      39.9812       1.3271       1.3805
    810.8739    -999.2500      38.3727       1.3321       1.3860
    811.0262    -999.2500      39.3753       1.3305       1.3837
    811.1786    -999.2500      40.9684       1.3275       1.3797
    811.3311    -999.2500      40.6975       1.3213       1.3724
    811.4835    -999.2500      40.0194       1.3143       1.3644
    811.6359    -999.2500      38.3476       1.3101       1.3597
    811.7883    -999.2500      36.4568       1.3066       1.3557
    811.9407    -999.2500      37.4470       1.3064       1.3546
    812.0931    -999.2500      39.0775       1.3069       1.3541
    812.2455    -999.2500      39.9898       1.3066       1.3532
    812.3979    -999.2500      40.7412       1.3061       1.3522
    812.5503    -999.2500      40.0282       1.3089       1.3553
    812.7027    -999.2500      38.9833       1.3124       1.3593
    812.8551    -999.2500      39.2951       1.3265       1.3739
    813.0074    -999.2500      39.9032       1.3430       1.3909
    813.1599    -999.2500      38.5198       1.3657       1.4157
    813.3123    -999.2500      36.6979       1.3896       1.4422
    813.4647    -999.2500      36.5327       1.4001       1.4539
    813.6171    -999.2500      36.7366       1.4076       1.4624
    813.7695    -999.2500      36.2631       1.3715       1.4240
    813.9219    -999.2500      35.6375       1.3255       1.3750
    814.0743    -999.2500      37.6485       1.2581       1.3031
    814.2267    -999.2500      40.2568       1.1860       1.2259
    814.3791    -999.2500      41.4101       1.1377       1.1751
    814.5315    -999.2500      42.2450       1.0948       1.1301
    814.6839    -999.2500      42.5655       1.0800       1.1146
    814.8363    -999.2500      42.7723       1.0715       1.1056
    814.9886    -999.2500      41.8761       1.0753       1.1097
    815.1411    -999.2500      40.7343       1.0818       1.1167
    815.2935    -999.2500      40.1561       1.0842       1.1200
    815.4459    -999.2500      39.7044       1.0857       1.1225
    815.5983    -999.2500      41.4878       1.0758       1.1120
    815.7507    -999.2500      43.7772       1.0632       1.0984
    815.9031    -999.2500      44.6780       1.0528       1.0874
    816.0555    -999.2500      45.2751       1.0428       1.0769
    816.2079    -999.2500      44.9847       1.0357       1.0701
    816.3603    -999.2500      44.4985       1.0292       1.0641
    816.5127    -999.2500      43.9080       1.0219       1.0573
    816.6651    -999.2500      43.2944       1.0144       1.0503
    816.8174    -999.2500      42.6763       1.0093       1.0457
    816.9698    -999.2500      42.0572       1.0048       1.0417
    817.1223    -999.2500      41.6344       1.0048       1.0422
    817.2747    -999.2500      41.2559       1.0058       1.0437
    817.4271    -999.2500      41.3393       1.0105       1.0497
    817.5795    -999.2500      41.5237       1.0160       1.0567
    817.7319    -999.2500      42.5638       1.0248       1.0666
    817.8843    -999.2500      43.7925       1.0343       1.0771
    818.0367    -999.2500      44.4849       1.0511       1.0958
    818.1891    -999.2500      45.0580       1.0696       1.1162
    818.3415    -999.2500      43.5818       1.1012       1.1514
    818.4939    -999.2500      41.6460       1.1356       1.1899
    818.6463    -999.2500      40.9235       1.1894       1.2497
    818.7986    -999.2500      40.4753       1.2476       1.3144
    818.9510    -999.2500      39.5490       1.3064       1.3805
    819.1035    -999.2500      38.5181       1.3654       1.4470
    819.2559    -999.2500      38.8995       1.3838       1.4680
    819.4083    -999.2500      39.5921       1.3933       1.4790
    819.5607    -999.2500      39.5112       1.3492       1.4303
    819.7131    -999.2500      39.2584       1.2933       1.3684
    819.8655    -999.2500      38.6547       1.2597       1.3313
