#------------------------------------------------------------------------------
#
#   Created by  : [OpenWorks] Log Export Utility (LEXP)
#   Created on  : 2016-05-18 16:32:12
#   Project     : CANT971
#   User        : R5K
#   Interpreter : PEP
#
#------------------------------------------------------------------------------
~VERSION INFORMATION
VERS. 2.0 : CWLS Log ASCII Standard - version 2.0
WRAP.  NO : One line per depth step
~WELL INFORMATION
#MNEMONIC   .UNIT                                           VALUE :DESCRIPTION
#------------------------------------------------------------------------------
STRT        .M                                          1316.2775 :START DEPTH
STOP        .M                                          3511.7520 :STOP DEPTH
STEP        .M                                             0.1524 :STEP
NULL        .                                           -999.2500 :NULL VALUE
COMP        .                                   PEMEX EXPL & PROD :COMPANY
WELL        .                                                2084 :WELL
FLD         .                                           CANTARELL :FIELD
LOC         .                                             UNKNOWN :LOCATION
CNTY        .                                      CD. DEL CARMEN :COUNTY
STAT        .                                            CAMPECHE :STATE
CTRY        .                                              MEXICO :COUNTRY
SRVC        .                                             UNKNOWN :SERVICE COMPANY
DATE        .                                             UNKNOWN :LOG DATE
UWI         .                                          3060000674 :UNIQUE WELL ID
XCOORD      .                                       600034.090000 :SURFACE X
YCOORD      .                                      2139445.530000 :SURFACE Y
LAT         .                                           19.347677 :LATITUDE
LON         .                                          -92.047610 :LONGITUDE
ELEV        .M                                            27.4000 :SURFACE ELEV
ELEV_TYPE   .                                                  KB :ELEV TYPE
~CURVE INFORMATION
#MNEMONIC.UNIT        API CODE       : CURVE DESCRIPTION
#------------------------------------------------------------------------------
DEPTH    .M                          : Measured Depth
CALI     .inches      UNKNOWN        : CALI:PETROWORKS:rC:NONE:v1 
CGR      .UNKNOWN     UNKNOWN        : CGR:UNKNOWN:rC:NONE:v0 (auto-composite)
DRHO     .UNKNOWN     UNKNOWN        : DRHO:PETROWORKS:rC:NONE:v1 
DT       .us/ft       UNKNOWN        : DT:DT:rC:NONE:v0 (auto-composite)
GR       .API         UNKNOWN        : GR:PETROWORKS:rC:NONE:v2 
ILD      .UNKNOWN     UNKNOWN        : ILD:UNKNOWN:rC:NONE:v0 (auto-composite)
ILM      .UNKNOWN     UNKNOWN        : ILM:UNKNOWN:rC:NONE:v0 (auto-composite)
LLD      .ohm.m       UNKNOWN        : LLD:PETROWORKS:rC:NONE:v1 
LLS      .UNKNOWN     UNKNOWN        : LLS:PETROWORKS:rC:NONE:v1 
MSFL     .UNKNOWN     UNKNOWN        : MSFL:PETROWORKS:rC:NONE:v1 
NPHI     .v/v_decimal UNKNOWN        : NPHI:PETROWORKS:rC:NONE:v2 
PEF      .b/elec      UNKNOWN        : PEF:PETROWORKS:rC:NONE:v1 
POTA     .wtpercent   UNKNOWN        : POTA:UNKNOWN:rC:NONE:v0 (auto-composite)
RHOB     .g/cm3       UNKNOWN        : RHOB:PETROWORKS:rC:NONE:v1 
SP       .mV          UNKNOWN        : SP:PETROWORKS:rC:NONE:v1 
THOR     .UNKNOWN     UNKNOWN        : THOR:UNKNOWN:rC:NONE:v0 (auto-composite)
URAN     .UNKNOWN     UNKNOWN        : URAN:UNKNOWN:rC:NONE:v0 (auto-composite)
~A     DEPTH         CALI          CGR         DRHO           DT           GR          ILD          ILM          LLD          LLS         MSFL         NPHI          PEF         POTA         RHOB           SP         THOR         URAN
# ...
   3391.2034       9.1579      22.9810       0.0892      56.8000      29.3671    -999.2500    -999.2500      26.0731      41.5205      35.1322       0.0167       4.8790       0.0077       2.6889     -14.1515       3.3290       0.9950
   3391.3560       9.0501      22.9805       0.0915      56.8000      24.8529    -999.2500    -999.2500      21.1044      34.3080      50.5704       0.0155       4.8787       0.0077       2.6929     -11.1185       3.3290       0.9950
   3391.5083       8.9966      22.9800       0.0924      56.8000      22.8312    -999.2500    -999.2500      19.0912      30.5972      75.8000       0.0139       4.8641       0.0077       2.6940      -8.0350       3.3290       0.9950
   3391.6606       8.9842      22.9795       0.0907      56.8000      27.5632    -999.2500    -999.2500      22.6151      35.7227      73.4202       0.0141       4.8240       0.0077       2.7007      -4.7007       3.3285       0.9950
   3391.8130       8.9554      22.9790       0.0874      56.8000      34.3477    -999.2500    -999.2500      26.9588      42.3968      75.5856       0.0142       4.7940       0.0077       2.7106      -1.8084       3.3280       0.9950
   3391.9656       8.9217      22.9780       0.0798      56.8000      38.9176    -999.2500    -999.2500      29.2131      46.4906      90.7876       0.0137       4.7965       0.0077       2.7139       1.3597       3.3280       0.9950
   3392.1179       8.8662      22.9770       0.0729      56.8000      39.4606    -999.2500    -999.2500      29.2300      46.1243     119.6740       0.0128       4.8140       0.0077       2.7093       2.0331       3.3280       0.9950
   3392.2703       8.8878      22.9760       0.0677      56.8000      39.2160    -999.2500    -999.2500      29.9468      47.4260     108.1051       0.0128       4.8077       0.0077       2.7033       1.7496       3.3280       0.9945
   3392.4226       8.9151      22.9750       0.0654      56.8000      40.7338    -999.2500    -999.2500      38.4912      60.5093      76.8940       0.0143       4.7537       0.0077       2.6995       0.2616       3.3280       0.9940
   3392.5750       8.8981      22.9740       0.0645      56.8000      41.1406    -999.2500    -999.2500      46.4567      73.0006      65.2752       0.0167       4.6706       0.0077       2.6961      -1.4570       3.3280       0.9940
   3392.7275       8.9095      22.9730       0.0624      56.8000      41.6020    -999.2500    -999.2500      40.2317      64.5754      53.1724       0.0203       4.5762       0.0077       2.6883      -2.5992       3.3280       0.9940
   3392.8799       8.8662      22.9715       0.0625      56.8000      40.7193    -999.2500    -999.2500      33.6966      54.7721      42.3008       0.0249       4.5055       0.0077       2.6809      -3.1604       3.3280       0.9940
   3393.0322       8.8396      22.9700       0.0632      56.8000      39.1609    -999.2500    -999.2500      26.6068      43.4282      30.0321       0.0305       4.4836       0.0077       2.6734      -4.2043       3.3280       0.9940
   3393.1846       8.8446      22.9680       0.0633      56.8000      36.4023    -999.2500    -999.2500      20.0085      33.2611      25.7125       0.0347       4.5143       0.0077       2.6654      -5.6392       3.3280       0.9935
   3393.3372       8.8515      22.9660       0.0605      56.8000      33.6401    -999.2500    -999.2500      15.8807      26.5920      24.9310       0.0360       4.5737       0.0077       2.6542      -6.3068       3.3280       0.9930
   3393.4895       8.8790      22.9635       0.0563      56.8000      31.3913    -999.2500    -999.2500      14.2592      24.1120      28.6323       0.0346       4.6231       0.0077       2.6468      -6.4125       3.3280       0.9925
   3393.6418       8.8592      22.9610       0.0528      56.8000      29.9137    -999.2500    -999.2500      15.0348      25.5528      33.8449       0.0305       4.6213       0.0077       2.6460      -7.5310       3.3280       0.9920
   3393.7942       8.8218      22.9585       0.0508      56.8000      29.0174    -999.2500    -999.2500      17.6140      30.1823      34.6764       0.0278       4.5272       0.0077       2.6510     -10.2731       3.3280       0.9915
   3393.9468       8.7732      22.9560       0.0475      56.8000      30.0070    -999.2500    -999.2500      19.6544      33.5960      36.2119       0.0250       4.3725       0.0077       2.6522     -12.0429       3.3280       0.9910
   3394.0991       8.7584      22.9525       0.0375      56.8000      30.1197    -999.2500    -999.2500      20.0752      34.6735      42.0049       0.0224       4.2456       0.0077       2.6395     -10.5917       3.3275       0.9905
   3394.2515       8.7925      22.9490       0.0312      56.8000      30.6362    -999.2500    -999.2500      27.0996      33.1189      61.3893       0.0204       4.2893       0.0077       2.6306      -8.5831       3.3270       0.9900
   3394.4038       8.8417      22.9445       0.0293      56.8000      30.3244    -999.2500    -999.2500      32.7966      36.3568      52.1839       0.0195       4.4392       0.0077       2.6299      -6.9435       3.3270       0.9895
   3394.5562       8.8483      22.9400       0.0363      56.8000      31.3745    -999.2500    -999.2500      35.0023      38.6511      47.3346       0.0197       4.5661       0.0077       2.6468      -7.9942       3.3270       0.9890
   3394.7087       8.8077      22.9346       0.0364      56.8000      32.7761    -999.2500    -999.2500      37.6056      41.1831      47.6323       0.0196       4.5685       0.0077       2.6584      -9.1585       3.3265       0.9880
   3394.8611       8.7485      22.9290       0.0279      56.8000      34.8694    -999.2500    -999.2500      38.7320      45.6904      51.8018       0.0197       4.5179       0.0077       2.6572     -11.8750       3.3260       0.9870
   3395.0134       8.7175      22.9221       0.0171      56.8000      37.0861    -999.2500    -999.2500      33.0549      50.0091      40.6379       0.0218       4.5271       0.0077       2.6471     -16.8813       3.3260       0.9860
   3395.1658       8.7301      22.9150       0.0126      56.8000      37.9625    -999.2500    -999.2500      24.9226      40.8677      33.4787       0.0256       4.6122       0.0077       2.6390     -18.8962       3.3260       0.9850
   3395.3184       8.7745      22.7902       0.0168      56.8000      36.1545    -999.2500    -999.2500      19.3675      31.9455      34.7165       0.0295       4.7370       0.0077       2.6416     -19.5583       3.3092       0.9771
   3395.4707       8.8556      22.6630       0.0248      56.8000      34.5908    -999.2500    -999.2500      18.2838      30.3616      36.9205       0.0327       4.8331       0.0076       2.6469     -14.8941       3.2920       0.9690
   3395.6230       8.7832      22.5689       0.0314      56.8000      34.6257    -999.2500    -999.2500      20.1865      33.4258      30.8993       0.0353       4.8666       0.0076       2.6467      -9.7200       3.2801       0.9626
   3395.7754       8.7180      22.4730       0.0361      56.8000      36.6154    -999.2500    -999.2500      20.6493      33.9277      28.0503       0.0372       4.8514       0.0075       2.6418      -9.0837       3.2680       0.9560
   3395.9280       8.7114      22.4591       0.0380      56.8000      36.8115    -999.2500    -999.2500      20.0481      33.7142      43.0368       0.0367       4.8346       0.0075       2.6331      -7.5689       3.2675       0.9540
   3396.0803       8.6985      22.4450       0.0384      56.8000      35.6634    -999.2500    -999.2500      24.1060      40.6059      66.6908       0.0364       4.8478       0.0075       2.6277      -3.1210       3.2670       0.9520
   3396.2327       8.7087      22.4272       0.0365      56.8000      33.3935    -999.2500    -999.2500      31.5245      52.3264      74.6340       0.0349       4.8706       0.0075       2.6216      -2.0819       3.2660       0.9490
   3396.3850       8.7126      22.4090       0.0348      56.8000      33.8544    -999.2500    -999.2500      38.4179      63.8542      68.7949       0.0378       4.8777       0.0075       2.6196      -3.3826       3.2650       0.9460
