#------------------------------------------------------------------------------
#
#   Created by  : [OpenWorks] Log Export Utility (LEXP)
#   Created on  : 2016-05-18 16:32:12
#   Project     : CANT971
#   User        : R5K
#   Interpreter : PEP
#
#------------------------------------------------------------------------------
~VERSION INFORMATION
VERS. 2.0 : CWLS Log ASCII Standard - version 2.0
WRAP.  NO : One line per depth step
~WELL INFORMATION
#MNEMONIC   .UNIT                                           VALUE :DESCRIPTION
#------------------------------------------------------------------------------
STRT        .M                                          1316.2775 :START DEPTH
STOP        .M                                          3511.7520 :STOP DEPTH
STEP        .M                                             0.1524 :STEP
NULL        .                                           -999.2500 :NULL VALUE
COMP        .                                   PEMEX EXPL & PROD :COMPANY
WELL        .                                                2084 :WELL
FLD         .                                           CANTARELL :FIELD
LOC         .                                             UNKNOWN :LOCATION
CNTY        .                                      CD. DEL CARMEN :COUNTY
STAT        .                                            CAMPECHE :STATE
CTRY        .                                              MEXICO :COUNTRY
SRVC        .                                             UNKNOWN :SERVICE COMPANY
DATE        .                                             UNKNOWN :LOG DATE
UWI         .                                          3060000674 :UNIQUE WELL ID
XCOORD      .                                       600034.090000 :SURFACE X
YCOORD      .                                      2139445.530000 :SURFACE Y
LAT         .                                           19.347677 :LATITUDE
LON         .                                          -92.047610 :LONGITUDE
ELEV        .M                                            27.4000 :SURFACE ELEV
ELEV_TYPE   .                                                  KB :ELEV TYPE
~CURVE INFORMATION
#MNEMONIC.UNIT        API CODE       : CURVE DESCRIPTION
#------------------------------------------------------------------------------
DEPTH    .M                          : Measured Depth
CALI     .inches      UNKNOWN        : CALI:PETROWORKS:rC:NONE:v1 
CGR      .UNKNOWN     UNKNOWN        : CGR:UNKNOWN:rC:NONE:v0 (auto-composite)
DRHO     .UNKNOWN     UNKNOWN        : DRHO:PETROWORKS:rC:NONE:v1 
DT       .us/ft       UNKNOWN        : DT:DT:rC:NONE:v0 (auto-composite)
GR       .API         UNKNOWN        : GR:PETROWORKS:rC:NONE:v2 
ILD      .UNKNOWN     UNKNOWN        : ILD:UNKNOWN:rC:NONE:v0 (auto-composite)
ILM      .UNKNOWN     UNKNOWN        : ILM:UNKNOWN:rC:NONE:v0 (auto-composite)
LLD      .ohm.m       UNKNOWN        : LLD:PETROWORKS:rC:NONE:v1 
LLS      .UNKNOWN     UNKNOWN        : LLS:PETROWORKS:rC:NONE:v1 
MSFL     .UNKNOWN     UNKNOWN        : MSFL:PETROWORKS:rC:NONE:v1 
NPHI     .v/v_decimal UNKNOWN        : NPHI:PETROWORKS:rC:NONE:v2 
PEF      .b/elec      UNKNOWN        : PEF:PETROWORKS:rC:NONE:v1 
POTA     .wtpercent   UNKNOWN        : POTA:UNKNOWN:rC:NONE:v0 (auto-composite)
RHOB     .g/cm3       UNKNOWN        : RHOB:PETROWORKS:rC:NONE:v1 
SP       .mV          UNKNOWN        : SP:PETROWORKS:rC:NONE:v1 
THOR     .UNKNOWN     UNKNOWN        : THOR:UNKNOWN:rC:NONE:v0 (auto-composite)
URAN     .UNKNOWN     UNKNOWN        : URAN:UNKNOWN:rC:NONE:v0 (auto-composite)
~A     DEPTH         CALI          CGR         DRHO           DT           GR          ILD          ILM          LLD          LLS         MSFL         NPHI          PEF         POTA         RHOB           SP         THOR         URAN
# ...
   3428.5415       6.9921    -999.2500       0.2247    -999.2500      65.6306    -999.2500    -999.2500      28.9701      47.4408       0.6649       0.2208       3.3980    -999.2500       2.3175     -41.0390    -999.2500    -999.2500
   3428.6938       7.5112    -999.2500       0.1901    -999.2500      67.1934    -999.2500    -999.2500       8.8421      15.3504       0.4398       0.2948       3.2938    -999.2500       2.2363     -33.4189    -999.2500    -999.2500
   3428.8462       8.2816    -999.2500       0.1582    -999.2500      69.4694    -999.2500    -999.2500       4.0716       7.6125       0.5628       0.2534       3.3852    -999.2500       2.2959     -25.6124    -999.2500    -999.2500
   3428.9988      10.0730    -999.2500       0.1511    -999.2500      68.8225    -999.2500    -999.2500       4.3287       8.6630       0.9812       0.1301       3.5713    -999.2500       2.4812     -15.1093    -999.2500    -999.2500
   3429.1511       7.6009    -999.2500       0.1310    -999.2500      63.4134    -999.2500    -999.2500      11.7766      23.1115       6.8894       0.0552       3.7686    -999.2500       2.6260      -7.6641    -999.2500    -999.2500
   3429.3035       6.7708    -999.2500       0.1100    -999.2500      57.3549    -999.2500    -999.2500      40.9913      74.4285      20.3897       0.0261       3.9975    -999.2500       2.6904      -6.3601    -999.2500    -999.2500
   3429.4558       6.8372    -999.2500       0.0956    -999.2500      52.8740    -999.2500    -999.2500      32.3894      74.6820      14.3521       0.0278       4.2153    -999.2500       2.6916      -8.6480    -999.2500    -999.2500
   3429.6082       7.0591    -999.2500       0.0938    -999.2500      54.3768    -999.2500    -999.2500      22.1137      40.6601       8.5069       0.0425       4.3333    -999.2500       2.6875     -10.2542    -999.2500    -999.2500
   3429.7607       6.9090    -999.2500       0.0889    -999.2500      58.4783    -999.2500    -999.2500      14.0779      22.7071       9.1345       0.0551       4.3419    -999.2500       2.6843     -11.2826    -999.2500    -999.2500
   3429.9131       6.8231    -999.2500       0.0833    -999.2500      60.2284    -999.2500    -999.2500      14.8925      20.9760      13.0002       0.0552       4.2855    -999.2500       2.6890      -8.2222    -999.2500    -999.2500
   3430.0654       6.8477    -999.2500       0.0828    -999.2500      58.0809    -999.2500    -999.2500      33.1418      39.4330      30.5446       0.0411       4.1785    -999.2500       2.6960      -3.4157    -999.2500    -999.2500
   3430.2178       6.8524    -999.2500       0.0890    -999.2500      54.8602    -999.2500    -999.2500      75.4200      89.4042      43.3545       0.0277       3.9810    -999.2500       2.6931      -6.5424    -999.2500    -999.2500
   3430.3704       6.8746    -999.2500       0.0967    -999.2500      55.9371    -999.2500    -999.2500      76.3083      96.6278      32.8667       0.0234       3.7000    -999.2500       2.6762     -11.6327    -999.2500    -999.2500
   3430.5227       6.6649    -999.2500       0.1036    -999.2500      57.9342    -999.2500    -999.2500      57.8692      76.7900      29.9622       0.0251       3.4187    -999.2500       2.6648     -12.8332    -999.2500    -999.2500
   3430.6750       6.6790    -999.2500       0.1038    -999.2500      57.3131    -999.2500    -999.2500      55.1676      72.0254      37.9502       0.0255       3.1847    -999.2500       2.6661     -11.7598    -999.2500    -999.2500
   3430.8274       6.7917    -999.2500       0.0991    -999.2500      55.2972    -999.2500    -999.2500      61.3994      76.6802      66.0539       0.0231       3.0317    -999.2500       2.6821     -12.9505    -999.2500    -999.2500
   3430.9800       6.7825    -999.2500       0.0835    -999.2500      54.5101    -999.2500    -999.2500      65.0080      79.0318      78.4443       0.0225       2.9914    -999.2500       2.6871     -16.0529    -999.2500    -999.2500
   3431.1323       6.6500    -999.2500       0.0729    -999.2500      54.0610    -999.2500    -999.2500      70.6286      87.3679     105.3839       0.0223       3.1477    -999.2500       2.6972     -19.8004    -999.2500    -999.2500
   3431.2847       6.5893    -999.2500       0.0671    -999.2500      52.2631    -999.2500    -999.2500      88.5826     113.1991     141.6604       0.0217       3.4811    -999.2500       2.7099     -25.1438    -999.2500    -999.2500
   3431.4370       6.6127    -999.2500       0.0713    -999.2500      50.1672    -999.2500    -999.2500     108.3495     142.7556     167.1623       0.0223       3.8183    -999.2500       2.7348     -30.3153    -999.2500    -999.2500
   3431.5894       6.8402    -999.2500       0.0782    -999.2500      50.8492    -999.2500    -999.2500     134.9596     179.8385      93.5036       0.0273       3.9435    -999.2500       2.7620     -33.8920    -999.2500    -999.2500
   3431.7419       6.8841    -999.2500       0.0879    -999.2500      54.5468    -999.2500    -999.2500     145.2220     193.0096      65.0997       0.0389       3.7924    -999.2500       2.7796     -34.7832    -999.2500    -999.2500
   3431.8943       6.8441    -999.2500       0.1063    -999.2500      56.5401    -999.2500    -999.2500     128.8046     167.6857      51.7789       0.0517       3.4913    -999.2500       2.7597     -36.5335    -999.2500    -999.2500
   3432.0466       6.8168    -999.2500       0.1354    -999.2500      54.6639    -999.2500    -999.2500     103.2740     130.5930      43.2085       0.0623       3.2047    -999.2500       2.6919     -40.0714    -999.2500    -999.2500
   3432.1990       6.9607    -999.2500       0.1657    -999.2500      48.8942    -999.2500    -999.2500      72.7140      90.5366      18.7369       0.0772       3.0054    -999.2500       2.6106     -44.3727    -999.2500    -999.2500
   3432.3516       6.7529    -999.2500       0.1848    -999.2500      43.1563    -999.2500    -999.2500      58.4539      74.6176       7.2725       0.0934       2.9161    -999.2500       2.5539     -45.0752    -999.2500    -999.2500
   3432.5039       6.4507    -999.2500       0.1943    -999.2500      38.2515    -999.2500    -999.2500      52.6228      70.7956       4.6086       0.1045       2.9272    -999.2500       2.5325     -40.0385    -999.2500    -999.2500
   3432.6562       6.5481    -999.2500       0.2191    -999.2500      34.5013    -999.2500    -999.2500      51.0982      71.5664       3.4858       0.1016       3.0001    -999.2500       2.5364     -24.5926    -999.2500    -999.2500
   3432.8086       6.3830    -999.2500       0.2740    -999.2500      32.3272    -999.2500    -999.2500      47.7895      68.5467       3.3094       0.0922       3.0856    -999.2500       2.5953      -5.1572    -999.2500    -999.2500
   3432.9612       6.2365    -999.2500       0.3334    -999.2500      33.8901    -999.2500    -999.2500      47.0185      68.4369       4.4058       0.0845       3.1196    -999.2500       2.7294       1.4150    -999.2500    -999.2500
   3433.1135       6.3260    -999.2500       0.3285    -999.2500      38.9364    -999.2500    -999.2500      33.9090      50.2027      10.5457       0.0864       3.0969    -999.2500       2.8124       1.6467    -999.2500    -999.2500
   3433.2659       6.7743    -999.2500       0.2555    -999.2500      47.0514    -999.2500    -999.2500      20.0236      30.1734      23.2525       0.1041       3.0146    -999.2500       2.7911       0.2955    -999.2500    -999.2500
   3433.4182       7.4670    -999.2500       0.1674    -999.2500      52.3485    -999.2500    -999.2500      15.0836      22.7505      15.8266       0.1224       2.9422    -999.2500       2.6992       0.6961    -999.2500    -999.2500
   3433.5706       7.0695    -999.2500       0.1273    -999.2500      51.3308    -999.2500    -999.2500      16.8797      25.7860      14.0134       0.1248       2.9337    -999.2500       2.6445       1.0139    -999.2500    -999.2500
   3433.7231       7.1538    -999.2500       0.1329    -999.2500      45.1890    -999.2500    -999.2500      25.1627      38.1269      15.6977       0.1081       2.9986    -999.2500       2.6178       0.9660    -999.2500    -999.2500
