#------------------------------------------------------------------------------
#
#   Created by  : [OpenWorks] Log Export Utility (LEXP)
#   Created on  : 2016-05-18 16:32:12
#   Project     : CANT971
#   User        : R5K
#   Interpreter : PEP
#
#------------------------------------------------------------------------------
~VERSION INFORMATION
VERS. 2.0 : CWLS Log ASCII Standard - version 2.0
WRAP.  NO : One line per depth step
~WELL INFORMATION
#MNEMONIC   .UNIT                                           VALUE :DESCRIPTION
#------------------------------------------------------------------------------
STRT        .M                                          1316.2775 :START DEPTH
STOP        .M                                          3511.7520 :STOP DEPTH
STEP        .M                                             0.1524 :STEP
NULL        .                                           -999.2500 :NULL VALUE
COMP        .                                   PEMEX EXPL & PROD :COMPANY
WELL        .                                                2084 :WELL
FLD         .                                           CANTARELL :FIELD
LOC         .                                             UNKNOWN :LOCATION
CNTY        .                                      CD. DEL CARMEN :COUNTY
STAT        .                                            CAMPECHE :STATE
CTRY        .                                              MEXICO :COUNTRY
SRVC        .                                             UNKNOWN :SERVICE COMPANY
DATE        .                                             UNKNOWN :LOG DATE
UWI         .                                          3060000674 :UNIQUE WELL ID
XCOORD      .                                       600034.090000 :SURFACE X
YCOORD      .                                      2139445.530000 :SURFACE Y
LAT         .                                           19.347677 :LATITUDE
LON         .                                          -92.047610 :LONGITUDE
ELEV        .M                                            27.4000 :SURFACE ELEV
ELEV_TYPE   .                                                  KB :ELEV TYPE
~CURVE INFORMATION
#MNEMONIC.UNIT        API CODE       : CURVE DESCRIPTION
#------------------------------------------------------------------------------
DEPTH    .M                          : Measured Depth
CALI     .inches      UNKNOWN        : CALI:PETROWORKS:rC:NONE:v1 
CGR      .UNKNOWN     UNKNOWN        : CGR:UNKNOWN:rC:NONE:v0 (auto-composite)
DRHO     .UNKNOWN     UNKNOWN        : DRHO:PETROWORKS:rC:NONE:v1 
DT       .us/ft       UNKNOWN        : DT:DT:rC:NONE:v0 (auto-composite)
GR       .API         UNKNOWN        : GR:PETROWORKS:rC:NONE:v2 
ILD      .UNKNOWN     UNKNOWN        : ILD:UNKNOWN:rC:NONE:v0 (auto-composite)
ILM      .UNKNOWN     UNKNOWN        : ILM:UNKNOWN:rC:NONE:v0 (auto-composite)
LLD      .ohm.m       UNKNOWN        : LLD:PETROWORKS:rC:NONE:v1 
LLS      .UNKNOWN     UNKNOWN        : LLS:PETROWORKS:rC:NONE:v1 
MSFL     .UNKNOWN     UNKNOWN        : MSFL:PETROWORKS:rC:NONE:v1 
NPHI     .v/v_decimal UNKNOWN        : NPHI:PETROWORKS:rC:NONE:v2 
PEF      .b/elec      UNKNOWN        : PEF:PETROWORKS:rC:NONE:v1 
POTA     .wtpercent   UNKNOWN        : POTA:UNKNOWN:rC:NONE:v0 (auto-composite)
RHOB     .g/cm3       UNKNOWN        : RHOB:PETROWORKS:rC:NONE:v1 
SP       .mV          UNKNOWN        : SP:PETROWORKS:rC:NONE:v1 
THOR     .UNKNOWN     UNKNOWN        : THOR:UNKNOWN:rC:NONE:v0 (auto-composite)
URAN     .UNKNOWN     UNKNOWN        : URAN:UNKNOWN:rC:NONE:v0 (auto-composite)
~A     DEPTH         CALI          CGR         DRHO           DT           GR          ILD          ILM          LLD          LLS         MSFL         NPHI          PEF         POTA         RHOB           SP         THOR         URAN
# ...
   3332.5295       8.8087       5.1347       0.0115      55.9429      23.5477    -999.2500    -999.2500      53.8706      53.3661      81.3729       0.0506       5.0357       0.0013       2.6259    -999.2500       0.9540       2.0382
   3332.6819       8.8390       4.9800       0.0060      55.4260      23.8320    -999.2500    -999.2500      56.9920      57.3030      94.1490       0.0489       4.9560       0.0012       2.6330    -999.2500       0.9590       2.0760
   3332.8342       8.7637       4.7468       0.0080      54.6034      23.7884    -999.2500    -999.2500      68.4430      69.3668     117.1109       0.0461       4.9327       0.0011       2.6464    -999.2500       0.9555       2.1038
   3332.9866       8.6870       4.5100       0.0100      53.7680      23.7440    -999.2500    -999.2500      80.1230      81.6720     140.5320       0.0432       4.9090       0.0009       2.6600    -999.2500       0.9520       2.1320
   3333.1392       8.7073       4.5809       0.0090      54.5121      23.7712    -999.2500    -999.2500      77.7697      78.9088     108.5611       0.0474       4.8614       0.0011       2.6481    -999.2500       0.9183       2.1241
   3333.2915       8.7280       4.6530       0.0080      55.2680      23.7990    -999.2500    -999.2500      75.3690      76.0900      75.9460       0.0516       4.8130       0.0012       2.6360    -999.2500       0.8840       2.1160
   3333.4438       8.7627       4.8172       0.0090      54.8513      23.7218    -999.2500    -999.2500      72.2353      69.7958      78.8224       0.0501       4.8373       0.0012       2.6484    -999.2500       0.9673       2.0907
   3333.5962       8.7980       4.9840       0.0100      54.4280      23.6430    -999.2500    -999.2500      69.0380      63.3740      81.7570       0.0485       4.8620       0.0012       2.6610    -999.2500       1.0520       2.0650
   3333.7488       8.7386       5.2702       0.0140      54.8078      23.3292    -999.2500    -999.2500      75.4352      73.1824      94.7024       0.0444       4.9041       0.0014       2.6769    -999.2500       1.0421       1.9995
   3333.9011       8.6780       5.5610       0.0180      55.1930      23.0090    -999.2500    -999.2500      81.9630      83.1910     107.9120       0.0401       4.9470       0.0017       2.6930    -999.2500       1.0320       1.9330
   3334.0535       8.7038       5.8695       0.0170      57.0709      22.6908    -999.2500    -999.2500      79.4805      79.5137     101.6730       0.0426       5.0342       0.0016       2.6762    -999.2500       1.0628       1.8611
   3334.2058       8.7300       6.1830       0.0160      58.9760      22.3660    -999.2500    -999.2500      76.9470      75.7610      95.3060       0.0451       5.1230       0.0015       2.6590    -999.2500       1.0940       1.7880
   3334.3582       8.7583       6.0242       0.0145      58.3287      22.1948    -999.2500    -999.2500      72.2006      69.5185     100.9556       0.0499       5.1066       0.0014       2.6441    -999.2500       1.1282       1.7935
   3334.5107       8.7870       5.8630       0.0130      57.6720      22.0200    -999.2500    -999.2500      67.3560      63.1470     106.7220       0.0548       5.0900       0.0013       2.6290    -999.2500       1.1630       1.7990
   3334.6631       8.7260       5.3557       0.0140      57.7723      21.8839    -999.2500    -999.2500      69.4309      65.9251      95.5229       0.0547       5.0474       0.0012       2.6255    -999.2500       1.0796       1.8362
   3334.8154       8.6640       4.8410       0.0150      57.8740      21.7450    -999.2500    -999.2500      71.5490      68.7610      84.0910       0.0545       5.0040       0.0011       2.6220    -999.2500       0.9950       1.8740
   3334.9678       8.6888       4.3517       0.0160      58.0715      21.5936    -999.2500    -999.2500      74.5887      71.6443      93.4921       0.0551       5.0204       0.0010       2.6230    -999.2500       0.9022       1.9127
   3335.1204       8.7140       3.8550       0.0170      58.2720      21.4390    -999.2500    -999.2500      77.6920      74.5880     103.0900       0.0557       5.0370       0.0008       2.6240    -999.2500       0.8080       1.9520
   3335.2727       8.7502       4.4778       0.0180      57.8869      21.5706    -999.2500    -999.2500      76.0425      72.9856      96.6099       0.0563       5.0578       0.0010       2.6230    -999.2500       0.9187       1.8954
   3335.4250       8.7870       5.1100       0.0190      57.4960      21.7050    -999.2500    -999.2500      74.3610      71.3520      90.0040       0.0569       5.0790       0.0012       2.6220    -999.2500       1.0310       1.8380
   3335.5774       8.7369       4.7413       0.0170      57.6905      21.5749    -999.2500    -999.2500      71.9347      69.3684      80.1963       0.0579       5.0602       0.0010       2.6205    -999.2500       0.9903       1.8648
   3335.7300       8.6860       4.3670       0.0150      57.8880      21.4420    -999.2500    -999.2500      69.4610      67.3460      70.1970       0.0588       5.0410       0.0008       2.6190    -999.2500       0.9490       1.8920
   3335.8823       8.7098       3.8609       0.0165      57.7739      21.2454    -999.2500    -999.2500      69.7437      66.4647      74.7561       0.0600       5.0038       0.0005       2.6205    -999.2500       1.0090       1.9203
   3336.0347       8.7340       3.3470       0.0180      57.6580      21.0450    -999.2500    -999.2500      70.0320      65.5660      79.4050       0.0612       4.9660       0.0002       2.6220    -999.2500       1.0700       1.9490
   3336.1870       8.7687       3.5747       0.0086      57.2933      21.2807    -999.2500    -999.2500      70.7390      66.2245      87.2389       0.0592       4.9353       0.0003       2.6205    -999.2500       0.9380       1.9857
   3336.3394       8.8040       3.8060      -0.0010      56.9230      21.5210    -999.2500    -999.2500      71.4600      66.8960      95.2280       0.0572       4.9040       0.0005       2.6190    -999.2500       0.8040       2.0230
   3336.4919       8.7525       4.1523       0.0025      56.3093      21.8562    -999.2500    -999.2500      72.8224      68.2243     100.0346       0.0526       4.9387       0.0007       2.6314    -999.2500       0.8358       2.0041
   3336.6443       8.7000       4.5040       0.0060      55.6860      22.1980    -999.2500    -999.2500      74.2120      69.5790     104.9370       0.0480       4.9740       0.0010       2.6440    -999.2500       0.8680       1.9850
   3336.7966       8.7258       5.7314       0.0129      54.2880      22.6084    -999.2500    -999.2500      79.2455      74.2734     109.6086       0.0421       5.0201       0.0014       2.6663    -999.2500       0.9384       1.9131
   3336.9490       8.7520       6.9780       0.0200      52.8680      23.0270    -999.2500    -999.2500      84.3800      79.0620     114.3740       0.0362       5.0670       0.0018       2.6890    -999.2500       1.0100       1.8400
   3337.1016       8.7792       6.7920       0.0141      53.1726      23.4304    -999.2500    -999.2500      92.4599      87.4537     102.7891       0.0321       5.1666       0.0021       2.6850    -999.2500       0.9217       1.8901
   3337.2539       8.8070       6.6030       0.0080      53.4820      23.8420    -999.2500    -999.2500     100.7030      96.0150      90.9700       0.0279       5.2680       0.0024       2.6810    -999.2500       0.8320       1.9410
   3337.4062       8.7287       6.8317       0.0110      54.3486      24.0083    -999.2500    -999.2500      85.9123      82.3820      61.2772       0.0317       5.2358       0.0025       2.6756    -999.2500       0.8578       1.9172
   3337.5586       8.6490       7.0640       0.0140      55.2290      24.1780    -999.2500    -999.2500      70.8210      68.4720      30.9810       0.0356       5.2030       0.0027       2.6700    -999.2500       0.8840       1.8930
   3337.7112       8.6728       7.5491       0.0229      56.0327      24.1537    -999.2500    -999.2500      55.6270      52.4515      35.7626       0.0347       5.2134       0.0029       2.6759    -999.2500       0.9356       1.8379
