#------------------------------------------------------------------------------
#
#   Created by  : [OpenWorks] Log Export Utility (LEXP)
#   Created on  : 2016-05-18 16:32:12
#   Project     : CANT971
#   User        : R5K
#   Interpreter : PEP
#
#------------------------------------------------------------------------------
~VERSION INFORMATION
VERS. 2.0 : CWLS Log ASCII Standard - version 2.0
WRAP.  NO : One line per depth step
~WELL INFORMATION
#MNEMONIC   .UNIT                                           VALUE :DESCRIPTION
#------------------------------------------------------------------------------
STRT        .M                                          1316.2775 :START DEPTH
STOP        .M                                          3511.7520 :STOP DEPTH
STEP        .M                                             0.1524 :STEP
NULL        .                                           -999.2500 :NULL VALUE
COMP        .                                   PEMEX EXPL & PROD :COMPANY
WELL        .                                                2084 :WELL
FLD         .                                           CANTARELL :FIELD
LOC         .                                             UNKNOWN :LOCATION
CNTY        .                                      CD. DEL CARMEN :COUNTY
STAT        .                                            CAMPECHE :STATE
CTRY        .                                              MEXICO :COUNTRY
SRVC        .                                             UNKNOWN :SERVICE COMPANY
DATE        .                                             UNKNOWN :LOG DATE
UWI         .                                          3060000674 :UNIQUE WELL ID
XCOORD      .                                       600034.090000 :SURFACE X
YCOORD      .                                      2139445.530000 :SURFACE Y
LAT         .                                           19.347677 :LATITUDE
LON         .                                          -92.047610 :LONGITUDE
ELEV        .M                                            27.4000 :SURFACE ELEV
ELEV_TYPE   .                                                  KB :ELEV TYPE
~CURVE INFORMATION
#MNEMONIC.UNIT        API CODE       : CURVE DESCRIPTION
#------------------------------------------------------------------------------
DEPTH    .M                          : Measured Depth
CALI     .inches      UNKNOWN        : CALI:PETROWORKS:rC:NONE:v1 
CGR      .UNKNOWN     UNKNOWN        : CGR:UNKNOWN:rC:NONE:v0 (auto-composite)
DRHO     .UNKNOWN     UNKNOWN        : DRHO:PETROWORKS:rC:NONE:v1 
DT       .us/ft       UNKNOWN        : DT:DT:rC:NONE:v0 (auto-composite)
GR       .API         UNKNOWN        : GR:PETROWORKS:rC:NONE:v2 
ILD      .UNKNOWN     UNKNOWN        : ILD:UNKNOWN:rC:NONE:v0 (auto-composite)
ILM      .UNKNOWN     UNKNOWN        : ILM:UNKNOWN:rC:NONE:v0 (auto-composite)
LLD      .ohm.m       UNKNOWN        : LLD:PETROWORKS:rC:NONE:v1 
LLS      .UNKNOWN     UNKNOWN        : LLS:PETROWORKS:rC:NONE:v1 
MSFL     .UNKNOWN     UNKNOWN        : MSFL:PETROWORKS:rC:NONE:v1 
NPHI     .v/v_decimal UNKNOWN        : NPHI:PETROWORKS:rC:NONE:v2 
PEF      .b/elec      UNKNOWN        : PEF:PETROWORKS:rC:NONE:v1 
POTA     .wtpercent   UNKNOWN        : POTA:UNKNOWN:rC:NONE:v0 (auto-composite)
RHOB     .g/cm3       UNKNOWN        : RHOB:PETROWORKS:rC:NONE:v1 
SP       .mV          UNKNOWN        : SP:PETROWORKS:rC:NONE:v1 
THOR     .UNKNOWN     UNKNOWN        : THOR:UNKNOWN:rC:NONE:v0 (auto-composite)
URAN     .UNKNOWN     UNKNOWN        : URAN:UNKNOWN:rC:NONE:v0 (auto-composite)
~A     DEPTH         CALI          CGR         DRHO           DT           GR          ILD          ILM          LLD          LLS         MSFL         NPHI          PEF         POTA         RHOB           SP         THOR         URAN
# ...
   3353.8655       7.1950       6.9236       0.2449      54.9607      18.1520    -999.2500    -999.2500      53.1908      50.1518      99.4932       0.0304       5.0420       0.0016       2.4410    -999.2500       1.3438       1.2460
   3354.0178       7.1970       6.4790       0.2550      54.0400      18.2470    -999.2500    -999.2500      48.5580      46.3440      89.9680       0.0292       4.9900       0.0016       2.4430    -999.2500       1.2390       1.3040
   3354.1702       7.1995       5.5586       0.2600      54.6743      18.4622    -999.2500    -999.2500      44.6549      44.6740      71.7441       0.0309       4.9038       0.0015       2.4494    -999.2500       1.0843       1.3858
   3354.3228       7.2020       4.6230       0.2650      55.3180      18.6820    -999.2500    -999.2500      40.6700      42.9690      53.1380       0.0326       4.8160       0.0014       2.4560    -999.2500       0.9270       1.4690
   3354.4751       7.1802       4.8938       0.2813      57.2942      20.3316    -999.2500    -999.2500      33.5288      36.1786      36.4559       0.0352       4.8512       0.0011       2.4486    -999.2500       1.0535       1.6579
   3354.6274       7.1580       5.1690       0.2980      59.3000      22.0160    -999.2500    -999.2500      26.2370      29.2450      19.4220       0.0379       4.8870       0.0007       2.4410    -999.2500       1.1820       1.8500
   3354.7798       7.1620       7.3954       0.2945      58.6077      26.3619    -999.2500    -999.2500      22.4665      23.8597      29.9205       0.0342       4.9791       0.0015       2.4474    -999.2500       1.3987       2.1173
   3354.9324       7.1660       9.6590       0.2910      57.9050      30.8000    -999.2500    -999.2500      18.6160      18.3600      40.6420       0.0305       5.0730       0.0023       2.4540    -999.2500       1.6190       2.3890
   3355.0847       7.1719       8.9014       0.2727      56.5190      29.1884    -999.2500    -999.2500      23.8397      25.4404      72.6652       0.0238       5.0586       0.0031       2.4654    -999.2500       1.3751       2.2234
   3355.2371       7.1780       8.1310       0.2540      55.1120      27.5450    -999.2500    -999.2500      29.1750      32.6720     105.3720       0.0170       5.0440       0.0039       2.4770    -999.2500       1.1270       2.0550
   3355.3894       7.1488       8.4414       0.2570      54.2188      24.2616    -999.2500    -999.2500      47.8913      52.2738      77.9784       0.0175       4.9980       0.0033       2.4636    -999.2500       1.2708       1.6891
   3355.5417       7.1190       8.7570       0.2600      53.3120      20.9130    -999.2500    -999.2500      67.0100      72.2970      49.9960       0.0180       4.9510       0.0027       2.4500    -999.2500       1.4170       1.3170
   3355.6943       7.1645       9.1313       0.2753      53.8221      21.5917    -999.2500    -999.2500      54.6495      64.1470     161.4290       0.0243       4.9000       0.0030       2.4629    -999.2500       1.2321       1.3696
   3355.8467       7.2110       9.5120       0.2910      54.3400      22.2840    -999.2500    -999.2500      42.0220      55.8210     275.2700       0.0306       4.8480       0.0032       2.4760    -999.2500       1.0440       1.4230
   3355.9990       7.2853      11.8286       0.3182      58.7720      26.2051    -999.2500    -999.2500      27.8363      38.8076     151.3030       0.0547       4.7574       0.0046       2.4602    -999.2500       1.1853       1.5975
   3356.1514       7.3610      14.1850       0.3460      63.2730      30.2050    -999.2500    -999.2500      13.3420      21.4240      24.6390       0.0791       4.6650       0.0060       2.4440    -999.2500       1.3290       1.7750
   3356.3040       7.4739      17.1865       0.3346      69.6628      35.6340    -999.2500    -999.2500       8.7579      13.9155      13.5359       0.1181       4.5299       0.0075       2.3693    -999.2500       1.6467       1.9361
   3356.4563       7.5890      20.2400       0.3230      76.1530      41.1730    -999.2500    -999.2500       4.0810       6.2550       2.2080       0.1576       4.3920       0.0091       2.2930    -999.2500       1.9700       2.1000
   3356.6086       7.5058      21.4688       0.2383      85.1572      40.9978    -999.2500    -999.2500       2.9589       4.3702       2.5985       0.2060       3.9853       0.0100       2.0602    -999.2500       1.8619       2.0653
   3356.7610       7.4210      22.7170       0.1520      94.3040      40.8190    -999.2500    -999.2500       1.8140       2.4470       2.9970       0.2549       3.5710       0.0109       1.8230    -999.2500       1.7520       2.0300
   3356.9136       7.1961      20.5091       0.1703      88.8272      38.4731    -999.2500    -999.2500       2.4129       3.6403      12.5570       0.1950       3.7810       0.0100       1.9349    -999.2500       1.2832       1.9923
   3357.0659       6.9670      18.2660       0.1890      83.2630      36.0790    -999.2500    -999.2500       3.0240       4.8580      22.3130       0.1343       3.9950       0.0090       2.0490    -999.2500       0.8070       1.9540
   3357.2183       6.9858      14.4681       0.2167      67.2623      30.1818    -999.2500    -999.2500       6.6001      12.1755     132.0894       0.0793       4.3447       0.0069       2.2486    -999.2500       0.8700       1.9009
   3357.3706       7.0050      10.6090       0.2450      51.0040      24.1630    -999.2500    -999.2500      10.2500      19.6440     244.1300       0.0236       4.7010       0.0047       2.4520    -999.2500       0.9340       1.8470
   3357.5229       6.9768       8.8403       0.2623      51.3723      24.2080    -999.2500    -999.2500      43.1745      48.3390     163.3401       0.0242       4.8600       0.0036       2.4485    -999.2500       1.0044       1.8768
   3357.6755       6.9480       7.0430       0.2800      51.7460      24.2540    -999.2500    -999.2500      76.7830      77.6300      80.8720       0.0248       5.0220       0.0024       2.4450    -999.2500       1.0760       1.9070
   3357.8279       6.9500       7.1675       0.2909      52.2816      24.1461    -999.2500    -999.2500      72.5715      75.0940     101.7371       0.0259       5.0730       0.0023       2.4504    -999.2500       1.1410       1.8753
   3357.9802       6.9520       7.2940       0.3020      52.8250      24.0360    -999.2500    -999.2500      68.2720      72.5050     123.0380       0.0271       5.1250       0.0022       2.4560    -999.2500       1.2070       1.8430
   3358.1326       6.9560       7.2251       0.2995      53.3521      23.9400    -999.2500    -999.2500      59.3063      62.6798      79.3737       0.0302       5.1032       0.0021       2.4501    -999.2500       1.2010       1.8539
   3358.2852       6.9600       7.1550       0.2970      53.8870      23.8420    -999.2500    -999.2500      50.1520      52.6480      34.7910       0.0333       5.0810       0.0019       2.4440    -999.2500       1.1950       1.8650
   3358.4375       6.9550       7.0236       0.2930      56.2458      23.4769    -999.2500    -999.2500      44.1811      43.9124      42.2848       0.0378       4.8894       0.0020       2.4321    -999.2500       1.1414       1.8283
   3358.5898       6.9500       6.8900       0.2890      58.6400      23.1040    -999.2500    -999.2500      38.0840      34.9920      49.9370       0.0424       4.6940       0.0021       2.4200    -999.2500       1.0870       1.7910
   3358.7422       6.8960       6.9500       0.2910      58.5755      22.5222    -999.2500    -999.2500      42.7365      40.1110      72.5324       0.0456       4.7296       0.0024       2.3997    -999.2500       0.9382       1.7226
   3358.8948       6.8410       7.0110       0.2930      58.5100      21.9280    -999.2500    -999.2500      47.4880      45.3390      95.6090       0.0488       4.7660       0.0026       2.3790    -999.2500       0.7870       1.6530
   3359.0471       6.8940       7.4513       0.3118      58.0406      25.0546    -999.2500    -999.2500      55.6160      53.1588      78.2914       0.0510       4.9383       0.0029       2.3835    -999.2500       0.9080       1.8161
