#------------------------------------------------------------------------------
#
#   Created by  : [OpenWorks] Log Export Utility (LEXP)
#   Created on  : 2016-05-18 16:32:12
#   Project     : CANT971
#   User        : R5K
#   Interpreter : PEP
#
#------------------------------------------------------------------------------
~VERSION INFORMATION
VERS. 2.0 : CWLS Log ASCII Standard - version 2.0
WRAP.  NO : One line per depth step
~WELL INFORMATION
#MNEMONIC   .UNIT                                           VALUE :DESCRIPTION
#------------------------------------------------------------------------------
STRT        .M                                          1316.2775 :START DEPTH
STOP        .M                                          3511.7520 :STOP DEPTH
STEP        .M                                             0.1524 :STEP
NULL        .                                           -999.2500 :NULL VALUE
COMP        .                                   PEMEX EXPL & PROD :COMPANY
WELL        .                                                2084 :WELL
FLD         .                                           CANTARELL :FIELD
LOC         .                                             UNKNOWN :LOCATION
CNTY        .                                      CD. DEL CARMEN :COUNTY
STAT        .                                            CAMPECHE :STATE
CTRY        .                                              MEXICO :COUNTRY
SRVC        .                                             UNKNOWN :SERVICE COMPANY
DATE        .                                             UNKNOWN :LOG DATE
UWI         .                                          3060000674 :UNIQUE WELL ID
XCOORD      .                                       600034.090000 :SURFACE X
YCOORD      .                                      2139445.530000 :SURFACE Y
LAT         .                                           19.347677 :LATITUDE
LON         .                                          -92.047610 :LONGITUDE
ELEV        .M                                            27.4000 :SURFACE ELEV
ELEV_TYPE   .                                                  KB :ELEV TYPE
~CURVE INFORMATION
#MNEMONIC.UNIT        API CODE       : CURVE DESCRIPTION
#------------------------------------------------------------------------------
DEPTH    .M                          : Measured Depth
CALI     .inches      UNKNOWN        : CALI:PETROWORKS:rC:NONE:v1 
CGR      .UNKNOWN     UNKNOWN        : CGR:UNKNOWN:rC:NONE:v0 (auto-composite)
DRHO     .UNKNOWN     UNKNOWN        : DRHO:PETROWORKS:rC:NONE:v1 
DT       .us/ft       UNKNOWN        : DT:DT:rC:NONE:v0 (auto-composite)
GR       .API         UNKNOWN        : GR:PETROWORKS:rC:NONE:v2 
ILD      .UNKNOWN     UNKNOWN        : ILD:UNKNOWN:rC:NONE:v0 (auto-composite)
ILM      .UNKNOWN     UNKNOWN        : ILM:UNKNOWN:rC:NONE:v0 (auto-composite)
LLD      .ohm.m       UNKNOWN        : LLD:PETROWORKS:rC:NONE:v1 
LLS      .UNKNOWN     UNKNOWN        : LLS:PETROWORKS:rC:NONE:v1 
MSFL     .UNKNOWN     UNKNOWN        : MSFL:PETROWORKS:rC:NONE:v1 
NPHI     .v/v_decimal UNKNOWN        : NPHI:PETROWORKS:rC:NONE:v2 
PEF      .b/elec      UNKNOWN        : PEF:PETROWORKS:rC:NONE:v1 
POTA     .wtpercent   UNKNOWN        : POTA:UNKNOWN:rC:NONE:v0 (auto-composite)
RHOB     .g/cm3       UNKNOWN        : RHOB:PETROWORKS:rC:NONE:v1 
SP       .mV          UNKNOWN        : SP:PETROWORKS:rC:NONE:v1 
THOR     .UNKNOWN     UNKNOWN        : THOR:UNKNOWN:rC:NONE:v0 (auto-composite)
URAN     .UNKNOWN     UNKNOWN        : URAN:UNKNOWN:rC:NONE:v0 (auto-composite)
~A     DEPTH         CALI          CGR         DRHO           DT           GR          ILD          ILM          LLD          LLS         MSFL         NPHI          PEF         POTA         RHOB           SP         THOR         URAN
# ...
   3252.5195      11.0330      45.8650       0.0660      88.7060      66.6900    -999.2500    -999.2500       3.4560       2.6860       1.7030       0.1927       4.5550       0.0213       2.5770    -999.2500       2.9370       2.4410
   3252.6719      10.9446      45.1217       0.0546     101.7495      65.8564    -999.2500    -999.2500       3.5046       2.7430       1.9354       0.1824       4.5898       0.0218       2.5859    -999.2500       2.7207       2.3774
   3252.8242      10.8550      44.3700       0.0430     114.9840      65.0060    -999.2500    -999.2500       3.5540       2.8010       2.1720       0.1720       4.6250       0.0224       2.5950    -999.2500       2.5020       2.3130
   3252.9766      10.7512      43.0988       0.0301     111.5931      60.4054    -999.2500    -999.2500       3.8574       3.0791       2.7982       0.1536       4.6811       0.0218       2.6104    -999.2500       2.3737       1.8770
   3253.1292      10.6460      41.8130       0.0170     108.1520      55.7120    -999.2500    -999.2500       4.1660       3.3620       3.4350       0.1351       4.7380       0.0212       2.6260    -999.2500       2.2440       1.4360
   3253.2815      10.6708      42.5920       0.0185      93.5904      52.3999    -999.2500    -999.2500       4.6469       3.7373       3.2560       0.1397       4.6476       0.0215       2.6225    -999.2500       2.3807       0.9990
   3253.4338      10.6960      43.3800       0.0200      78.8120      49.0260    -999.2500    -999.2500       5.1360       4.1190       3.0740       0.1444       4.5560       0.0218       2.6190    -999.2500       2.5190       0.5570
   3253.5862      10.6890      42.9774       0.0284      81.1211      48.5698    -999.2500    -999.2500       4.9823       3.9733       2.9050       0.1442       4.5808       0.0217       2.6135    -999.2500       2.4598       0.5848
   3253.7388      10.6820      42.5700       0.0370      83.4650      48.1050    -999.2500    -999.2500       4.8260       3.8250       2.7330       0.1439       4.6060       0.0215       2.6080    -999.2500       2.4000       0.6130
   3253.8911      10.6517      41.4189       0.0340      86.1680      47.3601    -999.2500    -999.2500       4.6446       3.6465       3.0151       0.1372       4.6845       0.0209       2.6150    -999.2500       2.2468       0.6667
   3254.0435      10.6210      40.2560       0.0310      88.9120      46.6010    -999.2500    -999.2500       4.4600       3.4650       3.3020       0.1303       4.7640       0.0202       2.6220    -999.2500       2.0920       0.7210
   3254.1958      10.5410      38.5504       0.0275      86.2836      45.2831    -999.2500    -999.2500       4.7118       3.6558       3.7709       0.1186       4.8266       0.0192       2.6349    -999.2500       2.2014       0.7762
   3254.3481      10.4600      36.8270       0.0240      83.6150      43.9400    -999.2500    -999.2500       4.9680       3.8500       4.2480       0.1066       4.8900       0.0182       2.6480    -999.2500       2.3120       0.8320
   3254.5007      10.3760      35.3000       0.0255      79.0680      41.9417    -999.2500    -999.2500       5.6465       4.3828       6.8611       0.0941       4.9511       0.0171       2.6574    -999.2500       2.4060       0.7584
   3254.6531      10.2910      33.7570       0.0270      74.4510      39.9050    -999.2500    -999.2500       6.3370       4.9250       9.5200       0.0814       5.0130       0.0161       2.6670    -999.2500       2.5010       0.6840
   3254.8054      10.3193      33.0473       0.0310      70.2124      38.6863    -999.2500    -999.2500       7.2588       5.6808       8.1650       0.0738       5.0746       0.0154       2.6700    -999.2500       2.6154       0.6099
   3254.9578      10.3480      32.3300       0.0350      65.9080      37.4440    -999.2500    -999.2500       8.1970       6.4500       6.7860       0.0661       5.1370       0.0148       2.6730    -999.2500       2.7310       0.5350
   3255.1104      10.3321      31.6183       0.0390      67.6021      37.1920    -999.2500    -999.2500       8.7124       6.8980       7.8302       0.0629       5.1156       0.0143       2.6740    -999.2500       2.6872       0.5967
   3255.2627      10.3160      30.8990       0.0430      69.3200      36.9350    -999.2500    -999.2500       9.2370       7.3540       8.8930       0.0597       5.0940       0.0139       2.6750    -999.2500       2.6430       0.6590
   3255.4150      10.2907      29.3728       0.0450      69.0708      36.6122    -999.2500    -999.2500       9.6429       7.8104      11.3068       0.0551       5.1327       0.0134       2.6765    -999.2500       2.5396       0.7570
   3255.5674      10.2650      27.8300       0.0470      68.8180      36.2830    -999.2500    -999.2500      10.0560       8.2750      13.7640       0.0504       5.1720       0.0129       2.6780    -999.2500       2.4350       0.8560
   3255.7200      10.2362      28.0274       0.0450      65.4908      36.9707    -999.2500    -999.2500      11.2368       9.4216      12.1382       0.0545       5.1174       0.0126       2.6815    -999.2500       2.5782       0.9500
   3255.8723      10.2070      28.2270       0.0430      62.1160      37.6720    -999.2500    -999.2500      12.4390      10.5890      10.4830       0.0586       5.0620       0.0123       2.6850    -999.2500       2.7230       1.0450
   3256.0247      10.2438      28.7113       0.0380      63.0637      39.2182    -999.2500    -999.2500      11.3549       9.7333       8.2092       0.0682       4.9413       0.0126       2.6890    -999.2500       2.5982       1.2325
   3256.1770      10.2810      29.2010       0.0330      64.0250      40.7950    -999.2500    -999.2500      10.2510       8.8620       5.8940       0.0778       4.8190       0.0129       2.6930    -999.2500       2.4720       1.4220
   3256.3293      10.2120      29.6818       0.0578      65.5623      41.9668    -999.2500    -999.2500       8.5838       7.2770       4.8075       0.0927       4.7415       0.0134       2.6771    -999.2500       2.5158       1.4150
   3256.4819      10.1420      30.1680       0.0830      67.1220      43.1620    -999.2500    -999.2500       6.8860       5.6630       3.7010       0.1078       4.6630       0.0138       2.6610    -999.2500       2.5600       1.4080
   3256.6343      10.2597      30.4633       0.2067      72.4832      43.0551    -999.2500    -999.2500       5.6702       4.5087       3.4033       0.1489       4.5418       0.0137       2.6049    -999.2500       2.6714       1.3851
   3256.7866      10.3790      30.7620       0.3320      77.9230      42.9460    -999.2500    -999.2500       4.4320       3.3330       3.1000       0.1905       4.4190       0.0135       2.5480    -999.2500       2.7840       1.3620
   3256.9390      10.6814      30.3280       0.3042      90.5163      42.3654    -999.2500    -999.2500       3.5941       2.6201       2.5452       0.2474       4.2372       0.0129       2.4879    -999.2500       3.0420       1.3307
   3257.0916      10.9880      29.8890       0.2760     103.2960      41.7730    -999.2500    -999.2500       2.7420       1.8950       1.9810       0.3049       4.0530       0.0124       2.4270    -999.2500       3.3030       1.2990
   3257.2439      11.2884      28.9246       0.2045     101.6622      41.2127    -999.2500    -999.2500       2.3632       1.5980       1.6811       0.3291       3.9616       0.0118       2.3927    -999.2500       3.0803       1.3512
   3257.3962      11.5930      27.9490       0.1320     100.0040      40.6420    -999.2500    -999.2500       1.9780       1.2960       1.3760       0.3536       3.8690       0.0112       2.3580    -999.2500       2.8550       1.4040
   3257.5486      11.2861      26.9534       0.0804     101.9632      40.2675    -999.2500    -999.2500       1.8972       1.3912       1.3844       0.3635       3.8496       0.0107       2.3337    -999.2500       2.9127       1.4736
   3257.7012      10.9750      25.9460       0.0280     103.9520      39.8860    -999.2500    -999.2500       1.8150       1.4880       1.3930       0.3736       3.8300       0.0101       2.3090    -999.2500       2.9710       1.5440
