#------------------------------------------------------------------------------
#
#   Created by  : [OpenWorks] Log Export Utility (LEXP)
#   Created on  : 2016-05-18 16:32:12
#   Project     : CANT971
#   User        : R5K
#   Interpreter : PEP
#
#------------------------------------------------------------------------------
~VERSION INFORMATION
VERS. 2.0 : CWLS Log ASCII Standard - version 2.0
WRAP.  NO : One line per depth step
~WELL INFORMATION
#MNEMONIC   .UNIT                                           VALUE :DESCRIPTION
#------------------------------------------------------------------------------
STRT        .M                                          1316.2775 :START DEPTH
STOP        .M                                          3511.7520 :STOP DEPTH
STEP        .M                                             0.1524 :STEP
NULL        .                                           -999.2500 :NULL VALUE
COMP        .                                   PEMEX EXPL & PROD :COMPANY
WELL        .                                                2084 :WELL
FLD         .                                           CANTARELL :FIELD
LOC         .                                             UNKNOWN :LOCATION
CNTY        .                                      CD. DEL CARMEN :COUNTY
STAT        .                                            CAMPECHE :STATE
CTRY        .                                              MEXICO :COUNTRY
SRVC        .                                             UNKNOWN :SERVICE COMPANY
DATE        .                                             UNKNOWN :LOG DATE
UWI         .                                          3060000674 :UNIQUE WELL ID
XCOORD      .                                       600034.090000 :SURFACE X
YCOORD      .                                      2139445.530000 :SURFACE Y
LAT         .                                           19.347677 :LATITUDE
LON         .                                          -92.047610 :LONGITUDE
ELEV        .M                                            27.4000 :SURFACE ELEV
ELEV_TYPE   .                                                  KB :ELEV TYPE
~CURVE INFORMATION
#MNEMONIC.UNIT        API CODE       : CURVE DESCRIPTION
#------------------------------------------------------------------------------
DEPTH    .M                          : Measured Depth
CALI     .inches      UNKNOWN        : CALI:PETROWORKS:rC:NONE:v1 
CGR      .UNKNOWN     UNKNOWN        : CGR:UNKNOWN:rC:NONE:v0 (auto-composite)
DRHO     .UNKNOWN     UNKNOWN        : DRHO:PETROWORKS:rC:NONE:v1 
DT       .us/ft       UNKNOWN        : DT:DT:rC:NONE:v0 (auto-composite)
GR       .API         UNKNOWN        : GR:PETROWORKS:rC:NONE:v2 
ILD      .UNKNOWN     UNKNOWN        : ILD:UNKNOWN:rC:NONE:v0 (auto-composite)
ILM      .UNKNOWN     UNKNOWN        : ILM:UNKNOWN:rC:NONE:v0 (auto-composite)
LLD      .ohm.m       UNKNOWN        : LLD:PETROWORKS:rC:NONE:v1 
LLS      .UNKNOWN     UNKNOWN        : LLS:PETROWORKS:rC:NONE:v1 
MSFL     .UNKNOWN     UNKNOWN        : MSFL:PETROWORKS:rC:NONE:v1 
NPHI     .v/v_decimal UNKNOWN        : NPHI:PETROWORKS:rC:NONE:v2 
PEF      .b/elec      UNKNOWN        : PEF:PETROWORKS:rC:NONE:v1 
POTA     .wtpercent   UNKNOWN        : POTA:UNKNOWN:rC:NONE:v0 (auto-composite)
RHOB     .g/cm3       UNKNOWN        : RHOB:PETROWORKS:rC:NONE:v1 
SP       .mV          UNKNOWN        : SP:PETROWORKS:rC:NONE:v1 
THOR     .UNKNOWN     UNKNOWN        : THOR:UNKNOWN:rC:NONE:v0 (auto-composite)
URAN     .UNKNOWN     UNKNOWN        : URAN:UNKNOWN:rC:NONE:v0 (auto-composite)
~A     DEPTH         CALI          CGR         DRHO           DT           GR          ILD          ILM          LLD          LLS         MSFL         NPHI          PEF         POTA         RHOB           SP         THOR         URAN
# ...
   3471.2134       7.0911    -999.2500       0.0681    -999.2500      31.8277    -999.2500    -999.2500      88.2633     109.3400      30.7131       0.1078       4.1599    -999.2500       2.4664     -57.5611    -999.2500    -999.2500
   3471.3660       7.1061    -999.2500       0.0660    -999.2500      32.7771    -999.2500    -999.2500      81.8638     103.3000      23.8282       0.1182       4.4061    -999.2500       2.4473     -58.2942    -999.2500    -999.2500
   3471.5183       7.1717    -999.2500       0.0678    -999.2500      31.8667    -999.2500    -999.2500      61.6187      80.0352      22.6928       0.1351       4.6111    -999.2500       2.4469     -59.3011    -999.2500    -999.2500
   3471.6707       7.1744    -999.2500       0.0675    -999.2500      30.0738    -999.2500    -999.2500      53.8772      69.8178      23.9044       0.1461       4.6941    -999.2500       2.4498     -59.8952    -999.2500    -999.2500
   3471.8230       7.1313    -999.2500       0.0704    -999.2500      29.6751    -999.2500    -999.2500      58.1694      75.1817      26.4274       0.1477       4.7249    -999.2500       2.4609     -60.2574    -999.2500    -999.2500
   3471.9756       7.0852    -999.2500       0.0745    -999.2500      32.0759    -999.2500    -999.2500      65.6379      83.8643      29.7205       0.1367       4.7626    -999.2500       2.4854     -58.7689    -999.2500    -999.2500
   3472.1279       7.0696    -999.2500       0.0790    -999.2500      37.2958    -999.2500    -999.2500      71.2564      91.2002      38.2793       0.1162       4.8046    -999.2500       2.5248     -52.3165    -999.2500    -999.2500
   3472.2803       7.0825    -999.2500       0.0811    -999.2500      39.7608    -999.2500    -999.2500      79.2757     102.6734      52.6134       0.0850       4.8283    -999.2500       2.5679     -40.3479    -999.2500    -999.2500
   3472.4326       7.0896    -999.2500       0.0837    -999.2500      40.1399    -999.2500    -999.2500      83.8024     111.6812      71.6694       0.0551       4.7981    -999.2500       2.6087     -32.3036    -999.2500    -999.2500
   3472.5850       7.0043    -999.2500       0.0880    -999.2500      38.2716    -999.2500    -999.2500      73.4987      99.8807      71.8518       0.0353       4.6639    -999.2500       2.6352     -30.2425    -999.2500    -999.2500
   3472.7375       6.9740    -999.2500       0.0939    -999.2500      33.6804    -999.2500    -999.2500      61.3248      83.7529      61.7764       0.0298       4.4492    -999.2500       2.6498     -28.4796    -999.2500    -999.2500
   3472.8899       7.1055    -999.2500       0.1000    -999.2500      28.7420    -999.2500    -999.2500      55.6784      75.2450      53.7045       0.0321       4.2766    -999.2500       2.6565     -27.4591    -999.2500    -999.2500
   3473.0422       7.1194    -999.2500       0.1012    -999.2500      27.1749    -999.2500    -999.2500      50.7629      68.5998      40.0321       0.0399       4.2943    -999.2500       2.6612     -28.7523    -999.2500    -999.2500
   3473.1946       7.0436    -999.2500       0.0947    -999.2500      31.6125    -999.2500    -999.2500      43.0089      59.5474      30.6691       0.0502       4.4843    -999.2500       2.6620     -29.7779    -999.2500    -999.2500
   3473.3472       6.9635    -999.2500       0.0820    -999.2500      36.2864    -999.2500    -999.2500      36.0167      50.7127      31.3661       0.0620       4.6745    -999.2500       2.6457     -28.1098    -999.2500    -999.2500
   3473.4995       6.9631    -999.2500       0.0688    -999.2500      37.3417    -999.2500    -999.2500      35.8002      49.9930      41.3608       0.0721       4.7280    -999.2500       2.6066     -27.8449    -999.2500    -999.2500
   3473.6519       7.0765    -999.2500       0.0618    -999.2500      35.9055    -999.2500    -999.2500      41.1438      56.8462      63.9884       0.0819       4.6292    -999.2500       2.5578     -29.4360    -999.2500    -999.2500
   3473.8042       7.2190    -999.2500       0.0572    -999.2500      34.5667    -999.2500    -999.2500      49.9965      69.6375      56.4575       0.0894       4.4607    -999.2500       2.5165     -30.9914    -999.2500    -999.2500
   3473.9568       7.0349    -999.2500       0.0552    -999.2500      33.6644    -999.2500    -999.2500      48.7373      68.3484      47.7910       0.0974       4.2942    -999.2500       2.4992     -31.5723    -999.2500    -999.2500
   3474.1091       7.0577    -999.2500       0.0578    -999.2500      33.0388    -999.2500    -999.2500      45.9834      63.9293      40.5903       0.1015       4.2091    -999.2500       2.5104     -32.2371    -999.2500    -999.2500
   3474.2615       7.0883    -999.2500       0.0607    -999.2500      31.7659    -999.2500    -999.2500      44.0017      61.0029      40.0591       0.1029       4.2339    -999.2500       2.5230     -32.8616    -999.2500    -999.2500
   3474.4138       7.0612    -999.2500       0.0647    -999.2500      30.6590    -999.2500    -999.2500      50.1434      68.3310      42.4285       0.1014       4.3549    -999.2500       2.5231     -34.0875    -999.2500    -999.2500
   3474.5662       7.0647    -999.2500       0.0632    -999.2500      30.2303    -999.2500    -999.2500      56.4905      76.4135      42.8168       0.1032       4.5053    -999.2500       2.5015     -36.8015    -999.2500    -999.2500
   3474.7188       7.0680    -999.2500       0.0610    -999.2500      32.1203    -999.2500    -999.2500      65.3080      86.8474      42.8309       0.1087       4.6209    -999.2500       2.4822     -39.3460    -999.2500    -999.2500
   3474.8711       7.1264    -999.2500       0.0558    -999.2500      32.4419    -999.2500    -999.2500      65.2604      87.5254      45.5560       0.1130       4.6736    -999.2500       2.4758     -40.9203    -999.2500    -999.2500
   3475.0234       7.1486    -999.2500       0.0517    -999.2500      29.6785    -999.2500    -999.2500      65.1960      87.0397      50.3034       0.1118       4.6698    -999.2500       2.4839     -41.4136    -999.2500    -999.2500
   3475.1758       7.1794    -999.2500       0.0481    -999.2500      25.2555    -999.2500    -999.2500      62.7078      83.4613      46.6798       0.1110       4.6454    -999.2500       2.4897     -41.3990    -999.2500    -999.2500
   3475.3284       7.1525    -999.2500       0.0456    -999.2500      23.0068    -999.2500    -999.2500      61.0693      80.7440      45.5520       0.1157       4.6267    -999.2500       2.4838     -39.8284    -999.2500    -999.2500
   3475.4807       7.1252    -999.2500       0.0426    -999.2500      23.3541    -999.2500    -999.2500      58.5990      77.4282      39.6263       0.1231       4.6218    -999.2500       2.4655     -38.5562    -999.2500    -999.2500
   3475.6331       7.1247    -999.2500       0.0437    -999.2500      23.0663    -999.2500    -999.2500      56.9200      75.1778      36.3969       0.1278       4.6304    -999.2500       2.4563     -38.3164    -999.2500    -999.2500
   3475.7854       7.1697    -999.2500       0.0486    -999.2500      23.0571    -999.2500    -999.2500      56.2539      74.3587      33.8303       0.1262       4.6458    -999.2500       2.4606     -38.8156    -999.2500    -999.2500
   3475.9377       7.1995    -999.2500       0.0548    -999.2500      21.9169    -999.2500    -999.2500      57.7132      76.4245      33.7604       0.1214       4.6704    -999.2500       2.4717     -39.5143    -999.2500    -999.2500
   3476.0903       7.2000    -999.2500       0.0589    -999.2500      22.0815    -999.2500    -999.2500      57.2200      76.0332      33.4267       0.1133       4.7100    -999.2500       2.4821     -39.9871    -999.2500    -999.2500
   3476.2427       7.2111    -999.2500       0.0610    -999.2500      21.0918    -999.2500    -999.2500      55.2771      73.1299      31.7588       0.1048       4.7586    -999.2500       2.4954     -39.4281    -999.2500    -999.2500
   3476.3950       7.1935    -999.2500       0.0648    -999.2500      21.7350    -999.2500    -999.2500      54.7735      71.8251      34.0150       0.0920       4.8026    -999.2500       2.5200     -36.7388    -999.2500    -999.2500
