#------------------------------------------------------------------------------
#
#   Created by  : [OpenWorks] Log Export Utility (LEXP)
#   Created on  : 2016-05-18 16:32:12
#   Project     : CANT971
#   User        : R5K
#   Interpreter : PEP
#
#------------------------------------------------------------------------------
~VERSION INFORMATION
VERS. 2.0 : CWLS Log ASCII Standard - version 2.0
WRAP.  NO : One line per depth step
~WELL INFORMATION
#MNEMONIC   .UNIT                                           VALUE :DESCRIPTION
#------------------------------------------------------------------------------
STRT        .M                                          1316.2775 :START DEPTH
STOP        .M                                          3511.7520 :STOP DEPTH
STEP        .M                                             0.1524 :STEP
NULL        .                                           -999.2500 :NULL VALUE
COMP        .                                   PEMEX EXPL & PROD :COMPANY
WELL        .                                                2084 :WELL
FLD         .                                           CANTARELL :FIELD
LOC         .                                             UNKNOWN :LOCATION
CNTY        .                                      CD. DEL CARMEN :COUNTY
STAT        .                                            CAMPECHE :STATE
CTRY        .                                              MEXICO :COUNTRY
SRVC        .                                             UNKNOWN :SERVICE COMPANY
DATE        .                                             UNKNOWN :LOG DATE
UWI         .                                          3060000674 :UNIQUE WELL ID
XCOORD      .                                       600034.090000 :SURFACE X
YCOORD      .                                      2139445.530000 :SURFACE Y
LAT         .                                           19.347677 :LATITUDE
LON         .                                          -92.047610 :LONGITUDE
ELEV        .M                                            27.4000 :SURFACE ELEV
ELEV_TYPE   .                                                  KB :ELEV TYPE
~CURVE INFORMATION
#MNEMONIC.UNIT        API CODE       : CURVE DESCRIPTION
#------------------------------------------------------------------------------
DEPTH    .M                          : Measured Depth
CALI     .inches      UNKNOWN        : CALI:PETROWORKS:rC:NONE:v1 
CGR      .UNKNOWN     UNKNOWN        : CGR:UNKNOWN:rC:NONE:v0 (auto-composite)
DRHO     .UNKNOWN     UNKNOWN        : DRHO:PETROWORKS:rC:NONE:v1 
DT       .us/ft       UNKNOWN        : DT:DT:rC:NONE:v0 (auto-composite)
GR       .API         UNKNOWN        : GR:PETROWORKS:rC:NONE:v2 
ILD      .UNKNOWN     UNKNOWN        : ILD:UNKNOWN:rC:NONE:v0 (auto-composite)
ILM      .UNKNOWN     UNKNOWN        : ILM:UNKNOWN:rC:NONE:v0 (auto-composite)
LLD      .ohm.m       UNKNOWN        : LLD:PETROWORKS:rC:NONE:v1 
LLS      .UNKNOWN     UNKNOWN        : LLS:PETROWORKS:rC:NONE:v1 
MSFL     .UNKNOWN     UNKNOWN        : MSFL:PETROWORKS:rC:NONE:v1 
NPHI     .v/v_decimal UNKNOWN        : NPHI:PETROWORKS:rC:NONE:v2 
PEF      .b/elec      UNKNOWN        : PEF:PETROWORKS:rC:NONE:v1 
POTA     .wtpercent   UNKNOWN        : POTA:UNKNOWN:rC:NONE:v0 (auto-composite)
RHOB     .g/cm3       UNKNOWN        : RHOB:PETROWORKS:rC:NONE:v1 
SP       .mV          UNKNOWN        : SP:PETROWORKS:rC:NONE:v1 
THOR     .UNKNOWN     UNKNOWN        : THOR:UNKNOWN:rC:NONE:v0 (auto-composite)
URAN     .UNKNOWN     UNKNOWN        : URAN:UNKNOWN:rC:NONE:v0 (auto-composite)
~A     DEPTH         CALI          CGR         DRHO           DT           GR          ILD          ILM          LLD          LLS         MSFL         NPHI          PEF         POTA         RHOB           SP         THOR         URAN
# ...
   3487.2156       6.7031    -999.2500       0.1297    -999.2500      20.8023    -999.2500    -999.2500     135.4623     187.8008      41.6886       0.0617       3.2361    -999.2500       2.7900     -13.6511    -999.2500    -999.2500
   3487.3679       7.1393    -999.2500       0.0968    -999.2500      19.4273    -999.2500    -999.2500      61.0969      83.7162      37.2991       0.0752       3.1306    -999.2500       2.7909     -13.5499    -999.2500    -999.2500
   3487.5203       6.9672    -999.2500       0.0669    -999.2500      18.3529    -999.2500    -999.2500      36.2174      48.6199      47.3375       0.0813       3.0421    -999.2500       2.7792     -11.7210    -999.2500    -999.2500
   3487.6726       6.9761    -999.2500       0.0493    -999.2500      17.9544    -999.2500    -999.2500      33.8126      45.1493      71.3601       0.0803       3.0001    -999.2500       2.7665     -10.3261    -999.2500    -999.2500
   3487.8250       6.8314    -999.2500       0.0520    -999.2500      18.8810    -999.2500    -999.2500      45.1111      58.4032      80.7007       0.0777       3.0045    -999.2500       2.7420     -10.9021    -999.2500    -999.2500
   3487.9775       6.8189    -999.2500       0.0834    -999.2500      20.3879    -999.2500    -999.2500      45.9239      58.7009      31.6694       0.0715       3.0514    -999.2500       2.7151      -9.8314    -999.2500    -999.2500
   3488.1299       6.9164    -999.2500       0.1339    -999.2500      23.1576    -999.2500    -999.2500      43.4264      55.5821      13.6355       0.0618       3.1272    -999.2500       2.6967      -9.7954    -999.2500    -999.2500
   3488.2822       6.7395    -999.2500       0.1828    -999.2500      27.7922    -999.2500    -999.2500      50.8834      64.6853      11.8019       0.0534       3.2105    -999.2500       2.7052     -10.3809    -999.2500    -999.2500
   3488.4346       6.4160    -999.2500       0.1995    -999.2500      31.6429    -999.2500    -999.2500      67.1594      83.0430      16.2908       0.0506       3.2710    -999.2500       2.7245     -10.6012    -999.2500    -999.2500
   3488.5872       6.2534    -999.2500       0.1736    -999.2500      31.4785    -999.2500    -999.2500     104.6992     124.3476      18.2785       0.0528       3.2897    -999.2500       2.7305      -9.7721    -999.2500    -999.2500
   3488.7395       6.3033    -999.2500       0.1199    -999.2500      29.7949    -999.2500    -999.2500     105.4698     121.0152      20.6170       0.0565       3.2863    -999.2500       2.7261      -9.1752    -999.2500    -999.2500
   3488.8918       6.5082    -999.2500       0.0676    -999.2500      28.2471    -999.2500    -999.2500      94.8732     103.0869      22.1271       0.0568       3.2784    -999.2500       2.7217      -7.7626    -999.2500    -999.2500
   3489.0442       6.6892    -999.2500       0.0348    -999.2500      28.0068    -999.2500    -999.2500      80.0903      84.3568      28.4398       0.0546       3.2680    -999.2500       2.7194      -5.6705    -999.2500    -999.2500
   3489.1968       6.6704    -999.2500       0.0151    -999.2500      26.0576    -999.2500    -999.2500      69.2704      74.3070      18.7036       0.0574       3.2330    -999.2500       2.6965      -5.0173    -999.2500    -999.2500
   3489.3491       6.6243    -999.2500       0.0111    -999.2500      24.1233    -999.2500    -999.2500      66.8354      74.1662       9.2035       0.0624       3.1947    -999.2500       2.6763      -5.2719    -999.2500    -999.2500
   3489.5015       6.6420    -999.2500       0.0238    -999.2500      24.4803    -999.2500    -999.2500      66.8919      76.9142       7.4360       0.0658       3.1853    -999.2500       2.6817      -5.1320    -999.2500    -999.2500
   3489.6538       6.9050    -999.2500       0.0525    -999.2500      25.3198    -999.2500    -999.2500      68.5396      80.5421      15.3112       0.0762       3.2023    -999.2500       2.6877      -7.1368    -999.2500    -999.2500
   3489.8062       7.0757    -999.2500       0.0695    -999.2500      26.5560    -999.2500    -999.2500      53.2074      62.4983       6.8186       0.1115       3.1941    -999.2500       2.6185     -10.7339    -999.2500    -999.2500
   3489.9587       8.0452    -999.2500       0.0867    -999.2500      26.4481    -999.2500    -999.2500      25.5413      29.8936       2.1494       0.1424       3.1660    -999.2500       2.5385     -16.2219    -999.2500    -999.2500
   3490.1111      10.2371    -999.2500       0.1095    -999.2500      27.4726    -999.2500    -999.2500      16.4775      19.1670       1.5172       0.1412       3.1692    -999.2500       2.5236     -31.2818    -999.2500    -999.2500
   3490.2634       7.7747    -999.2500       0.1361    -999.2500      28.6480    -999.2500    -999.2500      17.8366      21.3181       2.0864       0.1329       3.2274    -999.2500       2.6096     -59.1441    -999.2500    -999.2500
   3490.4158       7.5167    -999.2500       0.1416    -999.2500      30.4224    -999.2500    -999.2500      24.8130      31.2258       4.8732       0.0946       3.2902    -999.2500       2.7084     -56.9703    -999.2500    -999.2500
   3490.5684       7.2921    -999.2500       0.1228    -999.2500      30.1743    -999.2500    -999.2500      32.1623      41.0387      12.7233       0.0604       3.3038    -999.2500       2.7726     -51.6213    -999.2500    -999.2500
   3490.7207       7.1428    -999.2500       0.1039    -999.2500      30.1559    -999.2500    -999.2500      45.8998      57.9809      37.8335       0.0426       3.2643    -999.2500       2.8000     -44.9434    -999.2500    -999.2500
   3490.8730       7.1184    -999.2500       0.0932    -999.2500      30.4553    -999.2500    -999.2500      51.2295      63.6668      26.7836       0.0381       3.2113    -999.2500       2.7894     -35.4420    -999.2500    -999.2500
   3491.0254       7.1673    -999.2500       0.0920    -999.2500      32.5252    -999.2500    -999.2500      44.6733      54.6398      18.8889       0.0404       3.1793    -999.2500       2.7394     -27.1542    -999.2500    -999.2500
   3491.1780       7.2783    -999.2500       0.0967    -999.2500      32.3158    -999.2500    -999.2500      36.3972      42.7630       6.8219       0.0609       3.1858    -999.2500       2.6726     -19.8344    -999.2500    -999.2500
   3491.3303       7.4002    -999.2500       0.0955    -999.2500      32.6164    -999.2500    -999.2500      20.6146      23.4970       2.6331       0.0951       3.1995    -999.2500       2.6065     -18.2778    -999.2500    -999.2500
   3491.4827       7.7540    -999.2500       0.0955    -999.2500      34.2255    -999.2500    -999.2500      12.4916      14.1310       2.2578       0.1188       3.1937    -999.2500       2.5974     -21.6334    -999.2500    -999.2500
   3491.6350       7.2398    -999.2500       0.0926    -999.2500      37.0730    -999.2500    -999.2500      10.4149      11.9259       5.3340       0.1141       3.1556    -999.2500       2.6421     -19.3848    -999.2500    -999.2500
   3491.7874       7.0917    -999.2500       0.0861    -999.2500      38.4084    -999.2500    -999.2500      12.3064      14.1155      14.1082       0.0826       3.1138    -999.2500       2.7057      -9.6607    -999.2500    -999.2500
   3491.9399       7.0847    -999.2500       0.0710    -999.2500      39.0616    -999.2500    -999.2500      22.2983      25.3479      29.3799       0.0529       3.0945    -999.2500       2.7346      -0.4916    -999.2500    -999.2500
   3492.0923       7.1292    -999.2500       0.0699    -999.2500      39.1133    -999.2500    -999.2500      35.8932      40.7097      26.0668       0.0366       3.1218    -999.2500       2.7365       6.0002    -999.2500    -999.2500
   3492.2446       7.1952    -999.2500       0.0872    -999.2500      39.2542    -999.2500    -999.2500      34.2437      39.4815      17.2479       0.0400       3.1566    -999.2500       2.6868       4.8134    -999.2500    -999.2500
   3492.3970       7.4201    -999.2500       0.1207    -999.2500      37.9754    -999.2500    -999.2500      26.7384      31.5696       5.6786       0.0758       3.1652    -999.2500       2.6233      -0.6356    -999.2500    -999.2500
