#------------------------------------------------------------------------------
#
#   Created by  : [OpenWorks] Log Export Utility (LEXP)
#   Created on  : 2016-05-18 16:32:12
#   Project     : CANT971
#   User        : R5K
#   Interpreter : PEP
#
#------------------------------------------------------------------------------
~VERSION INFORMATION
VERS. 2.0 : CWLS Log ASCII Standard - version 2.0
WRAP.  NO : One line per depth step
~WELL INFORMATION
#MNEMONIC   .UNIT                                           VALUE :DESCRIPTION
#------------------------------------------------------------------------------
STRT        .M                                          1316.2775 :START DEPTH
STOP        .M                                          3511.7520 :STOP DEPTH
STEP        .M                                             0.1524 :STEP
NULL        .                                           -999.2500 :NULL VALUE
COMP        .                                   PEMEX EXPL & PROD :COMPANY
WELL        .                                                2084 :WELL
FLD         .                                           CANTARELL :FIELD
LOC         .                                             UNKNOWN :LOCATION
CNTY        .                                      CD. DEL CARMEN :COUNTY
STAT        .                                            CAMPECHE :STATE
CTRY        .                                              MEXICO :COUNTRY
SRVC        .                                             UNKNOWN :SERVICE COMPANY
DATE        .                                             UNKNOWN :LOG DATE
UWI         .                                          3060000674 :UNIQUE WELL ID
XCOORD      .                                       600034.090000 :SURFACE X
YCOORD      .                                      2139445.530000 :SURFACE Y
LAT         .                                           19.347677 :LATITUDE
LON         .                                          -92.047610 :LONGITUDE
ELEV        .M                                            27.4000 :SURFACE ELEV
ELEV_TYPE   .                                                  KB :ELEV TYPE
~CURVE INFORMATION
#MNEMONIC.UNIT        API CODE       : CURVE DESCRIPTION
#------------------------------------------------------------------------------
DEPTH    .M                          : Measured Depth
CALI     .inches      UNKNOWN        : CALI:PETROWORKS:rC:NONE:v1 
CGR      .UNKNOWN     UNKNOWN        : CGR:UNKNOWN:rC:NONE:v0 (auto-composite)
DRHO     .UNKNOWN     UNKNOWN        : DRHO:PETROWORKS:rC:NONE:v1 
DT       .us/ft       UNKNOWN        : DT:DT:rC:NONE:v0 (auto-composite)
GR       .API         UNKNOWN        : GR:PETROWORKS:rC:NONE:v2 
ILD      .UNKNOWN     UNKNOWN        : ILD:UNKNOWN:rC:NONE:v0 (auto-composite)
ILM      .UNKNOWN     UNKNOWN        : ILM:UNKNOWN:rC:NONE:v0 (auto-composite)
LLD      .ohm.m       UNKNOWN        : LLD:PETROWORKS:rC:NONE:v1 
LLS      .UNKNOWN     UNKNOWN        : LLS:PETROWORKS:rC:NONE:v1 
MSFL     .UNKNOWN     UNKNOWN        : MSFL:PETROWORKS:rC:NONE:v1 
NPHI     .v/v_decimal UNKNOWN        : NPHI:PETROWORKS:rC:NONE:v2 
PEF      .b/elec      UNKNOWN        : PEF:PETROWORKS:rC:NONE:v1 
POTA     .wtpercent   UNKNOWN        : POTA:UNKNOWN:rC:NONE:v0 (auto-composite)
RHOB     .g/cm3       UNKNOWN        : RHOB:PETROWORKS:rC:NONE:v1 
SP       .mV          UNKNOWN        : SP:PETROWORKS:rC:NONE:v1 
THOR     .UNKNOWN     UNKNOWN        : THOR:UNKNOWN:rC:NONE:v0 (auto-composite)
URAN     .UNKNOWN     UNKNOWN        : URAN:UNKNOWN:rC:NONE:v0 (auto-composite)
~A     DEPTH         CALI          CGR         DRHO           DT           GR          ILD          ILM          LLD          LLS         MSFL         NPHI          PEF         POTA         RHOB           SP         THOR         URAN
# ...
   3449.8774       7.1234    -999.2500       0.0919    -999.2500      43.8502    -999.2500    -999.2500      37.2930      41.2216      37.5224       0.0223       4.9399    -999.2500       2.6790      -3.6501    -999.2500    -999.2500
   3450.0298       7.0996    -999.2500       0.0964    -999.2500      46.2311    -999.2500    -999.2500      38.8549      43.5366      37.5584       0.0196       4.9498    -999.2500       2.6912      -3.2999    -999.2500    -999.2500
   3450.1824       7.0572    -999.2500       0.1051    -999.2500      49.9716    -999.2500    -999.2500      39.1265      45.7254      41.5294       0.0175       4.9614    -999.2500       2.6950      -3.6584    -999.2500    -999.2500
   3450.3347       7.0956    -999.2500       0.1150    -999.2500      56.9521    -999.2500    -999.2500      41.9914      52.0790      20.6531       0.0172       4.9715    -999.2500       2.6963      -7.1625    -999.2500    -999.2500
   3450.4871       7.1950    -999.2500       0.1189    -999.2500      63.1101    -999.2500    -999.2500      30.3894      39.8883      14.0052       0.0189       4.9648    -999.2500       2.6979      -9.2148    -999.2500    -999.2500
   3450.6394       7.1288    -999.2500       0.1178    -999.2500      67.3595    -999.2500    -999.2500      20.8451      27.9965      14.1784       0.0209       4.9389    -999.2500       2.7024      -4.7732    -999.2500    -999.2500
   3450.7917       7.0903    -999.2500       0.1161    -999.2500      65.1642    -999.2500    -999.2500      18.0195      25.0468      38.9814       0.0216       4.8896    -999.2500       2.6746      -3.7932    -999.2500    -999.2500
   3450.9443       7.1071    -999.2500       0.1187    -999.2500      63.7713    -999.2500    -999.2500      27.5762      38.2334      13.5088       0.0347       4.8130    -999.2500       2.6262      -5.8136    -999.2500    -999.2500
   3451.0967       7.1844    -999.2500       0.1164    -999.2500      63.5783    -999.2500    -999.2500      22.9527      32.4303       2.5495       0.0762       4.7162    -999.2500       2.5639     -11.9803    -999.2500    -999.2500
   3451.2490       7.0949    -999.2500       0.1099    -999.2500      62.1731    -999.2500    -999.2500       8.8828      13.0586       2.0557       0.1093       4.6433    -999.2500       2.5325     -15.4724    -999.2500    -999.2500
   3451.4014       7.2189    -999.2500       0.0984    -999.2500      54.8554    -999.2500    -999.2500       5.1339       8.2183       6.1600       0.1177       4.6211    -999.2500       2.5209      -4.6385    -999.2500    -999.2500
   3451.5540       7.2039    -999.2500       0.0875    -999.2500      45.3894    -999.2500    -999.2500       7.3605      10.9111      28.2207       0.1069       4.6274    -999.2500       2.5100      -2.5118    -999.2500    -999.2500
   3451.7063       7.2051    -999.2500       0.0775    -999.2500      37.1972    -999.2500    -999.2500      30.5100      42.2033      25.0012       0.1101       4.6475    -999.2500       2.4878      -5.7257    -999.2500    -999.2500
   3451.8586       7.1925    -999.2500       0.0708    -999.2500      34.6092    -999.2500    -999.2500      64.2281      84.1583      19.6876       0.1214       4.6668    -999.2500       2.4655      -7.6612    -999.2500    -999.2500
   3452.0110       7.1920    -999.2500       0.0709    -999.2500      35.0297    -999.2500    -999.2500      65.7509      82.8359      18.9967       0.1267       4.6980    -999.2500       2.4586      -9.1093    -999.2500    -999.2500
   3452.1636       7.2297    -999.2500       0.0754    -999.2500      36.8450    -999.2500    -999.2500      61.8712      76.3787      22.2236       0.1216       4.7375    -999.2500       2.4676     -10.4127    -999.2500    -999.2500
   3452.3159       7.2808    -999.2500       0.0812    -999.2500      41.4692    -999.2500    -999.2500      62.7334      75.9032      31.1571       0.1075       4.7794    -999.2500       2.4908     -10.5536    -999.2500    -999.2500
   3452.4683       7.2981    -999.2500       0.0839    -999.2500      45.1264    -999.2500    -999.2500      68.0183      78.4482      47.6209       0.0951       4.8099    -999.2500       2.5194     -10.7317    -999.2500    -999.2500
   3452.6206       7.2735    -999.2500       0.0808    -999.2500      48.1549    -999.2500    -999.2500      75.0845      79.6146      58.2025       0.0903       4.8075    -999.2500       2.5272     -11.0424    -999.2500    -999.2500
   3452.7729       7.2608    -999.2500       0.0757    -999.2500      45.8329    -999.2500    -999.2500      80.6965      82.4459      47.6856       0.0964       4.7764    -999.2500       2.5085     -10.8417    -999.2500    -999.2500
   3452.9255       7.2558    -999.2500       0.0702    -999.2500      42.4689    -999.2500    -999.2500      75.8137      76.8199      32.7990       0.1109       4.7292    -999.2500       2.4734     -10.3675    -999.2500    -999.2500
   3453.0779       7.3162    -999.2500       0.0668    -999.2500      38.0555    -999.2500    -999.2500      67.2315      67.2586      22.6424       0.1268       4.6825    -999.2500       2.4452     -11.2178    -999.2500    -999.2500
   3453.2302       7.3946    -999.2500       0.0647    -999.2500      36.6478    -999.2500    -999.2500      55.3603      54.3095      18.1929       0.1398       4.6478    -999.2500       2.4296     -13.0550    -999.2500    -999.2500
   3453.3826       7.4351    -999.2500       0.0627    -999.2500      36.5026    -999.2500    -999.2500      47.6527      46.0272      17.1356       0.1497       4.6290    -999.2500       2.4187     -14.4706    -999.2500    -999.2500
   3453.5352       7.4534    -999.2500       0.0614    -999.2500      37.6291    -999.2500    -999.2500      44.5767      42.7634      17.5947       0.1534       4.6201    -999.2500       2.4159     -15.0889    -999.2500    -999.2500
   3453.6875       7.4626    -999.2500       0.0620    -999.2500      38.8076    -999.2500    -999.2500      43.5856      41.7600      18.5320       0.1484       4.6112    -999.2500       2.4316     -15.5270    -999.2500    -999.2500
   3453.8398       7.4013    -999.2500       0.0647    -999.2500      39.8416    -999.2500    -999.2500      42.5693      42.7721      22.1159       0.1284       4.5957    -999.2500       2.4639     -13.4704    -999.2500    -999.2500
   3453.9922       7.4407    -999.2500       0.0675    -999.2500      41.3891    -999.2500    -999.2500      44.5929      46.0766      31.3532       0.1080       4.5841    -999.2500       2.4926     -12.3156    -999.2500    -999.2500
   3454.1448       7.6187    -999.2500       0.0660    -999.2500      40.8888    -999.2500    -999.2500      52.9814      53.1905      34.8738       0.1004       4.5776    -999.2500       2.4868     -13.4715    -999.2500    -999.2500
   3454.2971       7.5809    -999.2500       0.0622    -999.2500      38.8997    -999.2500    -999.2500      59.3140      56.1311      26.9816       0.1176       4.5707    -999.2500       2.4581     -16.0095    -999.2500    -999.2500
   3454.4495       7.5620    -999.2500       0.0589    -999.2500      36.0799    -999.2500    -999.2500      54.4278      49.1598      18.9592       0.1445       4.5545    -999.2500       2.4257     -18.1532    -999.2500    -999.2500
   3454.6018       7.5676    -999.2500       0.0576    -999.2500      34.0666    -999.2500    -999.2500      45.0094      39.5221      15.7995       0.1629       4.5358    -999.2500       2.4107     -20.2739    -999.2500    -999.2500
   3454.7542       7.6564    -999.2500       0.0583    -999.2500      33.6275    -999.2500    -999.2500      41.0924      36.4082      14.9275       0.1699       4.5315    -999.2500       2.4026     -23.8380    -999.2500    -999.2500
   3454.9067       7.6590    -999.2500       0.0591    -999.2500      34.1264    -999.2500    -999.2500      39.7167      35.0831      14.6395       0.1707       4.5368    -999.2500       2.3965     -27.3828    -999.2500    -999.2500
   3455.0591       7.5696    -999.2500       0.0595    -999.2500      35.7337    -999.2500    -999.2500      41.1695      36.3742      14.7105       0.1723       4.5284    -999.2500       2.3932     -29.6239    -999.2500    -999.2500
