#------------------------------------------------------------------------------
#
#   Created by  : [OpenWorks] Log Export Utility (LEXP)
#   Created on  : 2016-05-18 16:32:12
#   Project     : CANT971
#   User        : R5K
#   Interpreter : PEP
#
#------------------------------------------------------------------------------
~VERSION INFORMATION
VERS. 2.0 : CWLS Log ASCII Standard - version 2.0
WRAP.  NO : One line per depth step
~WELL INFORMATION
#MNEMONIC   .UNIT                                           VALUE :DESCRIPTION
#------------------------------------------------------------------------------
STRT        .M                                          1316.2775 :START DEPTH
STOP        .M                                          3511.7520 :STOP DEPTH
STEP        .M                                             0.1524 :STEP
NULL        .                                           -999.2500 :NULL VALUE
COMP        .                                   PEMEX EXPL & PROD :COMPANY
WELL        .                                                2084 :WELL
FLD         .                                           CANTARELL :FIELD
LOC         .                                             UNKNOWN :LOCATION
CNTY        .                                      CD. DEL CARMEN :COUNTY
STAT        .                                            CAMPECHE :STATE
CTRY        .                                              MEXICO :COUNTRY
SRVC        .                                             UNKNOWN :SERVICE COMPANY
DATE        .                                             UNKNOWN :LOG DATE
UWI         .                                          3060000674 :UNIQUE WELL ID
XCOORD      .                                       600034.090000 :SURFACE X
YCOORD      .                                      2139445.530000 :SURFACE Y
LAT         .                                           19.347677 :LATITUDE
LON         .                                          -92.047610 :LONGITUDE
ELEV        .M                                            27.4000 :SURFACE ELEV
ELEV_TYPE   .                                                  KB :ELEV TYPE
~CURVE INFORMATION
#MNEMONIC.UNIT        API CODE       : CURVE DESCRIPTION
#------------------------------------------------------------------------------
DEPTH    .M                          : Measured Depth
CALI     .inches      UNKNOWN        : CALI:PETROWORKS:rC:NONE:v1 
CGR      .UNKNOWN     UNKNOWN        : CGR:UNKNOWN:rC:NONE:v0 (auto-composite)
DRHO     .UNKNOWN     UNKNOWN        : DRHO:PETROWORKS:rC:NONE:v1 
DT       .us/ft       UNKNOWN        : DT:DT:rC:NONE:v0 (auto-composite)
GR       .API         UNKNOWN        : GR:PETROWORKS:rC:NONE:v2 
ILD      .UNKNOWN     UNKNOWN        : ILD:UNKNOWN:rC:NONE:v0 (auto-composite)
ILM      .UNKNOWN     UNKNOWN        : ILM:UNKNOWN:rC:NONE:v0 (auto-composite)
LLD      .ohm.m       UNKNOWN        : LLD:PETROWORKS:rC:NONE:v1 
LLS      .UNKNOWN     UNKNOWN        : LLS:PETROWORKS:rC:NONE:v1 
MSFL     .UNKNOWN     UNKNOWN        : MSFL:PETROWORKS:rC:NONE:v1 
NPHI     .v/v_decimal UNKNOWN        : NPHI:PETROWORKS:rC:NONE:v2 
PEF      .b/elec      UNKNOWN        : PEF:PETROWORKS:rC:NONE:v1 
POTA     .wtpercent   UNKNOWN        : POTA:UNKNOWN:rC:NONE:v0 (auto-composite)
RHOB     .g/cm3       UNKNOWN        : RHOB:PETROWORKS:rC:NONE:v1 
SP       .mV          UNKNOWN        : SP:PETROWORKS:rC:NONE:v1 
THOR     .UNKNOWN     UNKNOWN        : THOR:UNKNOWN:rC:NONE:v0 (auto-composite)
URAN     .UNKNOWN     UNKNOWN        : URAN:UNKNOWN:rC:NONE:v0 (auto-composite)
~A     DEPTH         CALI          CGR         DRHO           DT           GR          ILD          ILM          LLD          LLS         MSFL         NPHI          PEF         POTA         RHOB           SP         THOR         URAN
# ...
   3369.8674       9.3436       9.0640       0.0868      63.1390      19.4405    -999.2500    -999.2500       8.7695      14.5046      20.4098       0.0702       4.0685       0.0031       2.5882      32.4781       1.2700       0.9310
   3370.0198       9.3006      10.5747       0.0891      61.0551      18.5298    -999.2500    -999.2500      10.7983      17.8066      25.7478       0.0596       4.1241       0.0041       2.6084      40.1119       1.2269       0.9583
   3370.1724       9.2781      12.1130       0.0905      58.9400      19.4817    -999.2500    -999.2500      12.4024      20.5065      29.0569       0.0463       4.2931       0.0052       2.6301      41.2349       1.1830       0.9860
   3370.3247       9.2952      11.9761       0.0933      59.0189      20.0824    -999.2500    -999.2500      13.8711      23.1145      29.6015       0.0335       4.4740       0.0047       2.6476      39.4048       1.2995       1.1308
   3370.4771       9.2926      11.8370       0.0950      59.0990      21.3911    -999.2500    -999.2500      14.9956      24.5323      27.1610       0.0262       4.5989       0.0041       2.6571      39.0236       1.4180       1.2780
   3370.6294       9.3061      12.7468       0.0936      59.9748      24.3284    -999.2500    -999.2500      14.7527      24.3507      21.1667       0.0230       4.6858       0.0043       2.6515      40.4016       1.8851       1.4238
   3370.7820       9.3165      13.6720       0.0917      60.8640      30.6552    -999.2500    -999.2500      14.2107      23.6442      19.4669       0.0227       4.7774       0.0044       2.6456      40.7347       2.3600       1.5720
   3370.9343       9.3487      16.3577       0.0917      60.0482      38.3407    -999.2500    -999.2500      12.1151      20.2113      12.8178       0.0214       4.8618       0.0050       2.6485      41.2246       2.6456       1.6241
   3371.0867       9.3749      19.0890       0.0934      59.2200      42.7778    -999.2500    -999.2500      10.0911      16.8506      12.7285       0.0196       4.9108       0.0055       2.6625      41.3392       2.9360       1.6770
   3371.2390       9.3958      18.7415       0.0943      57.1123      44.1339    -999.2500    -999.2500       9.8949      16.6179      17.1320       0.0173       4.9271       0.0059       2.6778      42.6621       2.8235       1.7097
   3371.3914       9.3361      18.3880       0.0916      54.9720      41.8376    -999.2500    -999.2500      13.0437      21.8581      41.9012       0.0168       4.9135       0.0063       2.6782      40.6325       2.7090       1.7430
   3371.5439       9.3181      19.0592       0.0891      55.4017      37.1650    -999.2500    -999.2500      18.6205      31.6126      44.3620       0.0186       4.8798       0.0064       2.6690      37.6763       2.7918       1.6473
   3371.6963       9.3444      19.7420       0.0884      55.8380      30.0428    -999.2500    -999.2500      20.4106      34.9767      34.8305       0.0214       4.8393       0.0066       2.6525      37.1303       2.8760       1.5500
   3371.8486       9.4095      18.4314       0.0919      56.6486      25.3444    -999.2500    -999.2500      16.6728      28.3620      27.7377       0.0222       4.8326       0.0062       2.6476      37.9063       2.7645       1.6070
   3372.0010       9.3802      17.0980       0.0943      57.4720      25.7623    -999.2500    -999.2500      14.0486      23.3046      24.5374       0.0206       4.8646       0.0058       2.6525      40.1201       2.6510       1.6650
   3372.1536       9.4165      17.5193       0.0956      56.7869      30.5282    -999.2500    -999.2500      12.6017      21.1938      29.1716       0.0154       4.9153       0.0061       2.6691      43.4693       2.4959       1.6199
   3372.3059       9.3908      17.9480       0.0964      56.0910      35.2813    -999.2500    -999.2500      13.7613      22.9667      40.2079       0.0111       4.9508       0.0063       2.6907      45.9565       2.3380       1.5740
   3372.4583       9.3798      19.1935       0.0970      54.6351      36.4550    -999.2500    -999.2500      15.9279      26.3987      66.6426       0.0075       4.9687       0.0068       2.7082      47.6728       2.5244       1.4313
   3372.6106       9.3973      20.4610       0.0944      53.1560      35.8819    -999.2500    -999.2500      21.1877      35.1253      88.5780       0.0052       4.9719       0.0073       2.7162      49.1433       2.7140       1.2860
   3372.7632       9.4299      21.4725       0.0889      53.7453      34.6618    -999.2500    -999.2500      28.9819      48.2459      92.3901       0.0041       4.9585       0.0075       2.7138      48.3075       2.9474       1.1690
   3372.9155       9.4406      22.5020       0.0838      54.3440      34.9172    -999.2500    -999.2500      38.5344      63.6155      79.1063       0.0043       4.9280       0.0077       2.7117      46.5329       3.1850       1.0500
   3373.0679       9.4151      22.7419       0.0782      56.1866      36.4417    -999.2500    -999.2500      38.5826      66.0558      54.2318       0.0065       4.8801       0.0077       2.7075      43.8907       3.2564       1.0232
   3373.2202       9.3961      22.9860       0.0736      58.0590      39.5771    -999.2500    -999.2500      29.7504      55.9369      33.3681       0.0101       4.8367       0.0077       2.7001      40.6418       3.3290       0.9960
   3373.3726       9.3694      22.9860       0.0700      61.6381      44.1488    -999.2500    -999.2500      18.8258      37.9304      22.0195       0.0167       4.7919       0.0077       2.6863      37.6966       3.3290       0.9960
   3373.5251       9.3805      22.9860       0.0782      65.2700      49.3855    -999.2500    -999.2500      11.3636      24.1155      15.2911       0.0257       4.7385       0.0077       2.6710      35.6701       3.3290       0.9960
   3373.6775       9.4029      22.9860       0.0978      69.7200      53.9405    -999.2500    -999.2500       8.8240      18.5246      12.4190       0.0448       4.6517       0.0077       2.6234      33.8401       3.3290       0.9960
   3373.8298       9.4560      22.9860       0.1264      74.2360      58.5285    -999.2500    -999.2500       7.3443      14.9727       4.8028       0.0879       4.5574       0.0077       2.5709      27.4653       3.3290       0.9960
   3373.9822       9.4213      22.9860       0.1404      70.7079      60.9413    -999.2500    -999.2500       3.9797       8.4679       1.9306       0.1327       4.4924       0.0077       2.5308      19.4127       3.3290       0.9960
   3374.1348       9.5393      22.9860       0.1383      67.1270      57.7078    -999.2500    -999.2500       2.0936       4.7838       1.7956       0.1332       4.5274       0.0077       2.5564      21.6128       3.3290       0.9960
   3374.2871       9.6549      22.9860       0.1172      60.8489      48.8799    -999.2500    -999.2500       1.8736       4.0963       8.7567       0.0885       4.6424       0.0077       2.5978      28.4086       3.3290       0.9960
   3374.4395       9.4784      22.9860       0.0974      54.4760      37.7801    -999.2500    -999.2500       3.9285       8.5244      43.5679       0.0459       4.7594       0.0077       2.6241      26.6803       3.3290       0.9960
   3374.5918       9.3847      22.9860       0.0851      55.5265      30.9576    -999.2500    -999.2500      12.2026      25.7439      45.4512       0.0372       4.8159       0.0077       2.6219      20.7830       3.3290       0.9960
   3374.7444       9.3961      22.9860       0.0822      56.5930      27.8140    -999.2500    -999.2500      26.2209      54.0267      41.5910       0.0406       4.8164       0.0077       2.6115      14.7337       3.3290       0.9960
   3374.8967       9.3598      22.9860       0.0830      57.4618      25.6225    -999.2500    -999.2500      30.5434      61.0203      42.1985       0.0414       4.8080       0.0077       2.6088       9.0577       3.3290       0.9960
   3375.0491       9.3246      22.9860       0.0851      58.3440      24.0321    -999.2500    -999.2500      29.7946      57.7679      47.5112       0.0363       4.7985       0.0077       2.6111       4.3517       3.3290       0.9960
