#------------------------------------------------------------------------------
#
#   Created by  : [OpenWorks] Log Export Utility (LEXP)
#   Created on  : 2016-05-18 16:32:12
#   Project     : CANT971
#   User        : R5K
#   Interpreter : PEP
#
#------------------------------------------------------------------------------
~VERSION INFORMATION
VERS. 2.0 : CWLS Log ASCII Standard - version 2.0
WRAP.  NO : One line per depth step
~WELL INFORMATION
#MNEMONIC   .UNIT                                           VALUE :DESCRIPTION
#------------------------------------------------------------------------------
STRT        .M                                          1316.2775 :START DEPTH
STOP        .M                                          3511.7520 :STOP DEPTH
STEP        .M                                             0.1524 :STEP
NULL        .                                           -999.2500 :NULL VALUE
COMP        .                                   PEMEX EXPL & PROD :COMPANY
WELL        .                                                2084 :WELL
FLD         .                                           CANTARELL :FIELD
LOC         .                                             UNKNOWN :LOCATION
CNTY        .                                      CD. DEL CARMEN :COUNTY
STAT        .                                            CAMPECHE :STATE
CTRY        .                                              MEXICO :COUNTRY
SRVC        .                                             UNKNOWN :SERVICE COMPANY
DATE        .                                             UNKNOWN :LOG DATE
UWI         .                                          3060000674 :UNIQUE WELL ID
XCOORD      .                                       600034.090000 :SURFACE X
YCOORD      .                                      2139445.530000 :SURFACE Y
LAT         .                                           19.347677 :LATITUDE
LON         .                                          -92.047610 :LONGITUDE
ELEV        .M                                            27.4000 :SURFACE ELEV
ELEV_TYPE   .                                                  KB :ELEV TYPE
~CURVE INFORMATION
#MNEMONIC.UNIT        API CODE       : CURVE DESCRIPTION
#------------------------------------------------------------------------------
DEPTH    .M                          : Measured Depth
CALI     .inches      UNKNOWN        : CALI:PETROWORKS:rC:NONE:v1 
CGR      .UNKNOWN     UNKNOWN        : CGR:UNKNOWN:rC:NONE:v0 (auto-composite)
DRHO     .UNKNOWN     UNKNOWN        : DRHO:PETROWORKS:rC:NONE:v1 
DT       .us/ft       UNKNOWN        : DT:DT:rC:NONE:v0 (auto-composite)
GR       .API         UNKNOWN        : GR:PETROWORKS:rC:NONE:v2 
ILD      .UNKNOWN     UNKNOWN        : ILD:UNKNOWN:rC:NONE:v0 (auto-composite)
ILM      .UNKNOWN     UNKNOWN        : ILM:UNKNOWN:rC:NONE:v0 (auto-composite)
LLD      .ohm.m       UNKNOWN        : LLD:PETROWORKS:rC:NONE:v1 
LLS      .UNKNOWN     UNKNOWN        : LLS:PETROWORKS:rC:NONE:v1 
MSFL     .UNKNOWN     UNKNOWN        : MSFL:PETROWORKS:rC:NONE:v1 
NPHI     .v/v_decimal UNKNOWN        : NPHI:PETROWORKS:rC:NONE:v2 
PEF      .b/elec      UNKNOWN        : PEF:PETROWORKS:rC:NONE:v1 
POTA     .wtpercent   UNKNOWN        : POTA:UNKNOWN:rC:NONE:v0 (auto-composite)
RHOB     .g/cm3       UNKNOWN        : RHOB:PETROWORKS:rC:NONE:v1 
SP       .mV          UNKNOWN        : SP:PETROWORKS:rC:NONE:v1 
THOR     .UNKNOWN     UNKNOWN        : THOR:UNKNOWN:rC:NONE:v0 (auto-composite)
URAN     .UNKNOWN     UNKNOWN        : URAN:UNKNOWN:rC:NONE:v0 (auto-composite)
~A     DEPTH         CALI          CGR         DRHO           DT           GR          ILD          ILM          LLD          LLS         MSFL         NPHI          PEF         POTA         RHOB           SP         THOR         URAN
# ...
   3508.5515       8.4434    -999.2500      -0.2053    -999.2500      35.4812    -999.2500    -999.2500       1.5578       0.1350    4124.0073       0.0194       7.7327    -999.2500       1.5600     -10.1009    -999.2500    -999.2500
   3508.7039       8.4434    -999.2500      -0.2075    -999.2500      35.4812    -999.2500    -999.2500       1.5971       0.1071    4124.0063       0.0194       7.7266    -999.2500       1.5578     -10.0963    -999.2500    -999.2500
   3508.8562       8.4434    -999.2500      -0.2080    -999.2500      35.4812    -999.2500    -999.2500       1.6372       0.1426    4124.0059       0.0194       7.7251    -999.2500       1.5573     -10.0917    -999.2500    -999.2500
   3509.0085       8.4434    -999.2500      -0.2068    -999.2500      35.4812    -999.2500    -999.2500       1.6570       0.1665    4124.0063       0.0194       7.7283    -999.2500       1.5584     -10.0872    -999.2500    -999.2500
   3509.1611       8.4434    -999.2500      -0.2058    -999.2500      35.4812    -999.2500    -999.2500       1.6847       0.2160    4124.0073       0.0194       7.7313    -999.2500       1.5595     -10.0826    -999.2500    -999.2500
   3509.3135       8.4434    -999.2500      -0.2052    -999.2500      35.4812    -999.2500    -999.2500       1.7094       0.2032    4124.0088       0.0194       7.7329    -999.2500       1.5601     -10.0780    -999.2500    -999.2500
   3509.4658       8.4434    -999.2500      -0.2059    -999.2500      35.4812    -999.2500    -999.2500       1.6808       0.1260    4124.0210       0.0194       7.7311    -999.2500       1.5594     -10.0734    -999.2500    -999.2500
   3509.6182       8.4434    -999.2500      -0.2061    -999.2500      35.4812    -999.2500    -999.2500       1.7457       0.1424    4124.0430       0.0194       7.7306    -999.2500       1.5592     -10.0689    -999.2500    -999.2500
   3509.7708       8.4434    -999.2500      -0.2061    -999.2500      35.4812    -999.2500    -999.2500       2.0108       0.1863    4124.0654       0.0194       7.7307    -999.2500       1.5592     -10.0643    -999.2500    -999.2500
   3509.9231       8.4434    -999.2500      -0.1224    -999.2500      35.4812    -999.2500    -999.2500       2.0781       0.1964    4124.0752       0.0194       7.7330    -999.2500       1.5600     -10.0597    -999.2500    -999.2500
   3510.0754       8.4434    -999.2500       0.4117    -999.2500      35.4812    -999.2500    -999.2500       2.0811       0.1953    4124.0767       0.0194       7.7385    -999.2500       1.5616     -10.0551    -999.2500    -999.2500
   3510.2278       8.4434    -999.2500       1.0636    -999.2500      35.4812    -999.2500    -999.2500       2.0820       0.1949    4124.0767       0.0194       7.7420    -999.2500       1.5627     -10.0506    -999.2500    -999.2500
   3510.3804       8.4434    -999.2500    -999.2500    -999.2500      35.4812    -999.2500    -999.2500       2.0820       0.1949    4124.0767       0.0194    -999.2500    -999.2500    -999.2500     -10.0460    -999.2500    -999.2500
   3510.5327       8.4434    -999.2500    -999.2500    -999.2500      35.4812    -999.2500    -999.2500       2.0820       0.1949    4124.0767       0.0194    -999.2500    -999.2500    -999.2500     -10.0414    -999.2500    -999.2500
   3510.6851       8.4434    -999.2500    -999.2500    -999.2500      35.4812    -999.2500    -999.2500       2.0820       0.1949    4124.0767       0.0194    -999.2500    -999.2500    -999.2500     -10.0368    -999.2500    -999.2500
   3510.8374       8.4434    -999.2500    -999.2500    -999.2500      35.4812    -999.2500    -999.2500       2.0820       0.1949    4124.0767       0.0194    -999.2500    -999.2500    -999.2500     -10.0323    -999.2500    -999.2500
   3510.9897       8.4434    -999.2500    -999.2500    -999.2500      35.4812    -999.2500    -999.2500       2.0820       0.1949    4124.0767       0.0194    -999.2500    -999.2500    -999.2500     -10.0277    -999.2500    -999.2500
   3511.1423       8.4434    -999.2500    -999.2500    -999.2500      35.4812    -999.2500    -999.2500       2.0820       0.1949    4124.0767       0.0194    -999.2500    -999.2500    -999.2500     -10.0231    -999.2500    -999.2500
   3511.2947       8.4434    -999.2500    -999.2500    -999.2500      35.4812    -999.2500    -999.2500       2.0820       0.1949    4124.0767       0.0194    -999.2500    -999.2500    -999.2500     -10.0185    -999.2500    -999.2500
   3511.4470       8.4434    -999.2500    -999.2500    -999.2500      35.4812    -999.2500    -999.2500       2.0820       0.1949    4124.0771       0.0194    -999.2500    -999.2500    -999.2500     -10.0140    -999.2500    -999.2500
   3511.5994       8.4434    -999.2500    -999.2500    -999.2500      35.4812    -999.2500    -999.2500       2.0820       0.1949    4124.6768       0.0194    -999.2500    -999.2500    -999.2500     -10.0094    -999.2500    -999.2500
   3511.7520       8.4434    -999.2500    -999.2500    -999.2500      35.4812    -999.2500    -999.2500       2.0820       0.1949    4139.8403       0.0194    -999.2500    -999.2500    -999.2500     -10.0048    -999.2500    -999.2500
