#------------------------------------------------------------------------------
#
#   Created by  : [OpenWorks] Log Export Utility (LEXP)
#   Created on  : 2016-05-18 16:32:12
#   Project     : CANT971
#   User        : R5K
#   Interpreter : PEP
#
#------------------------------------------------------------------------------
~VERSION INFORMATION
VERS. 2.0 : CWLS Log ASCII Standard - version 2.0
WRAP.  NO : One line per depth step
~WELL INFORMATION
#MNEMONIC   .UNIT                                           VALUE :DESCRIPTION
#------------------------------------------------------------------------------
STRT        .M                                          1316.2775 :START DEPTH
STOP        .M                                          3511.7520 :STOP DEPTH
STEP        .M                                             0.1524 :STEP
NULL        .                                           -999.2500 :NULL VALUE
COMP        .                                   PEMEX EXPL & PROD :COMPANY
WELL        .                                                2084 :WELL
FLD         .                                           CANTARELL :FIELD
LOC         .                                             UNKNOWN :LOCATION
CNTY        .                                      CD. DEL CARMEN :COUNTY
STAT        .                                            CAMPECHE :STATE
CTRY        .                                              MEXICO :COUNTRY
SRVC        .                                             UNKNOWN :SERVICE COMPANY
DATE        .                                             UNKNOWN :LOG DATE
UWI         .                                          3060000674 :UNIQUE WELL ID
XCOORD      .                                       600034.090000 :SURFACE X
YCOORD      .                                      2139445.530000 :SURFACE Y
LAT         .                                           19.347677 :LATITUDE
LON         .                                          -92.047610 :LONGITUDE
ELEV        .M                                            27.4000 :SURFACE ELEV
ELEV_TYPE   .                                                  KB :ELEV TYPE
~CURVE INFORMATION
#MNEMONIC.UNIT        API CODE       : CURVE DESCRIPTION
#------------------------------------------------------------------------------
DEPTH    .M                          : Measured Depth
CALI     .inches      UNKNOWN        : CALI:PETROWORKS:rC:NONE:v1 
CGR      .UNKNOWN     UNKNOWN        : CGR:UNKNOWN:rC:NONE:v0 (auto-composite)
DRHO     .UNKNOWN     UNKNOWN        : DRHO:PETROWORKS:rC:NONE:v1 
DT       .us/ft       UNKNOWN        : DT:DT:rC:NONE:v0 (auto-composite)
GR       .API         UNKNOWN        : GR:PETROWORKS:rC:NONE:v2 
ILD      .UNKNOWN     UNKNOWN        : ILD:UNKNOWN:rC:NONE:v0 (auto-composite)
ILM      .UNKNOWN     UNKNOWN        : ILM:UNKNOWN:rC:NONE:v0 (auto-composite)
LLD      .ohm.m       UNKNOWN        : LLD:PETROWORKS:rC:NONE:v1 
LLS      .UNKNOWN     UNKNOWN        : LLS:PETROWORKS:rC:NONE:v1 
MSFL     .UNKNOWN     UNKNOWN        : MSFL:PETROWORKS:rC:NONE:v1 
NPHI     .v/v_decimal UNKNOWN        : NPHI:PETROWORKS:rC:NONE:v2 
PEF      .b/elec      UNKNOWN        : PEF:PETROWORKS:rC:NONE:v1 
POTA     .wtpercent   UNKNOWN        : POTA:UNKNOWN:rC:NONE:v0 (auto-composite)
RHOB     .g/cm3       UNKNOWN        : RHOB:PETROWORKS:rC:NONE:v1 
SP       .mV          UNKNOWN        : SP:PETROWORKS:rC:NONE:v1 
THOR     .UNKNOWN     UNKNOWN        : THOR:UNKNOWN:rC:NONE:v0 (auto-composite)
URAN     .UNKNOWN     UNKNOWN        : URAN:UNKNOWN:rC:NONE:v0 (auto-composite)
~A     DEPTH         CALI          CGR         DRHO           DT           GR          ILD          ILM          LLD          LLS         MSFL         NPHI          PEF         POTA         RHOB           SP         THOR         URAN
# ...
   3311.1934       8.8048      12.0441       0.0271      57.0236      39.1158    -999.2500    -999.2500      75.7852      67.7800      56.6832       0.0806       4.3410       0.0048       2.6273    -999.2500       1.3923       3.0181
   3311.3459       8.8880      12.6470       0.0210      56.8080      38.4930    -999.2500    -999.2500      74.1530      66.5990      39.4780       0.0912       4.1010       0.0052       2.5900    -999.2500       1.4890       2.8720
   3311.4983       8.8548      13.4103       0.0170      58.3644      38.1367    -999.2500    -999.2500      68.1715      60.2049      48.9279       0.0832       4.2864       0.0051       2.6064    -999.2500       1.7883       2.7648
   3311.6506       8.8210      14.1850       0.0130      59.9440      37.7730    -999.2500    -999.2500      62.0760      53.6890      58.5580       0.0752       4.4750       0.0050       2.6230    -999.2500       2.0920       2.6560
   3311.8030       8.7893      12.6555       0.0160      58.9236      35.6229    -999.2500    -999.2500      65.5378      57.8704      51.3873       0.0617       4.7540       0.0041       2.6617    -999.2500       1.8042       2.5657
   3311.9556       8.7570      11.1030       0.0190      57.8880      33.4280    -999.2500    -999.2500      69.0660      62.1320      44.0790       0.0480       5.0380       0.0032       2.7010    -999.2500       1.5120       2.4740
   3312.1079       8.7669       9.7506       0.0220      58.2994      31.8012    -999.2500    -999.2500      79.0079      72.3829      74.5342       0.0506       4.9790       0.0035       2.6822    -999.2500       1.1634       2.4233
   3312.2603       8.7770       8.3800       0.0250      58.7170      30.1430    -999.2500    -999.2500      89.1420      82.8320     105.5780       0.0532       4.9190       0.0039       2.6630    -999.2500       0.8100       2.3720
   3312.4126       8.7919       7.7577       0.0245      60.4791      29.7607    -999.2500    -999.2500      78.7683      73.8553      65.4372       0.0572       4.8530       0.0037       2.6228    -999.2500       0.6635       2.4083
   3312.5652       8.8070       7.1270       0.0240      62.2680      29.3710    -999.2500    -999.2500      68.1930      64.7040      24.5160       0.0611       4.7860       0.0034       2.5820    -999.2500       0.5150       2.4450
   3312.7175       8.8006       6.6557       0.0200      61.6279      29.1457    -999.2500    -999.2500      54.4219      49.9193      31.4758       0.0660       5.0246       0.0032       2.5914    -999.2500       0.4554       2.4827
   3312.8699       8.7940       6.1780       0.0160      60.9780      28.9160    -999.2500    -999.2500      40.3810      34.8450      38.5720       0.0708       5.2670       0.0030       2.6010    -999.2500       0.3950       2.5210
   3313.0222       8.8193       5.5295       0.0081      58.6510      28.6922    -999.2500    -999.2500      43.0651      37.8177      52.5097       0.0700       5.2323       0.0027       2.6144    -999.2500       0.3642       2.5960
   3313.1746       8.8450       4.8720       0.0000      56.2880      28.4640    -999.2500    -999.2500      45.8020      40.8490      66.7220       0.0691       5.1970       0.0023       2.6280    -999.2500       0.3330       2.6720
   3313.3271       8.8336       3.9326       0.0040      57.1136      27.9902    -999.2500    -999.2500      54.9963      49.2189      53.2477       0.0656       5.1216       0.0019       2.6369    -999.2500       0.3544       2.6566
   3313.4795       8.8220       2.9800       0.0080      57.9520      27.5070    -999.2500    -999.2500      64.3730      57.7550      39.5060       0.0621       5.0450       0.0015       2.6460    -999.2500       0.3760       2.6410
   3313.6318       8.8091       3.1751       0.0075      57.5392      26.6010    -999.2500    -999.2500      76.7153      68.2809      40.6090       0.0533       5.1095       0.0013       2.6520    -999.2500       0.4495       2.5576
   3313.7842       8.7960       3.3730       0.0070      57.1200      25.6770    -999.2500    -999.2500      89.3040      79.0170      41.7340       0.0443       5.1750       0.0011       2.6580    -999.2500       0.5240       2.4730
   3313.9368       8.8267       2.7921       0.0085      55.9980      23.0935    -999.2500    -999.2500     105.1522      94.2721      70.8032       0.0365       5.3183       0.0009       2.6679    -999.2500       0.4639       2.2273
   3314.0891       8.8580       2.2030       0.0100      54.8600      20.4580    -999.2500    -999.2500     121.3190     109.8340     100.4570       0.0286       5.4640       0.0007       2.6780    -999.2500       0.4030       1.9780
   3314.2415       8.8183       2.3435       0.0125      56.0708      21.6915    -999.2500    -999.2500     109.5040     100.8038      76.5136       0.0409       5.3004       0.0008       2.6621    -999.2500       0.2898       2.1120
   3314.3938       8.7780       2.4860       0.0150      57.2990      22.9500    -999.2500    -999.2500      97.4500      91.5910      52.0860       0.0532       5.1340       0.0009       2.6460    -999.2500       0.1750       2.2480
   3314.5464       8.7810       4.6801       0.0135      58.9058      27.7269    -999.2500    -999.2500      73.9221      66.6416      52.8532       0.0756       4.9169       0.0021       2.6148    -999.2500       0.2996       2.5448
   3314.6987       8.7840       6.9060       0.0120      60.5360      32.6010    -999.2500    -999.2500      49.9150      41.1840      53.6360       0.0983       4.6960       0.0034       2.5830    -999.2500       0.4260       2.8460
   3314.8511       8.7954       8.6349       0.0080      59.4281      35.7102    -999.2500    -999.2500      52.1891      44.6622      73.6685       0.0977       4.5964       0.0042       2.5870    -999.2500       0.5491       3.0182
   3315.0034       8.8070      10.3890       0.0040      58.3040      38.8830    -999.2500    -999.2500      54.5060      48.2060      94.0790       0.0970       4.4950       0.0051       2.5910    -999.2500       0.6740       3.1930
   3315.1558       8.8229      12.0274       0.0070      59.0361      39.3027    -999.2500    -999.2500      71.2328      64.6192      91.2112       0.0958       4.3299       0.0059       2.6014    -999.2500       0.7460       3.1176
   3315.3083       8.8390      13.6900       0.0100      59.7790      39.7310    -999.2500    -999.2500      88.2770      81.3440      88.2890       0.0945       4.1620       0.0066       2.6120    -999.2500       0.8190       3.0410
   3315.4607       8.8167      13.1753       0.0169      61.0183      39.1005    -999.2500    -999.2500      84.7879      78.0936      75.6053       0.0982       4.1992       0.0063       2.6041    -999.2500       0.8666       2.9601
   3315.6130       8.7940      12.6530       0.0240      62.2760      38.4570    -999.2500    -999.2500      81.2320      74.7810      62.6790       0.1019       4.2370       0.0060       2.5960    -999.2500       0.9150       2.8780
   3315.7654       8.8361      11.0500       0.0215      61.3926      35.4964    -999.2500    -999.2500      74.3695      68.3162      49.0556       0.1004       4.2965       0.0049       2.5826    -999.2500       0.9750       2.8189
   3315.9180       8.8790       9.4230       0.0190      60.4960      32.4740    -999.2500    -999.2500      67.3750      61.7270      35.1700       0.0988       4.3570       0.0038       2.5690    -999.2500       1.0360       2.7590
   3316.0703       8.8592       8.4739       0.0101      61.4964      32.5468    -999.2500    -999.2500      63.5392      58.1863      69.1323       0.0948       4.3977       0.0031       2.5779    -999.2500       1.1045       2.7679
   3316.2227       8.8390       7.5120       0.0010      62.5120      32.6210    -999.2500    -999.2500      59.6290      54.5770     103.7530       0.0908       4.4390       0.0024       2.5870    -999.2500       1.1740       2.7770
   3316.3750       8.8023       7.6858       0.0035      62.1567      33.0538    -999.2500    -999.2500      62.6763      57.6713      79.0301       0.0855       4.5268       0.0023       2.5964    -999.2500       1.2738       2.8212
