#------------------------------------------------------------------------------
#
#   Created by  : [OpenWorks] Log Export Utility (LEXP)
#   Created on  : 2016-05-18 16:32:12
#   Project     : CANT971
#   User        : R5K
#   Interpreter : PEP
#
#------------------------------------------------------------------------------
~VERSION INFORMATION
VERS. 2.0 : CWLS Log ASCII Standard - version 2.0
WRAP.  NO : One line per depth step
~WELL INFORMATION
#MNEMONIC   .UNIT                                           VALUE :DESCRIPTION
#------------------------------------------------------------------------------
STRT        .M                                          1316.2775 :START DEPTH
STOP        .M                                          3511.7520 :STOP DEPTH
STEP        .M                                             0.1524 :STEP
NULL        .                                           -999.2500 :NULL VALUE
COMP        .                                   PEMEX EXPL & PROD :COMPANY
WELL        .                                                2084 :WELL
FLD         .                                           CANTARELL :FIELD
LOC         .                                             UNKNOWN :LOCATION
CNTY        .                                      CD. DEL CARMEN :COUNTY
STAT        .                                            CAMPECHE :STATE
CTRY        .                                              MEXICO :COUNTRY
SRVC        .                                             UNKNOWN :SERVICE COMPANY
DATE        .                                             UNKNOWN :LOG DATE
UWI         .                                          3060000674 :UNIQUE WELL ID
XCOORD      .                                       600034.090000 :SURFACE X
YCOORD      .                                      2139445.530000 :SURFACE Y
LAT         .                                           19.347677 :LATITUDE
LON         .                                          -92.047610 :LONGITUDE
ELEV        .M                                            27.4000 :SURFACE ELEV
ELEV_TYPE   .                                                  KB :ELEV TYPE
~CURVE INFORMATION
#MNEMONIC.UNIT        API CODE       : CURVE DESCRIPTION
#------------------------------------------------------------------------------
DEPTH    .M                          : Measured Depth
CALI     .inches      UNKNOWN        : CALI:PETROWORKS:rC:NONE:v1 
CGR      .UNKNOWN     UNKNOWN        : CGR:UNKNOWN:rC:NONE:v0 (auto-composite)
DRHO     .UNKNOWN     UNKNOWN        : DRHO:PETROWORKS:rC:NONE:v1 
DT       .us/ft       UNKNOWN        : DT:DT:rC:NONE:v0 (auto-composite)
GR       .API         UNKNOWN        : GR:PETROWORKS:rC:NONE:v2 
ILD      .UNKNOWN     UNKNOWN        : ILD:UNKNOWN:rC:NONE:v0 (auto-composite)
ILM      .UNKNOWN     UNKNOWN        : ILM:UNKNOWN:rC:NONE:v0 (auto-composite)
LLD      .ohm.m       UNKNOWN        : LLD:PETROWORKS:rC:NONE:v1 
LLS      .UNKNOWN     UNKNOWN        : LLS:PETROWORKS:rC:NONE:v1 
MSFL     .UNKNOWN     UNKNOWN        : MSFL:PETROWORKS:rC:NONE:v1 
NPHI     .v/v_decimal UNKNOWN        : NPHI:PETROWORKS:rC:NONE:v2 
PEF      .b/elec      UNKNOWN        : PEF:PETROWORKS:rC:NONE:v1 
POTA     .wtpercent   UNKNOWN        : POTA:UNKNOWN:rC:NONE:v0 (auto-composite)
RHOB     .g/cm3       UNKNOWN        : RHOB:PETROWORKS:rC:NONE:v1 
SP       .mV          UNKNOWN        : SP:PETROWORKS:rC:NONE:v1 
THOR     .UNKNOWN     UNKNOWN        : THOR:UNKNOWN:rC:NONE:v0 (auto-composite)
URAN     .UNKNOWN     UNKNOWN        : URAN:UNKNOWN:rC:NONE:v0 (auto-composite)
~A     DEPTH         CALI          CGR         DRHO           DT           GR          ILD          ILM          LLD          LLS         MSFL         NPHI          PEF         POTA         RHOB           SP         THOR         URAN
# ...
   3295.1914       8.7380       7.1570       0.0280      57.6400      28.7420    -999.2500    -999.2500      80.2540      66.0160      89.6800       0.0916       4.6180       0.0022       2.6010    -999.2500       1.0900       2.3910
   3295.3438       8.7107       6.5897       0.0270      58.1741      28.6227    -999.2500    -999.2500      78.8174      68.7014      77.8678       0.0906       4.6602       0.0018       2.5965    -999.2500       1.1133       2.4268
   3295.4963       8.6830       6.0150       0.0260      58.7160      28.5010    -999.2500    -999.2500      77.3540      71.4370      65.8350       0.0896       4.7030       0.0014       2.5920    -999.2500       1.1370       2.4630
   3295.6487       8.6855       6.3732       0.0250      58.5075      28.3654    -999.2500    -999.2500      78.4953      72.1924      68.6005       0.0819       4.8216       0.0016       2.5984    -999.2500       1.1921       2.4327
   3295.8010       8.6880       6.7360       0.0240      58.2960      28.2270    -999.2500    -999.2500      79.6580      72.9620      71.4180       0.0741       4.9420       0.0017       2.6050    -999.2500       1.2480       2.4020
   3295.9534       8.6949       6.2373       0.0230      56.8865      28.3106    -999.2500    -999.2500      85.6859      81.1287      59.5593       0.0759       4.8567       0.0017       2.5976    -999.2500       1.1963       2.4323
   3296.1060       8.7020       5.7320       0.0220      55.4560      28.3960    -999.2500    -999.2500      91.8280      89.4500      47.4760       0.0777       4.7700       0.0016       2.5900    -999.2500       1.1440       2.4630
   3296.2583       8.7174       6.3841       0.0260      58.3409      29.1512    -999.2500    -999.2500      72.6817      74.2094      30.8992       0.0967       4.7804       0.0018       2.5523    -999.2500       1.0804       2.5082
   3296.4106       8.7330       7.0450       0.0300      61.2690      29.9220    -999.2500    -999.2500      53.1700      58.6780      14.0060       0.1159       4.7910       0.0021       2.5140    -999.2500       1.0160       2.5540
   3296.5630       8.7102       6.7674       0.0255      63.9244      29.6523    -999.2500    -999.2500      38.5464      39.6566      43.6222       0.1103       4.8084       0.0019       2.5229    -999.2500       1.1640       2.5461
   3296.7156       8.6870       6.4860       0.0210      66.6200      29.3770    -999.2500    -999.2500      23.6420      20.2700      73.8070       0.1047       4.8260       0.0017       2.5320    -999.2500       1.3140       2.5380
   3296.8679       8.6677       5.7192       0.0230      61.3958      28.7733    -999.2500    -999.2500      29.1136      28.3439      69.2278       0.0964       4.7700       0.0014       2.5504    -999.2500       1.1337       2.5266
   3297.0203       8.6480       4.9420       0.0250      56.0920      28.1580    -999.2500    -999.2500      34.6910      36.5740      64.5600       0.0879       4.7130       0.0011       2.5690    -999.2500       0.9510       2.5150
   3297.1726       8.6416       4.9882       0.0285      56.7038      27.8134    -999.2500    -999.2500      65.0600      63.4406      67.8015       0.0842       4.6029       0.0012       2.5923    -999.2500       0.9555       2.5006
   3297.3250       8.6350       5.0350       0.0320      57.3250      27.4620    -999.2500    -999.2500      96.0200      90.8300      71.1060       0.0804       4.4910       0.0012       2.6160    -999.2500       0.9600       2.4860
   3297.4775       8.6434       5.2654       0.0260      58.7693      27.8646    -999.2500    -999.2500      92.3926      86.7688      59.6607       0.0793       4.5143       0.0013       2.6299    -999.2500       0.9789       2.5178
   3297.6299       8.6520       5.4990       0.0200      60.2360      28.2750    -999.2500    -999.2500      88.6940      82.6280      47.9910       0.0783       4.5380       0.0014       2.6440    -999.2500       0.9980       2.5500
   3297.7822       8.6664       5.4027       0.0235      59.6759      28.9746    -999.2500    -999.2500      82.5144      77.9308      50.3275       0.0766       4.5702       0.0013       2.6485    -999.2500       1.0273       2.6071
   3297.9346       8.6810       5.3050       0.0270      59.1070      29.6880    -999.2500    -999.2500      76.2130      73.1410      52.7100       0.0749       4.6030       0.0011       2.6530    -999.2500       1.0570       2.6650
   3298.0872       8.6800       5.1268       0.0250      58.3951      29.6365    -999.2500    -999.2500      76.7640      71.1834      56.9316       0.0714       4.6357       0.0012       2.6585    -999.2500       1.0198       2.6988
   3298.2395       8.6790       4.9460       0.0230      57.6720      29.5840    -999.2500    -999.2500      77.3260      69.1870      61.2370       0.0679       4.6690       0.0012       2.6640    -999.2500       0.9820       2.7330
   3298.3918       8.6775       5.3952       0.0195      56.9468      29.7592    -999.2500    -999.2500      80.1580      72.1409      59.1710       0.0627       4.7156       0.0016       2.6575    -999.2500       1.0173       2.6923
   3298.5442       8.6760       5.8500       0.0160      56.2100      29.9380    -999.2500    -999.2500      83.0420      75.1490      57.0670       0.0575       4.7630       0.0020       2.6510    -999.2500       1.0530       2.6510
   3298.6968       8.6800       6.4527       0.0120      55.4604      29.8880    -999.2500    -999.2500      78.7199      71.6662      48.6740       0.0537       4.8345       0.0019       2.6391    -999.2500       1.1613       2.5894
   3298.8491       8.6840       7.0630       0.0080      54.7000      29.8370    -999.2500    -999.2500      74.3180      68.1190      40.1260       0.0498       4.9070       0.0018       2.6270    -999.2500       1.2710       2.5270
   3299.0015       8.6805       6.3725       0.0100      54.7978      29.6633    -999.2500    -999.2500      67.0636      60.4564      45.0660       0.0516       4.8867       0.0015       2.6354    -999.2500       1.2506       2.5702
   3299.1538       8.6770       5.6730       0.0120      54.8970      29.4860    -999.2500    -999.2500      59.6740      52.6510      50.0980       0.0534       4.8660       0.0012       2.6440    -999.2500       1.2300       2.6140
   3299.3062       8.6596       5.7018       0.0175      55.1258      29.3212    -999.2500    -999.2500      61.9031      55.5261      57.8870       0.0571       4.8114       0.0012       2.6539    -999.2500       1.1917       2.6075
   3299.4587       8.6420       5.7310       0.0230      55.3580      29.1530    -999.2500    -999.2500      64.1740      58.4550      65.8220       0.0609       4.7560       0.0013       2.6640    -999.2500       1.1530       2.6010
   3299.6111       8.6440       6.3335       0.0294      57.3483      29.3584    -999.2500    -999.2500      66.9671      61.6419      53.8565       0.0651       4.6836       0.0016       2.6610    -999.2500       1.1828       2.5538
   3299.7634       8.6460       6.9440       0.0360      59.3680      29.5680    -999.2500    -999.2500      69.8130      64.8890      41.6650       0.0694       4.6100       0.0019       2.6580    -999.2500       1.2130       2.5060
   3299.9158       8.6634       6.3971       0.0325      58.9819      29.2765    -999.2500    -999.2500      71.5738      66.9836      69.4778       0.0658       4.7251       0.0015       2.6535    -999.2500       1.2716       2.5502
   3300.0684       8.6810       5.8430       0.0290      58.5900      28.9790    -999.2500    -999.2500      73.3680      69.1180      97.8190       0.0623       4.8420       0.0011       2.6490    -999.2500       1.3310       2.5950
   3300.2207       8.6726       5.2460       0.0206      56.9255      29.0627    -999.2500    -999.2500      78.0007      74.0528      94.2457       0.0638       4.8112       0.0008       2.6416    -999.2500       1.3032       2.6467
   3300.3730       8.6640       4.6410       0.0120      55.2360      29.1480    -999.2500    -999.2500      82.7220      79.0820      90.6040       0.0654       4.7800       0.0004       2.6340    -999.2500       1.2750       2.6990
