#------------------------------------------------------------------------------
#
#   Created by  : [OpenWorks] Log Export Utility (LEXP)
#   Created on  : 2016-05-18 16:32:12
#   Project     : CANT971
#   User        : R5K
#   Interpreter : PEP
#
#------------------------------------------------------------------------------
~VERSION INFORMATION
VERS. 2.0 : CWLS Log ASCII Standard - version 2.0
WRAP.  NO : One line per depth step
~WELL INFORMATION
#MNEMONIC   .UNIT                                           VALUE :DESCRIPTION
#------------------------------------------------------------------------------
STRT        .M                                          1316.2775 :START DEPTH
STOP        .M                                          3511.7520 :STOP DEPTH
STEP        .M                                             0.1524 :STEP
NULL        .                                           -999.2500 :NULL VALUE
COMP        .                                   PEMEX EXPL & PROD :COMPANY
WELL        .                                                2084 :WELL
FLD         .                                           CANTARELL :FIELD
LOC         .                                             UNKNOWN :LOCATION
CNTY        .                                      CD. DEL CARMEN :COUNTY
STAT        .                                            CAMPECHE :STATE
CTRY        .                                              MEXICO :COUNTRY
SRVC        .                                             UNKNOWN :SERVICE COMPANY
DATE        .                                             UNKNOWN :LOG DATE
UWI         .                                          3060000674 :UNIQUE WELL ID
XCOORD      .                                       600034.090000 :SURFACE X
YCOORD      .                                      2139445.530000 :SURFACE Y
LAT         .                                           19.347677 :LATITUDE
LON         .                                          -92.047610 :LONGITUDE
ELEV        .M                                            27.4000 :SURFACE ELEV
ELEV_TYPE   .                                                  KB :ELEV TYPE
~CURVE INFORMATION
#MNEMONIC.UNIT        API CODE       : CURVE DESCRIPTION
#------------------------------------------------------------------------------
DEPTH    .M                          : Measured Depth
CALI     .inches      UNKNOWN        : CALI:PETROWORKS:rC:NONE:v1 
CGR      .UNKNOWN     UNKNOWN        : CGR:UNKNOWN:rC:NONE:v0 (auto-composite)
DRHO     .UNKNOWN     UNKNOWN        : DRHO:PETROWORKS:rC:NONE:v1 
DT       .us/ft       UNKNOWN        : DT:DT:rC:NONE:v0 (auto-composite)
GR       .API         UNKNOWN        : GR:PETROWORKS:rC:NONE:v2 
ILD      .UNKNOWN     UNKNOWN        : ILD:UNKNOWN:rC:NONE:v0 (auto-composite)
ILM      .UNKNOWN     UNKNOWN        : ILM:UNKNOWN:rC:NONE:v0 (auto-composite)
LLD      .ohm.m       UNKNOWN        : LLD:PETROWORKS:rC:NONE:v1 
LLS      .UNKNOWN     UNKNOWN        : LLS:PETROWORKS:rC:NONE:v1 
MSFL     .UNKNOWN     UNKNOWN        : MSFL:PETROWORKS:rC:NONE:v1 
NPHI     .v/v_decimal UNKNOWN        : NPHI:PETROWORKS:rC:NONE:v2 
PEF      .b/elec      UNKNOWN        : PEF:PETROWORKS:rC:NONE:v1 
POTA     .wtpercent   UNKNOWN        : POTA:UNKNOWN:rC:NONE:v0 (auto-composite)
RHOB     .g/cm3       UNKNOWN        : RHOB:PETROWORKS:rC:NONE:v1 
SP       .mV          UNKNOWN        : SP:PETROWORKS:rC:NONE:v1 
THOR     .UNKNOWN     UNKNOWN        : THOR:UNKNOWN:rC:NONE:v0 (auto-composite)
URAN     .UNKNOWN     UNKNOWN        : URAN:UNKNOWN:rC:NONE:v0 (auto-composite)
~A     DEPTH         CALI          CGR         DRHO           DT           GR          ILD          ILM          LLD          LLS         MSFL         NPHI          PEF         POTA         RHOB           SP         THOR         URAN
# ...
   3215.1814    -999.2500    -999.2500    -999.2500    -999.2500    -999.2500    -999.2500    -999.2500    -999.2500    -999.2500    -999.2500    -999.2500    -999.2500    -999.2500    -999.2500    -999.2500    -999.2500    -999.2500
   3215.3340    -999.2500    -999.2500    -999.2500      57.0310    -999.2500    -999.2500    -999.2500      20.1310      26.1250   19999.9922    -999.2500    -999.2500    -999.2500    -999.2500    -999.2500    -999.2500    -999.2500
   3215.4863    -999.2500    -999.2500    -999.2500      57.4903    -999.2500    -999.2500    -999.2500      20.1315      26.1250   19999.9922    -999.2500    -999.2500    -999.2500    -999.2500    -999.2500    -999.2500    -999.2500
   3215.6387    -999.2500    -999.2500    -999.2500      57.9560    -999.2500    -999.2500    -999.2500      20.1320      26.1250   19999.9922    -999.2500    -999.2500    -999.2500    -999.2500    -999.2500    -999.2500    -999.2500
   3215.7910    -999.2500    -999.2500    -999.2500      57.8775    -999.2500    -999.2500    -999.2500      20.1315      26.1245   19999.9922    -999.2500    -999.2500    -999.2500    -999.2500    -999.2500    -999.2500    -999.2500
   3215.9434    -999.2500    -999.2500    -999.2500      57.7980    -999.2500    -999.2500    -999.2500      20.1310      26.1240   19999.9922    -999.2500    -999.2500    -999.2500    -999.2500    -999.2500    -999.2500    -999.2500
   3216.0959    -999.2500    -999.2500    -999.2500      57.5408    -999.2500    -999.2500    -999.2500      20.1315      26.1235   19999.9922    -999.2500    -999.2500    -999.2500    -999.2500    -999.2500    -999.2500    -999.2500
   3216.2483    -999.2500    -999.2500    -999.2500      57.2800    -999.2500    -999.2500    -999.2500      20.1320      26.1230   19999.9922    -999.2500    -999.2500    -999.2500    -999.2500    -999.2500    -999.2500    -999.2500
   3216.4006    -999.2500    -999.2500    -999.2500      57.4096    -999.2500    -999.2500    -999.2500      20.1315      26.1230   19999.9922    -999.2500    -999.2500    -999.2500    -999.2500    -999.2500    -999.2500    -999.2500
   3216.5530    -999.2500    -999.2500    -999.2500      57.5410    -999.2500    -999.2500    -999.2500      20.1310      26.1230   19999.9922    -999.2500    -999.2500    -999.2500    -999.2500    -999.2500    -999.2500    -999.2500
   3216.7056    -999.2500    -999.2500    -999.2500      57.7470    -999.2500    -999.2500    -999.2500      20.1295      26.1230   19999.9922    -999.2500    -999.2500    -999.2500    -999.2500    -999.2500    -999.2500    -999.2500
   3216.8579    -999.2500    -999.2500    -999.2500      57.9560    -999.2500    -999.2500    -999.2500      20.1280      26.1230   19999.9922    -999.2500    -999.2500    -999.2500    -999.2500    -999.2500    -999.2500    -999.2500
   3217.0103    -999.2500    -999.2500    -999.2500      57.8527    -999.2500    -999.2500    -999.2500      20.1285      26.1230   19999.9922    -999.2500    -999.2500    -999.2500    -999.2500    -999.2500    -999.2500    -999.2500
   3217.1626    -999.2500    -999.2500    -999.2500      57.7480    -999.2500    -999.2500    -999.2500      20.1290      26.1230   19999.9922    -999.2500    -999.2500    -999.2500    -999.2500    -999.2500    -999.2500    -999.2500
   3217.3152    -999.2500    -999.2500    -999.2500      57.6487    -999.2500    -999.2500    -999.2500      20.1295      26.1225   19999.9922    -999.2500    -999.2500    -999.2500    -999.2500    -999.2500    -999.2500    -999.2500
   3217.4675    -999.2500    -999.2500    -999.2500      57.5480    -999.2500    -999.2500    -999.2500      20.1300      26.1220    -999.2500    -999.2500    -999.2500    -999.2500    -999.2500    -999.2500    -999.2500    -999.2500
   3217.6199    -999.2500    -999.2500    -999.2500      57.8558    -999.2500    -999.2500    -999.2500      20.1305      26.1230    -999.2500    -999.2500    -999.2500    -999.2500    -999.2500    -999.2500    -999.2500    -999.2500
   3217.7722    -413.4010    -412.9940    -419.1820      58.1680      10.2330    -999.2500    -999.2500      20.1310      26.1240      45.9800      -4.1075    -410.3270      -4.1824    -417.2390    -999.2500    -417.6120       0.5270
   3217.9246    -203.4445    -200.9530    -211.2995      58.1382      13.1232    -999.2500    -999.2500      20.1320      26.1220    9940.6777      -1.9974    -199.2716      -2.0978    -208.6600    -999.2500    -208.8838       0.4409
   3218.0771       8.6410      12.8410      -1.3090      58.1080      16.0710    -999.2500    -999.2500      20.1330      26.1200   19999.9922       0.1340      13.9240       0.0041       2.0340    -999.2500       1.5700       0.3540
   3218.2295       8.6435      12.5841      -1.3090      57.9442      15.9585    -999.2500    -999.2500      20.1325      26.1210   19999.9922       0.1374      13.9240       0.0047       2.0340    -999.2500       1.4321       0.3839
   3218.3818       8.6460      12.3250      -1.3090      57.7780      15.8440    -999.2500    -999.2500      20.1320      26.1220   19999.9922       0.1407      13.9240       0.0053       2.0340    -999.2500       1.2930       0.4140
   3218.5342       8.6470      12.0616      -1.3090      57.5706      15.6874    -999.2500    -999.2500      20.1310      26.1225   19999.9922       0.1379      13.9240       0.0053       2.0340    -999.2500       1.1850       0.4025
   3218.6868       8.6480      11.7960      -1.3090      57.3600      15.5280    -999.2500    -999.2500      20.1300      26.1230   19999.9922       0.1351      13.9240       0.0052       2.0340    -999.2500       1.0760       0.3910
   3218.8391       8.6475      10.7799      -1.3090      57.2072      15.2070    -999.2500    -999.2500      20.1305      26.1230   19999.9922       0.1310      13.9240       0.0049       2.0340    -999.2500       1.0506       0.4418
   3218.9915       8.6470       9.7550      -1.3090      57.0520      14.8800    -999.2500    -999.2500      20.1310      26.1230   19999.9922       0.1268      13.9240       0.0045       2.0340    -999.2500       1.0250       0.4930
   3219.1438       8.6465       9.8122      -1.3090      57.2411      14.9954    -999.2500    -999.2500      20.0978      26.0422   19999.9922       0.1250      13.9240       0.0042       2.0340    -999.2500       1.0808       0.5403
   3219.2964       8.6460       9.8700      -1.3090      57.4330      15.1130    -999.2500    -999.2500      20.0640      25.9600   19999.9922       0.1233      13.9240       0.0040       2.0340    -999.2500       1.1370       0.5880
   3219.4487       8.6450       9.7655      -1.3090      57.7210      15.4444    -999.2500    -999.2500      18.9825      21.7524   19999.9922       0.1258      13.9240       0.0039       2.0340    -999.2500       1.1056       0.6338
   3219.6011       8.6440       9.6600      -1.3090      58.0130      15.7820    -999.2500    -999.2500      17.8840      17.4790   19999.9922       0.1284      13.9240       0.0038       2.0340    -999.2500       1.0740       0.6800
   3219.7534       8.6430       9.5311      -1.3090      58.1833      16.2832    -999.2500    -999.2500      10.4571      11.6614   19999.9922       0.1254      13.9240       0.0039       2.0340    -999.2500       0.9844       0.7412
   3219.9058       8.6420       9.4010      -1.3090      58.3560      16.7940    -999.2500    -999.2500       2.9130       5.7520   19999.9922       0.1224      13.9240       0.0040       2.0340    -999.2500       0.8940       0.8030
   3220.0583       8.6450       9.7867      -1.3090      58.2860      17.2595    -999.2500    -999.2500       3.2597       3.9568   19999.9922       0.1254      13.9240       0.0042       2.0340    -999.2500       0.9229       0.8433
   3220.2107       8.6480      10.1760      -1.3090      58.2150      17.7340    -999.2500    -999.2500       3.6120       2.1330   19999.9922       0.1283      13.9240       0.0044       2.0340    -999.2500       0.9520       0.8840
   3220.3630       8.6450       9.7908      -1.3090      58.0442      18.0425    -999.2500    -999.2500       4.2995       1.7104   19999.9922       0.1390      13.9240       0.0042       2.0340    -999.2500       0.9137       0.9328
