#------------------------------------------------------------------------------
#
#   Created by  : [OpenWorks] Log Export Utility (LEXP)
#   Created on  : 2016-05-18 16:32:12
#   Project     : CANT971
#   User        : R5K
#   Interpreter : PEP
#
#------------------------------------------------------------------------------
~VERSION INFORMATION
VERS. 2.0 : CWLS Log ASCII Standard - version 2.0
WRAP.  NO : One line per depth step
~WELL INFORMATION
#MNEMONIC   .UNIT                                           VALUE :DESCRIPTION
#------------------------------------------------------------------------------
STRT        .M                                          1316.2775 :START DEPTH
STOP        .M                                          3511.7520 :STOP DEPTH
STEP        .M                                             0.1524 :STEP
NULL        .                                           -999.2500 :NULL VALUE
COMP        .                                   PEMEX EXPL & PROD :COMPANY
WELL        .                                                2084 :WELL
FLD         .                                           CANTARELL :FIELD
LOC         .                                             UNKNOWN :LOCATION
CNTY        .                                      CD. DEL CARMEN :COUNTY
STAT        .                                            CAMPECHE :STATE
CTRY        .                                              MEXICO :COUNTRY
SRVC        .                                             UNKNOWN :SERVICE COMPANY
DATE        .                                             UNKNOWN :LOG DATE
UWI         .                                          3060000674 :UNIQUE WELL ID
XCOORD      .                                       600034.090000 :SURFACE X
YCOORD      .                                      2139445.530000 :SURFACE Y
LAT         .                                           19.347677 :LATITUDE
LON         .                                          -92.047610 :LONGITUDE
ELEV        .M                                            27.4000 :SURFACE ELEV
ELEV_TYPE   .                                                  KB :ELEV TYPE
~CURVE INFORMATION
#MNEMONIC.UNIT        API CODE       : CURVE DESCRIPTION
#------------------------------------------------------------------------------
DEPTH    .M                          : Measured Depth
CALI     .inches      UNKNOWN        : CALI:PETROWORKS:rC:NONE:v1 
CGR      .UNKNOWN     UNKNOWN        : CGR:UNKNOWN:rC:NONE:v0 (auto-composite)
DRHO     .UNKNOWN     UNKNOWN        : DRHO:PETROWORKS:rC:NONE:v1 
DT       .us/ft       UNKNOWN        : DT:DT:rC:NONE:v0 (auto-composite)
GR       .API         UNKNOWN        : GR:PETROWORKS:rC:NONE:v2 
ILD      .UNKNOWN     UNKNOWN        : ILD:UNKNOWN:rC:NONE:v0 (auto-composite)
ILM      .UNKNOWN     UNKNOWN        : ILM:UNKNOWN:rC:NONE:v0 (auto-composite)
LLD      .ohm.m       UNKNOWN        : LLD:PETROWORKS:rC:NONE:v1 
LLS      .UNKNOWN     UNKNOWN        : LLS:PETROWORKS:rC:NONE:v1 
MSFL     .UNKNOWN     UNKNOWN        : MSFL:PETROWORKS:rC:NONE:v1 
NPHI     .v/v_decimal UNKNOWN        : NPHI:PETROWORKS:rC:NONE:v2 
PEF      .b/elec      UNKNOWN        : PEF:PETROWORKS:rC:NONE:v1 
POTA     .wtpercent   UNKNOWN        : POTA:UNKNOWN:rC:NONE:v0 (auto-composite)
RHOB     .g/cm3       UNKNOWN        : RHOB:PETROWORKS:rC:NONE:v1 
SP       .mV          UNKNOWN        : SP:PETROWORKS:rC:NONE:v1 
THOR     .UNKNOWN     UNKNOWN        : THOR:UNKNOWN:rC:NONE:v0 (auto-composite)
URAN     .UNKNOWN     UNKNOWN        : URAN:UNKNOWN:rC:NONE:v0 (auto-composite)
~A     DEPTH         CALI          CGR         DRHO           DT           GR          ILD          ILM          LLD          LLS         MSFL         NPHI          PEF         POTA         RHOB           SP         THOR         URAN
# ...
   3273.8555       9.0140       7.9760       0.0180      60.2150      29.9930    -999.2500    -999.2500      71.6480      70.4290      45.1780       0.0895       4.7390       0.0030       2.5910    -999.2500       0.9470       2.4380
   3274.0078       9.0046       7.0447       0.0160      60.5628      29.9113    -999.2500    -999.2500      71.1494      70.0969      48.9357       0.0882       4.6854       0.0028       2.5945    -999.2500       0.9535       2.4817
   3274.1602       8.9950       6.1020       0.0140      60.9160      29.8280    -999.2500    -999.2500      70.6420      69.7590      52.7600       0.0870       4.6310       0.0025       2.5980    -999.2500       0.9600       2.5260
   3274.3127       8.9856       6.3221       0.0209      59.7530      29.8889    -999.2500    -999.2500      70.7644      69.4086      48.4381       0.0843       4.5526       0.0022       2.6005    -999.2500       0.9883       2.5777
   3274.4651       8.9760       6.5450       0.0280      58.5720      29.9510    -999.2500    -999.2500      70.8890      69.0520      44.0390       0.0815       4.4730       0.0019       2.6030    -999.2500       1.0170       2.6300
   3274.6174       8.9631       8.1117       0.0245      59.2665      30.1362    -999.2500    -999.2500      71.2027      69.5347      39.1019       0.0821       4.5713       0.0023       2.6075    -999.2500       1.1855       2.4695
   3274.7698       8.9500       9.6980       0.0210      59.9720      30.3250    -999.2500    -999.2500      71.5220      70.0260      34.0760       0.0826       4.6710       0.0027       2.6120    -999.2500       1.3560       2.3070
   3274.9224       8.9396       9.6806       0.0141      62.0433      30.7067    -999.2500    -999.2500      70.9437      69.3422      40.1916       0.0824       4.6447       0.0033       2.6041    -999.2500       1.2820       2.3234
   3275.0747       8.9290       9.6630       0.0070      64.1440      31.0960    -999.2500    -999.2500      70.3550      68.6460      46.4180       0.0823       4.6180       0.0039       2.5960    -999.2500       1.2070       2.3400
   3275.2271       8.9469       9.3182       0.0179      63.2330      31.0064    -999.2500    -999.2500      69.6455      67.7051      45.5038       0.0803       4.6880       0.0038       2.6074    -999.2500       1.1121       2.3852
   3275.3794       8.9650       8.9690       0.0290      62.3090      30.9150    -999.2500    -999.2500      68.9230      66.7470      44.5730       0.0784       4.7590       0.0037       2.6190    -999.2500       1.0160       2.4310
   3275.5320       8.9576       9.1096       0.0250      61.1072      30.9373    -999.2500    -999.2500      69.4759      67.3718      41.8614       0.0796       4.7292       0.0039       2.6135    -999.2500       0.9519       2.4206
   3275.6843       8.9500       9.2520       0.0210      59.8880      30.9600    -999.2500    -999.2500      70.0390      68.0080      39.1000       0.0808       4.6990       0.0041       2.6080    -999.2500       0.8870       2.4100
   3275.8367       8.9505       8.9847       0.0136      60.1660      30.6412    -999.2500    -999.2500      69.9151      67.7955      40.7433       0.0837       4.6087       0.0040       2.6015    -999.2500       0.8204       2.3986
   3275.9890       8.9510       8.7140       0.0060      60.4480      30.3160    -999.2500    -999.2500      69.7890      67.5790      42.4170       0.0867       4.5170       0.0038       2.5950    -999.2500       0.7530       2.3870
   3276.1414       8.9550       8.3372       0.0070      59.5129      29.7037    -999.2500    -999.2500      69.6513      67.2714      50.6206       0.0856       4.5572       0.0034       2.5905    -999.2500       0.8350       2.3393
   3276.2939       8.9590       7.9560       0.0080      58.5640      29.0790    -999.2500    -999.2500      69.5110      66.9580      58.9770       0.0844       4.5980       0.0031       2.5860    -999.2500       0.9180       2.2910
   3276.4463       8.9496       7.5016       0.0120      58.8226      28.6524    -999.2500    -999.2500      69.9301      67.3681      54.5956       0.0826       4.6486       0.0027       2.5915    -999.2500       1.0194       2.3069
   3276.5986       8.9400       7.0420       0.0160      59.0850      28.2170    -999.2500    -999.2500      70.3570      67.7860      50.1320       0.0807       4.7000       0.0023       2.5970    -999.2500       1.1220       2.3230
   3276.7510       8.9474       7.1429       0.0100      59.7039      28.3778    -999.2500    -999.2500      70.8969      68.4185      44.9529       0.0808       4.6593       0.0024       2.5960    -999.2500       1.0628       2.3503
   3276.9036       8.9550       7.2450       0.0040      60.3320      28.5420    -999.2500    -999.2500      71.4470      69.0630      39.6760       0.0809       4.6180       0.0026       2.5950    -999.2500       1.0030       2.3780
   3277.0559       8.9704       6.7196       0.0070      59.7544      28.7490    -999.2500    -999.2500      71.7447      68.9600      45.0379       0.0821       4.5713       0.0025       2.5970    -999.2500       0.9230       2.4600
   3277.2083       8.9860       6.1880       0.0100      59.1680      28.9600    -999.2500    -999.2500      72.0480      68.8550      50.5020       0.0834       4.5240       0.0023       2.5990    -999.2500       0.8420       2.5430
   3277.3606       8.9706       6.2829       0.0179      59.4588      29.0828    -999.2500    -999.2500      71.2212      68.0426      43.6362       0.0872       4.6114       0.0024       2.6035    -999.2500       0.7838       2.5370
   3277.5132       8.9550       6.3790       0.0260      59.7540      29.2080    -999.2500    -999.2500      70.3800      67.2160      36.6500       0.0911       4.7000       0.0025       2.6080    -999.2500       0.7250       2.5310
   3277.6655       8.9356       6.8228       0.0315      60.5807      29.3254    -999.2500    -999.2500      68.7484      65.3356      49.3558       0.0884       4.6588       0.0027       2.6015    -999.2500       0.7677       2.4853
   3277.8179       8.9160       7.2720       0.0370      61.4200      29.4450    -999.2500    -999.2500      67.0880      63.4220      62.2860       0.0856       4.6170       0.0029       2.5950    -999.2500       0.8110       2.4390
   3277.9702       8.9279       7.7948       0.0236      61.0935      29.3153    -999.2500    -999.2500      67.8943      64.3017      55.0132       0.0821       4.6230       0.0031       2.5866    -999.2500       0.8592       2.3799
   3278.1226       8.9400       8.3240       0.0100      60.7620      29.1830    -999.2500    -999.2500      68.7150      65.1970      47.6110       0.0786       4.6290       0.0034       2.5780    -999.2500       0.9080       2.3200
   3278.2751       8.9564       8.5700       0.0105      59.7687      29.2147    -999.2500    -999.2500      70.6061      67.0281      53.1231       0.0796       4.6503       0.0035       2.5745    -999.2500       0.9309       2.2932
   3278.4275       8.9730       8.8190       0.0110      58.7600      29.2470    -999.2500    -999.2500      72.5310      68.8920      58.7340       0.0805       4.6720       0.0036       2.5710    -999.2500       0.9540       2.2660
   3278.5798       8.9715       9.2697       0.0085      59.0701      29.4332    -999.2500    -999.2500      72.0538      68.3707      52.8343       0.0793       4.6879       0.0037       2.5745    -999.2500       1.0444       2.2352
   3278.7322       8.9700       9.7260       0.0060      59.3850      29.6230    -999.2500    -999.2500      71.5680      67.8400      46.8280       0.0781       4.7040       0.0038       2.5780    -999.2500       1.1360       2.2040
   3278.8848       8.9635      10.6919       0.0080      60.4986      30.0849    -999.2500    -999.2500      70.8495      66.9511      47.5658       0.0743       4.7278       0.0040       2.5845    -999.2500       1.2667       2.1667
   3279.0371       8.9570      11.6700       0.0100      61.6280      30.5560    -999.2500    -999.2500      70.1180      66.0460      48.3170       0.0704       4.7520       0.0043       2.5910    -999.2500       1.3990       2.1290
