#------------------------------------------------------------------------------
#
#   Created by  : [OpenWorks] Log Export Utility (LEXP)
#   Created on  : 2016-05-18 16:32:12
#   Project     : CANT971
#   User        : R5K
#   Interpreter : PEP
#
#------------------------------------------------------------------------------
~VERSION INFORMATION
VERS. 2.0 : CWLS Log ASCII Standard - version 2.0
WRAP.  NO : One line per depth step
~WELL INFORMATION
#MNEMONIC   .UNIT                                           VALUE :DESCRIPTION
#------------------------------------------------------------------------------
STRT        .M                                          1316.2775 :START DEPTH
STOP        .M                                          3511.7520 :STOP DEPTH
STEP        .M                                             0.1524 :STEP
NULL        .                                           -999.2500 :NULL VALUE
COMP        .                                   PEMEX EXPL & PROD :COMPANY
WELL        .                                                2084 :WELL
FLD         .                                           CANTARELL :FIELD
LOC         .                                             UNKNOWN :LOCATION
CNTY        .                                      CD. DEL CARMEN :COUNTY
STAT        .                                            CAMPECHE :STATE
CTRY        .                                              MEXICO :COUNTRY
SRVC        .                                             UNKNOWN :SERVICE COMPANY
DATE        .                                             UNKNOWN :LOG DATE
UWI         .                                          3060000674 :UNIQUE WELL ID
XCOORD      .                                       600034.090000 :SURFACE X
YCOORD      .                                      2139445.530000 :SURFACE Y
LAT         .                                           19.347677 :LATITUDE
LON         .                                          -92.047610 :LONGITUDE
ELEV        .M                                            27.4000 :SURFACE ELEV
ELEV_TYPE   .                                                  KB :ELEV TYPE
~CURVE INFORMATION
#MNEMONIC.UNIT        API CODE       : CURVE DESCRIPTION
#------------------------------------------------------------------------------
DEPTH    .M                          : Measured Depth
CALI     .inches      UNKNOWN        : CALI:PETROWORKS:rC:NONE:v1 
CGR      .UNKNOWN     UNKNOWN        : CGR:UNKNOWN:rC:NONE:v0 (auto-composite)
DRHO     .UNKNOWN     UNKNOWN        : DRHO:PETROWORKS:rC:NONE:v1 
DT       .us/ft       UNKNOWN        : DT:DT:rC:NONE:v0 (auto-composite)
GR       .API         UNKNOWN        : GR:PETROWORKS:rC:NONE:v2 
ILD      .UNKNOWN     UNKNOWN        : ILD:UNKNOWN:rC:NONE:v0 (auto-composite)
ILM      .UNKNOWN     UNKNOWN        : ILM:UNKNOWN:rC:NONE:v0 (auto-composite)
LLD      .ohm.m       UNKNOWN        : LLD:PETROWORKS:rC:NONE:v1 
LLS      .UNKNOWN     UNKNOWN        : LLS:PETROWORKS:rC:NONE:v1 
MSFL     .UNKNOWN     UNKNOWN        : MSFL:PETROWORKS:rC:NONE:v1 
NPHI     .v/v_decimal UNKNOWN        : NPHI:PETROWORKS:rC:NONE:v2 
PEF      .b/elec      UNKNOWN        : PEF:PETROWORKS:rC:NONE:v1 
POTA     .wtpercent   UNKNOWN        : POTA:UNKNOWN:rC:NONE:v0 (auto-composite)
RHOB     .g/cm3       UNKNOWN        : RHOB:PETROWORKS:rC:NONE:v1 
SP       .mV          UNKNOWN        : SP:PETROWORKS:rC:NONE:v1 
THOR     .UNKNOWN     UNKNOWN        : THOR:UNKNOWN:rC:NONE:v0 (auto-composite)
URAN     .UNKNOWN     UNKNOWN        : URAN:UNKNOWN:rC:NONE:v0 (auto-composite)
~A     DEPTH         CALI          CGR         DRHO           DT           GR          ILD          ILM          LLD          LLS         MSFL         NPHI          PEF         POTA         RHOB           SP         THOR         URAN
# ...
   3236.5176       8.6775      28.5795      -1.3090      54.1708      32.5374    -999.2500    -999.2500       1.2603       1.8922       0.1000       0.2401      13.9240       0.0136       2.0340    -999.2500       2.0345       0.4212
   3236.6699       8.6810      28.0490      -1.3090      54.0560      32.5000    -999.2500    -999.2500       1.2190       1.6170       0.1000       0.2434      13.9240       0.0138       2.0340    -999.2500       1.8240       0.4800
   3236.8223       8.6845      28.2819      -1.3090      55.5804      32.3772    -999.2500    -999.2500       1.1213       1.7092       0.1000       0.2452      13.9240       0.0138       2.0340    -999.2500       1.8663       0.4392
   3236.9746       8.6880      28.5170      -1.3090      57.1270      32.2520    -999.2500    -999.2500       1.0220       1.8030       0.1000       0.2470      13.9240       0.0137       2.0340    -999.2500       1.9090       0.3980
   3237.1270       8.6920      28.2966      -1.3090      60.7817      32.1659    -999.2500    -999.2500       1.1103       2.1913       0.1000       0.2398      13.9240       0.0135       2.0340    -999.2500       1.9602       0.4055
   3237.2795       8.6960      28.0740      -1.3090      64.4900      32.0780    -999.2500    -999.2500       1.2000       2.5860       0.1000       0.2325      13.9240       0.0133       2.0340    -999.2500       2.0120       0.4130
   3237.4319       8.7010      28.3168      -1.3080      68.5312      32.3943    -999.2500    -999.2500       1.0840       2.1953       0.1000       0.2344      13.9265       0.0134       2.0345    -999.2500       2.0483       0.4324
   3237.5842       8.7060      28.5620      -1.3070      72.6320      32.7170    -999.2500    -999.2500       0.9660       1.7980       0.1000       0.2364      13.9290       0.0136       2.0350    -999.2500       2.0850       0.4520
   3237.7366       8.7095      28.9391      -1.2966      72.4652      33.6461    -999.2500    -999.2500       0.8163       1.4410       0.1000       0.2516      13.9678       0.0139       2.0380    -999.2500       2.0547       0.5863
   3237.8892       8.7130      29.3200      -1.2860      72.2960      34.5940    -999.2500    -999.2500       0.6640       1.0780       0.1000       0.2669      14.0070       0.0142       2.0410    -999.2500       2.0240       0.7220
   3238.0415       8.7284      29.4802      -1.2597      76.7729      35.1909    -999.2500    -999.2500       0.5782       0.9481       0.1000       0.2639      13.8226       0.0141       2.0504    -999.2500       2.0663       0.7081
   3238.1938       8.7440      29.6420      -1.2330      81.3170      35.7990    -999.2500    -999.2500       0.4910       0.8160       0.1000       0.2609      13.6360       0.0140       2.0600    -999.2500       2.1090       0.6940
   3238.3462       8.7604      29.7684      -1.1565      93.4217      36.0051    -999.2500    -999.2500       0.4449       0.8725       0.1000       0.2526      13.6763       0.0141       2.1007    -999.2500       2.1856       0.6970
   3238.4988       8.7770      29.8960      -1.0790     105.7100      36.2150    -999.2500    -999.2500       0.3980       0.9300       0.1000       0.2443      13.7170       0.0141       2.1420    -999.2500       2.2630       0.7000
   3238.6511       8.7720      30.7640      -1.0855     114.9608      37.4245    -999.2500    -999.2500       0.4362       1.1318       0.1000       0.2507      13.8010       0.0147       2.1326    -999.2500       2.1327       0.7771
   3238.8035       8.7670      31.6410      -1.0920     124.3530      38.6570    -999.2500    -999.2500       0.4750       1.3370       0.1000       0.2571      13.8860       0.0152       2.1230    -999.2500       2.0010       0.8550
   3238.9558       8.7506      33.1794      -1.1178     130.5671      40.2617    -999.2500    -999.2500       0.4626       1.6022       0.1000       0.2561      13.8418       0.0161       2.0972    -999.2500       2.1069       0.8296
   3239.1082       8.7340      34.7340      -1.1440     136.8770      41.8970    -999.2500    -999.2500       0.4500       1.8720       0.1000       0.2550      13.7970       0.0169       2.0710    -999.2500       2.2140       0.8040
   3239.2607       8.7151      36.9387      -1.1182     152.8573      42.9370    -999.2500    -999.2500       0.4351       1.7416       0.1000       0.2521      13.6072       0.0178       2.0854    -999.2500       2.5368       0.6001
   3239.4131       8.6960      39.1670      -1.0920     169.0600      43.9970    -999.2500    -999.2500       0.4200       1.6090       0.1000       0.2492      13.4150       0.0187       2.1000    -999.2500       2.8630       0.3940
   3239.5654       8.7228      40.4332      -1.0249     155.9217      44.7165    -999.2500    -999.2500       0.3853       1.2898       0.1000       0.2451      13.1169       0.0194       2.1303    -999.2500       2.7292       0.4124
   3239.7178       8.7500      41.7130      -0.9570     142.5990      45.4500    -999.2500    -999.2500       0.3500       0.9650       0.1000       0.2410      12.8150       0.0202       2.1610    -999.2500       2.5940       0.4310
   3239.8704       8.8643      42.1193      -0.7841     116.0079      46.2665    -999.2500    -999.2500       0.3099       0.6449       0.2432       0.2556      11.8368       0.0205       2.2251    -999.2500       2.6238       0.4703
   3240.0227       8.9800      42.5300      -0.6090      89.0400      47.0990    -999.2500    -999.2500       0.2690       0.3190       0.3890       0.2703      10.8460       0.0209       2.2900    -999.2500       2.6540       0.5100
   3240.1750       9.6273      45.7389      -0.3336      95.2794      51.2726    -999.2500    -999.2500       0.3413       0.4246       1.1715       0.2965       8.6685       0.0226       2.3492    -999.2500       2.8446       0.6837
   3240.3274      10.2820      48.9780      -0.0550     101.6080      55.5280    -999.2500    -999.2500       0.4150       0.5320       1.9680       0.3231       6.4660       0.0242       2.4090    -999.2500       3.0370       0.8590
   3240.4800      11.2265      52.4340       0.1424      99.3508      59.3240    -999.2500    -999.2500       0.8400       1.3101       1.8698       0.3452       4.8563       0.0259       2.3573    -999.2500       3.3590       0.8152
   3240.6323      12.1820      55.9230       0.3420      97.0610      63.1950    -999.2500    -999.2500       1.2720       2.1010       1.7700       0.3677       3.2280       0.0276       2.3050    -999.2500       3.6840       0.7710
   3240.7847      12.7198      57.2232       0.2958      92.6188      64.3773    -999.2500    -999.2500      28.0667       5.2811       1.6862       0.3642       3.5158       0.0283       2.3706    -999.2500       3.6327       0.7844
   3240.9370      13.2640      58.5360       0.2490      88.1120      65.5830    -999.2500    -999.2500      55.3060       8.5140       1.6010       0.3607       3.8070       0.0290       2.4370    -999.2500       3.5810       0.7980
   3241.0894      12.7391      59.2803       0.1884      83.1981      66.4380    -999.2500    -999.2500      32.6377       7.0904       1.5276       0.3739       4.0471       0.0296       2.3709    -999.2500       3.5074       0.8403
   3241.2419      12.2080      60.0320       0.1270      78.2120      67.3100    -999.2500    -999.2500       9.5900       5.6430       1.4530       0.3872       4.2900       0.0301       2.3040    -999.2500       3.4330       0.8830
   3241.3943      13.2035      59.3016       0.1051      75.1467      67.9085    -999.2500    -999.2500       6.0528       3.8387       1.4624       0.3684       4.2587       0.0301       2.3274    -999.2500       3.2678       0.9735
   3241.5466      14.2110      58.5640       0.0830      72.0360      68.5190    -999.2500    -999.2500       2.4560       2.0040       1.4720       0.3494       4.2270       0.0300       2.3510    -999.2500       3.1010       1.0650
   3241.6990      13.1996      59.8794       0.0755      73.5040      68.8402    -999.2500    -999.2500       4.8373       2.1096       1.5394       0.3274       4.2514       0.0305       2.3903    -999.2500       3.1821       1.0162
