#------------------------------------------------------------------------------
#
#   Created by  : [OpenWorks] Log Export Utility (LEXP)
#   Created on  : 2016-05-18 16:32:12
#   Project     : CANT971
#   User        : R5K
#   Interpreter : PEP
#
#------------------------------------------------------------------------------
~VERSION INFORMATION
VERS. 2.0 : CWLS Log ASCII Standard - version 2.0
WRAP.  NO : One line per depth step
~WELL INFORMATION
#MNEMONIC   .UNIT                                           VALUE :DESCRIPTION
#------------------------------------------------------------------------------
STRT        .M                                          1316.2775 :START DEPTH
STOP        .M                                          3511.7520 :STOP DEPTH
STEP        .M                                             0.1524 :STEP
NULL        .                                           -999.2500 :NULL VALUE
COMP        .                                   PEMEX EXPL & PROD :COMPANY
WELL        .                                                2084 :WELL
FLD         .                                           CANTARELL :FIELD
LOC         .                                             UNKNOWN :LOCATION
CNTY        .                                      CD. DEL CARMEN :COUNTY
STAT        .                                            CAMPECHE :STATE
CTRY        .                                              MEXICO :COUNTRY
SRVC        .                                             UNKNOWN :SERVICE COMPANY
DATE        .                                             UNKNOWN :LOG DATE
UWI         .                                          3060000674 :UNIQUE WELL ID
XCOORD      .                                       600034.090000 :SURFACE X
YCOORD      .                                      2139445.530000 :SURFACE Y
LAT         .                                           19.347677 :LATITUDE
LON         .                                          -92.047610 :LONGITUDE
ELEV        .M                                            27.4000 :SURFACE ELEV
ELEV_TYPE   .                                                  KB :ELEV TYPE
~CURVE INFORMATION
#MNEMONIC.UNIT        API CODE       : CURVE DESCRIPTION
#------------------------------------------------------------------------------
DEPTH    .M                          : Measured Depth
CALI     .inches      UNKNOWN        : CALI:PETROWORKS:rC:NONE:v1 
CGR      .UNKNOWN     UNKNOWN        : CGR:UNKNOWN:rC:NONE:v0 (auto-composite)
DRHO     .UNKNOWN     UNKNOWN        : DRHO:PETROWORKS:rC:NONE:v1 
DT       .us/ft       UNKNOWN        : DT:DT:rC:NONE:v0 (auto-composite)
GR       .API         UNKNOWN        : GR:PETROWORKS:rC:NONE:v2 
ILD      .UNKNOWN     UNKNOWN        : ILD:UNKNOWN:rC:NONE:v0 (auto-composite)
ILM      .UNKNOWN     UNKNOWN        : ILM:UNKNOWN:rC:NONE:v0 (auto-composite)
LLD      .ohm.m       UNKNOWN        : LLD:PETROWORKS:rC:NONE:v1 
LLS      .UNKNOWN     UNKNOWN        : LLS:PETROWORKS:rC:NONE:v1 
MSFL     .UNKNOWN     UNKNOWN        : MSFL:PETROWORKS:rC:NONE:v1 
NPHI     .v/v_decimal UNKNOWN        : NPHI:PETROWORKS:rC:NONE:v2 
PEF      .b/elec      UNKNOWN        : PEF:PETROWORKS:rC:NONE:v1 
POTA     .wtpercent   UNKNOWN        : POTA:UNKNOWN:rC:NONE:v0 (auto-composite)
RHOB     .g/cm3       UNKNOWN        : RHOB:PETROWORKS:rC:NONE:v1 
SP       .mV          UNKNOWN        : SP:PETROWORKS:rC:NONE:v1 
THOR     .UNKNOWN     UNKNOWN        : THOR:UNKNOWN:rC:NONE:v0 (auto-composite)
URAN     .UNKNOWN     UNKNOWN        : URAN:UNKNOWN:rC:NONE:v0 (auto-composite)
~A     DEPTH         CALI          CGR         DRHO           DT           GR          ILD          ILM          LLD          LLS         MSFL         NPHI          PEF         POTA         RHOB           SP         THOR         URAN
# ...
   3412.5396       6.7420    -999.2500       0.0330    -999.2500      29.1740    -999.2500    -999.2500      12.6172      18.7717      15.5213       0.0558       4.5682    -999.2500       2.6188      -6.8072    -999.2500    -999.2500
   3412.6919       6.7962    -999.2500       0.0367    -999.2500      26.9948    -999.2500    -999.2500      12.8842      18.6955      17.7107       0.0533       4.4793    -999.2500       2.6289      -9.0656    -999.2500    -999.2500
   3412.8442       6.8012    -999.2500       0.0475    -999.2500      23.3904    -999.2500    -999.2500      13.1279      18.7048      21.6553       0.0503       4.3091    -999.2500       2.6428      -8.9960    -999.2500    -999.2500
   3412.9966       6.7413    -999.2500       0.0466    -999.2500      20.7885    -999.2500    -999.2500      15.5523      22.6490      28.8112       0.0471       4.0999    -999.2500       2.6344      -5.7679    -999.2500    -999.2500
   3413.1492       6.6879    -999.2500       0.0343    -999.2500      20.0518    -999.2500    -999.2500      19.3305      27.1462      27.0316       0.0420       4.0350    -999.2500       2.6086      -5.0739    -999.2500    -999.2500
   3413.3015       6.7650    -999.2500       0.0310    -999.2500      21.4064    -999.2500    -999.2500      21.1463      29.4176      24.3887       0.0373       4.2387    -999.2500       2.6050      -8.7160    -999.2500    -999.2500
   3413.4539       6.7939    -999.2500       0.0394    -999.2500      23.7320    -999.2500    -999.2500      23.2538      29.0856      27.1557       0.0340       4.5603    -999.2500       2.6192     -12.6114    -999.2500    -999.2500
   3413.6062       6.7864    -999.2500       0.0603    -999.2500      25.4259    -999.2500    -999.2500      30.0198      29.3907      35.0009       0.0304       4.8231    -999.2500       2.6502     -15.2567    -999.2500    -999.2500
   3413.7585       6.7839    -999.2500       0.0746    -999.2500      26.9045    -999.2500    -999.2500      36.4272      34.5079      11.5326       0.0274       4.9063    -999.2500       2.6719     -16.0736    -999.2500    -999.2500
   3413.9111       6.7576    -999.2500       0.0788    -999.2500      28.7689    -999.2500    -999.2500      27.5987      28.9280       4.4845       0.0263       4.9033    -999.2500       2.6879     -16.8518    -999.2500    -999.2500
   3414.0635       6.7809    -999.2500       0.0719    -999.2500      29.3639    -999.2500    -999.2500      24.3613      28.9611       4.5762       0.0250       4.8809    -999.2500       2.6964     -13.1956    -999.2500    -999.2500
   3414.2158       6.7746    -999.2500       0.0649    -999.2500      28.8111    -999.2500    -999.2500      27.9108      36.8696      45.6035       0.0216       4.8464    -999.2500       2.6831      -9.4494    -999.2500    -999.2500
   3414.3682       6.8189    -999.2500       0.0615    -999.2500      29.2092    -999.2500    -999.2500      57.8967      78.9428      32.0772       0.0178       4.7587    -999.2500       2.6107      -9.3274    -999.2500    -999.2500
   3414.5208       6.7682    -999.2500       0.0654    -999.2500      31.0491    -999.2500    -999.2500      89.2169     113.6542       6.9479       0.0233       4.5985    -999.2500       2.5245     -11.3482    -999.2500    -999.2500
   3414.6731       6.7765    -999.2500       0.0588    -999.2500      32.0169    -999.2500    -999.2500      84.5404      87.6307       1.5392       0.0551       4.3487    -999.2500       2.4544     -14.2629    -999.2500    -999.2500
   3414.8254       6.7226    -999.2500       0.0593    -999.2500      28.8453    -999.2500    -999.2500      27.3388      27.3600       1.5154       0.0956       4.1115    -999.2500       2.4894     -17.8457    -999.2500    -999.2500
   3414.9778       6.8193    -999.2500       0.0574    -999.2500      24.2168    -999.2500    -999.2500       7.4266       8.3436      13.6812       0.1037       3.9926    -999.2500       2.5605      -9.1637    -999.2500    -999.2500
   3415.1304       6.7986    -999.2500       0.0502    -999.2500      21.4956    -999.2500    -999.2500       4.8591       7.0684      30.6050       0.0763       4.0656    -999.2500       2.6185      -0.4216    -999.2500    -999.2500
   3415.2827       6.6963    -999.2500       0.0332    -999.2500      21.3560    -999.2500    -999.2500       8.2945      13.1546      33.4814       0.0427       4.2997    -999.2500       2.6332      -0.6941    -999.2500    -999.2500
   3415.4351       6.6776    -999.2500       0.0190    -999.2500      23.1583    -999.2500    -999.2500      22.3497      36.1741      33.8516       0.0298       4.5432    -999.2500       2.6337      -3.6748    -999.2500    -999.2500
   3415.5874       6.6968    -999.2500       0.0184    -999.2500      23.6404    -999.2500    -999.2500      32.3502      52.2040      44.2199       0.0264       4.7033    -999.2500       2.6447      -4.7065    -999.2500    -999.2500
   3415.7397       6.7776    -999.2500       0.0238    -999.2500      22.6793    -999.2500    -999.2500      35.7031      57.1231      55.3442       0.0244       4.7071    -999.2500       2.6587      -5.2137    -999.2500    -999.2500
   3415.8923       6.7661    -999.2500       0.0289    -999.2500      20.3736    -999.2500    -999.2500      36.9028      58.9959      62.8677       0.0239       4.6146    -999.2500       2.6662      -7.2166    -999.2500    -999.2500
   3416.0447       6.6874    -999.2500       0.0333    -999.2500      18.6728    -999.2500    -999.2500      40.9078      60.6756      72.0998       0.0246       4.5272    -999.2500       2.6709     -11.0067    -999.2500    -999.2500
   3416.1970       6.6941    -999.2500       0.0311    -999.2500      17.7444    -999.2500    -999.2500      43.6298      57.3168      74.4047       0.0244       4.5243    -999.2500       2.6636     -12.3846    -999.2500    -999.2500
   3416.3494       6.7152    -999.2500       0.0295    -999.2500      18.3150    -999.2500    -999.2500      44.9192      55.3372      69.1401       0.0237       4.6390    -999.2500       2.6635     -12.9989    -999.2500    -999.2500
   3416.5020       6.7872    -999.2500       0.0294    -999.2500      19.6028    -999.2500    -999.2500      43.3119      53.8120      58.5993       0.0236       4.7720    -999.2500       2.6684     -14.0518    -999.2500    -999.2500
   3416.6543       6.8151    -999.2500       0.0343    -999.2500      20.4943    -999.2500    -999.2500      40.3661      51.2058      53.5359       0.0251       4.8659    -999.2500       2.6817     -14.9320    -999.2500    -999.2500
   3416.8066       6.7738    -999.2500       0.0398    -999.2500      20.2651    -999.2500    -999.2500      38.9198      50.6366      54.0050       0.0263       4.8911    -999.2500       2.6886     -15.8392    -999.2500    -999.2500
   3416.9590       6.8009    -999.2500       0.0448    -999.2500      19.0883    -999.2500    -999.2500      37.8201      50.3261      57.4273       0.0249       4.8907    -999.2500       2.6872     -18.0663    -999.2500    -999.2500
   3417.1116       6.9258    -999.2500       0.0513    -999.2500      19.1462    -999.2500    -999.2500      39.5234      53.2661      58.7607       0.0217       4.8873    -999.2500       2.6912     -23.4067    -999.2500    -999.2500
   3417.2639       6.8876    -999.2500       0.0533    -999.2500      20.2211    -999.2500    -999.2500      44.4594      61.0716      61.8992       0.0200       4.8788    -999.2500       2.6958     -30.0202    -999.2500    -999.2500
   3417.4163       6.8197    -999.2500       0.0494    -999.2500      22.5093    -999.2500    -999.2500      45.2025      64.6109      63.7094       0.0197       4.8761    -999.2500       2.6980     -35.1649    -999.2500    -999.2500
   3417.5686       6.7844    -999.2500       0.0421    -999.2500      24.2586    -999.2500    -999.2500      41.0547      61.7178      65.5620       0.0202       4.8530    -999.2500       2.6909     -36.8638    -999.2500    -999.2500
   3417.7209       6.8002    -999.2500       0.0399    -999.2500      24.8338    -999.2500    -999.2500      35.5065      55.1251      59.7358       0.0201       4.7721    -999.2500       2.6797     -38.0697    -999.2500    -999.2500
