#------------------------------------------------------------------------------
#
#   Created by  : [OpenWorks] Log Export Utility (LEXP)
#   Created on  : 2016-05-19 11:21:43
#   Project     : CANT971
#   User        : R5K
#   Interpreter : PEP
#
#------------------------------------------------------------------------------
~VERSION INFORMATION
VERS. 2.0 : CWLS Log ASCII Standard - version 2.0
WRAP.  NO : One line per depth step
~WELL INFORMATION
#MNEMONIC   .UNIT                                           VALUE :DESCRIPTION
#------------------------------------------------------------------------------
STRT        .M                                          2815.5105 :START DEPTH
STOP        .M                                          3658.4348 :STOP DEPTH
STEP        .M                                             0.1524 :STEP
NULL        .                                           -999.2500 :NULL VALUE
COMP        .                                   PEMEX EXPL & PROD :COMPANY
WELL        .                                             C-2094D :WELL
FLD         .                                           CANTARELL :FIELD
LOC         .                                             UNKNOWN :LOCATION
CNTY        .                                      CD. DEL CARMEN :COUNTY
STAT        .                                            CAMPECHE :STATE
CTRY        .                                              MEXICO :COUNTRY
SRVC        .                                             UNKNOWN :SERVICE COMPANY
DATE        .                                             UNKNOWN :LOG DATE
UWI         .                                          3060000605 :UNIQUE WELL ID
XCOORD      .                                       600028.000000 :SURFACE X
YCOORD      .                                      2139442.000000 :SURFACE Y
LAT         .                                           19.347646 :LATITUDE
LON         .                                          -92.047668 :LONGITUDE
ELEV        .M                                            27.4000 :SURFACE ELEV
ELEV_TYPE   .                                                  KB :ELEV TYPE
~CURVE INFORMATION
#MNEMONIC.UNIT        API CODE       : CURVE DESCRIPTION
#------------------------------------------------------------------------------
DEPTH    .M                          : Measured Depth
CALI     .inches      UNKNOWN        : CALI:Import:rC:NONE:v0 (auto-composite)
CGR      .API         UNKNOWN        : CGR:Import:rC:NONE:v0 (auto-composite)
DRHO     .g/cm3       UNKNOWN        : DRHO:Import:rC:NONE:v0 (auto-composite)
DT       .us/ft       UNKNOWN        : DT:Import:rC:NONE:v0 (auto-composite)
GR       .API         UNKNOWN        : GR:Import:rC:NONE:v0 (auto-composite)
ILD      .ohm.m       UNKNOWN        : ILD:Import:rC:NONE:v0 (auto-composite)
ILM      .ohm.m       UNKNOWN        : ILM:Import:rC:NONE:v0 (auto-composite)
LLD      .ohm.m       UNKNOWN        : LLD:Import:rC:NONE:v0 (auto-composite)
LLS      .ohm.m       UNKNOWN        : LLS:Import:rC:NONE:v0 (auto-composite)
MSFL     .ohm.m       UNKNOWN        : MSFL:Import:rC:NONE:v0 (auto-composite)
NPHI     .v/v_decimal UNKNOWN        : NPHI:Import:rC:NONE:v0 (auto-composite)
PEF      .b/elec      UNKNOWN        : PEF:Import:rC:NONE:v0 (auto-composite)
POTA     .wtpercent   UNKNOWN        : POTA:Import:rC:NONE:v0 (auto-composite)
RHOB     .g/cm3       UNKNOWN        : RHOB:Import:rC:NONE:v0 (auto-composite)
SP       .mV          UNKNOWN        : SP:Import:rC:NONE:v0 (auto-composite)
THOR     .ppm         UNKNOWN        : THOR:Import:rC:NONE:v0 (auto-composite)
URAN     .ppm         UNKNOWN        : URAN:Import:rC:NONE:v0 (auto-composite)
~A     DEPTH         CALI          CGR         DRHO           DT           GR          ILD          ILM          LLD          LLS         MSFL         NPHI          PEF         POTA         RHOB           SP         THOR         URAN
# ...
   3588.9404       8.6420       6.3211       0.0120      49.5187      23.0031    -999.2500    -999.2500    5347.1333    1929.8700     935.0093       0.0227       3.2671       0.0030       2.7695    -999.2500       0.3258       2.3419
   3589.0930       8.6490       5.6310       0.0130      48.6180      25.5110    -999.2500    -999.2500    5443.0850    2007.5270     223.6690       0.0238       3.5800       0.0030       2.7770    -999.2500       0.2570       2.4950
   3589.2454       8.6420       6.1385       0.0110      48.8961      25.6983    -999.2500    -999.2500    6243.7476    2381.4263     990.3483       0.0253       3.4668       0.0030       2.7680    -999.2500       0.2916       2.4664
   3589.3977       8.6350       6.6440       0.0090      49.1730      25.8860    -999.2500    -999.2500    7038.6851    2753.2451    1753.9871       0.0265       3.3540       0.0030       2.7590    -999.2500       0.3260       2.4380
   3589.5500       8.6265       5.4512       0.0105      49.1730      24.0279    -999.2500    -999.2500    8996.0850    3337.6511    1681.5643       0.0264       3.3700       0.0025       2.7745    -999.2500       0.1951       2.3693
   3589.7024       8.6180       4.2630       0.0120      49.1730      22.1740    -999.2500    -999.2500   10939.7217    3918.8811    1609.4200       0.0255       3.3860       0.0020       2.7900    -999.2500       0.0650       2.3010
   3589.8550       8.6010       5.5178       0.0075      48.9185      24.8065    -999.2500    -999.2500   11628.1396    3561.7000    1037.9763       0.0240       3.3650       0.0020       2.7990    -999.2500       0.3503       2.4780
   3590.0073       8.5840       6.7660       0.0030      48.6650      27.4250    -999.2500    -999.2500   12311.8066    3206.4170     468.6560       0.0224       3.3440       0.0020       2.8080    -999.2500       0.6340       2.6540
   3590.1597       8.5845       5.4787       0.0050      48.0639      25.4150    -999.2500    -999.2500   12338.1650    3378.0540     511.5937       0.0213       3.3756       0.0020       2.8075    -999.2500       0.3738       2.5608
   3590.3120       8.5850       4.1980       0.0070      47.4650      23.4090    -999.2500    -999.2500   12364.3438    3548.8010     554.3770       0.0204       3.4070       0.0020       2.8070    -999.2500       0.1150       2.4680
   3590.4646       8.5895       4.7374       0.0085      47.0127      24.2526    -999.2500    -999.2500   14554.4766    3441.6443     905.1428       0.0191       3.2918       0.0025       2.8035    -999.2500       0.2443       2.5071
   3590.6169       8.5940       5.2740       0.0100      46.5620      25.0960    -999.2500    -999.2500   16730.0410    3335.0300    1254.6930       0.0181       3.1770       0.0030       2.8000    -999.2500       0.3730       2.5460
   3590.7693       8.6131       6.4629       0.0095      48.5343      27.0650    -999.2500    -999.2500   15777.4316    3176.1851    1072.7789       0.0178       3.2296       0.0035       2.8030    -999.2500       0.3149       2.6472
   3590.9216       8.6320       7.6460       0.0090      50.5000      29.0400    -999.2500    -999.2500   14831.0449    3018.3779     891.4730       0.0179       3.2820       0.0040       2.8060    -999.2500       0.2570       2.7480
   3591.0742       8.6315       5.9875       0.0080      50.0137      25.8040    -999.2500    -999.2500   10746.2998    2280.3584    1250.2709       0.0181       3.1994       0.0035       2.8005    -999.2500       0.0229       2.5445
   3591.2266       8.6310       4.3370       0.0070      49.5290      22.5680    -999.2500    -999.2500    6687.7070    1547.0640    1607.9150       0.0185       3.1170       0.0030       2.7950    -999.2500      -0.2100       2.3420
   3591.3789       8.6315       5.1233       0.0080      50.2386      24.7852    -999.2500    -999.2500    5845.9556    1394.0212    1184.3890       0.0191       3.2757       0.0025       2.7985    -999.2500       0.1163       2.4613
   3591.5312       8.6320       5.9060       0.0090      50.9460      26.9920    -999.2500    -999.2500    5009.4922    1241.9399     762.1730       0.0194       3.4340       0.0020       2.8020    -999.2500       0.4410       2.5800
   3591.6836       8.6400       4.9548       0.0085      49.6205      26.2128    -999.2500    -999.2500    5657.0249    1470.1696    1215.0720       0.0186       3.4205       0.0020       2.8060    -999.2500       0.4064       2.6637
   3591.8362       8.6480       4.0080       0.0080      48.3010      25.4360    -999.2500    -999.2500    6300.5732    1696.9950    1665.9041       0.0178       3.4070       0.0020       2.8100    -999.2500       0.3720       2.7470
   3591.9885       8.6440       4.3457       0.0060      49.9106      26.0369    -999.2500    -999.2500    5191.9019    1441.2747    1029.1630       0.0176       3.5046       0.0015       2.8120    -999.2500       0.4462       2.8237
   3592.1409       8.6400       4.6820       0.0040      51.5130      26.6380    -999.2500    -999.2500    4089.9189    1187.0970     395.2460       0.0181       3.6020       0.0010       2.8140    -999.2500       0.5200       2.9000
   3592.2932       8.6430       5.3740       0.0045      51.1993      28.6508    -999.2500    -999.2500    4217.4058    1247.7635     676.2020       0.0191       3.7817       0.0015       2.8125    -999.2500       0.6378       3.0308
   3592.4458       8.6460       6.0630       0.0050      50.8870      30.6710    -999.2500    -999.2500    4344.1401    1308.0720     955.9460       0.0205       3.9610       0.0020       2.8110    -999.2500       0.7550       3.1610
   3592.5981       8.6600       5.0860       0.0005      49.7757      29.4294    -999.2500    -999.2500    3612.6560    1103.4222     492.9321       0.0224       4.1553       0.0015       2.7875    -999.2500       0.6402       3.2488
   3592.7505       8.6740       4.1130      -0.0040      48.6690      28.1890    -999.2500    -999.2500    2885.4021     899.9560      31.8560       0.0238       4.3490       0.0010       2.7640    -999.2500       0.5260       3.3360
   3592.9028       8.6600       5.2969      -0.0005      47.9831      30.2819    -999.2500    -999.2500    2373.4797     789.1412     464.4028       0.0239       4.0218       0.0015       2.7755    -999.2500       0.4257       3.2904
   3593.0554       8.6460       6.4760       0.0030      47.3000      32.3630    -999.2500    -999.2500    1865.2690     678.9530     895.1920       0.0231       3.6960       0.0020       2.7870    -999.2500       0.3260       3.2450
   3593.2078       8.6315       5.9044       0.0050      47.6327      31.7803    -999.2500    -999.2500    1886.8107     726.9302     649.3884       0.0220       3.3268       0.0020       2.7790    -999.2500       0.3907       3.2836
   3593.3601       8.6170       5.3360       0.0070      47.9640      31.1990    -999.2500    -999.2500    1908.1990     774.6420     404.5520       0.0213       2.9590       0.0020       2.7710    -999.2500       0.4550       3.3220
   3593.5125       8.6170       4.4130       0.0050      49.4734      29.6143    -999.2500    -999.2500    1310.4360     562.0646     674.2086       0.0220       3.0056       0.0020       2.7385    -999.2500       0.3803       3.2658
   3593.6648       8.6170       3.4950       0.0030      50.9770      28.0280    -999.2500    -999.2500     716.8580     350.6360     942.8370       0.0244       3.0520       0.0020       2.7060    -999.2500       0.3060       3.2100
   3593.8174       8.6295       6.5786       0.0095      52.0986      31.1793    -999.2500    -999.2500     543.6931     279.0739     727.6996       0.0290       3.1231       0.0040       2.7380    -999.2500       0.0578       3.1804
   3593.9697       8.6420       9.6460       0.0160      53.2160      34.3190    -999.2500    -999.2500     371.7180     207.8900     513.3550       0.0415       3.1940       0.0060       2.7700    -999.2500      -0.1890       3.1510
   3594.1221       8.6731      17.7880       0.0250      55.3007      45.0904    -999.2500    -999.2500     470.1568     256.0646     275.5724       0.0679       3.2676       0.0095       2.6959    -999.2500       0.4537       3.4959
