#------------------------------------------------------------------------------
#
#   Created by  : [OpenWorks] Log Export Utility (LEXP)
#   Created on  : 2016-05-19 11:21:43
#   Project     : CANT971
#   User        : R5K
#   Interpreter : PEP
#
#------------------------------------------------------------------------------
~VERSION INFORMATION
VERS. 2.0 : CWLS Log ASCII Standard - version 2.0
WRAP.  NO : One line per depth step
~WELL INFORMATION
#MNEMONIC   .UNIT                                           VALUE :DESCRIPTION
#------------------------------------------------------------------------------
STRT        .M                                          2815.5105 :START DEPTH
STOP        .M                                          3658.4348 :STOP DEPTH
STEP        .M                                             0.1524 :STEP
NULL        .                                           -999.2500 :NULL VALUE
COMP        .                                   PEMEX EXPL & PROD :COMPANY
WELL        .                                             C-2094D :WELL
FLD         .                                           CANTARELL :FIELD
LOC         .                                             UNKNOWN :LOCATION
CNTY        .                                      CD. DEL CARMEN :COUNTY
STAT        .                                            CAMPECHE :STATE
CTRY        .                                              MEXICO :COUNTRY
SRVC        .                                             UNKNOWN :SERVICE COMPANY
DATE        .                                             UNKNOWN :LOG DATE
UWI         .                                          3060000605 :UNIQUE WELL ID
XCOORD      .                                       600028.000000 :SURFACE X
YCOORD      .                                      2139442.000000 :SURFACE Y
LAT         .                                           19.347646 :LATITUDE
LON         .                                          -92.047668 :LONGITUDE
ELEV        .M                                            27.4000 :SURFACE ELEV
ELEV_TYPE   .                                                  KB :ELEV TYPE
~CURVE INFORMATION
#MNEMONIC.UNIT        API CODE       : CURVE DESCRIPTION
#------------------------------------------------------------------------------
DEPTH    .M                          : Measured Depth
CALI     .inches      UNKNOWN        : CALI:Import:rC:NONE:v0 (auto-composite)
CGR      .API         UNKNOWN        : CGR:Import:rC:NONE:v0 (auto-composite)
DRHO     .g/cm3       UNKNOWN        : DRHO:Import:rC:NONE:v0 (auto-composite)
DT       .us/ft       UNKNOWN        : DT:Import:rC:NONE:v0 (auto-composite)
GR       .API         UNKNOWN        : GR:Import:rC:NONE:v0 (auto-composite)
ILD      .ohm.m       UNKNOWN        : ILD:Import:rC:NONE:v0 (auto-composite)
ILM      .ohm.m       UNKNOWN        : ILM:Import:rC:NONE:v0 (auto-composite)
LLD      .ohm.m       UNKNOWN        : LLD:Import:rC:NONE:v0 (auto-composite)
LLS      .ohm.m       UNKNOWN        : LLS:Import:rC:NONE:v0 (auto-composite)
MSFL     .ohm.m       UNKNOWN        : MSFL:Import:rC:NONE:v0 (auto-composite)
NPHI     .v/v_decimal UNKNOWN        : NPHI:Import:rC:NONE:v0 (auto-composite)
PEF      .b/elec      UNKNOWN        : PEF:Import:rC:NONE:v0 (auto-composite)
POTA     .wtpercent   UNKNOWN        : POTA:Import:rC:NONE:v0 (auto-composite)
RHOB     .g/cm3       UNKNOWN        : RHOB:Import:rC:NONE:v0 (auto-composite)
SP       .mV          UNKNOWN        : SP:Import:rC:NONE:v0 (auto-composite)
THOR     .ppm         UNKNOWN        : THOR:Import:rC:NONE:v0 (auto-composite)
URAN     .ppm         UNKNOWN        : URAN:Import:rC:NONE:v0 (auto-composite)
~A     DEPTH         CALI          CGR         DRHO           DT           GR          ILD          ILM          LLD          LLS         MSFL         NPHI          PEF         POTA         RHOB           SP         THOR         URAN
# ...
   3460.9246      12.7365      43.5965       0.0355      77.7586      51.3116    -999.2500    -999.2500       4.3036       3.3115       5.0352       0.1575       3.9166       0.0210       2.5815    -999.2500       2.3427       0.9910
   3461.0769      12.8490      42.7690       0.0110      79.1610      50.2910    -999.2500    -999.2500       4.3780       3.3550       3.0950       0.1380       3.6760       0.0200       2.5750    -999.2500       2.4650       0.9660
   3461.2292      12.7050      44.4484       0.0130      78.9079      52.4622    -999.2500    -999.2500       4.0126       3.1114       4.5245       0.1505       3.6915       0.0205       2.5535    -999.2500       2.5807       1.0301
   3461.3816      12.5610      46.1240       0.0150      78.6550      54.6390    -999.2500    -999.2500       3.6480       2.8680       5.9530       0.1633       3.7070       0.0210       2.5320    -999.2500       2.6960       1.0940
   3461.5342      12.7340      45.7631       0.0305      80.5555      53.8393    -999.2500    -999.2500       3.7411       2.9395       5.3848       0.1607       3.7280       0.0215       2.5425    -999.2500       2.5888       1.0374
   3461.6865      12.9070      45.4030       0.0460      82.4550      53.0400    -999.2500    -999.2500       3.8340       3.0110       4.8170       0.1576       3.7490       0.0220       2.5530    -999.2500       2.4820       0.9810
   3461.8389      13.0575      44.5562       0.0645      82.4020      51.5281    -999.2500    -999.2500       3.9492       3.1020       5.1716       0.1477       3.7720       0.0220       2.5205    -999.2500       2.3072       0.8958
   3461.9912      13.2080      43.7110       0.0830      82.3490      50.0240    -999.2500    -999.2500       4.0640       3.1930       5.5260       0.1377       3.7950       0.0220       2.4880    -999.2500       2.1330       0.8110
   3462.1438      13.0695      46.4005       0.1010      81.1113      53.7440    -999.2500    -999.2500       4.0425       3.1810       4.5449       0.1672       3.9365       0.0230       2.5305    -999.2500       2.2727       0.9282
   3462.2961      12.9310      49.0850       0.1190      79.8740      57.4510    -999.2500    -999.2500       4.0210       3.1690       3.5640       0.1963       4.0780       0.0240       2.5730    -999.2500       2.4120       1.0450
   3462.4485      13.0625      49.6530       0.1055      80.1635      58.6421    -999.2500    -999.2500       3.8853       3.0780       4.1480       0.1923       3.8990       0.0230       2.5685    -999.2500       2.4390       1.0931
   3462.6008      13.1940      50.2200       0.0920      80.4530      59.8330    -999.2500    -999.2500       3.7500       2.9870       4.7320       0.1878       3.7200       0.0220       2.5640    -999.2500       2.4660       1.1410
   3462.7534      13.0315      48.1778       0.0750      81.7480      57.1353    -999.2500    -999.2500       3.5321       2.8200       3.3980       0.1954       3.7355       0.0225       2.4935    -999.2500       2.7374       1.2061
   3462.9058      12.8690      46.1390       0.0580      83.0430      54.4290    -999.2500    -999.2500       3.3150       2.6530       2.0640       0.2032       3.7510       0.0230       2.4230    -999.2500       3.0080       1.2710
   3463.0581      13.0635      47.7720       0.0635      82.8985      57.0124    -999.2500    -999.2500       3.1583       2.5365       2.9915       0.2183       3.8705       0.0230       2.4280    -999.2500       2.9955       1.3081
   3463.2104      13.2580      49.4000       0.0690      82.7540      59.5920    -999.2500    -999.2500       3.0020       2.4200       3.9190       0.2335       3.9900       0.0230       2.4330    -999.2500       2.9830       1.3450
   3463.3628      13.0574      50.3174       0.0750      81.0932      60.7355    -999.2500    -999.2500       3.0996       2.4986       3.3411       0.2201       3.9010       0.0235       2.4545    -999.2500       2.9279       1.3671
   3463.5154      12.8570      51.2320       0.0810      79.4320      61.8720    -999.2500    -999.2500       3.1970       2.5770       2.7630       0.2063       3.8120       0.0240       2.4760    -999.2500       2.8730       1.3890
   3463.6677      12.9120      48.4861       0.0775      77.4034      57.8353    -999.2500    -999.2500       3.2125       2.5950       2.7565       0.2057       3.8280       0.0235       2.4860    -999.2500       2.5232       1.2121
   3463.8201      12.9670      45.7480       0.0740      75.3740      53.8100    -999.2500    -999.2500       3.2280       2.6130       2.7500       0.2052       3.8440       0.0230       2.4960    -999.2500       2.1750       1.0360
   3463.9724      13.4943      46.5090       0.0750      76.1828      54.8378    -999.2500    -999.2500       3.3712       2.7321       3.1349       0.1986       3.9400       0.0230       2.5195    -999.2500       2.2822       1.0701
   3464.1250      14.0210      47.2680       0.0760      76.9920      55.8660    -999.2500    -999.2500       3.5140       2.8510       3.5200       0.1921       4.0360       0.0230       2.5430    -999.2500       2.3890       1.1040
   3464.2773      13.7499      44.4689       0.0645      76.3902      52.8184    -999.2500    -999.2500       3.7163       3.0136       4.5367       0.1800       4.0165       0.0220       2.5655    -999.2500       2.2803       1.0504
   3464.4297      13.4790      41.6770       0.0530      75.7880      49.7640    -999.2500    -999.2500       3.9180       3.1760       5.5540       0.1680       3.9970       0.0210       2.5880    -999.2500       2.1720       0.9970
   3464.5820      13.1043      43.2129       0.0425      74.7035      52.0609    -999.2500    -999.2500       4.0842       3.3221       6.1152       0.1615       4.0850       0.0205       2.5940    -999.2500       2.4696       1.1157
   3464.7346      12.7300      44.7450       0.0320      73.6200      54.3520    -999.2500    -999.2500       4.2500       3.4680       6.6760       0.1550       4.1730       0.0200       2.6000    -999.2500       2.7660       1.2340
   3464.8870      12.9496      41.3380       0.0225      72.5341      49.6274    -999.2500    -999.2500       4.3391       3.5370       5.3490       0.1494       4.1115       0.0195       2.5840    -999.2500       2.2490       1.0657
   3465.0393      13.1690      37.9390       0.0130      71.4490      44.9290    -999.2500    -999.2500       4.4280       3.6060       4.0230       0.1438       4.0500       0.0190       2.5680    -999.2500       1.7340       0.8980
   3465.1917      12.7829      37.7107       0.0145      71.5365      44.9115    -999.2500    -999.2500       4.6830       3.7220       5.8991       0.1336       4.1500       0.0185       2.5765    -999.2500       1.8182       0.9541
   3465.3440      12.3970      37.4830       0.0160      71.6240      44.8940    -999.2500    -999.2500       4.9370       3.8380       7.7740       0.1234       4.2500       0.0180       2.5850    -999.2500       1.9020       1.0100
   3465.4966      12.3665      38.1897       0.0170      72.2767      45.7527    -999.2500    -999.2500       4.9295       3.9370       6.8218       0.1330       4.1865       0.0185       2.5790    -999.2500       2.0177       1.0005
   3465.6489      12.3360      38.8950       0.0180      72.9290      46.6110    -999.2500    -999.2500       4.9220       4.0360       5.8700       0.1426       4.1230       0.0190       2.5730    -999.2500       2.1330       0.9910
   3465.8013      12.1270      37.3595       0.0170      71.8018      43.4005    -999.2500    -999.2500       5.1304       4.1915       6.7682       0.1426       4.2170       0.0180       2.5825    -999.2500       2.0849       0.7746
   3465.9536      11.9180      35.8270       0.0160      70.6750      40.1810    -999.2500    -999.2500       5.3380       4.3470       7.6660       0.1425       4.3110       0.0170       2.5920    -999.2500       2.0370       0.5590
   3466.1062      11.6635      37.5126       0.0135      71.1546      42.4953    -999.2500    -999.2500       6.2962       5.1186       9.5162       0.1146       4.4145       0.0180       2.6050    -999.2500       2.2604       0.6411
