#------------------------------------------------------------------------------
#
#   Created by  : [OpenWorks] Log Export Utility (LEXP)
#   Created on  : 2016-05-19 11:21:43
#   Project     : CANT971
#   User        : R5K
#   Interpreter : PEP
#
#------------------------------------------------------------------------------
~VERSION INFORMATION
VERS. 2.0 : CWLS Log ASCII Standard - version 2.0
WRAP.  NO : One line per depth step
~WELL INFORMATION
#MNEMONIC   .UNIT                                           VALUE :DESCRIPTION
#------------------------------------------------------------------------------
STRT        .M                                          2815.5105 :START DEPTH
STOP        .M                                          3658.4348 :STOP DEPTH
STEP        .M                                             0.1524 :STEP
NULL        .                                           -999.2500 :NULL VALUE
COMP        .                                   PEMEX EXPL & PROD :COMPANY
WELL        .                                             C-2094D :WELL
FLD         .                                           CANTARELL :FIELD
LOC         .                                             UNKNOWN :LOCATION
CNTY        .                                      CD. DEL CARMEN :COUNTY
STAT        .                                            CAMPECHE :STATE
CTRY        .                                              MEXICO :COUNTRY
SRVC        .                                             UNKNOWN :SERVICE COMPANY
DATE        .                                             UNKNOWN :LOG DATE
UWI         .                                          3060000605 :UNIQUE WELL ID
XCOORD      .                                       600028.000000 :SURFACE X
YCOORD      .                                      2139442.000000 :SURFACE Y
LAT         .                                           19.347646 :LATITUDE
LON         .                                          -92.047668 :LONGITUDE
ELEV        .M                                            27.4000 :SURFACE ELEV
ELEV_TYPE   .                                                  KB :ELEV TYPE
~CURVE INFORMATION
#MNEMONIC.UNIT        API CODE       : CURVE DESCRIPTION
#------------------------------------------------------------------------------
DEPTH    .M                          : Measured Depth
CALI     .inches      UNKNOWN        : CALI:Import:rC:NONE:v0 (auto-composite)
CGR      .API         UNKNOWN        : CGR:Import:rC:NONE:v0 (auto-composite)
DRHO     .g/cm3       UNKNOWN        : DRHO:Import:rC:NONE:v0 (auto-composite)
DT       .us/ft       UNKNOWN        : DT:Import:rC:NONE:v0 (auto-composite)
GR       .API         UNKNOWN        : GR:Import:rC:NONE:v0 (auto-composite)
ILD      .ohm.m       UNKNOWN        : ILD:Import:rC:NONE:v0 (auto-composite)
ILM      .ohm.m       UNKNOWN        : ILM:Import:rC:NONE:v0 (auto-composite)
LLD      .ohm.m       UNKNOWN        : LLD:Import:rC:NONE:v0 (auto-composite)
LLS      .ohm.m       UNKNOWN        : LLS:Import:rC:NONE:v0 (auto-composite)
MSFL     .ohm.m       UNKNOWN        : MSFL:Import:rC:NONE:v0 (auto-composite)
NPHI     .v/v_decimal UNKNOWN        : NPHI:Import:rC:NONE:v0 (auto-composite)
PEF      .b/elec      UNKNOWN        : PEF:Import:rC:NONE:v0 (auto-composite)
POTA     .wtpercent   UNKNOWN        : POTA:Import:rC:NONE:v0 (auto-composite)
RHOB     .g/cm3       UNKNOWN        : RHOB:Import:rC:NONE:v0 (auto-composite)
SP       .mV          UNKNOWN        : SP:Import:rC:NONE:v0 (auto-composite)
THOR     .ppm         UNKNOWN        : THOR:Import:rC:NONE:v0 (auto-composite)
URAN     .ppm         UNKNOWN        : URAN:Import:rC:NONE:v0 (auto-composite)
~A     DEPTH         CALI          CGR         DRHO           DT           GR          ILD          ILM          LLD          LLS         MSFL         NPHI          PEF         POTA         RHOB           SP         THOR         URAN
# ...
   3546.2686       8.9555       8.5870       0.0100      54.3639      19.1335    -999.2500    -999.2500     217.3704      86.2092      93.5057       0.0975       3.3329       0.0045       2.6060    -999.2500       0.5363       1.3056
   3546.4209       8.9430      12.2580       0.0110      55.1310      23.6890    -999.2500    -999.2500     192.1720      77.6830     143.1980       0.0819       3.2720       0.0060       2.6470    -999.2500       0.6640       1.3580
   3546.5732       8.9505      10.8152       0.0120      54.1218      21.3064    -999.2500    -999.2500     160.9528      65.8788      79.5238       0.0674       3.3331       0.0055       2.6820    -999.2500       0.4892       1.4186
   3546.7256       8.9580       9.3780       0.0130      53.1150      18.9180    -999.2500    -999.2500     129.9060      54.1210      15.9980       0.0549       3.3940       0.0050       2.7170    -999.2500       0.3150       1.4790
   3546.8782       8.9259       8.1071       0.0095      54.3258      19.4998    -999.2500    -999.2500     123.7363      51.9228      54.2217       0.0462       3.2278       0.0045       2.7280    -999.2500       0.1631       1.5677
   3547.0305       8.8940       6.8410       0.0060      55.5340      20.0850    -999.2500    -999.2500     117.6000      49.7330      92.3610       0.0411       3.0620       0.0040       2.7390    -999.2500       0.0120       1.6560
   3547.1829       8.8940       8.3307       0.0080      52.0619      23.0388    -999.2500    -999.2500     126.8464      54.8449      67.1573       0.0406       3.2792       0.0045       2.7675    -999.2500       0.1469       1.8681
   3547.3352       8.8940       9.8150       0.0100      48.5970      25.9960    -999.2500    -999.2500     136.0440      59.9380      42.0060       0.0407       3.4960       0.0050       2.7960    -999.2500       0.2810       2.0790
   3547.4878       8.9266       9.1092       0.0080      55.3751      25.2612    -999.2500    -999.2500     115.6735      52.3330     151.6973       0.0372       3.4485       0.0050       2.7910    -999.2500       0.2279       2.0750
   3547.6401       8.9590       8.4060       0.0060      62.1400      24.5290    -999.2500    -999.2500      95.4080      44.7550     261.1740       0.0332       3.4010       0.0050       2.7860    -999.2500       0.1750       2.0710
   3547.7925       8.9425       6.4942       0.0065      53.7045      22.4128    -999.2500    -999.2500      98.3374      46.8145     190.5043       0.0312       3.3620       0.0040       2.7755    -999.2500      -0.0225       2.0444
   3547.9448       8.9260       4.5890       0.0070      45.2980      20.2970    -999.2500    -999.2500     101.2520      48.8670     120.0770       0.0307       3.3230       0.0030       2.7650    -999.2500      -0.2190       2.0180
   3548.0974       8.9125       5.1319       0.0080      50.8867      22.4167    -999.2500    -999.2500     106.4618      54.7529      80.7170       0.0314       3.3560       0.0035       2.7545    -999.2500      -0.1714       2.2215
   3548.2498       8.8990       5.6730       0.0090      56.4570      24.5430    -999.2500    -999.2500     111.6460      60.6100      41.4870       0.0334       3.3890       0.0040       2.7440    -999.2500      -0.1240       2.4240
   3548.4021       8.9346       7.0096       0.0075      55.3908      27.0044    -999.2500    -999.2500     121.5461      65.6059     289.6600       0.0370       3.3430       0.0045       2.7610    -999.2500       0.0554       2.6480
   3548.5544       8.9700       8.3420       0.0060      54.3280      29.4620    -999.2500    -999.2500     131.3990      70.5780     537.0440       0.0414       3.2970       0.0050       2.7780    -999.2500       0.2340       2.8710
   3548.7068       8.9585       8.0182       0.0065      52.5087      33.1821    -999.2500    -999.2500     122.9353      66.7541     357.5857       0.0458       3.3070       0.0050       2.7780    -999.2500       0.0280       3.2805
   3548.8594       8.9470       7.6960       0.0070      50.6950      36.8790    -999.2500    -999.2500     114.5110      62.9480     178.6750       0.0486       3.3170       0.0050       2.7780    -999.2500      -0.1770       3.6880
   3549.0117       8.9154       7.0330       0.0115      53.3419      35.7924    -999.2500    -999.2500     124.9755      67.2598     100.7404       0.0476       3.4166       0.0045       2.7780    -999.2500      -0.1234       3.6639
   3549.1641       8.8840       6.3730       0.0160      55.9810      34.7090    -999.2500    -999.2500     135.3760      71.5520      23.0340       0.0444       3.5160       0.0040       2.7780    -999.2500      -0.0700       3.6400
   3549.3164       8.8850       6.9488       0.0140      55.2620      37.2700    -999.2500    -999.2500     148.5449      77.6635     153.1488       0.0398       3.4865       0.0035       2.7735    -999.2500       0.1700       3.9336
   3549.4690       8.8860       7.5220       0.0120      54.5450      39.8320    -999.2500    -999.2500     161.6350      83.7480     282.8990       0.0354       3.4570       0.0030       2.7690    -999.2500       0.4090       4.2260
   3549.6213       8.8950       6.7268       0.0080      52.7075      41.8519    -999.2500    -999.2500     190.1081      96.9347     160.3013       0.0328       3.3433       0.0030       2.7545    -999.2500       0.6235       4.5151
   3549.7737       8.9040       5.9350       0.0040      50.8750      43.8760    -999.2500    -999.2500     218.4140     110.0650      38.0320       0.0320       3.2300       0.0030       2.7400    -999.2500       0.8370       4.8030
   3549.9260       8.8965       3.0891       0.0025      50.9786      40.6714    -999.2500    -999.2500     287.5224     137.3777     244.3161       0.0337       3.2520       0.0010       2.7415    -999.2500       0.7488       4.7995
   3550.0786       8.8890       0.2550       0.0010      51.0820      37.4750    -999.2500    -999.2500     356.2340     164.5770     450.0740       0.0362       3.2740      -0.0010       2.7430    -999.2500       0.6610       4.7960
   3550.2310       8.8885       0.4068      -0.0030      50.3386      37.5081    -999.2500    -999.2500     845.5159     344.0013     496.7577       0.0384       3.3651      -0.0005       2.7260    -999.2500       0.3103       4.7289
   3550.3833       8.8880       0.5580      -0.0070      49.5970      37.5410    -999.2500    -999.2500    1332.0480     522.7040     543.3280       0.0399       3.4560       0.0000       2.7090    -999.2500      -0.0390       4.6620
   3550.5356       8.8955       2.8309      -0.0065      48.8977      39.8141    -999.2500    -999.2500    1636.1804     607.0590     450.5653       0.0399       3.4130       0.0010       2.7125    -999.2500       0.1629       4.7121
   3550.6880       8.9030       5.0950      -0.0060      48.2000      42.0820    -999.2500    -999.2500    1938.6429     691.0850     358.0160       0.0401       3.3700       0.0020       2.7160    -999.2500       0.3640       4.7620
   3550.8406       8.8970       3.6528      -0.0050      48.9994      39.8479    -999.2500    -999.2500    1793.0375     642.9377     600.5210       0.0421       3.3154       0.0015       2.7205    -999.2500       0.2181       4.6542
   3550.9929       8.8910       2.2160      -0.0040      49.7970      37.6150    -999.2500    -999.2500    1648.2140     594.9720     842.4980       0.0446       3.2610       0.0010       2.7250    -999.2500       0.0730       4.5470
   3551.1453       8.8945       4.9380      -0.0015      50.4527      40.9684    -999.2500    -999.2500    1501.9331     551.3549     536.9203       0.0463       3.3341       0.0020       2.7205    -999.2500       0.3688       4.6297
   3551.2976       8.8980       7.6500       0.0010      51.1070      44.3310    -999.2500    -999.2500    1356.4189     507.8970     231.9690       0.0468       3.4070       0.0030       2.7160    -999.2500       0.6630       4.7120
   3551.4502       8.8960       7.0109       0.0035      51.0479      43.0768    -999.2500    -999.2500    1263.2960     474.1912     204.7528       0.0455       3.3850       0.0030       2.7240    -999.2500       0.5272       4.6323
