#------------------------------------------------------------------------------
#
#   Created by  : [OpenWorks] Log Export Utility (LEXP)
#   Created on  : 2016-05-19 11:21:43
#   Project     : CANT971
#   User        : R5K
#   Interpreter : PEP
#
#------------------------------------------------------------------------------
~VERSION INFORMATION
VERS. 2.0 : CWLS Log ASCII Standard - version 2.0
WRAP.  NO : One line per depth step
~WELL INFORMATION
#MNEMONIC   .UNIT                                           VALUE :DESCRIPTION
#------------------------------------------------------------------------------
STRT        .M                                          2815.5105 :START DEPTH
STOP        .M                                          3658.4348 :STOP DEPTH
STEP        .M                                             0.1524 :STEP
NULL        .                                           -999.2500 :NULL VALUE
COMP        .                                   PEMEX EXPL & PROD :COMPANY
WELL        .                                             C-2094D :WELL
FLD         .                                           CANTARELL :FIELD
LOC         .                                             UNKNOWN :LOCATION
CNTY        .                                      CD. DEL CARMEN :COUNTY
STAT        .                                            CAMPECHE :STATE
CTRY        .                                              MEXICO :COUNTRY
SRVC        .                                             UNKNOWN :SERVICE COMPANY
DATE        .                                             UNKNOWN :LOG DATE
UWI         .                                          3060000605 :UNIQUE WELL ID
XCOORD      .                                       600028.000000 :SURFACE X
YCOORD      .                                      2139442.000000 :SURFACE Y
LAT         .                                           19.347646 :LATITUDE
LON         .                                          -92.047668 :LONGITUDE
ELEV        .M                                            27.4000 :SURFACE ELEV
ELEV_TYPE   .                                                  KB :ELEV TYPE
~CURVE INFORMATION
#MNEMONIC.UNIT        API CODE       : CURVE DESCRIPTION
#------------------------------------------------------------------------------
DEPTH    .M                          : Measured Depth
CALI     .inches      UNKNOWN        : CALI:Import:rC:NONE:v0 (auto-composite)
CGR      .API         UNKNOWN        : CGR:Import:rC:NONE:v0 (auto-composite)
DRHO     .g/cm3       UNKNOWN        : DRHO:Import:rC:NONE:v0 (auto-composite)
DT       .us/ft       UNKNOWN        : DT:Import:rC:NONE:v0 (auto-composite)
GR       .API         UNKNOWN        : GR:Import:rC:NONE:v0 (auto-composite)
ILD      .ohm.m       UNKNOWN        : ILD:Import:rC:NONE:v0 (auto-composite)
ILM      .ohm.m       UNKNOWN        : ILM:Import:rC:NONE:v0 (auto-composite)
LLD      .ohm.m       UNKNOWN        : LLD:Import:rC:NONE:v0 (auto-composite)
LLS      .ohm.m       UNKNOWN        : LLS:Import:rC:NONE:v0 (auto-composite)
MSFL     .ohm.m       UNKNOWN        : MSFL:Import:rC:NONE:v0 (auto-composite)
NPHI     .v/v_decimal UNKNOWN        : NPHI:Import:rC:NONE:v0 (auto-composite)
PEF      .b/elec      UNKNOWN        : PEF:Import:rC:NONE:v0 (auto-composite)
POTA     .wtpercent   UNKNOWN        : POTA:Import:rC:NONE:v0 (auto-composite)
RHOB     .g/cm3       UNKNOWN        : RHOB:Import:rC:NONE:v0 (auto-composite)
SP       .mV          UNKNOWN        : SP:Import:rC:NONE:v0 (auto-composite)
THOR     .ppm         UNKNOWN        : THOR:Import:rC:NONE:v0 (auto-composite)
URAN     .ppm         UNKNOWN        : URAN:Import:rC:NONE:v0 (auto-composite)
~A     DEPTH         CALI          CGR         DRHO           DT           GR          ILD          ILM          LLD          LLS         MSFL         NPHI          PEF         POTA         RHOB           SP         THOR         URAN
# ...
   3626.2786       7.8640       6.4170       0.1560      54.2790      30.5570    -999.2500    -999.2500   12795.2354    3154.4189      78.2580       0.0375       3.3040       0.0030       2.7360    -999.2500       0.5020       3.0810
   3626.4309       8.0111       4.7737       0.1350      51.7316      28.1744    -999.2500    -999.2500   13571.9238    2837.5796     553.0788       0.0395       3.2053       0.0025       2.7791    -999.2500       0.2793       2.9957
   3626.5833       8.1570       3.1380       0.1140      49.1960      25.8030    -999.2500    -999.2500   14342.5215    2523.2251    1025.6870       0.0435       3.1070       0.0020       2.8220    -999.2500       0.0580       2.9110
   3626.7356       8.1680       3.8631       0.0595      49.7167      27.0403    -999.2500    -999.2500   12416.6719    2546.4192     740.8987       0.0500       3.1471       0.0020       2.7789    -999.2500       0.1162       2.9476
   3626.8882       8.1790       4.5850       0.0050      50.2350      28.2740    -999.2500    -999.2500   10505.6982    2569.4341     457.4030       0.0557       3.1870       0.0020       2.7360    -999.2500       0.1740       2.9840
   3627.0405       8.1770       3.6582       0.0065      49.8807      27.5096    -999.2500    -999.2500   10971.3242    2810.6282     759.6194       0.0563       3.1670       0.0015       2.7530    -999.2500       0.2307       3.0276
   3627.1929       8.1750       2.7370       0.0080      49.5280      26.7450    -999.2500    -999.2500   11433.4150    3049.9910    1060.5031       0.0546       3.1470       0.0010       2.7700    -999.2500       0.2870       3.0710
   3627.3452       8.1655       2.8689       0.0065      49.2123      26.9900    -999.2500    -999.2500   12690.1680    3562.4839     682.8177       0.0514       3.0473       0.0010       2.7600    -999.2500       0.2539       3.0991
   3627.4978       8.1560       3.0000       0.0050      48.8980      27.2360    -999.2500    -999.2500   13937.5273    4071.1460     306.7520       0.0478       2.9480       0.0010       2.7500    -999.2500       0.2210       3.1270
   3627.6501       8.1038       1.9851       0.0035      48.7777      24.5637    -999.2500    -999.2500   11754.1592    3099.1584     592.9229       0.0442       2.9129       0.0010       2.7130    -999.2500       0.0530       2.9064
   3627.8025       8.0520       0.9760       0.0020      48.6580      21.8940    -999.2500    -999.2500    9586.8262    2134.3091     877.4460       0.0420       2.8780       0.0010       2.6760    -999.2500      -0.1140       2.6870
   3627.9548       7.9717       4.5816       0.0120      49.1053      25.5262    -999.2500    -999.2500    9512.9561    2069.9033     629.1503       0.0437       2.9647       0.0025       2.6985    -999.2500       0.1422       2.6905
   3628.1072       7.8920       8.1670       0.0220      49.5500      29.1380    -999.2500    -999.2500    9439.6191    2005.9630     382.2520       0.0456       3.0510       0.0040       2.7210    -999.2500       0.3970       2.6940
   3628.2598       7.8529       6.3575       0.0360      51.3861      27.1282    -999.2500    -999.2500    9759.8975    2037.4642     476.0197       0.0444       3.0184       0.0035       2.7095    -999.2500       0.1674       2.6679
   3628.4121       7.8140       4.5580       0.0500      53.2120      25.1230    -999.2500    -999.2500   10077.9033    2068.7419     569.2710       0.0430       2.9860       0.0030       2.6980    -999.2500      -0.0610       2.6420
   3628.5645       7.7111       4.7646       0.0650      51.9120      25.6912    -999.2500    -999.2500    9784.6553    2335.2576    1046.2803       0.0438       2.8507       0.0030       2.6735    -999.2500       0.0227       2.6886
   3628.7168       7.6090       4.9700       0.0800      50.6190      26.2600    -999.2500    -999.2500    9493.4521    2599.9141    1520.7240       0.0456       2.7160       0.0030       2.6490    -999.2500       0.1060       2.7350
   3628.8694       7.4053       5.8603       0.0990      51.6131      27.9526    -999.2500    -999.2500    8635.7119    2519.5024    1141.3682       0.0476       2.6554       0.0020       2.6260    -999.2500       0.6193       2.8964
   3629.0217       7.2030       6.7460       0.1180      52.6020      29.6390    -999.2500    -999.2500    7783.8428    2439.6411     764.0070       0.0496       2.5950       0.0010       2.6030    -999.2500       1.1300       3.0570
   3629.1741       7.2065       7.6629       0.1360      54.0848      34.6548    -999.2500    -999.2500    6552.2046    1952.7371     455.2442       0.0510       2.5644       0.0020       2.5800    -999.2500       1.0378       3.6540
   3629.3264       7.2100       8.5750       0.1540      55.5600      39.6290    -999.2500    -999.2500    5328.8501    1469.1080     148.0650       0.0553       2.5340       0.0030       2.5570    -999.2500       0.9460       4.2480
   3629.4790       7.1774       8.5154       0.1685      56.1164      42.2345    -999.2500    -999.2500    4635.5220    1607.9020     271.9883       0.0678       2.4979       0.0030       2.5185    -999.2500       0.9941       4.4485
   3629.6313       7.1450       8.4560       0.1830      56.6700      44.8270    -999.2500    -999.2500    3947.8740    1745.5590     395.2910       0.0797       2.4620       0.0030       2.4800    -999.2500       1.0420       4.6480
   3629.7837       7.1149       9.4645       0.1915      55.7783      46.8127    -999.2500    -999.2500    3259.4131    1471.7002     275.8386       0.0818       2.5161       0.0030       2.4840    -999.2500       1.2395       4.7412
   3629.9360       7.0850      10.4680       0.2000      54.8910      48.7950    -999.2500    -999.2500    2576.5020    1200.0490     156.9690       0.0796       2.5700       0.0030       2.4880    -999.2500       1.4360       4.8340
   3630.0884       7.0539      11.7506       0.2075      53.3563      42.3981    -999.2500    -999.2500    2018.1661     984.8805     214.1019       0.0756       2.6036       0.0040       2.5185    -999.2500       1.3162       4.0536
   3630.2410       7.0230      13.0270       0.2150      51.8290      36.0010    -999.2500    -999.2500    1464.2650     771.4210     270.9630       0.0698       2.6370       0.0050       2.5490    -999.2500       1.1970       3.2770
   3630.3933       7.0225      11.4519       0.2095      53.1741      38.0797    -999.2500    -999.2500    1615.8470     844.5632     195.1776       0.0609       2.5879       0.0040       2.5680    -999.2500       1.1122       3.3818
   3630.5457       7.0220       9.8840       0.2040      54.5130      40.1620    -999.2500    -999.2500    1766.2450     917.1340     119.7430       0.0535       2.5390       0.0030       2.5870    -999.2500       1.0280       3.4860
   3630.6980       7.0245      11.4726       0.2010      54.1156      40.5302    -999.2500    -999.2500    2992.4373    1175.2363     864.9572       0.0537       2.4754       0.0035       2.5494    -999.2500       1.2813       3.5316
   3630.8506       7.0270      13.0540       0.1980      53.7200      40.8980    -999.2500    -999.2500    4209.1958    1431.3530    1606.8120       0.0577       2.4120       0.0040       2.5120    -999.2500       1.5330       3.5770
   3631.0029       7.0682      12.6709       0.2035      52.1821      40.3127    -999.2500    -999.2500    4004.7900    1300.9258     831.4693       0.0651       2.4335       0.0040       2.5160    -999.2500       1.4854       3.5344
   3631.1553       7.1090      12.2900       0.2090      50.6510      39.7300    -999.2500    -999.2500    3801.9299    1171.4850      59.5220       0.0717       2.4550       0.0040       2.5200    -999.2500       1.4380       3.4920
   3631.3076       7.0794       7.7372       0.2145      51.2302      35.7853    -999.2500    -999.2500    4029.5518    1222.7885     110.8623       0.0728       2.4049       0.0030       2.5010    -999.2500       0.7595       3.5517
   3631.4602       7.0500       3.2110       0.2200      51.8070      31.8510    -999.2500    -999.2500    4255.4790    1273.7100     161.9840       0.0733       2.3550       0.0020       2.4820    -999.2500       0.0850       3.6110
