#------------------------------------------------------------------------------
#
#   Created by  : [OpenWorks] Log Export Utility (LEXP)
#   Created on  : 2016-05-19 11:21:43
#   Project     : CANT971
#   User        : R5K
#   Interpreter : PEP
#
#------------------------------------------------------------------------------
~VERSION INFORMATION
VERS. 2.0 : CWLS Log ASCII Standard - version 2.0
WRAP.  NO : One line per depth step
~WELL INFORMATION
#MNEMONIC   .UNIT                                           VALUE :DESCRIPTION
#------------------------------------------------------------------------------
STRT        .M                                          2815.5105 :START DEPTH
STOP        .M                                          3658.4348 :STOP DEPTH
STEP        .M                                             0.1524 :STEP
NULL        .                                           -999.2500 :NULL VALUE
COMP        .                                   PEMEX EXPL & PROD :COMPANY
WELL        .                                             C-2094D :WELL
FLD         .                                           CANTARELL :FIELD
LOC         .                                             UNKNOWN :LOCATION
CNTY        .                                      CD. DEL CARMEN :COUNTY
STAT        .                                            CAMPECHE :STATE
CTRY        .                                              MEXICO :COUNTRY
SRVC        .                                             UNKNOWN :SERVICE COMPANY
DATE        .                                             UNKNOWN :LOG DATE
UWI         .                                          3060000605 :UNIQUE WELL ID
XCOORD      .                                       600028.000000 :SURFACE X
YCOORD      .                                      2139442.000000 :SURFACE Y
LAT         .                                           19.347646 :LATITUDE
LON         .                                          -92.047668 :LONGITUDE
ELEV        .M                                            27.4000 :SURFACE ELEV
ELEV_TYPE   .                                                  KB :ELEV TYPE
~CURVE INFORMATION
#MNEMONIC.UNIT        API CODE       : CURVE DESCRIPTION
#------------------------------------------------------------------------------
DEPTH    .M                          : Measured Depth
CALI     .inches      UNKNOWN        : CALI:Import:rC:NONE:v0 (auto-composite)
CGR      .API         UNKNOWN        : CGR:Import:rC:NONE:v0 (auto-composite)
DRHO     .g/cm3       UNKNOWN        : DRHO:Import:rC:NONE:v0 (auto-composite)
DT       .us/ft       UNKNOWN        : DT:Import:rC:NONE:v0 (auto-composite)
GR       .API         UNKNOWN        : GR:Import:rC:NONE:v0 (auto-composite)
ILD      .ohm.m       UNKNOWN        : ILD:Import:rC:NONE:v0 (auto-composite)
ILM      .ohm.m       UNKNOWN        : ILM:Import:rC:NONE:v0 (auto-composite)
LLD      .ohm.m       UNKNOWN        : LLD:Import:rC:NONE:v0 (auto-composite)
LLS      .ohm.m       UNKNOWN        : LLS:Import:rC:NONE:v0 (auto-composite)
MSFL     .ohm.m       UNKNOWN        : MSFL:Import:rC:NONE:v0 (auto-composite)
NPHI     .v/v_decimal UNKNOWN        : NPHI:Import:rC:NONE:v0 (auto-composite)
PEF      .b/elec      UNKNOWN        : PEF:Import:rC:NONE:v0 (auto-composite)
POTA     .wtpercent   UNKNOWN        : POTA:Import:rC:NONE:v0 (auto-composite)
RHOB     .g/cm3       UNKNOWN        : RHOB:Import:rC:NONE:v0 (auto-composite)
SP       .mV          UNKNOWN        : SP:Import:rC:NONE:v0 (auto-composite)
THOR     .ppm         UNKNOWN        : THOR:Import:rC:NONE:v0 (auto-composite)
URAN     .ppm         UNKNOWN        : URAN:Import:rC:NONE:v0 (auto-composite)
~A     DEPTH         CALI          CGR         DRHO           DT           GR          ILD          ILM          LLD          LLS         MSFL         NPHI          PEF         POTA         RHOB           SP         THOR         URAN
# ...
   3530.2666       9.3690       3.2210       0.0090      85.6830      43.1540    -999.2500    -999.2500      32.6340      14.6780       6.1170       0.0745       3.4560       0.0030       2.6980    -999.2500       0.0790       5.1290
   3530.4189       9.3695       1.0715       0.0070      92.8422      40.5325    -999.2500    -999.2500      43.7818      19.2344      46.6608       0.0967       3.4640       0.0020       2.6410    -999.2500      -0.2973       5.0684
   3530.5713       9.3700      -1.0690       0.0050      99.9830      37.9220    -999.2500    -999.2500      54.8830      23.7790      87.1000       0.1160       3.4720       0.0010       2.5840    -999.2500      -0.6720       5.0080
   3530.7236       9.3725       0.2602       0.0045     104.1201      40.3605    -999.2500    -999.2500     129.4702      48.7411      99.3916       0.1175       3.5326       0.0015       2.5850    -999.2500      -0.4611       5.1508
   3530.8760       9.3750       1.5840       0.0040     108.2470      42.7930    -999.2500    -999.2500     203.7550      73.6020     111.6530       0.1111       3.5930       0.0020       2.5860    -999.2500      -0.2510       5.2930
   3531.0286       9.3635       0.7163       0.0030     105.7251      41.7091    -999.2500    -999.2500     177.4734      64.5051      72.3867       0.0993       3.5545       0.0015       2.5970    -999.2500      -0.3672       5.2649
   3531.1809       9.3520      -0.1480       0.0020     103.2090      40.6260    -999.2500    -999.2500     151.3370      55.4440      33.2120       0.0874       3.5160       0.0010       2.6080    -999.2500      -0.4830       5.2370
   3531.3333       9.3530      -1.2591       0.0035      82.0142      37.9874    -999.2500    -999.2500     110.0652      39.8619     105.3114       0.0804       3.4324       0.0005       2.6260    -999.2500      -0.4044       5.0401
   3531.4856       9.3540      -2.3660       0.0050      60.8660      35.3420    -999.2500    -999.2500      69.0160      24.3390     177.2520       0.0812       3.3490       0.0000       2.6440    -999.2500      -0.3260       4.8440
   3531.6382       9.3996      -0.3002       0.0040      76.9627      38.1982    -999.2500    -999.2500      67.1335      23.4859      94.6671       0.0998       3.3970       0.0005       2.6560    -999.2500      -0.0498       4.9458
   3531.7905       9.4450       1.7580       0.0030      93.0260      41.0530    -999.2500    -999.2500      65.2610      22.6360      12.2540       0.1191       3.4450       0.0010       2.6680    -999.2500       0.2250       5.0470
   3531.9429       9.4420       1.0472       0.0015      90.1222      39.9472    -999.2500    -999.2500      76.2638      25.8457      28.9063       0.1229       3.2843       0.0005       2.6405    -999.2500       0.1759       4.9964
   3532.0952       9.4390       0.3390       0.0000      87.2240      38.8470    -999.2500    -999.2500      87.2100      29.0440      45.5260       0.1204       3.1240       0.0000       2.6130    -999.2500       0.1270       4.9460
   3532.2478       9.4165       2.0304       0.0030      73.2422      40.6821    -999.2500    -999.2500     116.4545      37.3748      38.6462       0.1154       3.1585       0.0005       2.6245    -999.2500       0.2603       4.9661
   3532.4001       9.3940       3.7160       0.0060      59.2860      42.5110    -999.2500    -999.2500     145.5520      45.6770      31.7790       0.1099       3.1930       0.0010       2.6360    -999.2500       0.3930       4.9860
   3532.5525       9.4175       3.4981       0.0055      59.2860      38.5808    -999.2500    -999.2500     180.4920      53.3857      41.2461       0.1055       3.2536       0.0010       2.6335    -999.2500       0.4577       4.5930
   3532.7048       9.4410       3.2810       0.0050      59.2860      34.6510    -999.2500    -999.2500     215.2610      61.0690      50.6970       0.1002       3.3140       0.0010       2.6310    -999.2500       0.5220       4.2020
   3532.8572       9.4751       4.3837       0.0000      59.2860      35.8046    -999.2500    -999.2500     229.3426      63.2324      28.6171       0.0912       3.6748       0.0015       2.5730    -999.2500       0.6368       4.0812
   3533.0098       9.5090       5.4830      -0.0050      59.2860      36.9620    -999.2500    -999.2500     243.3570      65.3890       6.5720       0.0840       4.0350       0.0020       2.5150    -999.2500       0.7510       3.9610
   3533.1621       9.4860       6.0419      -0.0045      65.5641      35.9963    -999.2500    -999.2500     168.8715      44.1581      53.4025       0.0859       4.0100       0.0025       2.5170    -999.2500       0.5350       3.8517
   3533.3145       9.4630       6.5990      -0.0040      71.8230      35.0320    -999.2500    -999.2500      94.7320      22.9920     100.0900       0.0953       3.9850       0.0030       2.5190    -999.2500       0.3200       3.7430
   3533.4668       9.4575       7.8228       0.0040      85.5566      36.0175    -999.2500    -999.2500      82.1531      19.8204      57.5368       0.1166       3.6588       0.0035       2.5855    -999.2500       0.3867       3.6789
   3533.6194       9.4520       9.0430       0.0120      99.2500      36.9970    -999.2500    -999.2500      69.6310      16.6580      15.1080       0.1350       3.3330       0.0040       2.6520    -999.2500       0.4530       3.6150
   3533.7717       9.5136       8.0646       0.0100     101.6739      34.9036    -999.2500    -999.2500      66.8554      15.2065      99.5833       0.1332       3.4261       0.0035       2.6445    -999.2500       0.4330       3.4962
   3533.9241       9.5750       7.0890       0.0080     104.0910      32.8160    -999.2500    -999.2500      64.0920      13.7590     183.8220       0.1241       3.5190       0.0030       2.6370    -999.2500       0.4130       3.3780
   3534.0764       9.8671       7.9964       0.0200      98.5876      33.8662    -999.2500    -999.2500      58.1383      11.2526      93.2975       0.1141       3.7476       0.0035       2.5970    -999.2500       0.5774       3.2748
   3534.2290      10.1580       8.9000       0.0320      93.0990      34.9170    -999.2500    -999.2500      52.2100       8.7570       3.0150       0.1162       3.9760       0.0040       2.5570    -999.2500       0.7410       3.1720
   3534.3813      11.4432       8.0838       0.0295     103.9208      32.6550    -999.2500    -999.2500      45.8417       7.4668       3.8421       0.1526       4.0446       0.0040       2.4940    -999.2500       0.6343       3.0713
   3534.5337      12.7230       7.2710       0.0270     114.7150      30.3880    -999.2500    -999.2500      39.5100       6.1820       4.6670       0.1901       4.1130       0.0040       2.4310    -999.2500       0.5280       2.9710
   3534.6860      14.8583       8.6548       0.0155     100.9018      31.4503    -999.2500    -999.2500      36.8430       6.4039       4.7791       0.1956       4.2722       0.0040       2.4540    -999.2500       0.6993       2.8994
   3534.8384      16.9850      10.0330       0.0040      87.1220      32.5100    -999.2500    -999.2500      34.1910       6.6250       4.8910       0.1805       4.4310       0.0040       2.4770    -999.2500       0.8700       2.8280
   3534.9910      18.8015       9.9974       0.0075      94.9645      30.2393    -999.2500    -999.2500      31.9258       7.6184      10.1320       0.1402       4.1031       0.0035       2.5465    -999.2500       1.0579       2.7559
   3535.1433      20.6110       9.9620       0.0110     102.7890      27.9810    -999.2500    -999.2500      29.6730       8.6080      15.3610       0.1018       3.7760       0.0030       2.6160    -999.2500       1.2450       2.6840
   3535.2957      18.8612       9.0848       0.0105      99.0855      28.3159    -999.2500    -999.2500      27.7794       8.3455      12.3477       0.0940       3.8751       0.0030       2.6155    -999.2500       1.1097       2.6219
   3535.4480      17.1180       8.2110       0.0100      95.3900      28.6500    -999.2500    -999.2500      25.8960       8.0840       9.3410       0.0949       3.9740       0.0030       2.6150    -999.2500       0.9750       2.5600
