#------------------------------------------------------------------------------
#
#   Created by  : [OpenWorks] Log Export Utility (LEXP)
#   Created on  : 2016-05-19 11:21:43
#   Project     : CANT971
#   User        : R5K
#   Interpreter : PEP
#
#------------------------------------------------------------------------------
~VERSION INFORMATION
VERS. 2.0 : CWLS Log ASCII Standard - version 2.0
WRAP.  NO : One line per depth step
~WELL INFORMATION
#MNEMONIC   .UNIT                                           VALUE :DESCRIPTION
#------------------------------------------------------------------------------
STRT        .M                                          2815.5105 :START DEPTH
STOP        .M                                          3658.4348 :STOP DEPTH
STEP        .M                                             0.1524 :STEP
NULL        .                                           -999.2500 :NULL VALUE
COMP        .                                   PEMEX EXPL & PROD :COMPANY
WELL        .                                             C-2094D :WELL
FLD         .                                           CANTARELL :FIELD
LOC         .                                             UNKNOWN :LOCATION
CNTY        .                                      CD. DEL CARMEN :COUNTY
STAT        .                                            CAMPECHE :STATE
CTRY        .                                              MEXICO :COUNTRY
SRVC        .                                             UNKNOWN :SERVICE COMPANY
DATE        .                                             UNKNOWN :LOG DATE
UWI         .                                          3060000605 :UNIQUE WELL ID
XCOORD      .                                       600028.000000 :SURFACE X
YCOORD      .                                      2139442.000000 :SURFACE Y
LAT         .                                           19.347646 :LATITUDE
LON         .                                          -92.047668 :LONGITUDE
ELEV        .M                                            27.4000 :SURFACE ELEV
ELEV_TYPE   .                                                  KB :ELEV TYPE
~CURVE INFORMATION
#MNEMONIC.UNIT        API CODE       : CURVE DESCRIPTION
#------------------------------------------------------------------------------
DEPTH    .M                          : Measured Depth
CALI     .inches      UNKNOWN        : CALI:Import:rC:NONE:v0 (auto-composite)
CGR      .API         UNKNOWN        : CGR:Import:rC:NONE:v0 (auto-composite)
DRHO     .g/cm3       UNKNOWN        : DRHO:Import:rC:NONE:v0 (auto-composite)
DT       .us/ft       UNKNOWN        : DT:Import:rC:NONE:v0 (auto-composite)
GR       .API         UNKNOWN        : GR:Import:rC:NONE:v0 (auto-composite)
ILD      .ohm.m       UNKNOWN        : ILD:Import:rC:NONE:v0 (auto-composite)
ILM      .ohm.m       UNKNOWN        : ILM:Import:rC:NONE:v0 (auto-composite)
LLD      .ohm.m       UNKNOWN        : LLD:Import:rC:NONE:v0 (auto-composite)
LLS      .ohm.m       UNKNOWN        : LLS:Import:rC:NONE:v0 (auto-composite)
MSFL     .ohm.m       UNKNOWN        : MSFL:Import:rC:NONE:v0 (auto-composite)
NPHI     .v/v_decimal UNKNOWN        : NPHI:Import:rC:NONE:v0 (auto-composite)
PEF      .b/elec      UNKNOWN        : PEF:Import:rC:NONE:v0 (auto-composite)
POTA     .wtpercent   UNKNOWN        : POTA:Import:rC:NONE:v0 (auto-composite)
RHOB     .g/cm3       UNKNOWN        : RHOB:Import:rC:NONE:v0 (auto-composite)
SP       .mV          UNKNOWN        : SP:Import:rC:NONE:v0 (auto-composite)
THOR     .ppm         UNKNOWN        : THOR:Import:rC:NONE:v0 (auto-composite)
URAN     .ppm         UNKNOWN        : URAN:Import:rC:NONE:v0 (auto-composite)
~A     DEPTH         CALI          CGR         DRHO           DT           GR          ILD          ILM          LLD          LLS         MSFL         NPHI          PEF         POTA         RHOB           SP         THOR         URAN
# ...
   3642.2805    -999.2500       3.6265       0.1295      54.0697      31.3273    -999.2500    -999.2500    -999.2500    -999.2500     375.7110       0.1108       2.0865       0.0010       2.0260    -999.2500       0.3693       3.5612
   3642.4329    -999.2500       4.4450       0.1250      52.6800      32.5560    -999.2500    -999.2500    -999.2500    -999.2500      12.8290       0.1157       2.0660       0.0010       2.0090    -999.2500       0.6270       3.6200
   3642.5852    -999.2500       5.8688       0.1185      51.2542      34.3503    -999.2500    -999.2500    -999.2500    -999.2500     111.9717       0.1306       2.0339       0.0010       1.9629    -999.2500       0.9951       3.6641
   3642.7378    -999.2500       7.2840       0.1120      49.8370      36.1510    -999.2500    -999.2500    -999.2500    -999.2500     210.5190       0.1499       2.0020       0.0010       1.9170    -999.2500       1.3610       3.7080
   3642.8901    -999.2500       8.4178       0.1420      51.2687      37.6533    -999.2500    -999.2500    -999.2500    -999.2500     117.9802       0.1750       1.9890       0.0005       2.0016    -999.2500       1.6845       3.7556
   3643.0425    -999.2500       9.5450       0.1720      52.6920      39.1540    -999.2500    -999.2500    -999.2500    -999.2500      25.9860       0.1991       1.9760       0.0000       2.0860    -999.2500       2.0060       3.8030
   3643.1948    -999.2500       7.5548       0.1655      50.8718      32.0370    -999.2500    -999.2500    -999.2500    -999.2500     279.9664       0.2143       1.9038       0.0005       2.0655    -999.2500       1.5361       3.1446
   3643.3474    -999.2500       5.5760       0.1590      49.0620      24.9610    -999.2500    -999.2500    -999.2500    -999.2500     532.4850       0.2248       1.8320       0.0010       2.0450    -999.2500       1.0690       2.4900
   3643.4998    -999.2500       5.9666       0.1415      52.4160      25.5417    -999.2500    -999.2500    -999.2500    -999.2500     477.4504       0.2270       1.9061       0.0010       1.9799    -999.2500       1.1713       2.5146
   3643.6521    -999.2500       6.3550       0.1240      55.7510      26.1210    -999.2500    -999.2500    -999.2500    -999.2500     422.7260       0.2270       1.9800       0.0010       1.9150    -999.2500       1.2730       2.5390
   3643.8044    -999.2500       8.3084       0.1135      55.4838      31.7825    -999.2500    -999.2500    -999.2500    -999.2500     347.4593       0.2270       1.9760       0.0025       1.9380    -999.2500       1.0018       2.9572
   3643.9568    -999.2500      10.2510       0.1030      55.2180      37.4490    -999.2500    -999.2500    -999.2500    -999.2500     272.6070       0.2270       1.9720       0.0040       1.9610    -999.2500       0.7320       3.3730
   3644.1094    -999.2500       9.9898       0.0850      56.2127      43.6005    -999.2500    -999.2500    -999.2500    -999.2500     825.8151       0.2270       1.9389       0.0040       1.8093    -999.2500       0.8659       4.2002
   3644.2617    -999.2500       9.7300       0.0670      57.2020      49.7680    -999.2500    -999.2500    -999.2500    -999.2500    1376.0439       0.2270       1.9060       0.0040       1.6580    -999.2500       0.9990       5.0230
   3644.4141    -999.2500      10.1962       0.0350      55.9477      49.3461    -999.2500    -999.2500    -999.2500    -999.2500     829.6966       0.2270       1.8037       0.0040       1.6585    -999.2500       0.9223       5.0014
   3644.5664    -999.2500      10.6600       0.0030      54.7000      48.9250    -999.2500    -999.2500    -999.2500    -999.2500     286.2210       0.2270       1.7020       0.0040       1.6590    -999.2500       0.8460       4.9800
   3644.7190    -999.2500       6.3815       0.0050      55.7998      45.7479    -999.2500    -999.2500    -999.2500    -999.2500     151.2279       0.2270       1.7682       0.0020       1.7005    -999.2500       0.7693       4.7950
   3644.8713    -999.2500       2.1250       0.0070      56.8940      42.5870    -999.2500    -999.2500    -999.2500    -999.2500      16.9280    -999.2500       1.8340       0.0000       1.7420    -999.2500       0.6930       4.6110
   3645.0237    -999.2500       2.1265       0.0050      55.5486      38.7595    -999.2500    -999.2500    -999.2500    -999.2500      59.0078    -999.2500       1.8165       0.0000    -999.2500    -999.2500       0.5346       4.4125
   3645.1760    -999.2500       2.1280       0.0030      54.2100      34.9390    -999.2500    -999.2500    -999.2500    -999.2500     100.8770    -999.2500       1.7990       0.0000    -999.2500    -999.2500       0.3770       4.2150
   3645.3286    -999.2500       3.0914      -0.0015      53.3013      36.3531    -999.2500    -999.2500    -999.2500    -999.2500     318.0074    -999.2500       1.7674       0.0005    -999.2500    -999.2500       0.4642       4.2967
   3645.4810    -999.2500       4.0500      -0.0060      52.3970      37.7670    -999.2500    -999.2500    -999.2500    -999.2500     534.0770    -999.2500       1.7360       0.0010    -999.2500    -999.2500       0.5510       4.3780
   3645.6333    -999.2500       5.1114      -0.0075      50.0760      39.4976    -999.2500    -999.2500    -999.2500    -999.2500    1268.7859    -999.2500       1.7616       0.0015    -999.2500    -999.2500       0.7622       4.4322
   3645.7856    -999.2500       6.1660      -0.0090      47.7660      41.2310    -999.2500    -999.2500    -999.2500    -999.2500    2000.0000    -999.2500       1.7870       0.0020    -999.2500    -999.2500       0.9720       4.4860
   3645.9380    -999.2500       7.7840       0.0010      50.0648      46.3562    -999.2500    -999.2500    -999.2500    -999.2500    1204.5685    -999.2500       1.8406       0.0030    -999.2500    -999.2500       0.7192       4.9469
   3646.0906    -999.2500       9.3920       0.0110      52.3530      51.4740    -999.2500    -999.2500    -999.2500    -999.2500     412.8240    -999.2500       1.8940       0.0040    -999.2500    -999.2500       0.4680       5.4050
   3646.2429    -999.2500       7.9752       0.0105      52.2371      49.8724    -999.2500    -999.2500    -999.2500    -999.2500    1208.8416    -999.2500       1.8554       0.0035    -999.2500    -999.2500       0.5061       5.3814
   3646.3953    -999.2500       6.5670       0.0100      52.1220      48.2780    -999.2500    -999.2500    -999.2500    -999.2500    2000.0000    -999.2500       1.8170       0.0030    -999.2500    -999.2500       0.5440       5.3580
   3646.5476    -999.2500       4.3032       0.0105      51.2444      45.0039    -999.2500    -999.2500    -999.2500    -999.2500    1144.1874    -999.2500       1.8360       0.0020    -999.2500    -999.2500       0.2647       5.2276
   3646.7002    -999.2500       2.0530       0.0110      50.3720      41.7390    -999.2500    -999.2500    -999.2500    -999.2500     293.4880    -999.2500       1.8550       0.0010    -999.2500    -999.2500      -0.0130       5.0980
   3646.8525    -999.2500       0.8129       0.0195      53.7043      39.2932    -999.2500    -999.2500    -999.2500    -999.2500     966.4339    -999.2500       1.8926       0.0010    -999.2500    -999.2500      -0.3329       4.9420
   3647.0049    -999.2500      -0.4200       0.0280      57.0170      36.8500    -999.2500    -999.2500    -999.2500    -999.2500    1635.4399    -999.2500       1.9300       0.0010    -999.2500    -999.2500      -0.6510       4.7870
   3647.1572    -999.2500       4.1401       0.0265      56.5276      43.7652    -999.2500    -999.2500    -999.2500    -999.2500    1077.8744    -999.2500       1.8644       0.0025    -999.2500    -999.2500       0.0179       5.0934
   3647.3098    -999.2500       8.6740       0.0250      56.0410      50.6960    -999.2500    -999.2500    -999.2500    -999.2500     523.5010    -999.2500       1.7990       0.0040    -999.2500    -999.2500       0.6830       5.3980
   3647.4622    -999.2500       7.8768       0.0150      53.0802      49.6061    -999.2500    -999.2500    -999.2500    -999.2500     276.2737    -999.2500       1.8742       0.0020    -999.2500    -999.2500       0.6374       5.3594
