#------------------------------------------------------------------------------
#
#   Created by  : [OpenWorks] Log Export Utility (LEXP)
#   Created on  : 2016-05-19 11:21:43
#   Project     : CANT971
#   User        : R5K
#   Interpreter : PEP
#
#------------------------------------------------------------------------------
~VERSION INFORMATION
VERS. 2.0 : CWLS Log ASCII Standard - version 2.0
WRAP.  NO : One line per depth step
~WELL INFORMATION
#MNEMONIC   .UNIT                                           VALUE :DESCRIPTION
#------------------------------------------------------------------------------
STRT        .M                                          2815.5105 :START DEPTH
STOP        .M                                          3658.4348 :STOP DEPTH
STEP        .M                                             0.1524 :STEP
NULL        .                                           -999.2500 :NULL VALUE
COMP        .                                   PEMEX EXPL & PROD :COMPANY
WELL        .                                             C-2094D :WELL
FLD         .                                           CANTARELL :FIELD
LOC         .                                             UNKNOWN :LOCATION
CNTY        .                                      CD. DEL CARMEN :COUNTY
STAT        .                                            CAMPECHE :STATE
CTRY        .                                              MEXICO :COUNTRY
SRVC        .                                             UNKNOWN :SERVICE COMPANY
DATE        .                                             UNKNOWN :LOG DATE
UWI         .                                          3060000605 :UNIQUE WELL ID
XCOORD      .                                       600028.000000 :SURFACE X
YCOORD      .                                      2139442.000000 :SURFACE Y
LAT         .                                           19.347646 :LATITUDE
LON         .                                          -92.047668 :LONGITUDE
ELEV        .M                                            27.4000 :SURFACE ELEV
ELEV_TYPE   .                                                  KB :ELEV TYPE
~CURVE INFORMATION
#MNEMONIC.UNIT        API CODE       : CURVE DESCRIPTION
#------------------------------------------------------------------------------
DEPTH    .M                          : Measured Depth
CALI     .inches      UNKNOWN        : CALI:Import:rC:NONE:v0 (auto-composite)
CGR      .API         UNKNOWN        : CGR:Import:rC:NONE:v0 (auto-composite)
DRHO     .g/cm3       UNKNOWN        : DRHO:Import:rC:NONE:v0 (auto-composite)
DT       .us/ft       UNKNOWN        : DT:Import:rC:NONE:v0 (auto-composite)
GR       .API         UNKNOWN        : GR:Import:rC:NONE:v0 (auto-composite)
ILD      .ohm.m       UNKNOWN        : ILD:Import:rC:NONE:v0 (auto-composite)
ILM      .ohm.m       UNKNOWN        : ILM:Import:rC:NONE:v0 (auto-composite)
LLD      .ohm.m       UNKNOWN        : LLD:Import:rC:NONE:v0 (auto-composite)
LLS      .ohm.m       UNKNOWN        : LLS:Import:rC:NONE:v0 (auto-composite)
MSFL     .ohm.m       UNKNOWN        : MSFL:Import:rC:NONE:v0 (auto-composite)
NPHI     .v/v_decimal UNKNOWN        : NPHI:Import:rC:NONE:v0 (auto-composite)
PEF      .b/elec      UNKNOWN        : PEF:Import:rC:NONE:v0 (auto-composite)
POTA     .wtpercent   UNKNOWN        : POTA:Import:rC:NONE:v0 (auto-composite)
RHOB     .g/cm3       UNKNOWN        : RHOB:Import:rC:NONE:v0 (auto-composite)
SP       .mV          UNKNOWN        : SP:Import:rC:NONE:v0 (auto-composite)
THOR     .ppm         UNKNOWN        : THOR:Import:rC:NONE:v0 (auto-composite)
URAN     .ppm         UNKNOWN        : URAN:Import:rC:NONE:v0 (auto-composite)
~A     DEPTH         CALI          CGR         DRHO           DT           GR          ILD          ILM          LLD          LLS         MSFL         NPHI          PEF         POTA         RHOB           SP         THOR         URAN
# ...
   3556.9365       9.0280       6.2401       0.0130      50.5757      36.8174    -999.2500    -999.2500    1776.8087     787.0790     391.8517       0.0464       3.2465       0.0030       2.7085    -999.2500       0.4860       3.8936
   3557.0889       9.0130      10.9730       0.0080      51.0820      40.2070    -999.2500    -999.2500    2261.0359     768.5690     226.7780       0.0484       3.2170       0.0050       2.6700    -999.2500       0.9100       3.7270
   3557.2412       8.9564      10.0169       0.0040      53.6040      38.1732    -999.2500    -999.2500    2423.8455     810.9976     424.6606       0.0521       3.1249       0.0045       2.6790    -999.2500       0.6790       3.8758
   3557.3938       8.9000       9.0650       0.0000      56.1190      36.1320    -999.2500    -999.2500    2585.6899     853.2420     622.0010       0.0551       3.0330       0.0040       2.6880    -999.2500       0.4490       4.0240
   3557.5461       8.9010       8.3495       0.0010      55.7625      38.4582    -999.2500    -999.2500    2712.9741     840.9161     566.7311       0.0550       3.1131       0.0040       2.7180    -999.2500       0.6063       3.9959
   3557.6985       8.9020       7.6370       0.0020      55.4070      40.7820    -999.2500    -999.2500    2839.5190     828.6420     511.6060       0.0531       3.1930       0.0040       2.7480    -999.2500       0.7630       3.9680
   3557.8508       8.9010       7.1705      -0.0030      52.8979      38.7422    -999.2500    -999.2500    2535.1892     833.7560     372.4683       0.0499       3.2851       0.0040       2.6815    -999.2500       0.4278       3.9114
   3558.0034       8.9000       6.7060      -0.0080      50.3950      36.7140    -999.2500    -999.2500    2232.5879     838.8490     233.6770       0.0495       3.3770       0.0040       2.6150    -999.2500       0.0940       3.8550
   3558.1558       8.9035       6.8252      -0.0075      51.8587      36.9122    -999.2500    -999.2500    1514.9860     586.7763     602.7532       0.0559       3.3735       0.0040       2.6180    -999.2500       0.1166       3.8650
   3558.3081       8.9070       6.9440      -0.0070      53.3190      37.1100    -999.2500    -999.2500     801.3730     335.7020     970.9560       0.0626       3.3700       0.0040       2.6210    -999.2500       0.1390       3.8750
   3558.4604       8.9270       7.9935      -0.0020      55.0394      39.0651    -999.2500    -999.2500     569.2729     220.0225     500.9182       0.0625       3.2889       0.0040       2.6570    -999.2500       0.5190       4.0199
   3558.6128       8.9470       9.0390       0.0030      56.7560      41.0220    -999.2500    -999.2500     338.4330     104.7870      31.9330       0.0582       3.2080       0.0040       2.6930    -999.2500       0.8970       4.1640
   3558.7654       8.9420       7.0618      -0.0010      55.6493      38.9206    -999.2500    -999.2500     270.8516     106.0368      68.8405       0.0514       3.2120       0.0025       2.6404    -999.2500       0.8163       4.1349
   3558.9177       8.9370       5.0920      -0.0050      54.5450      36.8270    -999.2500    -999.2500     203.6290     107.2800     105.6700       0.0481       3.2160       0.0010       2.5880    -999.2500       0.7360       4.1060
   3559.0701       8.9390       5.6650      -0.0110      55.7241      37.7243    -999.2500    -999.2500     241.6750     129.1090     383.0001       0.0546       3.1780       0.0015       2.5890    -999.2500       0.6904       4.0895
   3559.2224       8.9410       6.2360      -0.0170      56.8990      38.6140    -999.2500    -999.2500     279.5240     150.8250     659.3350       0.0641       3.1400       0.0020       2.5900    -999.2500       0.6450       4.0730
   3559.3750       8.9490       7.4185      -0.0080      57.1875      39.9574    -999.2500    -999.2500     500.4017     261.0498     441.5207       0.0705       3.1785       0.0025       2.6581    -999.2500       0.7758       4.1367
   3559.5273       8.9570       8.5970       0.0010      57.4750      41.2940    -999.2500    -999.2500     720.1620     370.7170     224.4600       0.0717       3.2170       0.0030       2.7260    -999.2500       0.9060       4.2000
   3559.6797       8.9570       7.9659       0.0005      57.1520      40.5584    -999.2500    -999.2500     744.2704     386.3851     141.9929       0.0651       3.3447       0.0025       2.7230    -999.2500       0.9887       4.2221
   3559.8320       8.9570       7.3370       0.0000      56.8300      39.8240    -999.2500    -999.2500     768.2600     401.9760      59.8010       0.0571       3.4720       0.0020       2.7200    -999.2500       1.0710       4.2440
   3559.9846       8.9615       3.5589      -0.0015      53.6118      35.8775    -999.2500    -999.2500     586.6914     304.7567     202.1440       0.0539       3.4304       0.0010       2.6985    -999.2500       0.4139       4.1854
   3560.1370       8.9660      -0.2010      -0.0030      50.4040      31.9310    -999.2500    -999.2500     405.9960     208.0050     344.0300       0.0529       3.3890       0.0000       2.6770    -999.2500      -0.2400       4.1270
   3560.2893       8.9590       1.1617      -0.0015      50.8457      34.2270    -999.2500    -999.2500     414.3211     209.8994     186.9485       0.0516       3.4055       0.0005       2.6820    -999.2500       0.0176       4.2483
   3560.4417       8.9520       2.5180       0.0000      51.2860      36.5270    -999.2500    -999.2500     422.5940     211.7850      30.3520       0.0497       3.4220       0.0010       2.6870    -999.2500       0.2740       4.3690
   3560.5940       8.9580       1.5162       0.0030      50.6355      35.1791    -999.2500    -999.2500     530.5092     252.9378     287.1300       0.0464       3.3649       0.0005       2.7030    -999.2500       0.1858       4.3239
   3560.7466       8.9640       0.5190       0.0060      49.9870      33.8330    -999.2500    -999.2500     637.7610     293.9030     543.1480       0.0428       3.3080       0.0000       2.7190    -999.2500       0.0980       4.2790
   3560.8989       8.9770       0.1908       0.0030      48.7057      32.7992    -999.2500    -999.2500    1379.1034     552.5654     398.6991       0.0400       3.2674       0.0005       2.6940    -999.2500       0.0003       4.1883
   3561.0513       8.9900      -0.1360       0.0000      47.4280      31.7700    -999.2500    -999.2500    2115.9771     810.0820     254.6600       0.0396       3.2270       0.0010       2.6690    -999.2500      -0.0970       4.0980
   3561.2036       8.9975       1.4269       0.0000      50.1186      33.9219    -999.2500    -999.2500    2621.3430     989.3407     471.8938       0.0436       3.2590       0.0010       2.6745    -999.2500       0.1255       4.1842
   3561.3562       9.0050       2.9830       0.0000      52.8020      36.0680    -999.2500    -999.2500    3123.7280    1167.8270     688.5390       0.0476       3.2910       0.0010       2.6800    -999.2500       0.3470       4.2700
   3561.5085       9.0030       5.1956       0.0030      52.6002      38.9449    -999.2500    -999.2500    3424.6885    1157.3481     662.9209       0.0474       3.3155       0.0025       2.7140    -999.2500       0.3149       4.3457
   3561.6609       9.0010       7.3990       0.0060      52.3990      41.8190    -999.2500    -999.2500    3723.9099    1146.9130     637.3690       0.0441       3.3400       0.0040       2.7480    -999.2500       0.2830       4.4210
   3561.8132       9.0015       6.7437       0.0055      51.2201      40.8806    -999.2500    -999.2500    3437.7278    1061.6158     417.5412       0.0384       3.3876       0.0035       2.7355    -999.2500       0.2374       4.3844
   3561.9656       9.0020       6.0910       0.0050      50.0440      39.9400    -999.2500    -999.2500    3153.1621     976.6650     198.2540       0.0346       3.4350       0.0030       2.7230    -999.2500       0.1920       4.3480
   3562.1182       9.0060       4.9803       0.0030      49.2255      38.1840    -999.2500    -999.2500    2860.9976     915.6255     106.9934       0.0369       3.4846       0.0030       2.6980    -999.2500       0.0556       4.2638
