#------------------------------------------------------------------------------
#
#   Created by  : [OpenWorks] Log Export Utility (LEXP)
#   Created on  : 2016-05-19 11:21:43
#   Project     : CANT971
#   User        : R5K
#   Interpreter : PEP
#
#------------------------------------------------------------------------------
~VERSION INFORMATION
VERS. 2.0 : CWLS Log ASCII Standard - version 2.0
WRAP.  NO : One line per depth step
~WELL INFORMATION
#MNEMONIC   .UNIT                                           VALUE :DESCRIPTION
#------------------------------------------------------------------------------
STRT        .M                                          2815.5105 :START DEPTH
STOP        .M                                          3658.4348 :STOP DEPTH
STEP        .M                                             0.1524 :STEP
NULL        .                                           -999.2500 :NULL VALUE
COMP        .                                   PEMEX EXPL & PROD :COMPANY
WELL        .                                             C-2094D :WELL
FLD         .                                           CANTARELL :FIELD
LOC         .                                             UNKNOWN :LOCATION
CNTY        .                                      CD. DEL CARMEN :COUNTY
STAT        .                                            CAMPECHE :STATE
CTRY        .                                              MEXICO :COUNTRY
SRVC        .                                             UNKNOWN :SERVICE COMPANY
DATE        .                                             UNKNOWN :LOG DATE
UWI         .                                          3060000605 :UNIQUE WELL ID
XCOORD      .                                       600028.000000 :SURFACE X
YCOORD      .                                      2139442.000000 :SURFACE Y
LAT         .                                           19.347646 :LATITUDE
LON         .                                          -92.047668 :LONGITUDE
ELEV        .M                                            27.4000 :SURFACE ELEV
ELEV_TYPE   .                                                  KB :ELEV TYPE
~CURVE INFORMATION
#MNEMONIC.UNIT        API CODE       : CURVE DESCRIPTION
#------------------------------------------------------------------------------
DEPTH    .M                          : Measured Depth
CALI     .inches      UNKNOWN        : CALI:Import:rC:NONE:v0 (auto-composite)
CGR      .API         UNKNOWN        : CGR:Import:rC:NONE:v0 (auto-composite)
DRHO     .g/cm3       UNKNOWN        : DRHO:Import:rC:NONE:v0 (auto-composite)
DT       .us/ft       UNKNOWN        : DT:Import:rC:NONE:v0 (auto-composite)
GR       .API         UNKNOWN        : GR:Import:rC:NONE:v0 (auto-composite)
ILD      .ohm.m       UNKNOWN        : ILD:Import:rC:NONE:v0 (auto-composite)
ILM      .ohm.m       UNKNOWN        : ILM:Import:rC:NONE:v0 (auto-composite)
LLD      .ohm.m       UNKNOWN        : LLD:Import:rC:NONE:v0 (auto-composite)
LLS      .ohm.m       UNKNOWN        : LLS:Import:rC:NONE:v0 (auto-composite)
MSFL     .ohm.m       UNKNOWN        : MSFL:Import:rC:NONE:v0 (auto-composite)
NPHI     .v/v_decimal UNKNOWN        : NPHI:Import:rC:NONE:v0 (auto-composite)
PEF      .b/elec      UNKNOWN        : PEF:Import:rC:NONE:v0 (auto-composite)
POTA     .wtpercent   UNKNOWN        : POTA:Import:rC:NONE:v0 (auto-composite)
RHOB     .g/cm3       UNKNOWN        : RHOB:Import:rC:NONE:v0 (auto-composite)
SP       .mV          UNKNOWN        : SP:Import:rC:NONE:v0 (auto-composite)
THOR     .ppm         UNKNOWN        : THOR:Import:rC:NONE:v0 (auto-composite)
URAN     .ppm         UNKNOWN        : URAN:Import:rC:NONE:v0 (auto-composite)
~A     DEPTH         CALI          CGR         DRHO           DT           GR          ILD          ILM          LLD          LLS         MSFL         NPHI          PEF         POTA         RHOB           SP         THOR         URAN
# ...
   3503.5964       9.0730      11.4142       0.0090      72.2572      50.7000    -999.2500    -999.2500      67.5187      47.6507      30.1363       0.1796       3.3790       0.0045       2.4935    -999.2500       1.0230       5.0468
   3503.7488       9.1040      12.8430       0.0120      72.7160      53.1610    -999.2500    -999.2500      75.7940      53.5910      47.8510       0.1815       3.4060       0.0050       2.5030    -999.2500       1.2850       5.1790
   3503.9014       9.1465      11.1255       0.0090      74.0220      51.2050    -999.2500    -999.2500      78.6997      55.2449      40.9151       0.1693       3.3670       0.0040       2.5245    -999.2500       1.1588       5.4671
   3504.0537       9.1890       9.4120       0.0060      75.3270      49.2440    -999.2500    -999.2500      81.5940      56.8950      33.9840       0.1553       3.3280       0.0030       2.5460    -999.2500       1.0330       5.7540
   3504.2061       9.0574      10.4294       0.0035      81.9229      52.7438    -999.2500    -999.2500      69.1025      47.8887      25.4546       0.1458       3.4030       0.0035       2.5440    -999.2500       1.1347       5.7315
   3504.3584       8.9260      11.4430       0.0010      88.5150      56.2360    -999.2500    -999.2500      56.6580      38.9020      16.9300       0.1403       3.4780       0.0040       2.5420    -999.2500       1.2360       5.7090
   3504.5110       8.9345       9.0256       0.0025     104.8257      52.5539    -999.2500    -999.2500      60.3848      41.1633      24.7945       0.1509       3.5115       0.0035       2.5310    -999.2500       0.8653       5.5637
   3504.6633       8.9430       6.6170       0.0040     121.1030      48.8910    -999.2500    -999.2500      64.0980      43.4200      32.6430       0.1621       3.5450       0.0030       2.5200    -999.2500       0.4960       5.4190
   3504.8157       8.9865       6.8344       0.0030     115.4581      49.1833    -999.2500    -999.2500      92.3567      61.1540      46.0589       0.1607       3.5300       0.0035       2.5290    -999.2500       0.3578       5.4335
   3504.9680       9.0300       7.0510       0.0020     109.8240      49.4750    -999.2500    -999.2500     120.5160      78.8540      59.4490       0.1551       3.5150       0.0040       2.5380    -999.2500       0.2200       5.4480
   3505.1206       8.9925       6.1244      -0.0000     102.5970      48.1619    -999.2500    -999.2500     139.0723      90.6691      74.3278       0.1418       3.4945       0.0040       2.5530    -999.2500       0.1373       5.3989
   3505.2729       8.9550       5.2010      -0.0020      95.3830      46.8490    -999.2500    -999.2500     157.5360     102.4630      89.1800       0.1284       3.4740       0.0040       2.5680    -999.2500       0.0550       5.3500
   3505.4253       8.9585       6.1856      -0.0015      86.5111      51.2087    -999.2500    -999.2500     156.1617     100.9868      91.9473       0.1223       3.4720       0.0035       2.5770    -999.2500       0.4224       5.7851
   3505.5776       8.9620       7.1670      -0.0010      77.6540      55.5750    -999.2500    -999.2500     154.7940      99.5130      94.7100       0.1175       3.4700       0.0030       2.5860    -999.2500       0.7880       6.2180
   3505.7300       9.0055       5.6526       0.0010      77.6540      53.0796    -999.2500    -999.2500     175.0876     105.8794      74.8267       0.1121       3.4029       0.0025       2.5980    -999.2500       0.5600       6.1498
   3505.8826       9.0490       4.1430       0.0030      77.6540      50.5880    -999.2500    -999.2500     195.2850     112.2360      54.9740       0.1076       3.3360       0.0020       2.6100    -999.2500       0.3330       6.0820
   3506.0349       9.0465       4.3188       0.0015      77.6540      50.6727    -999.2500    -999.2500     188.7530     119.5916      70.6066       0.1085       3.2995       0.0020       2.6055    -999.2500       0.3716       6.0073
   3506.1873       9.0440       4.4940       0.0000      77.6540      50.7570    -999.2500    -999.2500     182.2510     126.9250      86.2170       0.1117       3.2630       0.0020       2.6010    -999.2500       0.4100       5.9330
   3506.3396       9.0255       5.0493      -0.0020      89.2845      51.2607    -999.2500    -999.2500     145.3166      99.1384      74.9277       0.1212       3.2300       0.0020       2.5810    -999.2500       0.5072       5.9380
   3506.4922       9.0070       5.6030      -0.0040     100.9000      51.7630    -999.2500    -999.2500     108.5480      71.4320      63.6530       0.1317       3.1970       0.0020       2.5610    -999.2500       0.6040       5.9430
   3506.6445       9.1362       5.1133      -0.0065     104.5441      50.9952    -999.2500    -999.2500      83.5169      56.1734      41.8878       0.1413       3.2615       0.0020       2.5420    -999.2500       0.5218       5.9169
   3506.7969       9.2650       4.6250      -0.0090     108.1840      50.2270    -999.2500    -999.2500      58.5950      40.9570      20.1480       0.1504       3.3260       0.0020       2.5230    -999.2500       0.4400       5.8910
   3506.9492       9.2580       5.2538      -0.0075      97.2548      50.9112    -999.2500    -999.2500      85.6473      48.6276      20.1480       0.1583       3.3120       0.0020       2.5255    -999.2500       0.4966       5.8664
   3507.1018       9.2510       5.8810      -0.0060      86.3370      51.5980    -999.2500    -999.2500     112.5850      56.2780      20.1480       0.1645       3.2980       0.0020       2.5280    -999.2500       0.5530       5.8420
   3507.2542       9.2280       5.2387      -0.0040      98.6681      50.3419    -999.2500    -999.2500     105.4298      56.2780      54.9554       0.1640       3.2120       0.0020       2.5190    -999.2500       0.3852       5.7678
   3507.4065       9.2050       4.5980      -0.0020     110.9880      49.0870    -999.2500    -999.2500      98.3040      56.2780      89.7310       0.1633       3.1260       0.0020       2.5100    -999.2500       0.2180       5.6940
   3507.5588       9.1740       3.6812      -0.0015      97.7518      47.3326    -999.2500    -999.2500      98.4718      67.6441      57.9720       0.1687       3.1615       0.0020       2.5250    -999.2500       0.0542       5.5968
   3507.7112       9.1430       2.7680      -0.0010      84.5260      45.5880    -999.2500    -999.2500      98.6390      78.9830      26.2380       0.1689       3.1970       0.0020       2.5400    -999.2500      -0.1090       5.5000
   3507.8638       9.1520       1.6619      -0.0005      92.8154      43.9767    -999.2500    -999.2500     145.7900      71.5756      39.3343       0.1381       3.2945       0.0015       2.5860    -999.2500      -0.2112       5.4334
   3508.0161       9.1610       0.5600       0.0000     101.0860      42.3690    -999.2500    -999.2500     192.7590      64.1850      52.4010       0.1064       3.3920       0.0010       2.6320    -999.2500      -0.3130       5.3670
   3508.1685       9.1560       2.0984      -0.0025      81.3925      43.9387    -999.2500    -999.2500     312.4677      90.2243     100.3002       0.1009       3.3230       0.0015       2.6275    -999.2500      -0.1196       5.3730
   3508.3208       9.1510       3.6310      -0.0050      61.7410      45.5100    -999.2500    -999.2500     431.7290     116.2080     148.0970       0.1015       3.2540       0.0020       2.6230    -999.2500       0.0730       5.3790
   3508.4734       9.1470       2.9493      -0.0045      63.1825      44.1220    -999.2500    -999.2500     384.1071     183.0308     241.4720       0.1043       3.2855       0.0020       2.6045    -999.2500      -0.0607       5.2883
   3508.6257       9.1430       2.2700      -0.0040      64.6210      42.7390    -999.2500    -999.2500     336.6570     249.7190     334.6590       0.1079       3.3170       0.0020       2.5860    -999.2500      -0.1940       5.1980
   3508.7781       9.1310       2.6942      -0.0020      61.5026      43.2034    -999.2500    -999.2500     287.4112     222.7300     198.2043       0.1139       3.4992       0.0020       2.5880    -999.2500      -0.1129       5.2055
