#------------------------------------------------------------------------------
#
#   Created by  : [OpenWorks] Log Export Utility (LEXP)
#   Created on  : 2016-05-19 11:21:43
#   Project     : CANT971
#   User        : R5K
#   Interpreter : PEP
#
#------------------------------------------------------------------------------
~VERSION INFORMATION
VERS. 2.0 : CWLS Log ASCII Standard - version 2.0
WRAP.  NO : One line per depth step
~WELL INFORMATION
#MNEMONIC   .UNIT                                           VALUE :DESCRIPTION
#------------------------------------------------------------------------------
STRT        .M                                          2815.5105 :START DEPTH
STOP        .M                                          3658.4348 :STOP DEPTH
STEP        .M                                             0.1524 :STEP
NULL        .                                           -999.2500 :NULL VALUE
COMP        .                                   PEMEX EXPL & PROD :COMPANY
WELL        .                                             C-2094D :WELL
FLD         .                                           CANTARELL :FIELD
LOC         .                                             UNKNOWN :LOCATION
CNTY        .                                      CD. DEL CARMEN :COUNTY
STAT        .                                            CAMPECHE :STATE
CTRY        .                                              MEXICO :COUNTRY
SRVC        .                                             UNKNOWN :SERVICE COMPANY
DATE        .                                             UNKNOWN :LOG DATE
UWI         .                                          3060000605 :UNIQUE WELL ID
XCOORD      .                                       600028.000000 :SURFACE X
YCOORD      .                                      2139442.000000 :SURFACE Y
LAT         .                                           19.347646 :LATITUDE
LON         .                                          -92.047668 :LONGITUDE
ELEV        .M                                            27.4000 :SURFACE ELEV
ELEV_TYPE   .                                                  KB :ELEV TYPE
~CURVE INFORMATION
#MNEMONIC.UNIT        API CODE       : CURVE DESCRIPTION
#------------------------------------------------------------------------------
DEPTH    .M                          : Measured Depth
CALI     .inches      UNKNOWN        : CALI:Import:rC:NONE:v0 (auto-composite)
CGR      .API         UNKNOWN        : CGR:Import:rC:NONE:v0 (auto-composite)
DRHO     .g/cm3       UNKNOWN        : DRHO:Import:rC:NONE:v0 (auto-composite)
DT       .us/ft       UNKNOWN        : DT:Import:rC:NONE:v0 (auto-composite)
GR       .API         UNKNOWN        : GR:Import:rC:NONE:v0 (auto-composite)
ILD      .ohm.m       UNKNOWN        : ILD:Import:rC:NONE:v0 (auto-composite)
ILM      .ohm.m       UNKNOWN        : ILM:Import:rC:NONE:v0 (auto-composite)
LLD      .ohm.m       UNKNOWN        : LLD:Import:rC:NONE:v0 (auto-composite)
LLS      .ohm.m       UNKNOWN        : LLS:Import:rC:NONE:v0 (auto-composite)
MSFL     .ohm.m       UNKNOWN        : MSFL:Import:rC:NONE:v0 (auto-composite)
NPHI     .v/v_decimal UNKNOWN        : NPHI:Import:rC:NONE:v0 (auto-composite)
PEF      .b/elec      UNKNOWN        : PEF:Import:rC:NONE:v0 (auto-composite)
POTA     .wtpercent   UNKNOWN        : POTA:Import:rC:NONE:v0 (auto-composite)
RHOB     .g/cm3       UNKNOWN        : RHOB:Import:rC:NONE:v0 (auto-composite)
SP       .mV          UNKNOWN        : SP:Import:rC:NONE:v0 (auto-composite)
THOR     .ppm         UNKNOWN        : THOR:Import:rC:NONE:v0 (auto-composite)
URAN     .ppm         UNKNOWN        : URAN:Import:rC:NONE:v0 (auto-composite)
~A     DEPTH         CALI          CGR         DRHO           DT           GR          ILD          ILM          LLD          LLS         MSFL         NPHI          PEF         POTA         RHOB           SP         THOR         URAN
# ...
   3519.5984       9.0840       7.3690      -0.0070      86.5720      46.8110    -999.2500    -999.2500     378.9640     190.9810      42.3670       0.1490       3.1290       0.0030       2.5540    -999.2500       0.4910       5.0320
   3519.7510       9.0880       6.7779      -0.0100      83.4316      46.2996    -999.2500    -999.2500     336.3111     178.6706      55.5914       0.1491       3.0880       0.0030       2.5500    -999.2500       0.4354       5.0836
   3519.9033       9.0920       6.1890      -0.0130      80.2980      45.7910    -999.2500    -999.2500     293.8870     166.3870      68.7870       0.1497       3.0470       0.0030       2.5460    -999.2500       0.3800       5.1350
   3520.0557       9.0905       5.9876      -0.0125      83.3661      46.4286    -999.2500    -999.2500     234.6920     137.5680      54.0995       0.1512       3.1126       0.0025       2.5300    -999.2500       0.4416       5.2192
   3520.2080       9.0890       5.7870      -0.0120      86.4280      47.0650    -999.2500    -999.2500     175.8070     108.8540      39.4420       0.1523       3.1780       0.0020       2.5140    -999.2500       0.5030       5.3030
   3520.3606       9.0920       4.9851      -0.0050     101.8884      47.6546    -999.2500    -999.2500     121.0038      75.4908      25.9966       0.1512       3.2751       0.0015       2.5220    -999.2500       0.4624       5.4053
   3520.5129       9.0950       4.1860       0.0020     117.3190      48.2440    -999.2500    -999.2500      66.4810      42.2450      12.5770       0.1511       3.3720       0.0010       2.5300    -999.2500       0.4220       5.5070
   3520.6653       9.0925       5.0440       0.0020      90.4489      49.4891    -999.2500    -999.2500      70.0404      44.4367      30.6908       0.1569       3.3450       0.0010       2.5240    -999.2500       0.6897       5.6338
   3520.8176       9.0900       5.8990       0.0020      63.6270      50.7380    -999.2500    -999.2500      73.5820      46.6210      48.7720       0.1628       3.3180       0.0010       2.5180    -999.2500       0.9560       5.7600
   3520.9702       9.0925       4.8127       0.0010      64.1049      48.5144    -999.2500    -999.2500     111.4195      68.5208      46.6222       0.1631       3.1544       0.0015       2.5235    -999.2500       0.8984       5.7209
   3521.1226       9.0950       3.7300       0.0000      64.5820      46.2910    -999.2500    -999.2500     149.0730      90.3490      44.4760       0.1606       2.9910       0.0020       2.5290    -999.2500       0.8410       5.6820
   3521.2749       9.0930       3.9999      -0.0010      63.9220      46.5050    -999.2500    -999.2500     200.8351     117.1676      87.9926       0.1540       2.9985       0.0015       2.5365    -999.2500       0.6987       5.5888
   3521.4272       9.0910       4.2690      -0.0020      63.2630      46.7180    -999.2500    -999.2500     252.3520     143.9020     131.4420       0.1468       3.0060       0.0010       2.5440    -999.2500       0.5570       5.4960
   3521.5796       9.0875       3.8709      -0.0030      65.5711      45.7465    -999.2500    -999.2500     273.3489     150.9021     109.7371       0.1417       3.0495       0.0010       2.5425    -999.2500       0.3931       5.4218
   3521.7322       9.0840       3.4740      -0.0040      67.8760      44.7780    -999.2500    -999.2500     294.2490     157.8810      88.0630       0.1374       3.0930       0.0010       2.5410    -999.2500       0.2300       5.3480
   3521.8845       9.0915       5.3758      -0.0015      67.0840      46.7082    -999.2500    -999.2500     385.6465     190.8166      58.1362       0.1342       3.0525       0.0020       2.5585    -999.2500       0.3608       5.3064
   3522.0369       9.0990       7.2720       0.0010      66.2930      48.6390    -999.2500    -999.2500     476.6340     223.6570      28.2480       0.1299       3.0120       0.0030       2.5760    -999.2500       0.4910       5.2650
   3522.1892       9.0955       6.6742       0.0000      63.4608      47.1228    -999.2500    -999.2500     471.7979     220.6694     100.2045       0.1208       3.0195       0.0030       2.5915    -999.2500       0.3382       5.1648
   3522.3418       9.0920       6.0780      -0.0010      60.6320      45.6010    -999.2500    -999.2500     466.9830     217.6900     172.0770       0.1108       3.0270       0.0030       2.6070    -999.2500       0.1860       5.0650
   3522.4941       9.0965       4.6581       0.0005      60.8523      43.4699    -999.2500    -999.2500     427.5891     196.9426     133.7774       0.1024       3.0450       0.0025       2.6190    -999.2500       0.0227       4.9793
   3522.6465       9.1010       3.2420       0.0020      61.0720      41.3410    -999.2500    -999.2500     388.3620     176.2500      95.5790       0.0952       3.0630       0.0020       2.6310    -999.2500      -0.1400       4.8940
   3522.7988       9.1200       5.2612       0.0010      62.9634      44.3360    -999.2500    -999.2500     350.8528     158.5352     156.6688       0.0902       3.0975       0.0025       2.6410    -999.2500       0.1511       5.0188
   3522.9514       9.1390       7.2720       0.0000      64.8500      47.3140    -999.2500    -999.2500     313.4980     140.8650     217.6050       0.0863       3.1320       0.0030       2.6510    -999.2500       0.4410       5.1430
   3523.1038       9.1110       5.3136       0.0020      72.3675      44.4826    -999.2500    -999.2500     267.4662     123.0707     121.4595       0.0838       3.1685       0.0025       2.6650    -999.2500       0.2817       4.9907
   3523.2561       9.0830       3.3630       0.0040      79.8670      41.6580    -999.2500    -999.2500     221.6180     105.3190      25.5440       0.0827       3.2050       0.0020       2.6790    -999.2500       0.1230       4.8390
   3523.4084       9.0805       4.6831       0.0020      88.5073      43.0548    -999.2500    -999.2500     230.3293     111.6698      31.1574       0.0849       3.1539       0.0025       2.6760    -999.2500       0.2883       4.8896
   3523.5608       9.0780       5.9980       0.0000      97.1280      44.4530    -999.2500    -999.2500     239.0070     117.9960      36.7580       0.0884       3.1030       0.0030       2.6730    -999.2500       0.4530       4.9400
   3523.7134       9.0795       5.2266      -0.0020      89.4458      43.0899    -999.2500    -999.2500     231.4183     114.8080     150.0123       0.0929       3.2702       0.0025       2.6470    -999.2500       0.3588       4.8639
   3523.8657       9.0810       4.4580      -0.0040      81.7800      41.7320    -999.2500    -999.2500     223.8700     111.6320     263.0240       0.0968       3.4370       0.0020       2.6210    -999.2500       0.2650       4.7880
   3524.0181       9.0840       5.9312      -0.0030      87.2125      43.7565    -999.2500    -999.2500     213.7777     106.7988     151.1728       0.0974       3.3975       0.0025       2.6240    -999.2500       0.4168       4.8581
   3524.1704       9.0870       7.3990      -0.0020      92.6340      45.7640    -999.2500    -999.2500     203.7380     101.9830      39.5470       0.0966       3.3580       0.0030       2.6270    -999.2500       0.5680       4.9280
   3524.3230       9.0845       5.7857      -0.0025      83.7006      43.4296    -999.2500    -999.2500     192.9761      96.4418      86.0339       0.0939       3.3105       0.0030       2.6375    -999.2500       0.2843       4.8353
   3524.4753       9.0820       4.1780      -0.0030      74.7840      41.1070    -999.2500    -999.2500     182.2690      90.9200     132.4330       0.0903       3.2630       0.0030       2.6480    -999.2500       0.0020       4.7430
   3524.6277       9.0840       5.0675       0.0010      91.0248      42.5493    -999.2500    -999.2500     200.3694      98.7497      86.2067       0.0858       3.1309       0.0030       2.6600    -999.2500       0.0947       4.8147
   3524.7800       9.0860       5.9540       0.0050     107.2370      43.9890    -999.2500    -999.2500     218.3800     106.5530      40.0620       0.0812       2.9990       0.0030       2.6720    -999.2500       0.1870       4.8860
