#------------------------------------------------------------------------------
#
#   Created by  : [OpenWorks] Log Export Utility (LEXP)
#   Created on  : 2016-05-19 11:21:43
#   Project     : CANT971
#   User        : R5K
#   Interpreter : PEP
#
#------------------------------------------------------------------------------
~VERSION INFORMATION
VERS. 2.0 : CWLS Log ASCII Standard - version 2.0
WRAP.  NO : One line per depth step
~WELL INFORMATION
#MNEMONIC   .UNIT                                           VALUE :DESCRIPTION
#------------------------------------------------------------------------------
STRT        .M                                          2815.5105 :START DEPTH
STOP        .M                                          3658.4348 :STOP DEPTH
STEP        .M                                             0.1524 :STEP
NULL        .                                           -999.2500 :NULL VALUE
COMP        .                                   PEMEX EXPL & PROD :COMPANY
WELL        .                                             C-2094D :WELL
FLD         .                                           CANTARELL :FIELD
LOC         .                                             UNKNOWN :LOCATION
CNTY        .                                      CD. DEL CARMEN :COUNTY
STAT        .                                            CAMPECHE :STATE
CTRY        .                                              MEXICO :COUNTRY
SRVC        .                                             UNKNOWN :SERVICE COMPANY
DATE        .                                             UNKNOWN :LOG DATE
UWI         .                                          3060000605 :UNIQUE WELL ID
XCOORD      .                                       600028.000000 :SURFACE X
YCOORD      .                                      2139442.000000 :SURFACE Y
LAT         .                                           19.347646 :LATITUDE
LON         .                                          -92.047668 :LONGITUDE
ELEV        .M                                            27.4000 :SURFACE ELEV
ELEV_TYPE   .                                                  KB :ELEV TYPE
~CURVE INFORMATION
#MNEMONIC.UNIT        API CODE       : CURVE DESCRIPTION
#------------------------------------------------------------------------------
DEPTH    .M                          : Measured Depth
CALI     .inches      UNKNOWN        : CALI:Import:rC:NONE:v0 (auto-composite)
CGR      .API         UNKNOWN        : CGR:Import:rC:NONE:v0 (auto-composite)
DRHO     .g/cm3       UNKNOWN        : DRHO:Import:rC:NONE:v0 (auto-composite)
DT       .us/ft       UNKNOWN        : DT:Import:rC:NONE:v0 (auto-composite)
GR       .API         UNKNOWN        : GR:Import:rC:NONE:v0 (auto-composite)
ILD      .ohm.m       UNKNOWN        : ILD:Import:rC:NONE:v0 (auto-composite)
ILM      .ohm.m       UNKNOWN        : ILM:Import:rC:NONE:v0 (auto-composite)
LLD      .ohm.m       UNKNOWN        : LLD:Import:rC:NONE:v0 (auto-composite)
LLS      .ohm.m       UNKNOWN        : LLS:Import:rC:NONE:v0 (auto-composite)
MSFL     .ohm.m       UNKNOWN        : MSFL:Import:rC:NONE:v0 (auto-composite)
NPHI     .v/v_decimal UNKNOWN        : NPHI:Import:rC:NONE:v0 (auto-composite)
PEF      .b/elec      UNKNOWN        : PEF:Import:rC:NONE:v0 (auto-composite)
POTA     .wtpercent   UNKNOWN        : POTA:Import:rC:NONE:v0 (auto-composite)
RHOB     .g/cm3       UNKNOWN        : RHOB:Import:rC:NONE:v0 (auto-composite)
SP       .mV          UNKNOWN        : SP:Import:rC:NONE:v0 (auto-composite)
THOR     .ppm         UNKNOWN        : THOR:Import:rC:NONE:v0 (auto-composite)
URAN     .ppm         UNKNOWN        : URAN:Import:rC:NONE:v0 (auto-composite)
~A     DEPTH         CALI          CGR         DRHO           DT           GR          ILD          ILM          LLD          LLS         MSFL         NPHI          PEF         POTA         RHOB           SP         THOR         URAN
# ...
   3572.9385       8.9010      16.7580       0.0030      52.6320      67.1040    -999.2500    -999.2500     583.6570     318.0990     174.0270       0.0593       2.9630       0.0070       2.6540    -999.2500       1.2170       6.1840
   3573.0908       8.9025      17.8603       0.0030      53.9478      64.4543    -999.2500    -999.2500     625.8911     330.9007     125.9607       0.0566       2.9925       0.0075       2.6435    -999.2500       1.3403       5.9295
   3573.2434       8.9040      18.9580       0.0030      55.2580      61.8200    -999.2500    -999.2500     667.8800     343.6280      78.0970       0.0552       3.0220       0.0080       2.6330    -999.2500       1.4630       5.6760
   3573.3958       8.9020      16.0591       0.0045      53.6708      57.2088    -999.2500    -999.2500     706.6553     349.3452     192.4397       0.0557       3.1206       0.0070       2.6740    -999.2500       0.8984       5.3701
   3573.5481       8.9000      13.1720       0.0060      52.0900      52.6090    -999.2500    -999.2500     745.2100     355.0300     306.3150       0.0543       3.2190       0.0060       2.7150    -999.2500       0.3370       5.0660
   3573.7004       8.9025      10.2743       0.0040      53.2027      48.9670    -999.2500    -999.2500     772.9711     361.0071     470.7832       0.0475       3.1920       0.0050       2.7130    -999.2500       0.4969       4.9692
   3573.8528       8.9050       7.3880       0.0020      54.3110      45.3220    -999.2500    -999.2500     800.5780     366.9510     634.5990       0.0407       3.1650       0.0040       2.7110    -999.2500       0.6560       4.8730
   3574.0054       8.9065       8.0107       0.0075      54.1597      46.3542    -999.2500    -999.2500     760.2343     352.6110     444.6299       0.0393       3.2941       0.0040       2.7480    -999.2500       0.4725       4.9297
   3574.1577       8.9080       8.6310       0.0130      54.0090      47.3890    -999.2500    -999.2500     720.1100     338.3490     255.3900       0.0403       3.4230       0.0040       2.7850    -999.2500       0.2900       4.9860
   3574.3101       8.9065       9.6188       0.0105      54.0090      48.9922    -999.2500    -999.2500     661.3246     308.5158     255.3900       0.0405       3.3233       0.0050       2.7850    -999.2500       0.3221       5.0617
   3574.4624       8.9050      10.6030       0.0080      54.0090      50.5920    -999.2500    -999.2500     602.9450     278.8410     255.3900       0.0401       3.2240       0.0060       2.7850    -999.2500       0.3540       5.1370
   3574.6150       8.9025       8.9297       0.0025      50.7617      48.7136    -999.2500    -999.2500     566.4454     256.7342     255.3900       0.0393       3.2395       0.0055       2.7655    -999.2500       0.2312       5.0418
   3574.7673       8.9000       7.2650      -0.0030      47.5260      46.8450    -999.2500    -999.2500     530.1930     234.7420     255.3900       0.0386       3.2550       0.0050       2.7460    -999.2500       0.1090       4.9470
   3574.9197       8.9035       5.9276      -0.0025      48.3940      43.0329    -999.2500    -999.2500     846.1011     335.4847     535.2850       0.0383       3.3512       0.0045       2.7485    -999.2500      -0.2113       4.8232
   3575.0720       8.9070       4.5970      -0.0020      49.2590      39.2280    -999.2500    -999.2500    1159.9070     435.7180     814.2100       0.0375       3.4470       0.0040       2.7510    -999.2500      -0.5300       4.7000
   3575.2246       8.9065       4.9865       0.0010      47.5987      39.6570    -999.2500    -999.2500    1066.2455     399.8856     488.3181       0.0352       3.4315       0.0040       2.7615    -999.2500      -0.4874       4.5722
   3575.3770       8.9060       5.3740       0.0040      45.9440      40.0860    -999.2500    -999.2500     973.1950     364.2300     163.5140       0.0331       3.4160       0.0040       2.7720    -999.2500      -0.4450       4.4450
   3575.5293       8.9215       7.0169       0.0065      49.2538      41.9360    -999.2500    -999.2500     861.8148     318.7843     923.5008       0.0329       3.3534       0.0045       2.7700    -999.2500      -0.2530       4.4761
   3575.6816       8.9370       8.6520       0.0090      52.5530      43.7890    -999.2500    -999.2500     751.1480     273.5570    1681.0439       0.0336       3.2910       0.0050       2.7680    -999.2500      -0.0620       4.5070
   3575.8340       8.9465       9.9150       0.0155      52.1819      45.4127    -999.2500    -999.2500     698.9653     292.6748    1031.1877       0.0345       3.3481       0.0055       2.7710    -999.2500       0.1144       4.5571
   3575.9866       8.9560      11.1720       0.0220      51.8120      47.0340    -999.2500    -999.2500     647.1100     311.7030     383.3380       0.0360       3.4050       0.0060       2.7740    -999.2500       0.2900       4.6070
   3576.1389       8.9339      14.6369       0.0245      61.7557      51.6891    -999.2500    -999.2500     884.4048     367.3072     685.8710       0.0387       3.4396       0.0070       2.7630    -999.2500       0.7866       4.7598
   3576.2913       8.9120      18.0860       0.0270      71.6700      56.3230    -999.2500    -999.2500    1120.2390     422.6580     987.5070       0.0440       3.4740       0.0080       2.7520    -999.2500       1.2810       4.9120
   3576.4436       8.9135      17.3504       0.0200      67.6643      55.1343    -999.2500    -999.2500     600.2053     241.4901     547.8237       0.0536       3.4089       0.0075       2.7055    -999.2500       1.2479       4.8534
   3576.5962       8.9150      16.6180       0.0130      63.6700      53.9490    -999.2500    -999.2500      83.3050      61.1260     109.3880       0.0621       3.3440       0.0070       2.6590    -999.2500       1.2150       4.7950
   3576.7485       8.9140      13.9878       0.0155      67.2373      49.5561    -999.2500    -999.2500      90.4025      51.2177      57.3709       0.0643       3.3029       0.0050       2.6725    -999.2500       1.0962       4.5675
   3576.9009       8.9130      11.3690       0.0180      70.7950      45.1680    -999.2500    -999.2500      97.4580      41.3680       5.4950       0.0601       3.2620       0.0030       2.6860    -999.2500       0.9780       4.3410
   3577.0532       8.9250      10.1935       0.0155      62.9401      39.7365    -999.2500    -999.2500      92.8557      42.4381      83.5960       0.0500       3.3000       0.0035       2.7215    -999.2500       0.7285       3.7924
   3577.2058       8.9370       9.0230       0.0130      55.1180      34.2930    -999.2500    -999.2500      88.2800      43.5020     161.3700       0.0373       3.3380       0.0040       2.7570    -999.2500       0.4800       3.2460
   3577.3582       9.1491       9.9539       0.0085      55.7027      35.5220    -999.2500    -999.2500     111.0534      55.8349      95.9067       0.0257       3.2849       0.0045       2.7735    -999.2500       0.3822       3.2846
   3577.5105       9.3600      10.8810       0.0040      56.2850      36.7500    -999.2500    -999.2500     133.6980      68.0980      30.7090       0.0178       3.2320       0.0050       2.7900    -999.2500       0.2850       3.3230
   3577.6628       9.0316       9.5674       0.0055      54.5882      34.5529    -999.2500    -999.2500     383.7113     173.2265     823.1320       0.0163       3.1674       0.0045       2.7960    -999.2500       0.3111       3.2097
   3577.8152       8.7050       8.2590       0.0070      52.8980      32.3680    -999.2500    -999.2500     632.3430     277.7740    1612.4360       0.0176       3.1030       0.0040       2.8020    -999.2500       0.3370       3.0970
   3577.9678       8.7075       6.1800       0.0095      52.1416      28.2214    -999.2500    -999.2500     606.7618     255.5489    1195.3781       0.0179       2.9889       0.0030       2.8005    -999.2500       0.2723       2.8308
   3578.1201       8.7100       4.1090       0.0120      51.3880      24.0840    -999.2500    -999.2500     581.3190     233.4440     779.9080       0.0177       2.8750       0.0020       2.7990    -999.2500       0.2080       2.5660
