#------------------------------------------------------------------------------
#
#   Created by  : [OpenWorks] Log Export Utility (LEXP)
#   Created on  : 2016-05-19 11:21:43
#   Project     : CANT971
#   User        : R5K
#   Interpreter : PEP
#
#------------------------------------------------------------------------------
~VERSION INFORMATION
VERS. 2.0 : CWLS Log ASCII Standard - version 2.0
WRAP.  NO : One line per depth step
~WELL INFORMATION
#MNEMONIC   .UNIT                                           VALUE :DESCRIPTION
#------------------------------------------------------------------------------
STRT        .M                                          2815.5105 :START DEPTH
STOP        .M                                          3658.4348 :STOP DEPTH
STEP        .M                                             0.1524 :STEP
NULL        .                                           -999.2500 :NULL VALUE
COMP        .                                   PEMEX EXPL & PROD :COMPANY
WELL        .                                             C-2094D :WELL
FLD         .                                           CANTARELL :FIELD
LOC         .                                             UNKNOWN :LOCATION
CNTY        .                                      CD. DEL CARMEN :COUNTY
STAT        .                                            CAMPECHE :STATE
CTRY        .                                              MEXICO :COUNTRY
SRVC        .                                             UNKNOWN :SERVICE COMPANY
DATE        .                                             UNKNOWN :LOG DATE
UWI         .                                          3060000605 :UNIQUE WELL ID
XCOORD      .                                       600028.000000 :SURFACE X
YCOORD      .                                      2139442.000000 :SURFACE Y
LAT         .                                           19.347646 :LATITUDE
LON         .                                          -92.047668 :LONGITUDE
ELEV        .M                                            27.4000 :SURFACE ELEV
ELEV_TYPE   .                                                  KB :ELEV TYPE
~CURVE INFORMATION
#MNEMONIC.UNIT        API CODE       : CURVE DESCRIPTION
#------------------------------------------------------------------------------
DEPTH    .M                          : Measured Depth
CALI     .inches      UNKNOWN        : CALI:Import:rC:NONE:v0 (auto-composite)
CGR      .API         UNKNOWN        : CGR:Import:rC:NONE:v0 (auto-composite)
DRHO     .g/cm3       UNKNOWN        : DRHO:Import:rC:NONE:v0 (auto-composite)
DT       .us/ft       UNKNOWN        : DT:Import:rC:NONE:v0 (auto-composite)
GR       .API         UNKNOWN        : GR:Import:rC:NONE:v0 (auto-composite)
ILD      .ohm.m       UNKNOWN        : ILD:Import:rC:NONE:v0 (auto-composite)
ILM      .ohm.m       UNKNOWN        : ILM:Import:rC:NONE:v0 (auto-composite)
LLD      .ohm.m       UNKNOWN        : LLD:Import:rC:NONE:v0 (auto-composite)
LLS      .ohm.m       UNKNOWN        : LLS:Import:rC:NONE:v0 (auto-composite)
MSFL     .ohm.m       UNKNOWN        : MSFL:Import:rC:NONE:v0 (auto-composite)
NPHI     .v/v_decimal UNKNOWN        : NPHI:Import:rC:NONE:v0 (auto-composite)
PEF      .b/elec      UNKNOWN        : PEF:Import:rC:NONE:v0 (auto-composite)
POTA     .wtpercent   UNKNOWN        : POTA:Import:rC:NONE:v0 (auto-composite)
RHOB     .g/cm3       UNKNOWN        : RHOB:Import:rC:NONE:v0 (auto-composite)
SP       .mV          UNKNOWN        : SP:Import:rC:NONE:v0 (auto-composite)
THOR     .ppm         UNKNOWN        : THOR:Import:rC:NONE:v0 (auto-composite)
URAN     .ppm         UNKNOWN        : URAN:Import:rC:NONE:v0 (auto-composite)
~A     DEPTH         CALI          CGR         DRHO           DT           GR          ILD          ILM          LLD          LLS         MSFL         NPHI          PEF         POTA         RHOB           SP         THOR         URAN
# ...
   3434.2544    -999.2500      24.9190    -999.2500    -999.2500      29.4750    -999.2500    -999.2500       0.9400    -999.2500    -999.2500    -999.2500    -999.2500       0.0110    -999.2500    -999.2500       1.8460       0.5850
   3434.4070    -999.2500      24.7423    -999.2500    -999.2500      29.2429    -999.2500    -999.2500       0.9690    -999.2500    -999.2500    -999.2500    -999.2500       0.0110    -999.2500    -999.2500       1.8159       0.5780
   3434.5593    -999.2500      24.5660    -999.2500    -999.2500      29.0120    -999.2500    -999.2500       0.9980    -999.2500    -999.2500    -999.2500    -999.2500       0.0110    -999.2500    -999.2500       1.7860       0.5710
   3434.7117    -999.2500      23.1831    -999.2500    -999.2500      27.1837    -999.2500    -999.2500       1.3528    -999.2500    -999.2500    -999.2500    -999.2500       0.0105    -999.2500    -999.2500       1.6412       0.5139
   3434.8640    -999.2500      21.8030    -999.2500    -999.2500      25.3590    -999.2500    -999.2500       1.7070    -999.2500    -999.2500    -999.2500    -999.2500       0.0100    -999.2500    -999.2500       1.4970       0.4570
   3435.0166    -999.2500      19.0620    -999.2500    -999.2500      21.9766    -999.2500    -999.2500       2.4522    -999.2500    -999.2500    -999.2500    -999.2500       0.0085    -999.2500    -999.2500       1.3427       0.3744
   3435.1689       8.8040      16.3260      -0.0980      89.2500      18.5950    -999.2500    -999.2500       3.1960       3.2500       9.2500    -999.2500       6.7980       0.0070       2.4810    -999.2500       1.1890       0.2920
   3435.3213       8.8025      16.6788      -0.0505      89.2500      18.9779    -999.2500    -999.2500       5.8708       5.8302      11.9012    -999.2500       5.9444       0.0070       2.4745    -999.2500       1.2586       0.3135
   3435.4736       8.8010      17.0310      -0.0030      89.2500      19.3620    -999.2500    -999.2500       8.5410       8.4100      14.5520       0.1482       5.0910       0.0070       2.4680    -999.2500       1.3280       0.3350
   3435.6260       8.8030      17.6575      -0.0060      89.2500      20.9315    -999.2500    -999.2500       8.2548       7.9705      12.2760       0.1500       5.8590       0.0065       2.4590    -999.2500       1.3796       0.3876
   3435.7786       8.8050      18.2830      -0.0090      89.2500      22.5010    -999.2500    -999.2500       7.9690       7.5310      10.0000       0.1532       6.6270       0.0060       2.4500    -999.2500       1.4310       0.4400
   3435.9309       8.8025      17.9663      -0.0090      89.2500      22.0499    -999.2500    -999.2500       7.4918       7.7500      10.0000       0.1471       5.8466       0.0065       2.4655    -999.2500       1.6659       0.4981
   3436.0833       8.8000      17.6500      -0.0090      89.2500      21.6010    -999.2500    -999.2500       7.0160       7.9690      10.0000       0.1409       5.0660       0.0070       2.4810    -999.2500       1.9000       0.5560
   3436.2356       8.8150      19.9355      -0.0410      89.2500      24.6194    -999.2500    -999.2500       8.0400       8.4909      13.0781       0.1435       4.1891       0.0080       2.3595    -999.2500       1.8670       0.6256
   3436.3882       8.8300      22.2180      -0.0730      89.2500      27.6290    -999.2500    -999.2500       9.0610       9.0130      16.1570       0.1521       3.3120       0.0090       2.2380    -999.2500       1.8340       0.6950
   3436.5405       8.8395      21.2882      -0.0400      89.2500      26.3742    -999.2500    -999.2500       8.1467       8.0467      13.0791       0.1954       4.3928       0.0085       2.3515    -999.2500       1.7779       0.6529
   3436.6929       8.8490      20.3610      -0.0070      89.2500      25.1190    -999.2500    -999.2500       7.2350       7.0800      10.0000       0.2353       5.4740       0.0080       2.4650    -999.2500       1.7220       0.6110
   3436.8452       9.1709      22.0713      -0.0210      89.2500      28.3869    -999.2500    -999.2500       6.3713       6.3487       7.6641       0.2153       5.0231       0.0090       2.4305    -999.2500       1.8403       0.8124
   3436.9978       9.4930      23.7770      -0.0350      89.2500      31.6670    -999.2500    -999.2500       5.5100       5.6170       5.3270       0.1854       4.5720       0.0100       2.3960    -999.2500       1.9580       1.0130
   3437.1501      10.2563      28.2893       0.0300      89.2500      39.5648    -999.2500    -999.2500       4.7135       4.4669       3.2822       0.1442       4.2491       0.0125       2.4770    -999.2500       1.7340       1.2906
   3437.3025      11.0200      32.7900       0.0950      89.2500      47.4550    -999.2500    -999.2500       3.9190       3.3160       1.2360       0.1106       3.9260       0.0150       2.5580    -999.2500       1.5110       1.5670
   3437.4548      10.6981      36.8925       0.0505      88.7802      52.1447    -999.2500    -999.2500       3.0339       2.9536       1.8248       0.1440       3.9695       0.0155       2.4815    -999.2500       2.5155       1.8005
   3437.6072      10.3760      40.9850       0.0060      88.3100      56.8080    -999.2500    -999.2500       2.1510       2.5910       2.4140       0.1858       4.0130       0.0160       2.4050    -999.2500       3.5160       2.0330
   3437.7598      10.6124      38.1973       0.0135      86.0340      52.3373    -999.2500    -999.2500       2.4979       2.9214       5.1088       0.2211       4.0935       0.0150       2.4320    -999.2500       3.3402       1.8046
   3437.9121      10.8490      35.4160       0.0210      83.7560      47.8770    -999.2500    -999.2500       2.8440       3.2520       7.8060       0.2491       4.1740       0.0140       2.4590    -999.2500       3.1650       1.5770
   3438.0645      10.6561      36.6213       0.0175      84.0224      49.4037    -999.2500    -999.2500       3.5638       4.0386       6.7490       0.2277       4.1395       0.0140       2.5055    -999.2500       3.3443       1.6306
   3438.2168      10.4630      37.8240       0.0140      84.2890      50.9320    -999.2500    -999.2500       4.2820       4.8260       5.6910       0.2006       4.1050       0.0140       2.5520    -999.2500       3.5230       1.6840
   3438.3694      10.5639      36.7799       0.0350      86.5492      49.1427    -999.2500    -999.2500       4.5548       5.1008       3.7916       0.1810       3.9321       0.0140       2.5605    -999.2500       3.3893       1.5858
   3438.5217      10.6650      35.7380       0.0560      88.8120      47.3600    -999.2500    -999.2500       4.8270       5.3760       1.8900       0.1654       3.7590       0.0140       2.5690    -999.2500       3.2560       1.4880
   3438.6741      10.6700      40.4411       0.0530      82.1424      51.6815    -999.2500    -999.2500       4.0918       4.5174       3.5333       0.1744       3.7770       0.0165       2.4995    -999.2500       3.4248       1.4514
   3438.8264      10.6750      45.1350       0.0500      75.4750      55.9670    -999.2500    -999.2500       3.3580       3.6590       5.1760       0.1893       3.7950       0.0190       2.4300    -999.2500       3.5930       1.4150
   3438.9790      10.9290      44.6701       0.0385      75.8300      55.1720    -999.2500    -999.2500       3.4296       3.7370       3.9004       0.2253       3.9654       0.0190       2.5015    -999.2500       3.4928       1.3559
   3439.1313      11.1830      44.2060       0.0270      76.1850      54.3810    -999.2500    -999.2500       3.5010       3.8150       2.6250       0.2573       4.1360       0.0190       2.5730    -999.2500       3.3930       1.2970
   3439.2837      11.1150      43.2202       0.0285      77.8161      52.7676    -999.2500    -999.2500       3.7767       4.1510       5.5626       0.2346       3.9000       0.0185       2.5670    -999.2500       3.2583       1.2214
   3439.4360      11.0470      42.2360       0.0300      79.4470      51.1570    -999.2500    -999.2500       4.0520       4.4870       8.5000       0.2059       3.6640       0.0180       2.5610    -999.2500       3.1240       1.1460
