#------------------------------------------------------------------------------
#
#   Created by  : [OpenWorks] Log Export Utility (LEXP)
#   Created on  : 2016-05-19 11:21:43
#   Project     : CANT971
#   User        : R5K
#   Interpreter : PEP
#
#------------------------------------------------------------------------------
~VERSION INFORMATION
VERS. 2.0 : CWLS Log ASCII Standard - version 2.0
WRAP.  NO : One line per depth step
~WELL INFORMATION
#MNEMONIC   .UNIT                                           VALUE :DESCRIPTION
#------------------------------------------------------------------------------
STRT        .M                                          2815.5105 :START DEPTH
STOP        .M                                          3658.4348 :STOP DEPTH
STEP        .M                                             0.1524 :STEP
NULL        .                                           -999.2500 :NULL VALUE
COMP        .                                   PEMEX EXPL & PROD :COMPANY
WELL        .                                             C-2094D :WELL
FLD         .                                           CANTARELL :FIELD
LOC         .                                             UNKNOWN :LOCATION
CNTY        .                                      CD. DEL CARMEN :COUNTY
STAT        .                                            CAMPECHE :STATE
CTRY        .                                              MEXICO :COUNTRY
SRVC        .                                             UNKNOWN :SERVICE COMPANY
DATE        .                                             UNKNOWN :LOG DATE
UWI         .                                          3060000605 :UNIQUE WELL ID
XCOORD      .                                       600028.000000 :SURFACE X
YCOORD      .                                      2139442.000000 :SURFACE Y
LAT         .                                           19.347646 :LATITUDE
LON         .                                          -92.047668 :LONGITUDE
ELEV        .M                                            27.4000 :SURFACE ELEV
ELEV_TYPE   .                                                  KB :ELEV TYPE
~CURVE INFORMATION
#MNEMONIC.UNIT        API CODE       : CURVE DESCRIPTION
#------------------------------------------------------------------------------
DEPTH    .M                          : Measured Depth
CALI     .inches      UNKNOWN        : CALI:Import:rC:NONE:v0 (auto-composite)
CGR      .API         UNKNOWN        : CGR:Import:rC:NONE:v0 (auto-composite)
DRHO     .g/cm3       UNKNOWN        : DRHO:Import:rC:NONE:v0 (auto-composite)
DT       .us/ft       UNKNOWN        : DT:Import:rC:NONE:v0 (auto-composite)
GR       .API         UNKNOWN        : GR:Import:rC:NONE:v0 (auto-composite)
ILD      .ohm.m       UNKNOWN        : ILD:Import:rC:NONE:v0 (auto-composite)
ILM      .ohm.m       UNKNOWN        : ILM:Import:rC:NONE:v0 (auto-composite)
LLD      .ohm.m       UNKNOWN        : LLD:Import:rC:NONE:v0 (auto-composite)
LLS      .ohm.m       UNKNOWN        : LLS:Import:rC:NONE:v0 (auto-composite)
MSFL     .ohm.m       UNKNOWN        : MSFL:Import:rC:NONE:v0 (auto-composite)
NPHI     .v/v_decimal UNKNOWN        : NPHI:Import:rC:NONE:v0 (auto-composite)
PEF      .b/elec      UNKNOWN        : PEF:Import:rC:NONE:v0 (auto-composite)
POTA     .wtpercent   UNKNOWN        : POTA:Import:rC:NONE:v0 (auto-composite)
RHOB     .g/cm3       UNKNOWN        : RHOB:Import:rC:NONE:v0 (auto-composite)
SP       .mV          UNKNOWN        : SP:Import:rC:NONE:v0 (auto-composite)
THOR     .ppm         UNKNOWN        : THOR:Import:rC:NONE:v0 (auto-composite)
URAN     .ppm         UNKNOWN        : URAN:Import:rC:NONE:v0 (auto-composite)
~A     DEPTH         CALI          CGR         DRHO           DT           GR          ILD          ILM          LLD          LLS         MSFL         NPHI          PEF         POTA         RHOB           SP         THOR         URAN
# ...
   3487.5945       9.6890      10.3330      -0.0050      69.6530      61.4490    -999.2500    -999.2500      25.2670      24.0050      20.9730       0.1250       4.0920       0.0030       2.5350    -999.2500       1.1450       6.5660
   3487.7468       9.6620       9.1220      -0.0045      69.9907      59.7095    -999.2500    -999.2500      24.3286      23.1781      27.5916       0.1255       3.9634       0.0030       2.5310    -999.2500       0.9842       6.4984
   3487.8994       9.6350       7.9140      -0.0040      70.3280      57.9800    -999.2500    -999.2500      23.3940      22.3520      34.2040       0.1262       3.8350       0.0030       2.5270    -999.2500       0.8240       6.4310
   3488.0518       9.5955       6.4252      -0.0025      71.5665      56.0632    -999.2500    -999.2500      23.7973      22.6484      30.1648       0.1281       3.8725       0.0025       2.5320    -999.2500       0.6161       6.3759
   3488.2041       9.5560       4.9400      -0.0010      72.8040      54.1510    -999.2500    -999.2500      24.1990      22.9440      26.1290       0.1299       3.9100       0.0020       2.5370    -999.2500       0.4090       6.3210
   3488.3564       9.5605       4.1496      -0.0035      72.7050      55.3070    -999.2500    -999.2500      25.3908      23.9907      23.9127       0.1290       3.8395       0.0015       2.5300    -999.2500       0.3855       6.3901
   3488.5088       9.5650       3.3610      -0.0060      72.6060      56.4640    -999.2500    -999.2500      26.5780      25.0350      21.6980       0.1285       3.7690       0.0010       2.5230    -999.2500       0.3620       6.4590
   3488.6614       9.5300       4.4947      -0.0060      76.0990      56.7966    -999.2500    -999.2500      25.7399      24.4188      20.9008       0.1341       3.7755       0.0015       2.5240    -999.2500       0.4887       6.5376
   3488.8137       9.4950       5.6260      -0.0060      79.5900      57.1300    -999.2500    -999.2500      24.9050      23.8040      20.1040       0.1399       3.7820       0.0020       2.5250    -999.2500       0.6150       6.6160
   3488.9661       9.4650       4.0862      -0.0040      79.3089      54.8286    -999.2500    -999.2500      25.1915      23.3200      22.3805       0.1404       3.8145       0.0015       2.5220    -999.2500       0.4407       6.5178
   3489.1184       9.4350       2.5520      -0.0020      79.0280      52.5320    -999.2500    -999.2500      25.4770      22.8370      24.6560       0.1402       3.8470       0.0010       2.5190    -999.2500       0.2670       6.4200
   3489.2710       9.4020       3.4801      -0.0020      76.1385      54.0669    -999.2500    -999.2500      26.3445      23.5187      24.0199       0.1390       3.8125       0.0015       2.5215    -999.2500       0.3742       6.4976
   3489.4233       9.3690       4.4050      -0.0020      73.2500      55.5940    -999.2500    -999.2500      27.2090      24.1990      23.3840       0.1377       3.7780       0.0020       2.5240    -999.2500       0.4810       6.5750
   3489.5757       9.3275       5.3461       0.0005      74.4191      57.1704    -999.2500    -999.2500      30.2396      26.7268      16.5238       0.1365       3.6825       0.0020       2.5205    -999.2500       0.5311       6.6436
   3489.7280       9.2860       6.2840       0.0030      75.5880      58.7440    -999.2500    -999.2500      33.2600      29.2500       9.6650       0.1360       3.5870       0.0020       2.5170    -999.2500       0.5810       6.7120
   3489.8806       9.2675       4.9398      -0.0005      74.0802      57.3810    -999.2500    -999.2500      36.0165      31.1221      18.5899       0.1413       3.6270       0.0020       2.5075    -999.2500       0.4026       6.7290
   3490.0330       9.2490       3.6000      -0.0040      72.5750      56.0180    -999.2500    -999.2500      38.7640      32.9910      27.5000       0.1466       3.6670       0.0020       2.4980    -999.2500       0.2250       6.7460
   3490.1853       9.2520       2.9315      -0.0020      73.5082      55.4665    -999.2500    -999.2500      36.7984      31.5044      28.3592       0.1451       3.6510       0.0015       2.5075    -999.2500       0.1949       6.7660
   3490.3376       9.2550       2.2650       0.0000      74.4400      54.9140    -999.2500    -999.2500      34.8390      30.0200      29.2170       0.1430       3.6350       0.0010       2.5170    -999.2500       0.1650       6.7860
   3490.4900       9.2410       4.3016       0.0005      72.0003      58.4860    -999.2500    -999.2500      35.0961      30.3853      23.0336       0.1430       3.6390       0.0020       2.5110    -999.2500       0.3118       6.9719
   3490.6426       9.2270       6.3320       0.0010      69.5640      62.0530    -999.2500    -999.2500      35.3520      30.7500      16.8590       0.1434       3.6430       0.0030       2.5050    -999.2500       0.4580       7.1570
   3490.7949       9.2125       3.0638       0.0030      70.5912      57.6371    -999.2500    -999.2500      36.6048      31.9818      23.0220       0.1453       3.6570       0.0020       2.5085    -999.2500       0.0681       7.0102
   3490.9473       9.1980      -0.1950       0.0050      71.6170      53.2410    -999.2500    -999.2500      37.8520      33.2120      29.1770       0.1469       3.6710       0.0010       2.5120    -999.2500      -0.3200       6.8640
   3491.0996       9.2000       1.2220       0.0075      71.9917      55.9177    -999.2500    -999.2500      33.8388      30.2803      24.0245       0.1450       3.7380       0.0020       2.5220    -999.2500      -0.1431       7.0259
   3491.2522       9.2020       2.6350       0.0100      72.3660      58.5870    -999.2500    -999.2500      29.8430      27.3520      18.8780       0.1435       3.8050       0.0030       2.5320    -999.2500       0.0330       7.1870
   3491.4045       9.1955       2.9039       0.0075      69.1984      58.9842    -999.2500    -999.2500      29.9773      27.4861      22.9781       0.1482       3.7160       0.0030       2.5270    -999.2500      -0.2316       7.2035
   3491.5569       9.1890       3.1720       0.0050      66.0340      59.3810    -999.2500    -999.2500      30.1110      27.6200      27.0740       0.1531       3.6270       0.0030       2.5220    -999.2500      -0.4950       7.2200
   3491.7092       9.1585       1.3182       0.0050      66.0340      57.0951    -999.2500    -999.2500      32.3782      29.7015      31.4320       0.1532       3.6395       0.0025       2.5225    -999.2500      -0.6022       7.1639
   3491.8618       9.1280      -0.5310       0.0050      66.0340      54.8040    -999.2500    -999.2500      34.6360      31.7810      35.7860       0.1526       3.6520       0.0020       2.5230    -999.2500      -0.7090       7.1080
   3492.0142       9.1115       0.3711       0.0035      67.7767      56.6812    -999.2500    -999.2500      38.0032      34.8081      31.9665       0.1512       3.7200       0.0015       2.5195    -999.2500      -0.4765       7.2343
   3492.1665       9.0950       1.2710       0.0020      69.5180      58.5690    -999.2500    -999.2500      41.3570      37.8280      28.1500       0.1494       3.7880       0.0010       2.5160    -999.2500      -0.2450       7.3600
   3492.3188       9.1005      -0.1591       0.0035      68.6227      56.8018    -999.2500    -999.2500      44.8152      40.7043      34.5591       0.1446       3.7435       0.0010       2.5205    -999.2500      -0.4930       7.3084
   3492.4712       9.1060      -1.5860       0.0050      67.7280      55.0330    -999.2500    -999.2500      48.2600      43.5740      40.9640       0.1387       3.6990       0.0010       2.5250    -999.2500      -0.7400       7.2570
   3492.6238       9.1015      -2.4409       0.0065      63.5994      54.1574    -999.2500    -999.2500      57.5864      50.8272      46.4225       0.1274       3.5725      -0.0005       2.5385    -999.2500      -0.1314       7.5816
   3492.7761       9.0970      -3.2940       0.0080      59.4730      53.2850    -999.2500    -999.2500      66.8780      58.0650      51.8780       0.1142       3.4460      -0.0020       2.5520    -999.2500       0.4750       7.9050
