#------------------------------------------------------------------------------
#
#   Created by  : [OpenWorks] Log Export Utility (LEXP)
#   Created on  : 2016-05-19 11:21:43
#   Project     : CANT971
#   User        : R5K
#   Interpreter : PEP
#
#------------------------------------------------------------------------------
~VERSION INFORMATION
VERS. 2.0 : CWLS Log ASCII Standard - version 2.0
WRAP.  NO : One line per depth step
~WELL INFORMATION
#MNEMONIC   .UNIT                                           VALUE :DESCRIPTION
#------------------------------------------------------------------------------
STRT        .M                                          2815.5105 :START DEPTH
STOP        .M                                          3658.4348 :STOP DEPTH
STEP        .M                                             0.1524 :STEP
NULL        .                                           -999.2500 :NULL VALUE
COMP        .                                   PEMEX EXPL & PROD :COMPANY
WELL        .                                             C-2094D :WELL
FLD         .                                           CANTARELL :FIELD
LOC         .                                             UNKNOWN :LOCATION
CNTY        .                                      CD. DEL CARMEN :COUNTY
STAT        .                                            CAMPECHE :STATE
CTRY        .                                              MEXICO :COUNTRY
SRVC        .                                             UNKNOWN :SERVICE COMPANY
DATE        .                                             UNKNOWN :LOG DATE
UWI         .                                          3060000605 :UNIQUE WELL ID
XCOORD      .                                       600028.000000 :SURFACE X
YCOORD      .                                      2139442.000000 :SURFACE Y
LAT         .                                           19.347646 :LATITUDE
LON         .                                          -92.047668 :LONGITUDE
ELEV        .M                                            27.4000 :SURFACE ELEV
ELEV_TYPE   .                                                  KB :ELEV TYPE
~CURVE INFORMATION
#MNEMONIC.UNIT        API CODE       : CURVE DESCRIPTION
#------------------------------------------------------------------------------
DEPTH    .M                          : Measured Depth
CALI     .inches      UNKNOWN        : CALI:Import:rC:NONE:v0 (auto-composite)
CGR      .API         UNKNOWN        : CGR:Import:rC:NONE:v0 (auto-composite)
DRHO     .g/cm3       UNKNOWN        : DRHO:Import:rC:NONE:v0 (auto-composite)
DT       .us/ft       UNKNOWN        : DT:Import:rC:NONE:v0 (auto-composite)
GR       .API         UNKNOWN        : GR:Import:rC:NONE:v0 (auto-composite)
ILD      .ohm.m       UNKNOWN        : ILD:Import:rC:NONE:v0 (auto-composite)
ILM      .ohm.m       UNKNOWN        : ILM:Import:rC:NONE:v0 (auto-composite)
LLD      .ohm.m       UNKNOWN        : LLD:Import:rC:NONE:v0 (auto-composite)
LLS      .ohm.m       UNKNOWN        : LLS:Import:rC:NONE:v0 (auto-composite)
MSFL     .ohm.m       UNKNOWN        : MSFL:Import:rC:NONE:v0 (auto-composite)
NPHI     .v/v_decimal UNKNOWN        : NPHI:Import:rC:NONE:v0 (auto-composite)
PEF      .b/elec      UNKNOWN        : PEF:Import:rC:NONE:v0 (auto-composite)
POTA     .wtpercent   UNKNOWN        : POTA:Import:rC:NONE:v0 (auto-composite)
RHOB     .g/cm3       UNKNOWN        : RHOB:Import:rC:NONE:v0 (auto-composite)
SP       .mV          UNKNOWN        : SP:Import:rC:NONE:v0 (auto-composite)
THOR     .ppm         UNKNOWN        : THOR:Import:rC:NONE:v0 (auto-composite)
URAN     .ppm         UNKNOWN        : URAN:Import:rC:NONE:v0 (auto-composite)
~A     DEPTH         CALI          CGR         DRHO           DT           GR          ILD          ILM          LLD          LLS         MSFL         NPHI          PEF         POTA         RHOB           SP         THOR         URAN
# ...
   3599.6084       8.6174       5.1046       0.0070      50.3785      24.1517    -999.2500    -999.2500    4000.7681     668.9796     865.1754       0.0244       3.4059       0.0025       2.7325    -999.2500       0.0758       2.4200
   3599.7610       8.5930       3.8190       0.0020      48.8480      23.0380    -999.2500    -999.2500    4864.9741     727.9060      32.9580       0.0258       3.3710       0.0020       2.6860    -999.2500      -0.0240       2.4160
   3599.9133       8.5965       4.5326       0.0045      50.5131      24.8467    -999.2500    -999.2500    4430.8203     679.9197     315.2343       0.0283       3.3470       0.0020       2.6875    -999.2500       0.1340       2.5840
   3600.0657       8.6000       5.2430       0.0070      52.1710      26.6590    -999.2500    -999.2500    3999.2590     632.2200     596.2760       0.0310       3.3230       0.0020       2.6890    -999.2500       0.2910       2.7510
   3600.2180       8.6441       4.6918       0.0105      50.5931      26.0752    -999.2500    -999.2500    4317.2285     685.2143     472.3430       0.0337       3.3035       0.0020       2.7045    -999.2500       0.2288       2.7380
   3600.3706       8.6880       4.1430       0.0140      49.0220      25.4920    -999.2500    -999.2500    4632.8330     737.8990     348.9370       0.0349       3.2840       0.0020       2.7200    -999.2500       0.1670       2.7250
   3600.5229       8.6855       3.1474       0.0130      50.1874      24.6232    -999.2500    -999.2500    4180.3418     686.4377     628.0731       0.0337       3.2499       0.0015       2.7455    -999.2500       0.0472       2.7596
   3600.6753       8.6830       2.1560       0.0120      51.3480      23.7580    -999.2500    -999.2500    3731.1580     635.2710     906.0580       0.0306       3.2160       0.0010       2.7710    -999.2500      -0.0720       2.7940
   3600.8276       8.6379       0.9351       0.0130      49.9121      22.6126    -999.2500    -999.2500    2793.0828     498.5045     832.6291       0.0263       3.1203       0.0010       2.7820    -999.2500      -0.1853       2.7649
   3600.9800       8.5930      -0.2810       0.0140      48.4820      21.4700    -999.2500    -999.2500    1861.7520     362.5030     759.4940       0.0221       3.0250       0.0010       2.7930    -999.2500      -0.2980       2.7360
   3601.1326       8.5835       0.3572       0.0050      49.3397      23.4342    -999.2500    -999.2500    1558.4435     305.2859     402.1744       0.0196       3.2595       0.0005       2.7735    -999.2500      -0.0749       2.9125
   3601.2849       8.5740       0.9920      -0.0040      50.1940      25.3970    -999.2500    -999.2500    1257.2760     248.3820      46.2390       0.0185       3.4930       0.0000       2.7540    -999.2500       0.1470       3.0880
   3601.4373       8.5815       1.2241      -0.0035      49.4010      25.3700    -999.2500    -999.2500    1173.5168     227.2738     287.2426       0.0186       3.4639       0.0005       2.7400    -999.2500       0.1345       3.0700
   3601.5896       8.5890       1.4550      -0.0030      48.6110      25.3430    -999.2500    -999.2500    1090.3390     206.3120     527.3420       0.0194       3.4350       0.0010       2.7260    -999.2500       0.1220       3.0520
   3601.7422       8.5694       1.7844      -0.0025      49.2462      24.4518    -999.2500    -999.2500    1140.4833     212.8021     289.2501       0.0203       3.3308       0.0005       2.7295    -999.2500       0.1606       2.9222
   3601.8945       8.5500       2.1120      -0.0020      49.8790      23.5610    -999.2500    -999.2500    1190.2860     219.2480      52.0210       0.0212       3.2270       0.0000       2.7330    -999.2500       0.1990       2.7930
   3602.0469       8.5510       4.7226       0.0000      49.3531      26.5015    -999.2500    -999.2500    1331.2214     242.9297     186.7945       0.0217       3.2545       0.0010       2.7455    -999.2500       0.5268       2.8166
   3602.1992       8.5520       7.3200       0.0020      48.8290      29.4270    -999.2500    -999.2500    1471.2140     266.4530     321.0960       0.0222       3.2820       0.0020       2.7580    -999.2500       0.8530       2.8400
   3602.3518       8.5595       6.0012       0.0005      50.3443      27.8584    -999.2500    -999.2500    1654.5052     313.7346     176.7476       0.0228       3.3121       0.0020       2.7685    -999.2500       0.6891       2.8074
   3602.5042       8.5670       4.6890      -0.0010      51.8520      26.2950    -999.2500    -999.2500    1836.5940     360.7060      33.1170       0.0233       3.3420       0.0020       2.7790    -999.2500       0.5260       2.7750
   3602.6565       8.5489       5.4569       0.0020      51.3814      27.4665    -999.2500    -999.2500    1697.7197     269.4862     886.4139       0.0232       3.3655       0.0020       2.7775    -999.2500       0.6533       2.7775
   3602.8088       8.5310       6.2210       0.0050      50.9130      28.6380    -999.2500    -999.2500    1559.7400     178.8540    1735.5780       0.0231       3.3890       0.0020       2.7760    -999.2500       0.7800       2.7800
   3602.9612       8.5330       4.8838       0.0090      50.9932      26.7910    -999.2500    -999.2500    1188.2227     181.8575    1590.3546       0.0232       3.3189       0.0015       2.7680    -999.2500       0.5334       2.8301
   3603.1138       8.5350       3.5530       0.0130      51.0730      24.9380    -999.2500    -999.2500     819.0500     184.8420    1445.8170       0.0230       3.2490       0.0010       2.7600    -999.2500       0.2880       2.8800
   3603.2661       8.5465       4.1338       0.0170      49.6823      25.6890    -999.2500    -999.2500     838.2489     191.7012     864.8813       0.0217       3.3977       0.0015       2.7770    -999.2500       0.3191       2.8133
   3603.4185       8.5580       4.7120       0.0210      48.2980      26.4390    -999.2500    -999.2500     857.3290     198.5180     286.6140       0.0204       3.5460       0.0020       2.7940    -999.2500       0.3500       2.7470
   3603.5708       8.5540       5.2758       0.0190      49.8555      27.4852    -999.2500    -999.2500    1029.5264     234.2854     175.0711       0.0200       3.5360       0.0025       2.7935    -999.2500       0.3781       2.8307
   3603.7234       8.5500       5.8370       0.0170      51.4060      28.5250    -999.2500    -999.2500    1200.4050     269.8360      64.0270       0.0201       3.5260       0.0030       2.7930    -999.2500       0.4060       2.9140
   3603.8757       8.5525       3.5886       0.0120      50.1172      25.6936    -999.2500    -999.2500    1079.0750     241.2752     477.5040       0.0202       3.4213       0.0020       2.7945    -999.2500       0.2510       2.8388
   3604.0281       8.5550       1.3500       0.0070      48.8340      22.8700    -999.2500    -999.2500     958.6580     212.8840     889.1850       0.0204       3.3170       0.0010       2.7960    -999.2500       0.0970       2.7640
   3604.1804       8.5555       2.0154       0.0040      48.6296      24.0662    -999.2500    -999.2500    1081.9271     229.5870     486.9655       0.0207       3.5069       0.0010       2.7890    -999.2500       0.2068       2.8357
   3604.3330       8.5560       2.6780       0.0010      48.4260      25.2630    -999.2500    -999.2500    1204.2830     246.1930      86.4440       0.0210       3.6960       0.0010       2.7820    -999.2500       0.3160       2.9070
   3604.4854       8.5550       3.4682       0.0050      47.3789      26.8347    -999.2500    -999.2500    1993.3583     373.2746     441.3860       0.0215       3.4705       0.0015       2.7830    -999.2500       0.2759       3.0053
   3604.6377       8.5540       4.2540       0.0090      46.3360      28.4100    -999.2500    -999.2500    2776.6909     499.6330     794.8750       0.0222       3.2460       0.0020       2.7840    -999.2500       0.2360       3.1030
   3604.7900       8.5530       3.4247       0.0085      48.2127      27.4033    -999.2500    -999.2500    3858.2881     676.7851     547.2919       0.0230       3.2585       0.0015       2.7805    -999.2500       0.1653       3.0799
