#------------------------------------------------------------------------------
#
#   Created by  : [OpenWorks] Log Export Utility (LEXP)
#   Created on  : 2016-05-19 11:21:43
#   Project     : CANT971
#   User        : R5K
#   Interpreter : PEP
#
#------------------------------------------------------------------------------
~VERSION INFORMATION
VERS. 2.0 : CWLS Log ASCII Standard - version 2.0
WRAP.  NO : One line per depth step
~WELL INFORMATION
#MNEMONIC   .UNIT                                           VALUE :DESCRIPTION
#------------------------------------------------------------------------------
STRT        .M                                          2815.5105 :START DEPTH
STOP        .M                                          3658.4348 :STOP DEPTH
STEP        .M                                             0.1524 :STEP
NULL        .                                           -999.2500 :NULL VALUE
COMP        .                                   PEMEX EXPL & PROD :COMPANY
WELL        .                                             C-2094D :WELL
FLD         .                                           CANTARELL :FIELD
LOC         .                                             UNKNOWN :LOCATION
CNTY        .                                      CD. DEL CARMEN :COUNTY
STAT        .                                            CAMPECHE :STATE
CTRY        .                                              MEXICO :COUNTRY
SRVC        .                                             UNKNOWN :SERVICE COMPANY
DATE        .                                             UNKNOWN :LOG DATE
UWI         .                                          3060000605 :UNIQUE WELL ID
XCOORD      .                                       600028.000000 :SURFACE X
YCOORD      .                                      2139442.000000 :SURFACE Y
LAT         .                                           19.347646 :LATITUDE
LON         .                                          -92.047668 :LONGITUDE
ELEV        .M                                            27.4000 :SURFACE ELEV
ELEV_TYPE   .                                                  KB :ELEV TYPE
~CURVE INFORMATION
#MNEMONIC.UNIT        API CODE       : CURVE DESCRIPTION
#------------------------------------------------------------------------------
DEPTH    .M                          : Measured Depth
CALI     .inches      UNKNOWN        : CALI:Import:rC:NONE:v0 (auto-composite)
CGR      .API         UNKNOWN        : CGR:Import:rC:NONE:v0 (auto-composite)
DRHO     .g/cm3       UNKNOWN        : DRHO:Import:rC:NONE:v0 (auto-composite)
DT       .us/ft       UNKNOWN        : DT:Import:rC:NONE:v0 (auto-composite)
GR       .API         UNKNOWN        : GR:Import:rC:NONE:v0 (auto-composite)
ILD      .ohm.m       UNKNOWN        : ILD:Import:rC:NONE:v0 (auto-composite)
ILM      .ohm.m       UNKNOWN        : ILM:Import:rC:NONE:v0 (auto-composite)
LLD      .ohm.m       UNKNOWN        : LLD:Import:rC:NONE:v0 (auto-composite)
LLS      .ohm.m       UNKNOWN        : LLS:Import:rC:NONE:v0 (auto-composite)
MSFL     .ohm.m       UNKNOWN        : MSFL:Import:rC:NONE:v0 (auto-composite)
NPHI     .v/v_decimal UNKNOWN        : NPHI:Import:rC:NONE:v0 (auto-composite)
PEF      .b/elec      UNKNOWN        : PEF:Import:rC:NONE:v0 (auto-composite)
POTA     .wtpercent   UNKNOWN        : POTA:Import:rC:NONE:v0 (auto-composite)
RHOB     .g/cm3       UNKNOWN        : RHOB:Import:rC:NONE:v0 (auto-composite)
SP       .mV          UNKNOWN        : SP:Import:rC:NONE:v0 (auto-composite)
THOR     .ppm         UNKNOWN        : THOR:Import:rC:NONE:v0 (auto-composite)
URAN     .ppm         UNKNOWN        : URAN:Import:rC:NONE:v0 (auto-composite)
~A     DEPTH         CALI          CGR         DRHO           DT           GR          ILD          ILM          LLD          LLS         MSFL         NPHI          PEF         POTA         RHOB           SP         THOR         URAN
# ...
   3615.6106       8.2880      10.7490       0.0610      52.5440      35.1270    -999.2500    -999.2500    1276.5590    1091.8650     433.4990       0.0681       3.1480       0.0040       2.5580    -999.2500       1.1600       2.8580
   3615.7629       8.2664      11.4746       0.0505      52.5440      35.0027    -999.2500    -999.2500    1639.6138     901.8902     505.4174       0.0589       3.2863       0.0045       2.6631    -999.2500       1.1495       2.8866
   3615.9153       8.2450      12.1960       0.0400      52.5440      34.8790    -999.2500    -999.2500    1999.9690     713.3280     577.0300       0.0521       3.4240       0.0050       2.7680    -999.2500       1.1390       2.9150
   3616.0676       8.2455      10.4410       0.0480      52.5440      32.6782    -999.2500    -999.2500    1851.0337     808.7661     577.0300       0.0471       3.3383       0.0040       2.7575    -999.2500       0.9374       2.8603
   3616.2202       8.2460       8.6960       0.0560      52.5440      30.4830    -999.2500    -999.2500    1703.1880     903.5060     577.0300       0.0428       3.2530       0.0030       2.7470    -999.2500       0.7370       2.8060
   3616.3726       8.2550       7.5789       0.0710      52.5440      28.9704    -999.2500    -999.2500    2419.0613    1160.6123     577.0300       0.0386       3.1708       0.0035       2.7440    -999.2500       0.5264       2.7508
   3616.5249       8.2640       6.4680       0.0860      52.5440      27.4590    -999.2500    -999.2500    3129.7900    1415.8710     577.0300       0.0349       3.0890       0.0040       2.7410    -999.2500       0.3170       2.6960
   3616.6772       8.3061       5.7676       0.0785      55.6310      26.7629    -999.2500    -999.2500    4244.3730    1379.0774     577.0300       0.0321       3.1145       0.0030       2.7961    -999.2500       0.4098       2.7451
   3616.8296       8.3480       5.0710       0.0710      58.7060      26.0650    -999.2500    -999.2500    5351.0791    1342.5439     577.0300       0.0302       3.1400       0.0020       2.8510    -999.2500       0.5020       2.7940
   3616.9822       8.3520       6.2151       0.0355      58.2092      28.0761    -999.2500    -999.2500    3344.8198    1201.7858     577.0300       0.0298       3.1480       0.0025       2.8195    -999.2500       0.5286       2.8582
   3617.1345       8.3560       7.3530       0.0000      57.7150      30.0990    -999.2500    -999.2500    1352.4780    1062.0040     577.0300       0.0300       3.1560       0.0030       2.7880    -999.2500       0.5550       2.9220
   3617.2869       8.3525       6.2326       0.0000      56.4753      27.8243    -999.2500    -999.2500    1516.2954     978.2410     375.2298       0.0304       3.2241       0.0025       2.7940    -999.2500       0.6628       2.8804
   3617.4392       8.3490       5.1180       0.0000      55.2420      25.5470    -999.2500    -999.2500    1678.9960     895.0490     174.4830       0.0306       3.2920       0.0020       2.8000    -999.2500       0.7700       2.8390
   3617.5918       8.3580       7.8409       0.0005      53.6199      28.3008    -999.2500    -999.2500    1513.9807     943.6420     307.3393       0.0299       3.3531       0.0015       2.7980    -999.2500       0.9815       2.7337
   3617.7441       8.3670      10.5500       0.0010      52.0060      31.0450    -999.2500    -999.2500    1350.0690     991.9100     439.5180       0.0285       3.4140       0.0010       2.7960    -999.2500       1.1920       2.6290
   3617.8965       8.3831       9.1220      -0.0015      50.6597      28.6918    -999.2500    -999.2500    3582.6790    1089.6901     306.1034       0.0259       3.3699       0.0025       2.7920    -999.2500       0.8226       2.5112
   3618.0488       8.3990       7.7010      -0.0040      49.3200      26.3390    -999.2500    -999.2500    5800.6250    1186.8280     173.3520       0.0237       3.3260       0.0040       2.7880    -999.2500       0.4550       2.3940
   3618.2014       8.3669       8.6704      -0.0030      51.8256      28.2969    -999.2500    -999.2500    3466.4167    1395.8011     806.9926       0.0234       3.3566       0.0040       2.7850    -999.2500       0.6650       2.5218
   3618.3538       8.3350       9.6350      -0.0020      54.3190      30.2610    -999.2500    -999.2500    1150.9620    1603.4290    1437.5601       0.0241       3.3870       0.0040       2.7820    -999.2500       0.8740       2.6490
   3618.5061       8.3355       8.7213      -0.0025      53.1522      28.7083    -999.2500    -999.2500    1639.1516    1767.7034     908.1108       0.0250       3.2923       0.0035       2.7755    -999.2500       0.7933       2.5668
   3618.6584       8.3360       7.8120      -0.0030      51.9910      27.1580    -999.2500    -999.2500    2123.4829    1930.9399     381.1610       0.0257       3.1980       0.0030       2.7690    -999.2500       0.7130       2.4850
   3618.8108       8.3440       7.9142      -0.0015      53.1552      27.2714    -999.2500    -999.2500    3698.2327    2144.0396     439.3889       0.0257       3.3198       0.0035       2.7705    -999.2500       0.6027       2.4865
   3618.9634       8.3520       8.0160       0.0000      54.3140      27.3840    -999.2500    -999.2500    5260.7231    2355.4800     497.3490       0.0251       3.4410       0.0040       2.7720    -999.2500       0.4930       2.4880
   3619.1157       8.3977       8.3137      -0.0010      54.8748      28.1646    -999.2500    -999.2500    8389.0566    3028.6252     552.5880       0.0236       3.2471       0.0035       2.7495    -999.2500       0.5647       2.5512
   3619.2681       8.4430       8.6100      -0.0020      55.4330      28.9430    -999.2500    -999.2500   11493.4443    3696.6179     607.5800       0.0226       3.0540       0.0030       2.7270    -999.2500       0.6360       2.6140
   3619.4204       8.4149       7.1158      -0.0015      53.7914      27.9262    -999.2500    -999.2500    8984.4951    3659.6406     360.1900       0.0236       3.1923       0.0020       2.7280    -999.2500       0.6661       2.6391
   3619.5730       8.3870       5.6280      -0.0010      52.1570      26.9090    -999.2500    -999.2500    6494.4531    3622.9419     113.8760       0.0259       3.3300       0.0010       2.7290    -999.2500       0.6960       2.6640
   3619.7253       8.3755       6.6430       0.0000      50.2259      28.2750    -999.2500    -999.2500    8330.9639    3317.4880     185.0202       0.0293       3.2909       0.0015       2.7385    -999.2500       0.8269       2.7583
   3619.8777       8.3640       7.6520       0.0010      48.3030      29.6440    -999.2500    -999.2500   10153.8750    3014.2959     255.8640       0.0320       3.2520       0.0020       2.7480    -999.2500       0.9570       2.8520
   3620.0300       8.3881       6.4611       0.0020      48.6798      27.3326    -999.2500    -999.2500    9181.9141    3243.9114     178.0876       0.0317       3.2740       0.0025       2.7670    -999.2500       0.5809       2.6941
   3620.1826       8.4120       5.2770       0.0030      49.0550      25.0270    -999.2500    -999.2500    8217.0342    3471.8540     100.6300       0.0303       3.2960       0.0030       2.7860    -999.2500       0.2070       2.5370
   3620.3350       8.3869       6.3059       0.0045      50.4108      26.2098    -999.2500    -999.2500    6822.7754    3039.6887     560.2072       0.0288       3.2399       0.0035       2.7845    -999.2500       0.2692       2.5566
   3620.4873       8.3620       7.3290       0.0060      51.7590      27.3860    -999.2500    -999.2500    5438.4932    2610.6160    1017.2250       0.0279       3.1840       0.0040       2.7830    -999.2500       0.3310       2.5760
   3620.6396       8.3480       7.6098       0.0055      50.5863      28.3281    -999.2500    -999.2500    6110.9341    2413.0056     587.0931       0.0282       3.2872       0.0035       2.7845    -999.2500       0.4373       2.6612
   3620.7920       8.3340       7.8890       0.0050      49.4200      29.2680    -999.2500    -999.2500    6778.6431    2216.7859     159.3010       0.0289       3.3900       0.0030       2.7860    -999.2500       0.5430       2.7460
