#------------------------------------------------------------------------------
#
#   Created by  : [OpenWorks] Log Export Utility (LEXP)
#   Created on  : 2016-05-19 11:21:43
#   Project     : CANT971
#   User        : R5K
#   Interpreter : PEP
#
#------------------------------------------------------------------------------
~VERSION INFORMATION
VERS. 2.0 : CWLS Log ASCII Standard - version 2.0
WRAP.  NO : One line per depth step
~WELL INFORMATION
#MNEMONIC   .UNIT                                           VALUE :DESCRIPTION
#------------------------------------------------------------------------------
STRT        .M                                          2815.5105 :START DEPTH
STOP        .M                                          3658.4348 :STOP DEPTH
STEP        .M                                             0.1524 :STEP
NULL        .                                           -999.2500 :NULL VALUE
COMP        .                                   PEMEX EXPL & PROD :COMPANY
WELL        .                                             C-2094D :WELL
FLD         .                                           CANTARELL :FIELD
LOC         .                                             UNKNOWN :LOCATION
CNTY        .                                      CD. DEL CARMEN :COUNTY
STAT        .                                            CAMPECHE :STATE
CTRY        .                                              MEXICO :COUNTRY
SRVC        .                                             UNKNOWN :SERVICE COMPANY
DATE        .                                             UNKNOWN :LOG DATE
UWI         .                                          3060000605 :UNIQUE WELL ID
XCOORD      .                                       600028.000000 :SURFACE X
YCOORD      .                                      2139442.000000 :SURFACE Y
LAT         .                                           19.347646 :LATITUDE
LON         .                                          -92.047668 :LONGITUDE
ELEV        .M                                            27.4000 :SURFACE ELEV
ELEV_TYPE   .                                                  KB :ELEV TYPE
~CURVE INFORMATION
#MNEMONIC.UNIT        API CODE       : CURVE DESCRIPTION
#------------------------------------------------------------------------------
DEPTH    .M                          : Measured Depth
CALI     .inches      UNKNOWN        : CALI:Import:rC:NONE:v0 (auto-composite)
CGR      .API         UNKNOWN        : CGR:Import:rC:NONE:v0 (auto-composite)
DRHO     .g/cm3       UNKNOWN        : DRHO:Import:rC:NONE:v0 (auto-composite)
DT       .us/ft       UNKNOWN        : DT:Import:rC:NONE:v0 (auto-composite)
GR       .API         UNKNOWN        : GR:Import:rC:NONE:v0 (auto-composite)
ILD      .ohm.m       UNKNOWN        : ILD:Import:rC:NONE:v0 (auto-composite)
ILM      .ohm.m       UNKNOWN        : ILM:Import:rC:NONE:v0 (auto-composite)
LLD      .ohm.m       UNKNOWN        : LLD:Import:rC:NONE:v0 (auto-composite)
LLS      .ohm.m       UNKNOWN        : LLS:Import:rC:NONE:v0 (auto-composite)
MSFL     .ohm.m       UNKNOWN        : MSFL:Import:rC:NONE:v0 (auto-composite)
NPHI     .v/v_decimal UNKNOWN        : NPHI:Import:rC:NONE:v0 (auto-composite)
PEF      .b/elec      UNKNOWN        : PEF:Import:rC:NONE:v0 (auto-composite)
POTA     .wtpercent   UNKNOWN        : POTA:Import:rC:NONE:v0 (auto-composite)
RHOB     .g/cm3       UNKNOWN        : RHOB:Import:rC:NONE:v0 (auto-composite)
SP       .mV          UNKNOWN        : SP:Import:rC:NONE:v0 (auto-composite)
THOR     .ppm         UNKNOWN        : THOR:Import:rC:NONE:v0 (auto-composite)
URAN     .ppm         UNKNOWN        : URAN:Import:rC:NONE:v0 (auto-composite)
~A     DEPTH         CALI          CGR         DRHO           DT           GR          ILD          ILM          LLD          LLS         MSFL         NPHI          PEF         POTA         RHOB           SP         THOR         URAN
# ...
   3476.9265      11.5170      43.9440       0.0020      72.1650      72.4460    -999.2500    -999.2500       5.0470       3.2250       3.9770       0.1435       3.8560       0.0210       2.5280    -999.2500       2.2370       3.6610
   3477.0789      11.2764      46.0182      -0.0015      75.9690      76.2914    -999.2500    -999.2500       4.7339       3.0415       4.3606       0.1554       3.8980       0.0220       2.5165    -999.2500       2.4023       3.8769
   3477.2312      11.0360      48.0880      -0.0050      79.7710      80.1410    -999.2500    -999.2500       4.4220       2.8580       4.7440       0.1666       3.9400       0.0230       2.5050    -999.2500       2.5670       4.0920
   3477.3838      11.0730      47.9123       0.0015      75.6882      80.9960    -999.2500    -999.2500       4.7115       2.9865       5.8832       0.1522       4.0045       0.0230       2.5050    -999.2500       2.6717       4.2117
   3477.5361      11.1100      47.7370       0.0080      71.6070      81.8480    -999.2500    -999.2500       5.0000       3.1150       7.0220       0.1375       4.0690       0.0230       2.5050    -999.2500       2.7760       4.3310
   3477.6885      11.1045      47.3113       0.0240      72.8407      80.9309    -999.2500    -999.2500       4.3093       2.7069       4.3871       0.1423       3.7550       0.0225       2.5050    -999.2500       2.6668       4.2944
   3477.8408      11.0990      46.8870       0.0400      74.0740      80.0140    -999.2500    -999.2500       3.6210       2.2990       1.7530       0.1506       3.4410       0.0220       2.5050    -999.2500       2.5580       4.2580
   3477.9934      11.1971      45.1726       0.0525      73.8115      78.5098    -999.2500    -999.2500       3.0966       1.9932       2.0310       0.2015       3.6080       0.0210       2.5135    -999.2500       2.6091       4.2760
   3478.1458      11.2950      43.4640       0.0650      73.5490      77.0010    -999.2500    -999.2500       2.5740       1.6880       2.3090       0.2520       3.7750       0.0200       2.5220    -999.2500       2.6600       4.2940
   3478.2981      11.8334      43.8511       0.0580      73.8570      77.6931    -999.2500    -999.2500       2.7903       1.8261       3.8220       0.2512       3.7470       0.0200       2.4565    -999.2500       2.7662       4.3571
   3478.4504      12.3710      44.2370       0.0510      74.1650      78.3840    -999.2500    -999.2500       3.0060       1.9640       5.3350       0.2461       3.7190       0.0200       2.3910    -999.2500       2.8720       4.4200
   3478.6028      11.7961      43.1118       0.0710      73.7375      76.9801    -999.2500    -999.2500       3.1097       2.0456       3.5361       0.2179       3.6180       0.0195       2.3950    -999.2500       2.9281       4.3057
   3478.7554      11.2220      41.9900       0.0910      73.3100      75.5850    -999.2500    -999.2500       3.2130       2.1270       1.7370       0.1910       3.5170       0.0190       2.3990    -999.2500       2.9840       4.1920
   3478.9077      11.3356      35.9054       0.0900      76.7661      69.1144    -999.2500    -999.2500       2.7824       1.8948       1.8005       0.2087       3.6315       0.0160       2.4340    -999.2500       2.6006       4.2341
   3479.0601      11.4490      29.8390       0.0890      80.2230      62.6630    -999.2500    -999.2500       2.3530       1.6630       1.8640       0.2294       3.7460       0.0130       2.4690    -999.2500       2.2190       4.2760
   3479.2124      12.0574      28.8100       0.0510      84.6603      61.4977    -999.2500    -999.2500       2.4051       1.7155       2.2622       0.2527       3.7215       0.0125       2.4210    -999.2500       2.1313       4.2284
   3479.3650      12.6650      27.7840       0.0130      89.0920      60.3320    -999.2500    -999.2500       2.4570       1.7680       2.6600       0.2746       3.6970       0.0120       2.3730    -999.2500       2.0440       4.1810
   3479.5173      12.5084      23.8201       0.0165      84.5554      55.5625    -999.2500    -999.2500       2.6267       1.9111       3.6180       0.2690       3.6400       0.0115       2.3905    -999.2500       1.5519       4.0758
   3479.6697      12.3520      19.8670       0.0200      80.0240      50.7830    -999.2500    -999.2500       2.7960       2.0540       4.5750       0.2608       3.5830       0.0110       2.4080    -999.2500       1.0620       3.9710
   3479.8220      11.9938      20.1063       0.0330      81.4077      51.4518    -999.2500    -999.2500       3.0811       2.2776       3.9702       0.2378       3.5095       0.0105       2.4015    -999.2500       1.1196       4.0031
   3479.9746      11.6360      20.3450       0.0460      82.7900      52.1200    -999.2500    -999.2500       3.3650       2.5010       3.3660       0.2147       3.4360       0.0100       2.3950    -999.2500       1.1770       4.0350
   3480.1270      11.4224      19.5405       0.0680      83.8490      51.4111    -999.2500    -999.2500       3.4061       2.5455       3.6846       0.2053       3.4625       0.0090       2.4325    -999.2500       1.2496       4.0851
   3480.2793      11.2090      18.7380       0.0900      84.9070      50.7050    -999.2500    -999.2500       3.4470       2.5900       4.0030       0.1991       3.4890       0.0080       2.4700    -999.2500       1.3220       4.1350
   3480.4316      11.4391      16.0664       0.0610      79.7330      47.7696    -999.2500    -999.2500       3.2040       2.4439       3.4568       0.2243       3.6145       0.0070       2.4600    -999.2500       1.1336       4.0869
   3480.5840      11.6690      13.4010       0.0320      74.5630      44.8410    -999.2500    -999.2500       2.9620       2.2980       2.9110       0.2498       3.7400       0.0060       2.4500    -999.2500       0.9460       4.0390
   3480.7366      11.7205      14.5763       0.0370      71.5020      47.4308    -999.2500    -999.2500       3.0978       2.4200       3.4652       0.2492       3.9231       0.0065       2.4720    -999.2500       1.0136       4.2208
   3480.8889      11.7720      15.7490       0.0420      68.4430      50.0190    -999.2500    -999.2500       3.2330       2.5420       4.0190       0.2456       4.1060       0.0070       2.4940    -999.2500       1.0810       4.4020
   3481.0413      11.4744      15.1359       0.0315      68.9791      49.1417    -999.2500    -999.2500       3.7810       3.0051       5.7934       0.2254       4.1810       0.0070       2.5190    -999.2500       0.9638       4.3679
   3481.1936      11.1770      14.5240       0.0210      69.5150      48.2620    -999.2500    -999.2500       4.3270       3.4680       7.5670       0.2027       4.2560       0.0070       2.5440    -999.2500       0.8470       4.3340
   3481.3462      10.7731      15.2537       0.0160      68.2013      49.4737    -999.2500    -999.2500       5.5171       4.4670       8.7912       0.1628       4.3335       0.0070       2.5850    -999.2500       0.9101       4.3971
   3481.4985      10.3700      15.9820       0.0110      66.8880      50.6850    -999.2500    -999.2500       6.7030       5.4640      10.0150       0.1231       4.4110       0.0070       2.6260    -999.2500       0.9730       4.4600
   3481.6509      10.1063      14.2400       0.0055      67.2080      48.5286    -999.2500    -999.2500       6.9825       5.7398       9.1129       0.1033       4.2790       0.0070       2.6230    -999.2500       0.7491       4.4059
   3481.8032       9.8430      12.5040       0.0000      67.5280      46.3830    -999.2500    -999.2500       7.2610       6.0150       8.2110       0.0864       4.1470       0.0070       2.6200    -999.2500       0.5260       4.3520
   3481.9558       9.8345       9.1835       0.0040      68.6486      43.9955    -999.2500    -999.2500       7.3887       6.1641       7.9785       0.0872       4.1755       0.0060       2.6230    -999.2500       0.3943       4.4507
   3482.1082       9.8260       5.8740       0.0080      69.7690      41.6160    -999.2500    -999.2500       7.5160       6.3130       7.7460       0.0896       4.2040       0.0050       2.6260    -999.2500       0.2630       4.5490
