#------------------------------------------------------------------------------
#
#   Created by  : [OpenWorks] Log Export Utility (LEXP)
#   Created on  : 2016-05-19 11:21:43
#   Project     : CANT971
#   User        : R5K
#   Interpreter : PEP
#
#------------------------------------------------------------------------------
~VERSION INFORMATION
VERS. 2.0 : CWLS Log ASCII Standard - version 2.0
WRAP.  NO : One line per depth step
~WELL INFORMATION
#MNEMONIC   .UNIT                                           VALUE :DESCRIPTION
#------------------------------------------------------------------------------
STRT        .M                                          2815.5105 :START DEPTH
STOP        .M                                          3658.4348 :STOP DEPTH
STEP        .M                                             0.1524 :STEP
NULL        .                                           -999.2500 :NULL VALUE
COMP        .                                   PEMEX EXPL & PROD :COMPANY
WELL        .                                             C-2094D :WELL
FLD         .                                           CANTARELL :FIELD
LOC         .                                             UNKNOWN :LOCATION
CNTY        .                                      CD. DEL CARMEN :COUNTY
STAT        .                                            CAMPECHE :STATE
CTRY        .                                              MEXICO :COUNTRY
SRVC        .                                             UNKNOWN :SERVICE COMPANY
DATE        .                                             UNKNOWN :LOG DATE
UWI         .                                          3060000605 :UNIQUE WELL ID
XCOORD      .                                       600028.000000 :SURFACE X
YCOORD      .                                      2139442.000000 :SURFACE Y
LAT         .                                           19.347646 :LATITUDE
LON         .                                          -92.047668 :LONGITUDE
ELEV        .M                                            27.4000 :SURFACE ELEV
ELEV_TYPE   .                                                  KB :ELEV TYPE
~CURVE INFORMATION
#MNEMONIC.UNIT        API CODE       : CURVE DESCRIPTION
#------------------------------------------------------------------------------
DEPTH    .M                          : Measured Depth
CALI     .inches      UNKNOWN        : CALI:Import:rC:NONE:v0 (auto-composite)
CGR      .API         UNKNOWN        : CGR:Import:rC:NONE:v0 (auto-composite)
DRHO     .g/cm3       UNKNOWN        : DRHO:Import:rC:NONE:v0 (auto-composite)
DT       .us/ft       UNKNOWN        : DT:Import:rC:NONE:v0 (auto-composite)
GR       .API         UNKNOWN        : GR:Import:rC:NONE:v0 (auto-composite)
ILD      .ohm.m       UNKNOWN        : ILD:Import:rC:NONE:v0 (auto-composite)
ILM      .ohm.m       UNKNOWN        : ILM:Import:rC:NONE:v0 (auto-composite)
LLD      .ohm.m       UNKNOWN        : LLD:Import:rC:NONE:v0 (auto-composite)
LLS      .ohm.m       UNKNOWN        : LLS:Import:rC:NONE:v0 (auto-composite)
MSFL     .ohm.m       UNKNOWN        : MSFL:Import:rC:NONE:v0 (auto-composite)
NPHI     .v/v_decimal UNKNOWN        : NPHI:Import:rC:NONE:v0 (auto-composite)
PEF      .b/elec      UNKNOWN        : PEF:Import:rC:NONE:v0 (auto-composite)
POTA     .wtpercent   UNKNOWN        : POTA:Import:rC:NONE:v0 (auto-composite)
RHOB     .g/cm3       UNKNOWN        : RHOB:Import:rC:NONE:v0 (auto-composite)
SP       .mV          UNKNOWN        : SP:Import:rC:NONE:v0 (auto-composite)
THOR     .ppm         UNKNOWN        : THOR:Import:rC:NONE:v0 (auto-composite)
URAN     .ppm         UNKNOWN        : URAN:Import:rC:NONE:v0 (auto-composite)
~A     DEPTH         CALI          CGR         DRHO           DT           GR          ILD          ILM          LLD          LLS         MSFL         NPHI          PEF         POTA         RHOB           SP         THOR         URAN
# ...
   3450.2566      13.7200      43.2489       0.0245      79.1006      47.8226    -999.2500    -999.2500       3.8261       2.9355       5.3167       0.1809       4.0875       0.0195       2.5655    -999.2500       2.5365       0.6044
   3450.4089      13.9210      41.5890       0.0320      79.5180      45.8230    -999.2500    -999.2500       3.9470       3.0040       3.6200       0.1739       4.1480       0.0190       2.5590    -999.2500       2.5640       0.5260
   3450.5613      14.0730      42.7656       0.0220      80.9862      47.2659    -999.2500    -999.2500       4.2650       3.1745       4.6686       0.1588       4.1770       0.0195       2.5630    -999.2500       2.7258       0.5951
   3450.7136      14.2250      43.9400       0.0120      82.4540      48.7130    -999.2500    -999.2500       4.5820       3.3450       5.7170       0.1445       4.2060       0.0200       2.5670    -999.2500       2.8870       0.6640
   3450.8662      14.0740      47.6582       0.0260      84.9422      53.3618    -999.2500    -999.2500       4.1207       3.0055       4.0029       0.1510       4.1135       0.0210       2.5515    -999.2500       3.3087       0.7587
   3451.0186      13.9230      51.3700       0.0400      87.4300      58.0100    -999.2500    -999.2500       3.6610       2.6660       2.2890       0.1605       4.0210       0.0220       2.5360    -999.2500       3.7290       0.8530
   3451.1709      14.3010      49.0301       0.0450      83.7910      54.4294    -999.2500    -999.2500       3.5053       2.5505       3.3595       0.1928       4.1430       0.0215       2.4890    -999.2500       3.4200       0.6942
   3451.3232      14.6790      46.6940       0.0500      80.1520      50.8660    -999.2500    -999.2500       3.3500       2.4350       4.4300       0.2242       4.2650       0.0210       2.4420    -999.2500       3.1120       0.5360
   3451.4756      14.5545      47.3255       0.0435      80.6960      51.7028    -999.2500    -999.2500       3.6555       2.6320       4.0485       0.2166       4.2040       0.0210       2.4515    -999.2500       3.2272       0.5620
   3451.6282      14.4300      47.9560       0.0370      81.2400      52.5370    -999.2500    -999.2500       3.9600       2.8290       3.6670       0.2058       4.1430       0.0210       2.4610    -999.2500       3.3420       0.5880
   3451.7805      14.5190      49.0982       0.0425      82.7763      54.2328    -999.2500    -999.2500       3.8563       2.7565       4.5244       0.1865       3.9575       0.0215       2.5055    -999.2500       3.3345       0.6596
   3451.9329      14.6080      50.2370       0.0480      84.3130      55.9290    -999.2500    -999.2500       3.7530       2.6840       5.3820       0.1686       3.7720       0.0220       2.5500    -999.2500       3.3270       0.7310
   3452.0852      14.7505      51.9164       0.0600      84.1310      59.2435    -999.2500    -999.2500       3.7645       2.7020       3.8948       0.1844       3.7995       0.0225       2.5230    -999.2500       3.6923       0.9425
   3452.2378      14.8930      53.5910       0.0720      83.9490      62.5700    -999.2500    -999.2500       3.7760       2.7200       2.4070       0.2022       3.8270       0.0230       2.4960    -999.2500       4.0560       1.1530
   3452.3901      14.5776      54.3290       0.0815      83.4641      64.1994    -999.2500    -999.2500       3.5262       2.5620       2.8624       0.2173       3.9480       0.0235       2.4570    -999.2500       3.9377       1.2677
   3452.5425      14.2620      55.0650       0.0910      82.9790      65.8270    -999.2500    -999.2500       3.2770       2.4040       3.3180       0.2300       4.0690       0.0240       2.4180    -999.2500       3.8200       1.3820
   3452.6948      14.8728      50.4836       0.0805      82.7066      59.6056    -999.2500    -999.2500       3.4407       2.5076       4.1642       0.2027       3.9990       0.0225       2.4775    -999.2500       3.2949       1.1726
   3452.8474      15.4830      45.9140       0.0700      82.4340      53.4200    -999.2500    -999.2500       3.6040       2.6110       5.0110       0.1748       3.9290       0.0210       2.5370    -999.2500       2.7720       0.9640
   3452.9998      15.2064      47.3197       0.0575      82.4585      55.2738    -999.2500    -999.2500       3.6045       2.5975       3.6100       0.1808       3.7556       0.0215       2.5320    -999.2500       2.8973       1.0216
   3453.1521      14.9300      48.7220       0.0450      82.4830      57.1230    -999.2500    -999.2500       3.6050       2.5840       2.2080       0.1894       3.5820       0.0220       2.5270    -999.2500       3.0220       1.0790
   3453.3044      15.1456      47.7944       0.0500      83.2598      55.9950    -999.2500    -999.2500       3.4068       2.4545       2.9022       0.2102       3.6005       0.0220       2.4630    -999.2500       2.9273       1.0529
   3453.4568      15.3610      46.8690       0.0550      84.0360      54.8660    -999.2500    -999.2500       3.2090       2.3250       3.5960       0.2301       3.6190       0.0220       2.3990    -999.2500       2.8330       1.0270
   3453.6094      15.6301      46.3444       0.0395      85.7535      54.3437    -999.2500    -999.2500       3.4428       2.4510       2.6662       0.2203       3.4176       0.0220       2.4075    -999.2500       2.6987       1.0130
   3453.7617      15.8990      45.8210       0.0240      87.4700      53.8200    -999.2500    -999.2500       3.6760       2.5770       1.7370       0.2096       3.2160       0.0220       2.4160    -999.2500       2.5650       0.9990
   3453.9141      15.6074      45.8520       0.0155      87.2384      53.8680    -999.2500    -999.2500       3.4127       2.3785       2.2466       0.2133       3.2380       0.0220       2.4350    -999.2500       2.5700       1.0050
   3454.0664      15.3160      45.8830       0.0070      87.0070      53.9160    -999.2500    -999.2500       3.1500       2.1800       2.7560       0.2185       3.2600       0.0220       2.4540    -999.2500       2.5750       1.0110
   3454.2190      15.3570      50.6281       0.0175      88.4197      58.6491    -999.2500    -999.2500       2.9713       2.0730       3.3451       0.2411       3.4955       0.0240       2.3750    -999.2500       2.7929       1.0516
   3454.3713      15.3980      55.3640       0.0280      89.8320      63.3580    -999.2500    -999.2500       2.7930       1.9660       3.9340       0.2631       3.7310       0.0260       2.2960    -999.2500       3.0100       1.0920
   3454.5237      15.8095      53.7696       0.0235      88.6189      60.9994    -999.2500    -999.2500       2.8521       2.0040       3.1314       0.2539       3.7030       0.0260       2.3070    -999.2500       2.7851       0.9613
   3454.6760      16.2210      52.1780       0.0190      87.4060      58.6450    -999.2500    -999.2500       2.9110       2.0420       2.3290       0.2432       3.6750       0.0260       2.3180    -999.2500       2.5610       0.8310
   3454.8286      15.8305      54.4484       0.0270      88.5946      62.0237    -999.2500    -999.2500       2.9626       2.0860       2.9520       0.2348       3.7045       0.0265       2.3800    -999.2500       2.8440       0.9627
   3454.9810      15.4400      56.7150       0.0350      89.7830      65.4020    -999.2500    -999.2500       3.0140       2.1300       3.5750       0.2279       3.7340       0.0270       2.4420    -999.2500       3.1260       1.0940
   3455.1333      15.5600      56.9984       0.0270      86.7006      65.1617    -999.2500    -999.2500       2.7050       1.9165       2.7025       0.2523       3.8425       0.0285       2.3850    -999.2500       3.0955       1.1511
   3455.2856      15.6800      57.2810       0.0190      83.6180      64.9210    -999.2500    -999.2500       2.3970       1.7030       1.8300       0.2763       3.9510       0.0300       2.3280    -999.2500       3.0650       1.2080
   3455.4380      16.7934      60.1078       0.0135      84.2710      68.7373    -999.2500    -999.2500       2.4556       1.7395       2.7199       0.2596       3.8175       0.0300       2.3395    -999.2500       3.3064       1.2220
