#------------------------------------------------------------------------------
#
#   Created by  : [OpenWorks] Log Export Utility (LEXP)
#   Created on  : 2016-05-19 09:39:42
#   Project     : CANT971
#   User        : R5K
#   Interpreter : PEP
#
#------------------------------------------------------------------------------
~VERSION INFORMATION
VERS. 2.0 : CWLS Log ASCII Standard - version 2.0
WRAP.  NO : One line per depth step
~WELL INFORMATION
#MNEMONIC   .UNIT                                           VALUE :DESCRIPTION
#------------------------------------------------------------------------------
STRT        .M                                          1520.0377 :START DEPTH
STOP        .M                                          3502.9141 :STOP DEPTH
STEP        .M                                             0.1524 :STEP
NULL        .                                           -999.2500 :NULL VALUE
COMP        .                                   PEMEX EXPL & PROD :COMPANY
WELL        .                                               2098H :WELL
FLD         .                                           CANTARELL :FIELD
LOC         .                                             UNKNOWN :LOCATION
CNTY        .                                      CD. DEL CARMEN :COUNTY
STAT        .                                            CAMPECHE :STATE
CTRY        .                                              MEXICO :COUNTRY
SRVC        .                                             UNKNOWN :SERVICE COMPANY
DATE        .                                             UNKNOWN :LOG DATE
UWI         .                                          3060000609 :UNIQUE WELL ID
XCOORD      .                                       597710.950000 :SURFACE X
YCOORD      .                                      2140955.330000 :SURFACE Y
LAT         .                                           19.361435 :LATITUDE
LON         .                                          -92.069648 :LONGITUDE
ELEV        .M                                            23.0000 :SURFACE ELEV
ELEV_TYPE   .                                                  KB :ELEV TYPE
~CURVE INFORMATION
#MNEMONIC.UNIT        API CODE       : CURVE DESCRIPTION
#------------------------------------------------------------------------------
DEPTH    .M                          : Measured Depth
CALI     .inches      UNKNOWN        : CALI:Import:rC:NONE:v0 (auto-composite)
CGR      .API         UNKNOWN        : CGR:Import:rC:NONE:v0 (auto-composite)
DRHO     .g/cm3       UNKNOWN        : DRHO:Import:rC:NONE:v0 (auto-composite)
DT       .us/ft       UNKNOWN        : DT:Import:rC:NONE:v0 (auto-composite)
GR       .API         UNKNOWN        : GR:Import:rC:NONE:v0 (auto-composite)
ILD      .ohm.m       UNKNOWN        : ILD:Import:rC:NONE:v0 (auto-composite)
ILM      .ohm.m       UNKNOWN        : ILM:Import:rC:NONE:v0 (auto-composite)
LLD      .ohm.m       UNKNOWN        : LLD:Import:rC:NONE:v0 (auto-composite)
LLS      .ohm.m       UNKNOWN        : LLS:Import:rC:NONE:v0 (auto-composite)
MSFL     .ohm.m       UNKNOWN        : MSFL:Import:rC:NONE:v0 (auto-composite)
NPHI     .v/v_decimal UNKNOWN        : NPHI:Import:rC:NONE:v0 (auto-composite)
PEF      .b/elec      UNKNOWN        : PEF:Import:rC:NONE:v0 (auto-composite)
POTA     .wtpercent   UNKNOWN        : POTA:Import:rC:NONE:v0 (auto-composite)
RHOB     .g/cm3       UNKNOWN        : RHOB:Import:rC:NONE:v0 (auto-composite)
SP       .mV          UNKNOWN        : SP:Import:rC:NONE:v0 (auto-composite)
THOR     .ppm         UNKNOWN        : THOR:Import:rC:NONE:v0 (auto-composite)
URAN     .ppm         UNKNOWN        : URAN:Import:rC:NONE:v0 (auto-composite)
~A     DEPTH         CALI          CGR         DRHO           DT           GR          ILD          ILM          LLD          LLS         MSFL         NPHI          PEF         POTA         RHOB           SP         THOR         URAN
# ...
   3498.9517       8.0920     -14.1150       0.0310    -999.2500      18.9010    -999.2500    -999.2500     116.2120     103.0980      97.8400       0.0861       4.2050      -0.0050       2.4870    -999.2500      -1.7440       4.2960
   3499.1040       8.1310     -14.1205       0.0225    -999.2500      18.9010    -999.2500    -999.2500     116.2120     103.0980      97.8400       0.0861       4.3592      -0.0050       2.4725    -999.2500      -1.7450       4.2970
   3499.2566       8.1700     -14.1260       0.0140    -999.2500      18.9010    -999.2500    -999.2500     116.2120     103.0980      97.8400       0.0861       4.5140      -0.0050       2.4580    -999.2500      -1.7460       4.2980
   3499.4089       8.1400     -14.1300       0.0115    -999.2500      18.9010    -999.2500    -999.2500     116.2120     103.0980      97.8400       0.0861       4.5719      -0.0050       2.4730    -999.2500      -1.7470       4.2985
   3499.5613       8.1100     -14.1340       0.0090    -999.2500      18.9010    -999.2500    -999.2500     116.2120     103.0980      97.8400       0.0861       4.6300      -0.0050       2.4880    -999.2500      -1.7480       4.2990
   3499.7136       8.0905     -14.1365       0.0030    -999.2500      18.9010    -999.2500    -999.2500     116.2120     103.0980      97.8400       0.0861       4.7224      -0.0050       2.4960    -999.2500      -1.7485       4.2995
   3499.8662       8.0710     -14.1390      -0.0030    -999.2500      18.9010    -999.2500    -999.2500     116.2120     103.0980      97.8400       0.0861       4.8150      -0.0050       2.5040    -999.2500      -1.7490       4.3000
   3500.0186       8.0665     -14.1430      -0.0015    -999.2500      18.9010    -999.2500    -999.2500     116.2120     103.0980      97.8400       0.0861       5.0731      -0.0050       2.5200    -999.2500      -1.7495       4.3005
   3500.1709       8.0620     -14.1470       0.0000    -999.2500      18.9010    -999.2500    -999.2500     116.2120     103.0980      97.8400       0.0861       5.3320      -0.0050       2.5360    -999.2500      -1.7500       4.3010
   3500.3232       8.0605     -14.1500      -0.0010    -999.2500      18.9010    -999.2500    -999.2500     116.2120     103.0980      97.8400       0.0861       5.2756      -0.0050       2.5350    -999.2500      -1.7510       4.3010
   3500.4758       8.0590     -14.1530      -0.0020    -999.2500      18.9010    -999.2500    -999.2500     116.2120     103.0980      97.8400       0.0861       5.2190      -0.0050       2.5340    -999.2500      -1.7520       4.3010
   3500.6282       8.0595     -14.1550      -0.0045    -999.2500      18.9010    -999.2500    -999.2500     116.2120     103.0980      97.8400       0.0861       5.2939      -0.0050       2.5295    -999.2500      -1.7520       4.3015
   3500.7805       8.0600     -14.1570      -0.0070    -999.2500      18.9010    -999.2500    -999.2500     116.2120     103.0980      97.8400       0.0861       5.3690      -0.0050       2.5250    -999.2500      -1.7520       4.3020
   3500.9329       8.0575     -14.1570      -0.0070    -999.2500      18.9010    -999.2500    -999.2500     116.2120     103.0980      97.8400       0.0861       5.6485      -0.0050       2.5230    -999.2500      -1.7520       4.3020
   3501.0852       8.0550     -14.1570      -0.0070    -999.2500      18.9010    -999.2500    -999.2500     116.2120     103.0980      97.8400       0.0861       5.9290      -0.0050       2.5210    -999.2500      -1.7520       4.3020
   3501.2378       8.0565     -14.1570      -0.0065    -999.2500      18.9010    -999.2500    -999.2500     116.2120     103.0980      97.8400       0.0861       5.7743      -0.0050       2.5205    -999.2500      -1.7520       4.3020
   3501.3901       8.0580     -14.1570      -0.0060    -999.2500      18.9010    -999.2500    -999.2500     116.2120     103.0980      97.8400       0.0861       5.6190      -0.0050       2.5200    -999.2500      -1.7520       4.3020
   3501.5425       8.0600     -14.1570      -0.0035    -999.2500      18.9010    -999.2500    -999.2500     116.2120     103.0980      97.8400       0.0861       5.4698      -0.0050       2.5250    -999.2500      -1.7520       4.3020
   3501.6948       8.0620     -14.1570      -0.0010    -999.2500      18.9010    -999.2500    -999.2500     116.2120     103.0980      97.8400       0.0861       5.3200      -0.0050       2.5300    -999.2500      -1.7520       4.3020
   3501.8474       8.0610     -14.1570       0.0015    -999.2500      18.9010    -999.2500    -999.2500     116.2120     103.0980      97.8400       0.0861       5.4877      -0.0050       2.5365    -999.2500      -1.7520       4.3020
   3501.9998       8.0600     -14.1570       0.0040    -999.2500      18.9010    -999.2500    -999.2500     116.2120     103.0980      97.8400       0.0861       5.6560      -0.0050       2.5430    -999.2500      -1.7520       4.3020
   3502.1521       8.0605     -14.1570       0.0000    -999.2500      18.9010    -999.2500    -999.2500     116.2120     103.0980      97.8400       0.0861       5.6410      -0.0050       2.5360    -999.2500      -1.7520       4.3020
   3502.3044       8.0610     -14.1570      -0.0040    -999.2500      18.9010    -999.2500    -999.2500     116.2120     103.0980      97.8400       0.0861       5.6260      -0.0050       2.5290    -999.2500      -1.7520       4.3020
   3502.4570       8.0620     -14.1570      -0.0035    -999.2500      18.9010    -999.2500    -999.2500     116.2120     103.0980      97.8400       0.0861       5.5082      -0.0050       2.5325    -999.2500      -1.7520       4.3020
   3502.6094       8.0630     -14.1570      -0.0030    -999.2500      18.9010    -999.2500    -999.2500     116.2120     103.0980      97.8400       0.0861       5.3900      -0.0050       2.5360    -999.2500      -1.7520       4.3020
   3502.7617       8.0615     -14.1570      -0.0025    -999.2500      18.9010    -999.2500    -999.2500     116.2120     103.0980      97.8400       0.0861       5.2034      -0.0050       2.5380    -999.2500      -1.7520       4.3020
   3502.9141    -999.2500    -999.2500    -999.2500    -999.2500    -999.2500    -999.2500    -999.2500    -999.2500    -999.2500    -999.2500       0.0861    -999.2500    -999.2500    -999.2500    -999.2500    -999.2500    -999.2500
