#------------------------------------------------------------------------------
#
#   Created by  : [OpenWorks] Log Export Utility (LEXP)
#   Created on  : 2016-05-19 09:39:42
#   Project     : CANT971
#   User        : R5K
#   Interpreter : PEP
#
#------------------------------------------------------------------------------
~VERSION INFORMATION
VERS. 2.0 : CWLS Log ASCII Standard - version 2.0
WRAP.  NO : One line per depth step
~WELL INFORMATION
#MNEMONIC   .UNIT                                           VALUE :DESCRIPTION
#------------------------------------------------------------------------------
STRT        .M                                          1520.0377 :START DEPTH
STOP        .M                                          3502.9141 :STOP DEPTH
STEP        .M                                             0.1524 :STEP
NULL        .                                           -999.2500 :NULL VALUE
COMP        .                                   PEMEX EXPL & PROD :COMPANY
WELL        .                                               2098H :WELL
FLD         .                                           CANTARELL :FIELD
LOC         .                                             UNKNOWN :LOCATION
CNTY        .                                      CD. DEL CARMEN :COUNTY
STAT        .                                            CAMPECHE :STATE
CTRY        .                                              MEXICO :COUNTRY
SRVC        .                                             UNKNOWN :SERVICE COMPANY
DATE        .                                             UNKNOWN :LOG DATE
UWI         .                                          3060000609 :UNIQUE WELL ID
XCOORD      .                                       597710.950000 :SURFACE X
YCOORD      .                                      2140955.330000 :SURFACE Y
LAT         .                                           19.361435 :LATITUDE
LON         .                                          -92.069648 :LONGITUDE
ELEV        .M                                            23.0000 :SURFACE ELEV
ELEV_TYPE   .                                                  KB :ELEV TYPE
~CURVE INFORMATION
#MNEMONIC.UNIT        API CODE       : CURVE DESCRIPTION
#------------------------------------------------------------------------------
DEPTH    .M                          : Measured Depth
CALI     .inches      UNKNOWN        : CALI:Import:rC:NONE:v0 (auto-composite)
CGR      .API         UNKNOWN        : CGR:Import:rC:NONE:v0 (auto-composite)
DRHO     .g/cm3       UNKNOWN        : DRHO:Import:rC:NONE:v0 (auto-composite)
DT       .us/ft       UNKNOWN        : DT:Import:rC:NONE:v0 (auto-composite)
GR       .API         UNKNOWN        : GR:Import:rC:NONE:v0 (auto-composite)
ILD      .ohm.m       UNKNOWN        : ILD:Import:rC:NONE:v0 (auto-composite)
ILM      .ohm.m       UNKNOWN        : ILM:Import:rC:NONE:v0 (auto-composite)
LLD      .ohm.m       UNKNOWN        : LLD:Import:rC:NONE:v0 (auto-composite)
LLS      .ohm.m       UNKNOWN        : LLS:Import:rC:NONE:v0 (auto-composite)
MSFL     .ohm.m       UNKNOWN        : MSFL:Import:rC:NONE:v0 (auto-composite)
NPHI     .v/v_decimal UNKNOWN        : NPHI:Import:rC:NONE:v0 (auto-composite)
PEF      .b/elec      UNKNOWN        : PEF:Import:rC:NONE:v0 (auto-composite)
POTA     .wtpercent   UNKNOWN        : POTA:Import:rC:NONE:v0 (auto-composite)
RHOB     .g/cm3       UNKNOWN        : RHOB:Import:rC:NONE:v0 (auto-composite)
SP       .mV          UNKNOWN        : SP:Import:rC:NONE:v0 (auto-composite)
THOR     .ppm         UNKNOWN        : THOR:Import:rC:NONE:v0 (auto-composite)
URAN     .ppm         UNKNOWN        : URAN:Import:rC:NONE:v0 (auto-composite)
~A     DEPTH         CALI          CGR         DRHO           DT           GR          ILD          ILM          LLD          LLS         MSFL         NPHI          PEF         POTA         RHOB           SP         THOR         URAN
# ...
   3402.9397       8.2570       9.3020       0.0580    -999.2500      17.4090    -999.2500    -999.2500      61.6780      34.2890      32.3870       0.0395       4.7170       0.0040       2.5960    -999.2500       0.7180       1.0880
   3403.0920       8.2810       8.7185       0.0580    -999.2500      16.0274    -999.2500    -999.2500      62.7426      36.4777      35.7554       0.0394       4.7634       0.0040       2.5970    -999.2500       0.6795       0.9675
   3403.2446       8.3050       8.1350       0.0580    -999.2500      14.6460    -999.2500    -999.2500      63.8070      38.6660      39.1340       0.0382       4.8100       0.0040       2.5980    -999.2500       0.6410       0.8470
   3403.3970       8.2965       8.4360       0.0535    -999.2500      15.2855    -999.2500    -999.2500      82.1534      51.7728      96.4498       0.0350       4.9463       0.0040       2.6040    -999.2500       0.7500       0.8910
   3403.5493       8.2880       8.7370       0.0490    -999.2500      15.9250    -999.2500    -999.2500     100.4990      64.8790     153.9470       0.0304       5.0830       0.0040       2.6100    -999.2500       0.8590       0.9350
   3403.7017       8.2745       8.0410       0.0420    -999.2500      15.0675    -999.2500    -999.2500     100.1950      64.4340     911.2018       0.0249       5.1699       0.0035       2.6255    -999.2500       0.8090       0.9140
   3403.8540       8.2610       7.3450       0.0350    -999.2500      14.2100    -999.2500    -999.2500      99.8910      63.9890    1670.9480       0.0208       5.2570       0.0030       2.6410    -999.2500       0.7590       0.8930
   3404.0066       8.4380       7.6240       0.0215    -999.2500      14.5535    -999.2500    -999.2500      84.1531      54.3815     846.5212       0.0211       5.2869       0.0035       2.6330    -999.2500       0.6960       0.9170
   3404.1589       8.6150       7.9030       0.0080    -999.2500      14.8970    -999.2500    -999.2500      68.4120      44.7720      19.2760       0.0239       5.3170       0.0040       2.6250    -999.2500       0.6330       0.9410
   3404.3113       8.5220       7.7455       0.0140    -999.2500      16.3453    -999.2500    -999.2500      54.5843      35.9705     840.9713       0.0268       5.4308       0.0035       2.6280    -999.2500       0.7835       1.1255
   3404.4636       8.4290       7.5880       0.0200    -999.2500      17.7940    -999.2500    -999.2500      40.7520      27.1660    1665.5770       0.0286       5.5450       0.0030       2.6310    -999.2500       0.9340       1.3100
   3404.6162       8.2590       8.2713       0.0474    -999.2500      20.0825    -999.2500    -999.2500      41.9497      27.9598    1066.9857       0.0276       5.3489       0.0035       2.5911    -999.2500       0.9135       1.5279
   3404.7686       8.0890       8.9550       0.0750    -999.2500      22.3720    -999.2500    -999.2500      43.1480      28.7540     466.1970       0.0265       5.1520       0.0040       2.5510    -999.2500       0.8930       1.7460
   3404.9209       8.1845       9.6248       0.0920    -999.2500      23.6791    -999.2500    -999.2500      47.1513      31.5967     237.3995       0.0291       4.9662       0.0045       2.5145    -999.2500       0.8335       1.8290
   3405.0732       8.2800      10.2950       0.1090    -999.2500      24.9870    -999.2500    -999.2500      51.1570      34.4410       8.1010       0.0338       4.7800       0.0050       2.4780    -999.2500       0.7740       1.9120
   3405.2258       8.2745       9.9996       0.0850    -999.2500      24.3362    -999.2500    -999.2500      54.2664      37.1041      13.2505       0.0393       4.7106       0.0050       2.5130    -999.2500       0.6335       1.8940
   3405.3782       8.2690       9.7040       0.0610    -999.2500      23.6850    -999.2500    -999.2500      57.3780      39.7690      18.4120       0.0436       4.6410       0.0050       2.5480    -999.2500       0.4930       1.8760
   3405.5305       8.2815       9.2087       0.0305    -999.2500      24.6014    -999.2500    -999.2500      60.8126      43.2700      39.8229       0.0440       4.5152       0.0045       2.5954    -999.2500       0.5575       2.0579
   3405.6829       8.2940       8.7130       0.0000    -999.2500      25.5170    -999.2500    -999.2500      64.2500      46.7740      61.2860       0.0426       4.3890       0.0040       2.6430    -999.2500       0.6220       2.2400
   3405.8352       8.2710       7.5805       0.0020    -999.2500      23.8925    -999.2500    -999.2500      70.6184      53.7197     104.8396       0.0410       4.6911       0.0035       2.6380    -999.2500       0.5056       2.1495
   3405.9878       8.2480       6.4470       0.0040    -999.2500      22.2690    -999.2500    -999.2500      76.9930      60.6720     148.5050       0.0385       4.9940       0.0030       2.6330    -999.2500       0.3890       2.0590
   3406.1401       8.2245       5.2032       0.0125    -999.2500      19.2632    -999.2500    -999.2500     100.6286      82.2801     186.1129       0.0341       4.7553       0.0025       2.6360    -999.2500       0.2410       1.7094
   3406.2925       8.2010       3.9600       0.0210    -999.2500      16.2590    -999.2500    -999.2500     124.2520     103.8770     223.8220       0.0286       4.5160       0.0020       2.6390    -999.2500       0.0930       1.3600
   3406.4448       8.2060       3.0458       0.0340    -999.2500      14.4972    -999.2500    -999.2500     156.8909     130.1016     261.8464       0.0232       4.6508       0.0015       2.6475    -999.2500       0.0270       1.3775
   3406.5974       8.2110       2.1320       0.0470    -999.2500      12.7360    -999.2500    -999.2500     189.5170     156.3160     299.9780       0.0186       4.7860       0.0010       2.6560    -999.2500      -0.0390       1.3950
   3406.7498       8.2200       1.7184       0.0440    -999.2500      11.4963    -999.2500    -999.2500     217.7092     174.6389     235.3731       0.0154       4.9642       0.0010       2.6435    -999.2500      -0.0620       1.2800
   3406.9021       8.2290       1.3050       0.0410    -999.2500      10.2570    -999.2500    -999.2500     245.8940     192.9570     170.5780       0.0127       5.1430       0.0010       2.6310    -999.2500      -0.0850       1.1650
   3407.0544       8.2480       1.0780       0.0380    -999.2500       8.1199    -999.2500    -999.2500     313.7632     241.6499     321.8309       0.0094       5.2933       0.0005       2.6355    -999.2500      -0.0540       0.9860
   3407.2070       8.2670       0.8510       0.0350    -999.2500       5.9830    -999.2500    -999.2500     381.6230     290.3360     473.5480       0.0067       5.4440       0.0000       2.6400    -999.2500      -0.0230       0.8070
   3407.3594       8.2600       1.1020       0.0405    -999.2500       6.2410    -999.2500    -999.2500     367.6739     280.5139     967.7085       0.0059       5.3776       0.0005       2.6450    -999.2500       0.0540       0.7240
   3407.5117       8.2530       1.3530       0.0460    -999.2500       6.4990    -999.2500    -999.2500     353.7250     270.6920    1463.4490       0.0064       5.3110       0.0010       2.6500    -999.2500       0.1310       0.6410
   3407.6641       8.2840       1.7180       0.0425    -999.2500       6.3245    -999.2500    -999.2500     311.3009     241.5906    1300.9319       0.0075       5.2261       0.0010       2.6450    -999.2500       0.2755       0.5680
   3407.8164       8.3150       2.0830       0.0390    -999.2500       6.1500    -999.2500    -999.2500     268.8720     212.4860    1137.8750       0.0095       5.1410       0.0010       2.6400    -999.2500       0.4200       0.4950
   3407.9690       8.3065       3.6053       0.0325    -999.2500       7.8893    -999.2500    -999.2500     220.0028     177.1777     833.9722       0.0126       5.3536       0.0015       2.6270    -999.2500       0.4005       0.6170
   3408.1213       8.2980       5.1280       0.0260    -999.2500       9.6290    -999.2500    -999.2500     171.1220     141.8610     529.0210       0.0163       5.5670       0.0020       2.6140    -999.2500       0.3810       0.7390
