#------------------------------------------------------------------------------
#
#   Created by  : [OpenWorks] Log Export Utility (LEXP)
#   Created on  : 2016-05-19 09:39:42
#   Project     : CANT971
#   User        : R5K
#   Interpreter : PEP
#
#------------------------------------------------------------------------------
~VERSION INFORMATION
VERS. 2.0 : CWLS Log ASCII Standard - version 2.0
WRAP.  NO : One line per depth step
~WELL INFORMATION
#MNEMONIC   .UNIT                                           VALUE :DESCRIPTION
#------------------------------------------------------------------------------
STRT        .M                                          1520.0377 :START DEPTH
STOP        .M                                          3502.9141 :STOP DEPTH
STEP        .M                                             0.1524 :STEP
NULL        .                                           -999.2500 :NULL VALUE
COMP        .                                   PEMEX EXPL & PROD :COMPANY
WELL        .                                               2098H :WELL
FLD         .                                           CANTARELL :FIELD
LOC         .                                             UNKNOWN :LOCATION
CNTY        .                                      CD. DEL CARMEN :COUNTY
STAT        .                                            CAMPECHE :STATE
CTRY        .                                              MEXICO :COUNTRY
SRVC        .                                             UNKNOWN :SERVICE COMPANY
DATE        .                                             UNKNOWN :LOG DATE
UWI         .                                          3060000609 :UNIQUE WELL ID
XCOORD      .                                       597710.950000 :SURFACE X
YCOORD      .                                      2140955.330000 :SURFACE Y
LAT         .                                           19.361435 :LATITUDE
LON         .                                          -92.069648 :LONGITUDE
ELEV        .M                                            23.0000 :SURFACE ELEV
ELEV_TYPE   .                                                  KB :ELEV TYPE
~CURVE INFORMATION
#MNEMONIC.UNIT        API CODE       : CURVE DESCRIPTION
#------------------------------------------------------------------------------
DEPTH    .M                          : Measured Depth
CALI     .inches      UNKNOWN        : CALI:Import:rC:NONE:v0 (auto-composite)
CGR      .API         UNKNOWN        : CGR:Import:rC:NONE:v0 (auto-composite)
DRHO     .g/cm3       UNKNOWN        : DRHO:Import:rC:NONE:v0 (auto-composite)
DT       .us/ft       UNKNOWN        : DT:Import:rC:NONE:v0 (auto-composite)
GR       .API         UNKNOWN        : GR:Import:rC:NONE:v0 (auto-composite)
ILD      .ohm.m       UNKNOWN        : ILD:Import:rC:NONE:v0 (auto-composite)
ILM      .ohm.m       UNKNOWN        : ILM:Import:rC:NONE:v0 (auto-composite)
LLD      .ohm.m       UNKNOWN        : LLD:Import:rC:NONE:v0 (auto-composite)
LLS      .ohm.m       UNKNOWN        : LLS:Import:rC:NONE:v0 (auto-composite)
MSFL     .ohm.m       UNKNOWN        : MSFL:Import:rC:NONE:v0 (auto-composite)
NPHI     .v/v_decimal UNKNOWN        : NPHI:Import:rC:NONE:v0 (auto-composite)
PEF      .b/elec      UNKNOWN        : PEF:Import:rC:NONE:v0 (auto-composite)
POTA     .wtpercent   UNKNOWN        : POTA:Import:rC:NONE:v0 (auto-composite)
RHOB     .g/cm3       UNKNOWN        : RHOB:Import:rC:NONE:v0 (auto-composite)
SP       .mV          UNKNOWN        : SP:Import:rC:NONE:v0 (auto-composite)
THOR     .ppm         UNKNOWN        : THOR:Import:rC:NONE:v0 (auto-composite)
URAN     .ppm         UNKNOWN        : URAN:Import:rC:NONE:v0 (auto-composite)
~A     DEPTH         CALI          CGR         DRHO           DT           GR          ILD          ILM          LLD          LLS         MSFL         NPHI          PEF         POTA         RHOB           SP         THOR         URAN
# ...
   3040.2278       8.2350      40.9010       0.0000      84.9860      40.9920    -999.2500    -999.2500       2.9800       2.8640       0.2760       0.2961    -999.2500       0.0200       2.2880       0.0320       3.2220       0.0880
   3040.3801       8.2420      42.7116      -0.0040      85.7032      44.0730    -999.2500    -999.2500       2.7364       2.4819       0.2660       0.2935    -999.2500       0.0195       2.2870      -0.2651       3.1390       0.2691
   3040.5325       8.2490      44.5210      -0.0080      86.4200      47.1520    -999.2500    -999.2500       2.4930       2.1000       0.2560       0.2986    -999.2500       0.0190       2.2860      -0.5620       3.0560       0.4500
   3040.6848       8.2520      43.6998      -0.0060      91.1757      46.4498    -999.2500    -999.2500       2.6675       2.1295       0.2785       0.3111    -999.2500       0.0175       2.2835      -0.4060       2.7244       0.4045
   3040.8374       8.2550      42.8790      -0.0040      95.9290      45.7480    -999.2500    -999.2500       2.8420       2.1590       0.3010       0.3208    -999.2500       0.0160       2.2810      -0.2500       2.3930       0.3590
   3040.9897       8.2570      39.1573      -0.0050      92.4243      42.0263    -999.2500    -999.2500       2.8155       2.1505       0.4654       0.3202    -999.2500       0.0160       2.2525      -0.4190       2.5110       0.4115
   3041.1421       8.2590      35.4370      -0.0060      88.9210      38.3060    -999.2500    -999.2500       2.7890       2.1420       0.6300       0.3205    -999.2500       0.0160       2.2240      -0.5880       2.6290       0.4640
   3041.2944       8.2655      37.5133      -0.0060      96.2075      40.8028    -999.2500    -999.2500       2.6315       2.1655       0.4526       0.3308    -999.2500       0.0170       2.2275      -2.8568       2.6045       0.4585
   3041.4470       8.2720      39.5890      -0.0060     103.4920      43.2990    -999.2500    -999.2500       2.4740       2.1890       0.2750       0.3415    -999.2500       0.0180       2.2310      -5.1250       2.5800       0.4530
   3041.5994       8.2840      39.5575      -0.0060     103.4835      43.2255    -999.2500    -999.2500       2.4970       2.1445       0.2850       0.3449    -999.2500       0.0180       2.2660      -4.3669       2.5885       0.3960
   3041.7517       8.2960      39.5260      -0.0060     103.4750      43.1520    -999.2500    -999.2500       2.5200       2.1000       0.2950       0.3434    -999.2500       0.0180       2.3010      -3.6090       2.5970       0.3390
   3041.9041       8.3260      39.1230      -0.0075     102.9245      42.2898    -999.2500    -999.2500       2.4920       2.1450       0.3395       0.3400    -999.2500       0.0180       2.2985       0.6645       2.8200       0.3470
   3042.0566       8.3560      38.7200      -0.0090     102.3740      41.4290    -999.2500    -999.2500       2.4640       2.1900       0.3840       0.3360    -999.2500       0.0180       2.2960       4.9380       3.0430       0.3550
   3042.2090       8.3550      39.6000      -0.0060      99.9831      42.3727    -999.2500    -999.2500       2.3235       2.1450       0.8980       0.3319    -999.2500       0.0175       2.3005       4.4220       2.9835       0.3350
   3042.3613       8.3540      40.4800      -0.0030      97.5920      43.3150    -999.2500    -999.2500       2.1830       2.1000       1.4120       0.3255    -999.2500       0.0170       2.3050       3.9060       2.9240       0.3150
   3042.5137       8.3700      39.6391      -0.0045      94.0234      41.8170    -999.2500    -999.2500       2.5200       2.5999       1.3810       0.3151    -999.2500       0.0175       2.3030       1.9287       2.9395       0.2510
   3042.6660       8.3860      38.7980      -0.0060      90.4540      40.3210    -999.2500    -999.2500       2.8570       3.1000       1.3500       0.3067    -999.2500       0.0180       2.3010      -0.0490       2.9550       0.1870
   3042.8186       8.3860      39.8428      -0.0060      86.8521      41.3046    -999.2500    -999.2500       2.4636       2.7381       1.1585       0.3047    -999.2500       0.0170       2.2915      -1.8682       3.0330       0.1155
   3042.9709       8.3860      40.8880      -0.0060      83.2490      42.2870    -999.2500    -999.2500       2.0700       2.3760       0.9670       0.3044    -999.2500       0.0160       2.2820      -3.6880       3.1110       0.0440
   3043.1233       8.3825      39.5863      -0.0030      77.1186      40.4595    -999.2500    -999.2500       2.1695       2.7484       0.5936       0.3021    -999.2500       0.0180       2.2865      -0.5613       3.2446       0.4142
   3043.2756       8.3790      38.2860       0.0000      70.9950      38.6340    -999.2500    -999.2500       2.2690       3.1210       0.2200       0.2963    -999.2500       0.0200       2.2910       2.5620       3.3780       0.7840
   3043.4282       8.3490      42.0283      -0.0025      71.6023      45.3378    -999.2500    -999.2500       2.6344       3.1185       0.2240       0.2866    -999.2500       0.0195       2.3095       0.5925       3.1799       0.7255
   3043.5806       8.3190      45.7670      -0.0050      72.2090      52.0350    -999.2500    -999.2500       3.0000       3.1160       0.2280       0.2772    -999.2500       0.0190       2.3280      -1.3750       2.9820       0.6670
   3043.7329       8.3305      44.1948      -0.0050      71.8043      49.9941    -999.2500    -999.2500       3.0005       3.1080       0.2450       0.2710    -999.2500       0.0190       2.3265      -1.2504       3.1576       0.6935
   3043.8853       8.3420      42.6240      -0.0050      71.4000      47.9550    -999.2500    -999.2500       3.0010       3.1000       0.2620       0.2728    -999.2500       0.0190       2.3250      -1.1260       3.3330       0.7200
   3044.0376       8.3980      43.3218      -0.0065      70.1410      49.4961    -999.2500    -999.2500       3.0005       3.1890       0.4154       0.2853    -999.2500       0.0185       2.1806       0.5316       3.3060       1.0106
   3044.1902       8.4540      44.0190      -0.0080      68.8830      51.0360    -999.2500    -999.2500       3.0000       3.2780       0.5690       0.2933    -999.2500       0.0180       2.0360       2.1880       3.2790       1.3010
   3044.3425       8.7216      43.0847       0.0005      68.5479      50.5233    -999.2500    -999.2500       3.0000       3.8382      13.0568       0.2856    -999.2500       0.0160       2.0490       1.8144       3.1405       1.2190
   3044.4949       8.9890      42.1510       0.0090      68.2130      50.0110    -999.2500    -999.2500       3.0000       4.3980      25.5570       0.2748    -999.2500       0.0140       2.0620       1.4410       3.0020       1.1370
   3044.6472       9.6832      37.2058       0.0085      65.5969      45.6819    -999.2500    -999.2500       3.5001       3.9314      14.7630       0.2708    -999.2500       0.0140       2.2659       0.2512       2.8220       1.1530
   3044.7998      10.3770      32.2630       0.0080      62.9820      41.3550    -999.2500    -999.2500       4.0000       3.4650       3.9570       0.2695    -999.2500       0.0140       2.4700      -0.9380       2.6420       1.1690
   3044.9521      10.8426      32.6611       0.0040      67.9114      42.2587    -999.2500    -999.2500       3.9980       3.5175       4.5281       0.2671    -999.2500       0.0135       2.4555       1.7505       2.6495       1.2315
   3045.1045      11.3080      33.0590       0.0000      72.8390      43.1620    -999.2500    -999.2500       3.9960       3.5700       5.1000       0.2568    -999.2500       0.0130       2.4410       4.4380       2.6570       1.2940
   3045.2568      12.1776      32.3494       0.0010      72.8140      42.5704    -999.2500    -999.2500       3.7780       3.7460       4.3665       0.2349    -999.2500       0.0135       2.4425       4.3130       2.9260       1.2835
   3045.4094      13.0470      31.6400       0.0020      72.7890      41.9790    -999.2500    -999.2500       3.5600       3.9220       3.6320       0.2183    -999.2500       0.0140       2.4440       4.1880       3.1950       1.2730
