#------------------------------------------------------------------------------
#
#   Created by  : [OpenWorks] Log Export Utility (LEXP)
#   Created on  : 2016-05-19 09:39:42
#   Project     : CANT971
#   User        : R5K
#   Interpreter : PEP
#
#------------------------------------------------------------------------------
~VERSION INFORMATION
VERS. 2.0 : CWLS Log ASCII Standard - version 2.0
WRAP.  NO : One line per depth step
~WELL INFORMATION
#MNEMONIC   .UNIT                                           VALUE :DESCRIPTION
#------------------------------------------------------------------------------
STRT        .M                                          1520.0377 :START DEPTH
STOP        .M                                          3502.9141 :STOP DEPTH
STEP        .M                                             0.1524 :STEP
NULL        .                                           -999.2500 :NULL VALUE
COMP        .                                   PEMEX EXPL & PROD :COMPANY
WELL        .                                               2098H :WELL
FLD         .                                           CANTARELL :FIELD
LOC         .                                             UNKNOWN :LOCATION
CNTY        .                                      CD. DEL CARMEN :COUNTY
STAT        .                                            CAMPECHE :STATE
CTRY        .                                              MEXICO :COUNTRY
SRVC        .                                             UNKNOWN :SERVICE COMPANY
DATE        .                                             UNKNOWN :LOG DATE
UWI         .                                          3060000609 :UNIQUE WELL ID
XCOORD      .                                       597710.950000 :SURFACE X
YCOORD      .                                      2140955.330000 :SURFACE Y
LAT         .                                           19.361435 :LATITUDE
LON         .                                          -92.069648 :LONGITUDE
ELEV        .M                                            23.0000 :SURFACE ELEV
ELEV_TYPE   .                                                  KB :ELEV TYPE
~CURVE INFORMATION
#MNEMONIC.UNIT        API CODE       : CURVE DESCRIPTION
#------------------------------------------------------------------------------
DEPTH    .M                          : Measured Depth
CALI     .inches      UNKNOWN        : CALI:Import:rC:NONE:v0 (auto-composite)
CGR      .API         UNKNOWN        : CGR:Import:rC:NONE:v0 (auto-composite)
DRHO     .g/cm3       UNKNOWN        : DRHO:Import:rC:NONE:v0 (auto-composite)
DT       .us/ft       UNKNOWN        : DT:Import:rC:NONE:v0 (auto-composite)
GR       .API         UNKNOWN        : GR:Import:rC:NONE:v0 (auto-composite)
ILD      .ohm.m       UNKNOWN        : ILD:Import:rC:NONE:v0 (auto-composite)
ILM      .ohm.m       UNKNOWN        : ILM:Import:rC:NONE:v0 (auto-composite)
LLD      .ohm.m       UNKNOWN        : LLD:Import:rC:NONE:v0 (auto-composite)
LLS      .ohm.m       UNKNOWN        : LLS:Import:rC:NONE:v0 (auto-composite)
MSFL     .ohm.m       UNKNOWN        : MSFL:Import:rC:NONE:v0 (auto-composite)
NPHI     .v/v_decimal UNKNOWN        : NPHI:Import:rC:NONE:v0 (auto-composite)
PEF      .b/elec      UNKNOWN        : PEF:Import:rC:NONE:v0 (auto-composite)
POTA     .wtpercent   UNKNOWN        : POTA:Import:rC:NONE:v0 (auto-composite)
RHOB     .g/cm3       UNKNOWN        : RHOB:Import:rC:NONE:v0 (auto-composite)
SP       .mV          UNKNOWN        : SP:Import:rC:NONE:v0 (auto-composite)
THOR     .ppm         UNKNOWN        : THOR:Import:rC:NONE:v0 (auto-composite)
URAN     .ppm         UNKNOWN        : URAN:Import:rC:NONE:v0 (auto-composite)
~A     DEPTH         CALI          CGR         DRHO           DT           GR          ILD          ILM          LLD          LLS         MSFL         NPHI          PEF         POTA         RHOB           SP         THOR         URAN
# ...
   3072.2317      13.6680      15.1340       0.0230      78.5600      50.7660    -999.2500    -999.2500       3.7040       2.3060       3.3880       0.1784       3.9960       0.0070       2.4650      -3.5000       1.9130       4.6190
   3072.3840      13.6155      16.4947       0.0205      78.8385      52.7708    -999.2500    -999.2500       3.7305       2.3470       3.6009       0.1814       3.9450       0.0065       2.4690      -3.1199       1.8340       4.5650
   3072.5366      13.5630      17.8550       0.0180      79.1170      54.7750    -999.2500    -999.2500       3.7570       2.3880       3.8140       0.1838       3.8940       0.0060       2.4730      -2.7400       1.7550       4.5110
   3072.6890      13.3485      17.3420       0.0190      79.0020      53.8294    -999.2500    -999.2500       3.9635       2.5595       4.1033       0.1833       3.9350       0.0060       2.4890      -1.5814       1.8630       4.5215
   3072.8413      13.1340      16.8290       0.0200      78.8870      52.8840    -999.2500    -999.2500       4.1700       2.7310       4.3930       0.1786       3.9760       0.0060       2.5050      -0.4230       1.9710       4.5320
   3072.9937      12.9210      17.0825       0.0155      78.0585      53.0416    -999.2500    -999.2500       4.9280       3.1180       5.3318       0.1694       4.0874       0.0060       2.5300       2.2575       1.9490       4.5815
   3073.1462      12.7080      17.3360       0.0110      77.2300      53.1990    -999.2500    -999.2500       5.6860       3.5050       6.2720       0.1565       4.1990       0.0060       2.5550       4.9380       1.9270       4.6310
   3073.2986      12.6560      17.1750       0.0115      75.1036      53.6714    -999.2500    -999.2500       5.5630       3.4750       6.1265       0.1406       4.2225       0.0060       2.5545       4.5380       1.8485       4.7105
   3073.4509      12.6040      17.0140       0.0120      72.9770      54.1430    -999.2500    -999.2500       5.4400       3.4450       5.9810       0.1295       4.2460       0.0060       2.5540       4.1380       1.7700       4.7900
   3073.6033      12.4945      16.3206       0.0115      73.1260      54.0294    -999.2500    -999.2500       5.1445       3.3510       5.0601       0.1275       4.2885       0.0050       2.5480       1.7253       1.6850       4.8860
   3073.7556      12.3850      15.6270       0.0110      73.2750      53.9160    -999.2500    -999.2500       4.8490       3.2570       4.1390       0.1333       4.3310       0.0040       2.5420      -0.6880       1.6000       4.9820
   3073.9082      12.2840      14.6322       0.0090      73.9484      53.4537    -999.2500    -999.2500       4.4561       3.1610       4.1800       0.1447       4.2540       0.0040       2.5235       0.0934       1.4805       4.9100
   3074.0605      12.1830      13.6370       0.0070      74.6220      52.9920    -999.2500    -999.2500       4.0630       3.0650       4.2210       0.1540       4.1770       0.0040       2.5050       0.8750       1.3610       4.8380
   3074.2129      12.1725      12.6394       0.0055      75.4435      52.0635    -999.2500    -999.2500       4.6464       3.0845       4.3345       0.1564       4.3020       0.0035       2.5060       0.4828       1.1979       4.8550
   3074.3652      12.1620      11.6430       0.0040      76.2640      51.1360    -999.2500    -999.2500       5.2300       3.1040       4.4480       0.1515       4.4270       0.0030       2.5070       0.0910       1.0350       4.8720
   3074.5178      12.1220      10.1663       0.0055      77.1549      49.7183    -999.2500    -999.2500       5.0381       3.2010       4.5540       0.1400       4.4050       0.0030       2.5130      -1.2362       1.0575       4.9250
   3074.6702      12.0820       8.6910       0.0070      78.0450      48.3020    -999.2500    -999.2500       4.8460       3.2980       4.6600       0.1299       4.3830       0.0030       2.5190      -2.5620       1.0800       4.9780
   3074.8225      11.9119       8.7230       0.0275      77.4462      48.4230    -999.2500    -999.2500       5.1746       3.4646       5.0544       0.1263       4.3020       0.0030       2.5335       1.3767       1.1480       5.0220
   3074.9749      11.7420       8.7550       0.0480      76.8480      48.5440    -999.2500    -999.2500       5.5030       3.6310       5.4490       0.1268       4.2210       0.0030       2.5480       5.3120       1.2160       5.0660
   3075.1274      11.7950       8.9116       0.0475      74.4691      49.0532    -999.2500    -999.2500       4.9253       3.6105       5.2971       0.1293       4.1390       0.0030       2.5470       4.5242       1.3140       5.1365
   3075.2798      11.8480       9.0680       0.0470      72.0920      49.5620    -999.2500    -999.2500       4.3480       3.5900       5.1450       0.1368       4.0570       0.0030       2.5460       3.7370       1.4120       5.2070
   3075.4321      11.8075       9.7322       0.0405      72.1425      51.3746    -999.2500    -999.2500       4.3850       3.5285       4.5878       0.1511       4.0945       0.0025       2.5345       0.3675       1.2835       5.2990
   3075.5845      11.7670      10.3960       0.0340      72.1930      53.1860    -999.2500    -999.2500       4.4220       3.4670       4.0300       0.1629       4.1320       0.0020       2.5230      -3.0000       1.1550       5.3910
   3075.7368      11.6440       9.6893       0.0205      72.6311      52.6319    -999.2500    -999.2500       4.6281       3.5190       4.2929       0.1666       4.4148       0.0020       2.5275      -1.4056       0.7984       5.4655
   3075.8894      11.5210       8.9830       0.0070      73.0690      52.0780    -999.2500    -999.2500       4.8340       3.5710       4.5560       0.1639       4.6980       0.0020       2.5320       0.1880       0.4420       5.5400
   3076.0417      11.4625       6.9761       0.0030      72.7759      50.6642    -999.2500    -999.2500       5.2306       3.8526       5.7912       0.1574       4.6970       0.0020       2.5490      -0.0105       0.3090       5.6270
   3076.1941      11.4040       4.9700      -0.0010      72.4830      49.2510    -999.2500    -999.2500       5.6270       4.1340       7.0280       0.1468       4.6960       0.0020       2.5660      -0.2090       0.1760       5.7140
   3076.3464      11.3740       3.9649      -0.0000      71.3054      48.9410    -999.2500    -999.2500       6.8476       4.7766      13.0654       0.1319       4.4267       0.0005       2.6030      -0.8236      -0.0785       5.8465
   3076.4990      11.3440       2.9600       0.0010      70.1280      48.6310    -999.2500    -999.2500       8.0680       5.4190      19.1110       0.1154       4.1570      -0.0010       2.6400      -1.4380      -0.3330       5.9790
   3076.6514      11.2005      -0.1187      -0.0030      68.3384      46.6114    -999.2500    -999.2500       8.0480       6.1560      18.3246       0.0992       4.1580      -0.0005       2.6395      -1.3750      -0.1990       5.9490
   3076.8037      11.0570      -3.1970      -0.0070      66.5490      44.5920    -999.2500    -999.2500       8.0280       6.8930      17.5370       0.0882       4.1590       0.0000       2.6390      -1.3120      -0.0650       5.9190
   3076.9561      10.8045      -1.9895      -0.0070      64.6500      45.5598    -999.2500    -999.2500       7.8695       7.0225      14.9251       0.0845       4.2454       0.0010       2.6320       1.2815       0.3260       5.8315
   3077.1084      10.5520      -0.7820      -0.0070      62.7510      46.5260    -999.2500    -999.2500       7.7110       7.1520      12.3090       0.0848       4.3320       0.0020       2.6250       3.8750       0.7170       5.7440
   3077.2610      10.5710       2.8778      -0.0065      62.9500      49.2380    -999.2500    -999.2500       8.0935       7.5500      23.8392       0.0861       4.2556       0.0020       2.6260       2.0626       0.6895       5.6790
   3077.4133      10.5900       6.5380      -0.0060      63.1490      51.9460    -999.2500    -999.2500       8.4760       7.9480      35.3710       0.0864       4.1790       0.0020       2.6270       0.2500       0.6620       5.6140
