#------------------------------------------------------------------------------
#
#   Created by  : [OpenWorks] Log Export Utility (LEXP)
#   Created on  : 2016-05-19 09:39:42
#   Project     : CANT971
#   User        : R5K
#   Interpreter : PEP
#
#------------------------------------------------------------------------------
~VERSION INFORMATION
VERS. 2.0 : CWLS Log ASCII Standard - version 2.0
WRAP.  NO : One line per depth step
~WELL INFORMATION
#MNEMONIC   .UNIT                                           VALUE :DESCRIPTION
#------------------------------------------------------------------------------
STRT        .M                                          1520.0377 :START DEPTH
STOP        .M                                          3502.9141 :STOP DEPTH
STEP        .M                                             0.1524 :STEP
NULL        .                                           -999.2500 :NULL VALUE
COMP        .                                   PEMEX EXPL & PROD :COMPANY
WELL        .                                               2098H :WELL
FLD         .                                           CANTARELL :FIELD
LOC         .                                             UNKNOWN :LOCATION
CNTY        .                                      CD. DEL CARMEN :COUNTY
STAT        .                                            CAMPECHE :STATE
CTRY        .                                              MEXICO :COUNTRY
SRVC        .                                             UNKNOWN :SERVICE COMPANY
DATE        .                                             UNKNOWN :LOG DATE
UWI         .                                          3060000609 :UNIQUE WELL ID
XCOORD      .                                       597710.950000 :SURFACE X
YCOORD      .                                      2140955.330000 :SURFACE Y
LAT         .                                           19.361435 :LATITUDE
LON         .                                          -92.069648 :LONGITUDE
ELEV        .M                                            23.0000 :SURFACE ELEV
ELEV_TYPE   .                                                  KB :ELEV TYPE
~CURVE INFORMATION
#MNEMONIC.UNIT        API CODE       : CURVE DESCRIPTION
#------------------------------------------------------------------------------
DEPTH    .M                          : Measured Depth
CALI     .inches      UNKNOWN        : CALI:Import:rC:NONE:v0 (auto-composite)
CGR      .API         UNKNOWN        : CGR:Import:rC:NONE:v0 (auto-composite)
DRHO     .g/cm3       UNKNOWN        : DRHO:Import:rC:NONE:v0 (auto-composite)
DT       .us/ft       UNKNOWN        : DT:Import:rC:NONE:v0 (auto-composite)
GR       .API         UNKNOWN        : GR:Import:rC:NONE:v0 (auto-composite)
ILD      .ohm.m       UNKNOWN        : ILD:Import:rC:NONE:v0 (auto-composite)
ILM      .ohm.m       UNKNOWN        : ILM:Import:rC:NONE:v0 (auto-composite)
LLD      .ohm.m       UNKNOWN        : LLD:Import:rC:NONE:v0 (auto-composite)
LLS      .ohm.m       UNKNOWN        : LLS:Import:rC:NONE:v0 (auto-composite)
MSFL     .ohm.m       UNKNOWN        : MSFL:Import:rC:NONE:v0 (auto-composite)
NPHI     .v/v_decimal UNKNOWN        : NPHI:Import:rC:NONE:v0 (auto-composite)
PEF      .b/elec      UNKNOWN        : PEF:Import:rC:NONE:v0 (auto-composite)
POTA     .wtpercent   UNKNOWN        : POTA:Import:rC:NONE:v0 (auto-composite)
RHOB     .g/cm3       UNKNOWN        : RHOB:Import:rC:NONE:v0 (auto-composite)
SP       .mV          UNKNOWN        : SP:Import:rC:NONE:v0 (auto-composite)
THOR     .ppm         UNKNOWN        : THOR:Import:rC:NONE:v0 (auto-composite)
URAN     .ppm         UNKNOWN        : URAN:Import:rC:NONE:v0 (auto-composite)
~A     DEPTH         CALI          CGR         DRHO           DT           GR          ILD          ILM          LLD          LLS         MSFL         NPHI          PEF         POTA         RHOB           SP         THOR         URAN
# ...
   3141.5737       8.9435       8.3292      -0.0120      53.7140      24.0083    -999.2500    -999.2500     178.5967     118.2452     176.1464       0.0182       5.7800       0.0045       2.6150       0.6563       0.3305       1.9545
   3141.7261       8.9380       9.1480      -0.0120      53.8360      25.0110    -999.2500    -999.2500     170.8420     115.7150     149.4450       0.0193       5.8480       0.0040       2.6010      -0.0620       0.2320       1.9240
   3141.8784       8.9245       8.8569      -0.0125      54.3631      23.9768    -999.2500    -999.2500     163.5123     111.7821     132.5481       0.0212       5.8015       0.0040       2.6015       0.9382       0.2365       1.9355
   3142.0310       8.9110       8.5660      -0.0130      54.8900      22.9430    -999.2500    -999.2500     156.1860     107.8510     115.6320       0.0224       5.7550       0.0040       2.6020       1.9380       0.2410       1.9470
   3142.1833       8.8925       8.0334      -0.0115      53.7753      23.0060    -999.2500    -999.2500     143.9214     100.1632     133.0156       0.0215       5.5951       0.0035       2.6090       0.2497       0.2645       1.9970
   3142.3357       8.8740       7.5010      -0.0100      52.6610      23.0690    -999.2500    -999.2500     131.6610      92.4780     150.4210       0.0202       5.4350       0.0030       2.6160      -1.4380       0.2880       2.0470
   3142.4880       8.8715       7.3640      -0.0065      52.8880      23.3265    -999.2500    -999.2500     106.7603      77.7299     113.3801       0.0204       5.1927       0.0030       2.6010      -0.6249       0.4115       2.2050
   3142.6406       8.8690       7.2270      -0.0030      53.1150      23.5840    -999.2500    -999.2500      81.8650      62.9850      76.2880       0.0210       4.9500       0.0030       2.5860       0.1880       0.5350       2.3630
   3142.7930       8.7525       7.0610       0.0020      54.6031      24.6490    -999.2500    -999.2500      86.9032      68.3418     126.4597       0.0210       4.7507       0.0025       2.5880      -1.1871       0.3230       2.3150
   3142.9453       8.6360       6.8950       0.0070      56.0910      25.7140    -999.2500    -999.2500      91.9410      73.6980     176.7070       0.0199       4.5510       0.0020       2.5900      -2.5620       0.1110       2.2670
   3143.0977       8.6390       5.1240       0.0145      58.0015      23.5930    -999.2500    -999.2500     137.6503     114.7509     125.9355       0.0175       4.6299       0.0020       2.5985      -0.5935       0.1495       2.3015
   3143.2500       8.6420       3.3530       0.0220      59.9120      21.4720    -999.2500    -999.2500     183.3610     155.8050      75.0810       0.0152       4.7090       0.0020       2.6070       1.3750       0.1880       2.3360
   3143.4026       8.6530       3.6525       0.0195      58.3061      22.0470    -999.2500    -999.2500     176.2171     150.2284     159.8844       0.0145       5.1072       0.0020       2.6170       1.0515       0.3270       2.4925
   3143.5549       8.6640       3.9520       0.0170      56.7000      22.6220    -999.2500    -999.2500     169.0720     144.6510     244.8370       0.0146       5.5060       0.0020       2.6270       0.7280       0.4660       2.6490
   3143.7073       8.6745       4.8544       0.0115      56.8510      24.2836    -999.2500    -999.2500     154.8655     133.4856     243.5282       0.0147       5.4341       0.0025       2.6415      -1.2917       0.5995       2.6385
   3143.8596       8.6850       5.7570       0.0060      57.0020      25.9430    -999.2500    -999.2500     140.6550     122.3170     242.2170       0.0147       5.3620       0.0030       2.6560      -3.3120       0.7330       2.6280
   3144.0122       8.6920       6.4744       0.0015      56.4896      27.1252    -999.2500    -999.2500     102.4628      89.8386     229.7600       0.0142       5.3940       0.0035       2.6505      -0.2506       0.7985       2.6650
   3144.1646       8.6990       7.1920      -0.0030      55.9770      28.3060    -999.2500    -999.2500      64.2550      57.3470     217.2780       0.0147       5.4260       0.0040       2.6450       2.8120       0.8640       2.7020
   3144.3169       8.7155       8.1815      -0.0070      56.4004      29.5392    -999.2500    -999.2500      35.9850      32.5776     156.3052       0.0179       5.5539       0.0050       2.6315       2.5454       1.0041       2.8161
   3144.4692       8.7320       9.1700      -0.0110      56.8240      30.7710    -999.2500    -999.2500       7.7000       7.7950      95.2020       0.0210       5.6820       0.0060       2.6180       2.2790       1.1440       2.9300
   3144.6218       9.0151      11.5496      -0.0065      57.5723      34.0626    -999.2500    -999.2500       8.4722       8.5827     142.2155       0.0213       5.6725       0.0060       2.6315       1.7342       0.6228       2.8350
   3144.7742       9.2980      13.9270      -0.0020      58.3210      37.3510    -999.2500    -999.2500       9.2450       9.3710     189.2600       0.0206       5.6630       0.0060       2.6450       1.1900       0.1020       2.7400
   3144.9265       8.9854      12.9331      -0.0030      58.4285      35.5958    -999.2500    -999.2500      16.3609      16.2243     180.0576       0.0208       6.0374       0.0045       2.6425       0.0635       0.3126       2.4279
   3145.0789       8.6730      11.9400      -0.0040      58.5360      33.8420    -999.2500    -999.2500      23.4710      23.0720     170.8480       0.0217       6.4120       0.0030       2.6400      -1.0620       0.5230       2.1160
   3145.2312       8.6800      10.0624      -0.0030      58.2354      29.4665    -999.2500    -999.2500      50.7384      46.5221     133.3656       0.0233       6.3405       0.0030       2.6320      -0.9109       0.4990       1.8304
   3145.3838       8.6870       8.1860      -0.0020      57.9350      25.0940    -999.2500    -999.2500      77.9870      69.9560      95.8490       0.0255       6.2690       0.0030       2.6240      -0.7600       0.4750       1.5450
   3145.5361       8.6990       7.5928      -0.0025      57.1478      22.2227    -999.2500    -999.2500      76.8167      69.4258      97.6386       0.0285       5.8477       0.0025       2.6125       0.4328       0.4000       1.4785
   3145.6885       8.7110       7.0000      -0.0030      56.3610      19.3530    -999.2500    -999.2500      75.6470      68.8960      99.4300       0.0323       5.4260       0.0020       2.6010       1.6250       0.3250       1.4120
   3145.8408       8.7140       6.1818      -0.0045      55.3583      17.9992    -999.2500    -999.2500      73.0119      67.5492     107.9520       0.0367       5.5085       0.0020       2.5895       0.8123       0.1030       1.3275
   3145.9934       8.7170       5.3640      -0.0060      54.3560      16.6460    -999.2500    -999.2500      70.3780      66.2030     116.4840       0.0409       5.5910       0.0020       2.5780       0.0000      -0.1190       1.2430
   3146.1458       8.7275       4.1618      -0.0075      56.6089      13.9761    -999.2500    -999.2500      68.9283      65.1973     129.3142       0.0439       5.4266       0.0035       2.5780       0.0115      -0.0160       1.1425
   3146.2981       8.7380       2.9600      -0.0090      58.8610      11.3070    -999.2500    -999.2500      67.4790      64.1920     142.1610       0.0461       5.2620       0.0050       2.5780       0.0230       0.0870       1.0420
   3146.4504       8.7350       5.6223      -0.0085      56.8448      13.9493    -999.2500    -999.2500      68.6426      62.6129     199.7328       0.0477       4.3651       0.0040       2.5730       0.2405      -0.0270       0.9270
   3146.6030       8.7320       8.2840      -0.0080      54.8290      16.5910    -999.2500    -999.2500      69.8060      61.0340     257.3860       0.0498       3.4670       0.0030       2.5680       0.4580      -0.1410       0.8120
   3146.7554       8.7130       6.4394      -0.0055      54.9110      13.8389    -999.2500    -999.2500      72.2276      61.3175     170.3984       0.0534       3.5040       0.0030       2.5360       1.1665      -0.0180       0.9045
