#------------------------------------------------------------------------------
#
#   Created by  : [OpenWorks] Log Export Utility (LEXP)
#   Created on  : 2016-05-19 09:39:42
#   Project     : CANT971
#   User        : R5K
#   Interpreter : PEP
#
#------------------------------------------------------------------------------
~VERSION INFORMATION
VERS. 2.0 : CWLS Log ASCII Standard - version 2.0
WRAP.  NO : One line per depth step
~WELL INFORMATION
#MNEMONIC   .UNIT                                           VALUE :DESCRIPTION
#------------------------------------------------------------------------------
STRT        .M                                          1520.0377 :START DEPTH
STOP        .M                                          3502.9141 :STOP DEPTH
STEP        .M                                             0.1524 :STEP
NULL        .                                           -999.2500 :NULL VALUE
COMP        .                                   PEMEX EXPL & PROD :COMPANY
WELL        .                                               2098H :WELL
FLD         .                                           CANTARELL :FIELD
LOC         .                                             UNKNOWN :LOCATION
CNTY        .                                      CD. DEL CARMEN :COUNTY
STAT        .                                            CAMPECHE :STATE
CTRY        .                                              MEXICO :COUNTRY
SRVC        .                                             UNKNOWN :SERVICE COMPANY
DATE        .                                             UNKNOWN :LOG DATE
UWI         .                                          3060000609 :UNIQUE WELL ID
XCOORD      .                                       597710.950000 :SURFACE X
YCOORD      .                                      2140955.330000 :SURFACE Y
LAT         .                                           19.361435 :LATITUDE
LON         .                                          -92.069648 :LONGITUDE
ELEV        .M                                            23.0000 :SURFACE ELEV
ELEV_TYPE   .                                                  KB :ELEV TYPE
~CURVE INFORMATION
#MNEMONIC.UNIT        API CODE       : CURVE DESCRIPTION
#------------------------------------------------------------------------------
DEPTH    .M                          : Measured Depth
CALI     .inches      UNKNOWN        : CALI:Import:rC:NONE:v0 (auto-composite)
CGR      .API         UNKNOWN        : CGR:Import:rC:NONE:v0 (auto-composite)
DRHO     .g/cm3       UNKNOWN        : DRHO:Import:rC:NONE:v0 (auto-composite)
DT       .us/ft       UNKNOWN        : DT:Import:rC:NONE:v0 (auto-composite)
GR       .API         UNKNOWN        : GR:Import:rC:NONE:v0 (auto-composite)
ILD      .ohm.m       UNKNOWN        : ILD:Import:rC:NONE:v0 (auto-composite)
ILM      .ohm.m       UNKNOWN        : ILM:Import:rC:NONE:v0 (auto-composite)
LLD      .ohm.m       UNKNOWN        : LLD:Import:rC:NONE:v0 (auto-composite)
LLS      .ohm.m       UNKNOWN        : LLS:Import:rC:NONE:v0 (auto-composite)
MSFL     .ohm.m       UNKNOWN        : MSFL:Import:rC:NONE:v0 (auto-composite)
NPHI     .v/v_decimal UNKNOWN        : NPHI:Import:rC:NONE:v0 (auto-composite)
PEF      .b/elec      UNKNOWN        : PEF:Import:rC:NONE:v0 (auto-composite)
POTA     .wtpercent   UNKNOWN        : POTA:Import:rC:NONE:v0 (auto-composite)
RHOB     .g/cm3       UNKNOWN        : RHOB:Import:rC:NONE:v0 (auto-composite)
SP       .mV          UNKNOWN        : SP:Import:rC:NONE:v0 (auto-composite)
THOR     .ppm         UNKNOWN        : THOR:Import:rC:NONE:v0 (auto-composite)
URAN     .ppm         UNKNOWN        : URAN:Import:rC:NONE:v0 (auto-composite)
~A     DEPTH         CALI          CGR         DRHO           DT           GR          ILD          ILM          LLD          LLS         MSFL         NPHI          PEF         POTA         RHOB           SP         THOR         URAN
# ...
   3173.5776       9.3095       6.3675      -0.0020      63.6936      34.3087    -999.2500    -999.2500      70.1472      63.9615     167.6784       0.0528       5.7595       0.0020       2.5265      -1.0770       0.5040       3.4185
   3173.7302       9.3040       6.7640      -0.0030      68.7080      36.1530    -999.2500    -999.2500      85.1100      77.5220     284.1360       0.0483       5.7170       0.0020       2.5590      -1.3750       0.1690       3.2810
   3173.8826       9.2910       6.3755      -0.0050      67.6029      35.2805    -999.2500    -999.2500      83.7094      75.9374     254.9639       0.0407       5.8949       0.0025       2.5735      -1.0835       0.1930       3.2065
   3174.0349       9.2780       5.9870      -0.0070      66.4980      34.4080    -999.2500    -999.2500      82.3090      74.3530     225.7480       0.0338       6.0730       0.0030       2.5880      -0.7920       0.2170       3.1320
   3174.1873       9.2570       5.0935      -0.0065      62.3266      31.8435    -999.2500    -999.2500      72.2371      64.9371     175.1053       0.0322       6.0300       0.0025       2.5735       1.8230       0.5140       3.0750
   3174.3396       9.2360       4.2000      -0.0060      58.1550      29.2790    -999.2500    -999.2500      62.1650      55.5210     124.3800       0.0343       5.9870       0.0020       2.5590       4.4380       0.8110       3.0180
   3174.4922       9.2385       4.6850      -0.0080      58.6200      30.4099    -999.2500    -999.2500      62.6460      56.0450     137.5515       0.0385       5.6628       0.0020       2.5600       3.9920       0.6730       2.8380
   3174.6445       9.2410       5.1700      -0.0100      59.0850      31.5410    -999.2500    -999.2500      63.1270      56.5690     150.7460       0.0423       5.3380       0.0020       2.5610       3.5460       0.5350       2.6580
   3174.7969       9.2535       5.8904      -0.0090      59.7884      31.1272    -999.2500    -999.2500      63.8684      57.6204     178.3046       0.0428       5.3795       0.0025       2.5690      -0.2265       0.6735       2.6980
   3174.9492       9.2660       6.6110      -0.0080      60.4920      30.7140    -999.2500    -999.2500      64.6100      58.6720     205.9150       0.0412       5.4210       0.0030       2.5770      -4.0000       0.8120       2.7380
   3175.1018       9.2805       5.5577      -0.0070      60.8139      28.2305    -999.2500    -999.2500      65.8742      60.2457     294.7824       0.0387       5.4829       0.0035       2.5970      -1.0006       0.7795       2.7970
   3175.2542       9.2950       4.5040      -0.0060      61.1360      25.7500    -999.2500    -999.2500      67.1390      61.8200     383.8280       0.0358       5.5450       0.0040       2.6170       2.0000       0.7470       2.8560
   3175.4065       9.3105       5.4865      -0.0050      61.9768      27.0522    -999.2500    -999.2500      70.2952      64.2474     332.3294       0.0332       5.7763       0.0040       2.6145       0.5629       0.8345       2.9836
   3175.5588       9.3260       6.4680      -0.0040      62.8180      28.3530    -999.2500    -999.2500      73.4530      66.6760     280.7210       0.0309       6.0080       0.0040       2.6120      -0.8750       0.9220       3.1110
   3175.7114       9.3690       7.9287      -0.0045      65.1327      30.2644    -999.2500    -999.2500      83.1183      72.3067     217.3590       0.0289       5.9970       0.0030       2.6025      -0.6071       1.4708       3.7603
   3175.8638       9.4120       9.3880      -0.0050      67.4490      32.1740    -999.2500    -999.2500      92.7900      77.9410     153.8540       0.0277       5.9860       0.0020       2.5930      -0.3390       2.0190       4.4090
   3176.0161       9.4645       9.2760      -0.0040      66.3259      33.1709    -999.2500    -999.2500      92.6885      77.7734      91.9084       0.0277       5.8821       0.0030       2.5770       0.6749       1.7864       4.3260
   3176.1685       9.5170       9.1640      -0.0030      65.2020      34.1670    -999.2500    -999.2500      92.5870      77.6060      29.8150       0.0290       5.7780       0.0040       2.5610       1.6880       1.5540       4.2430
   3176.3208       9.5485       9.5941      -0.0005      63.2084      37.5157    -999.2500    -999.2500      86.3713      72.4757      48.2631       0.0319       5.5156       0.0055       2.5620       0.4686       1.0708       4.0694
   3176.4734       9.5800      10.0240       0.0020      61.2130      40.8620    -999.2500    -999.2500      80.1600      67.3490      66.7280       0.0363       5.2530       0.0070       2.5630      -0.7500       0.5880       3.8960
   3176.6257       9.5270      12.5652       0.0010      60.4103      43.9849    -999.2500    -999.2500      68.7362      59.3262      63.5791       0.0424       5.2970       0.0075       2.5740       0.7194       0.7035       3.9330
   3176.7781       9.4740      15.1050       0.0000      59.6080      47.1060    -999.2500    -999.2500      57.3190      51.3080      60.4270       0.0492       5.3410       0.0080       2.5850       2.1880       0.8190       3.9700
   3176.9304       9.4905      14.7779      -0.0035      58.8608      46.3493    -999.2500    -999.2500      57.8881      47.2261      67.5259       0.0554       5.2990       0.0085       2.5850       0.0310       1.0420       4.0625
   3177.0830       9.5070      14.4510      -0.0070      58.1140      45.5930    -999.2500    -999.2500      58.4570      43.1460      74.6330       0.0606       5.2570       0.0090       2.5850      -2.1250       1.2650       4.1550
   3177.2354       9.5350      15.2141      -0.0070      58.2700      46.6547    -999.2500    -999.2500      59.6557      43.2720      71.9397       0.0640       5.2910       0.0090       2.5835      -1.9450       1.4105       4.1480
   3177.3877       9.5630      15.9770      -0.0070      58.4260      47.7160    -999.2500    -999.2500      60.8540      43.3980      69.2430       0.0662       5.3250       0.0090       2.5820      -1.7650       1.5560       4.1410
   3177.5400       9.4985      17.4091      -0.0070      59.0541      49.7022    -999.2500    -999.2500      62.9512      46.0178      64.0671       0.0677       5.4699       0.0090       2.5790       1.1488       1.4130       4.0925
   3177.6926       9.4340      18.8410      -0.0070      59.6820      51.6880    -999.2500    -999.2500      65.0480      48.6370      58.8840       0.0677       5.6150       0.0090       2.5760       4.0620       1.2700       4.0440
   3177.8450       9.4420      19.7660      -0.0065      60.8485      52.6585    -999.2500    -999.2500      64.4545      48.3420      52.4539       0.0649       5.5266       0.0090       2.5700       2.0309       1.2705       3.9730
   3177.9973       9.4500      20.6910      -0.0060      62.0150      53.6290    -999.2500    -999.2500      63.8610      48.0470      46.0140       0.0591       5.4380       0.0090       2.5640       0.0000       1.2710       3.9020
   3178.1497       9.4715      19.7420       0.0020      61.5050      51.9335    -999.2500    -999.2500      60.6986      45.6271      27.5189       0.0495       5.2906       0.0095       2.5385       0.5940       1.2230       3.8545
   3178.3020       9.4930      18.7930       0.0100      60.9950      50.2380    -999.2500    -999.2500      57.5360      43.2070       8.9930       0.0414       5.1430       0.0100       2.5130       1.1880       1.1750       3.8070
   3178.4546       9.5085      19.8814       0.0340      60.1506      51.0174    -999.2500    -999.2500      52.6339      38.8189      10.7789       0.0418       5.2989       0.0095       2.5140       0.0001       0.8105       3.5375
   3178.6069       9.5240      20.9700       0.0580      59.3060      51.7970    -999.2500    -999.2500      47.7310      34.4300      12.5680       0.0452       5.4550       0.0090       2.5150      -1.1880       0.4460       3.2680
   3178.7593       9.5035      20.9340       0.0535      58.7761      51.5623    -999.2500    -999.2500      51.1410      41.2045      12.5450       0.0453       5.4385       0.0090       2.5275       0.1558       0.6000       3.3135
