#------------------------------------------------------------------------------
#
#   Created by  : [OpenWorks] Log Export Utility (LEXP)
#   Created on  : 2016-05-19 09:39:42
#   Project     : CANT971
#   User        : R5K
#   Interpreter : PEP
#
#------------------------------------------------------------------------------
~VERSION INFORMATION
VERS. 2.0 : CWLS Log ASCII Standard - version 2.0
WRAP.  NO : One line per depth step
~WELL INFORMATION
#MNEMONIC   .UNIT                                           VALUE :DESCRIPTION
#------------------------------------------------------------------------------
STRT        .M                                          1520.0377 :START DEPTH
STOP        .M                                          3502.9141 :STOP DEPTH
STEP        .M                                             0.1524 :STEP
NULL        .                                           -999.2500 :NULL VALUE
COMP        .                                   PEMEX EXPL & PROD :COMPANY
WELL        .                                               2098H :WELL
FLD         .                                           CANTARELL :FIELD
LOC         .                                             UNKNOWN :LOCATION
CNTY        .                                      CD. DEL CARMEN :COUNTY
STAT        .                                            CAMPECHE :STATE
CTRY        .                                              MEXICO :COUNTRY
SRVC        .                                             UNKNOWN :SERVICE COMPANY
DATE        .                                             UNKNOWN :LOG DATE
UWI         .                                          3060000609 :UNIQUE WELL ID
XCOORD      .                                       597710.950000 :SURFACE X
YCOORD      .                                      2140955.330000 :SURFACE Y
LAT         .                                           19.361435 :LATITUDE
LON         .                                          -92.069648 :LONGITUDE
ELEV        .M                                            23.0000 :SURFACE ELEV
ELEV_TYPE   .                                                  KB :ELEV TYPE
~CURVE INFORMATION
#MNEMONIC.UNIT        API CODE       : CURVE DESCRIPTION
#------------------------------------------------------------------------------
DEPTH    .M                          : Measured Depth
CALI     .inches      UNKNOWN        : CALI:Import:rC:NONE:v0 (auto-composite)
CGR      .API         UNKNOWN        : CGR:Import:rC:NONE:v0 (auto-composite)
DRHO     .g/cm3       UNKNOWN        : DRHO:Import:rC:NONE:v0 (auto-composite)
DT       .us/ft       UNKNOWN        : DT:Import:rC:NONE:v0 (auto-composite)
GR       .API         UNKNOWN        : GR:Import:rC:NONE:v0 (auto-composite)
ILD      .ohm.m       UNKNOWN        : ILD:Import:rC:NONE:v0 (auto-composite)
ILM      .ohm.m       UNKNOWN        : ILM:Import:rC:NONE:v0 (auto-composite)
LLD      .ohm.m       UNKNOWN        : LLD:Import:rC:NONE:v0 (auto-composite)
LLS      .ohm.m       UNKNOWN        : LLS:Import:rC:NONE:v0 (auto-composite)
MSFL     .ohm.m       UNKNOWN        : MSFL:Import:rC:NONE:v0 (auto-composite)
NPHI     .v/v_decimal UNKNOWN        : NPHI:Import:rC:NONE:v0 (auto-composite)
PEF      .b/elec      UNKNOWN        : PEF:Import:rC:NONE:v0 (auto-composite)
POTA     .wtpercent   UNKNOWN        : POTA:Import:rC:NONE:v0 (auto-composite)
RHOB     .g/cm3       UNKNOWN        : RHOB:Import:rC:NONE:v0 (auto-composite)
SP       .mV          UNKNOWN        : SP:Import:rC:NONE:v0 (auto-composite)
THOR     .ppm         UNKNOWN        : THOR:Import:rC:NONE:v0 (auto-composite)
URAN     .ppm         UNKNOWN        : URAN:Import:rC:NONE:v0 (auto-composite)
~A     DEPTH         CALI          CGR         DRHO           DT           GR          ILD          ILM          LLD          LLS         MSFL         NPHI          PEF         POTA         RHOB           SP         THOR         URAN
# ...
   3434.9436       8.6430       3.8050       0.0070    -999.2500      32.1160    -999.2500    -999.2500     167.9290     161.5970     299.7200       0.0515       4.9450       0.0010       2.5540    -999.2500       0.7680       3.6840
   3435.0962       8.6330       3.4635       0.0070    -999.2500      31.2336    -999.2500    -999.2500     165.3728     159.9732     273.7453       0.0521       5.0987       0.0010       2.5625    -999.2500       0.6350       3.6135
   3435.2485       8.6230       3.1220       0.0070    -999.2500      30.3510    -999.2500    -999.2500     162.8160     158.3490     247.6820       0.0528       5.2530       0.0010       2.5710    -999.2500       0.5020       3.5430
   3435.4009       8.5390       3.1720       0.0065    -999.2500      30.6135    -999.2500    -999.2500     158.8736     154.6136     231.2915       0.0534       5.4462       0.0010       2.5660    -999.2500       0.5745       3.5705
   3435.5532       8.4550       3.2220       0.0060    -999.2500      30.8760    -999.2500    -999.2500     154.9300     150.8770     214.8430       0.0542       5.6400       0.0010       2.5610    -999.2500       0.6470       3.5980
   3435.7058       8.4990       3.2800       0.0065    -999.2500      31.8543    -999.2500    -999.2500     152.2766     147.5713     211.6329       0.0557       5.7134       0.0010       2.5510    -999.2500       0.6185       3.7180
   3435.8582       8.5430       3.3380       0.0070    -999.2500      32.8330    -999.2500    -999.2500     149.6220     144.2640     208.4110       0.0575       5.7870       0.0010       2.5410    -999.2500       0.5900       3.8380
   3436.0105       8.5785       2.0769       0.0080    -999.2500      30.8751    -999.2500    -999.2500     151.1331     145.3962     206.3674       0.0593       5.6867       0.0005       2.5275    -999.2500       0.3101       3.7475
   3436.1628       8.6140       0.8150       0.0090    -999.2500      28.9160    -999.2500    -999.2500     152.6450     146.5290     204.3160       0.0617       5.5860       0.0000       2.5140    -999.2500       0.0300       3.6570
   3436.3154       8.6265       1.1999       0.0185    -999.2500      29.7802    -999.2500    -999.2500     154.3709     145.9972     152.2914       0.0656       5.4817       0.0005       2.5165    -999.2500       0.0555       3.7195
   3436.4678       8.6390       1.5850       0.0280    -999.2500      30.6450    -999.2500    -999.2500     156.0980     145.4650     100.0630       0.0701       5.3770       0.0010       2.5190    -999.2500       0.0810       3.7820
   3436.6201       8.5455       2.6960       0.0265    -999.2500      32.7478    -999.2500    -999.2500     154.5536     142.9426     135.1298       0.0736       5.3475       0.0015       2.5160    -999.2500       0.1400       3.8760
   3436.7725       8.4520       3.8080       0.0250    -999.2500      34.8490    -999.2500    -999.2500     153.0080     140.4180     170.2820       0.0760       5.3180       0.0020       2.5130    -999.2500       0.1990       3.9700
   3436.9248       8.4660       3.3122       0.0155    -999.2500      34.4629    -999.2500    -999.2500     151.2478     138.7448     154.2460       0.0771       5.2631       0.0020       2.5045    -999.2500       0.1175       4.0135
   3437.0774       8.4800       2.8160       0.0060    -999.2500      34.0770    -999.2500    -999.2500     149.4860     137.0700     138.1690       0.0778       5.2080       0.0020       2.4960    -999.2500       0.0360       4.0570
   3437.2297       8.4420       3.1151       0.0085    -999.2500      35.1818    -999.2500    -999.2500     148.6963     137.3916     128.8141       0.0791       4.9648       0.0020       2.4855    -999.2500       0.0825       4.1675
   3437.3821       8.4040       3.4140       0.0110    -999.2500      36.2860    -999.2500    -999.2500     147.9070     137.7130     119.4340       0.0812       4.7210       0.0020       2.4750    -999.2500       0.1290       4.2780
   3437.5344       8.4215       2.3863       0.0155    -999.2500      35.2223    -999.2500    -999.2500     147.0998     137.9235      99.2873       0.0844       4.7515       0.0020       2.4845    -999.2500      -0.0735       4.2730
   3437.6870       8.4390       1.3590       0.0200    -999.2500      34.1590    -999.2500    -999.2500     146.2930     138.1340      79.0840       0.0878       4.7820       0.0020       2.4940    -999.2500      -0.2760       4.2680
   3437.8394       8.4940       2.3811       0.0165    -999.2500      36.7068    -999.2500    -999.2500     146.4040     138.4801      85.6553       0.0903       5.0701       0.0020       2.4905    -999.2500      -0.0805       4.4665
   3437.9917       8.5490       3.4030       0.0130    -999.2500      39.2540    -999.2500    -999.2500     146.5150     138.8260      92.2460       0.0924       5.3590       0.0020       2.4870    -999.2500       0.1150       4.6650
   3438.1440       8.5185       1.3929      -0.0010    -999.2500      36.4243    -999.2500    -999.2500     148.8337     140.8721     187.8745       0.0941       5.2721       0.0010       2.4745    -999.2500      -0.0845       4.5585
   3438.2966       8.4880      -0.6170      -0.0150    -999.2500      33.5950    -999.2500    -999.2500     151.1520     142.9180     283.7960       0.0947       5.1850       0.0000       2.4620    -999.2500      -0.2840       4.4520
   3438.4490       8.3625       0.8890      -0.0100    -999.2500      36.0690    -999.2500    -999.2500     153.9885     144.2185     201.8653       0.0931       5.0862       0.0005       2.4760    -999.2500      -0.0050       4.5780
   3438.6013       8.2370       2.3950      -0.0050    -999.2500      38.5430    -999.2500    -999.2500     156.8250     145.5190     119.6730       0.0913       4.9870       0.0010       2.4900    -999.2500       0.2740       4.7040
   3438.7537       8.2715       1.4980       0.0005    -999.2500      36.7576    -999.2500    -999.2500     155.4261     143.9836     130.7986       0.0916       5.0774       0.0005       2.4870    -999.2500       0.1955       4.5880
   3438.9060       8.3060       0.6010       0.0060    -999.2500      34.9720    -999.2500    -999.2500     154.0270     142.4480     141.9610       0.0923       5.1680       0.0000       2.4840    -999.2500       0.1170       4.4720
   3439.0586       8.3575       1.4829       0.0285    -999.2500      36.3093    -999.2500    -999.2500     154.3420     140.9217     136.5788       0.0908       5.0357       0.0005       2.4795    -999.2500       0.0535       4.5315
   3439.2109       8.4090       2.3650       0.0510    -999.2500      37.6470    -999.2500    -999.2500     154.6570     139.3950     131.1780       0.0883       4.9030       0.0010       2.4750    -999.2500      -0.0100       4.5910
   3439.3633       8.4350       1.7841       0.0490    -999.2500      36.0768    -999.2500    -999.2500     155.3984     139.9529     102.3349       0.0865       4.8037       0.0015       2.4660    -999.2500      -0.2030       4.4625
   3439.5156       8.4610       1.2030       0.0470    -999.2500      34.5060    -999.2500    -999.2500     156.1400     140.5110      73.3890       0.0863       4.7040       0.0020       2.4570    -999.2500      -0.3960       4.3340
   3439.6682       8.4430       2.7661       0.0455    -999.2500      37.4378    -999.2500    -999.2500     155.8391     141.5542      89.6445       0.0889       4.8173       0.0020       2.4750    -999.2500      -0.0041       4.5120
   3439.8206       8.4250       4.3300       0.0440    -999.2500      40.3710    -999.2500    -999.2500     155.5380     142.5980     105.9600       0.0916       4.9310       0.0020       2.4930    -999.2500       0.3880       4.6900
   3439.9729       8.4835       2.1027       0.0345    -999.2500      36.4202    -999.2500    -999.2500     154.2814     143.1593     141.1004       0.0909       5.1072       0.0000       2.5040    -999.2500       0.2725       4.6470
   3440.1252       8.5420      -0.1260       0.0250    -999.2500      32.4670    -999.2500    -999.2500     153.0240     143.7210     176.3750       0.0874       5.2840      -0.0020       2.5150    -999.2500       0.1570       4.6040
