#------------------------------------------------------------------------------
#
#   Created by  : [OpenWorks] Log Export Utility (LEXP)
#   Created on  : 2016-05-19 09:39:42
#   Project     : CANT971
#   User        : R5K
#   Interpreter : PEP
#
#------------------------------------------------------------------------------
~VERSION INFORMATION
VERS. 2.0 : CWLS Log ASCII Standard - version 2.0
WRAP.  NO : One line per depth step
~WELL INFORMATION
#MNEMONIC   .UNIT                                           VALUE :DESCRIPTION
#------------------------------------------------------------------------------
STRT        .M                                          1520.0377 :START DEPTH
STOP        .M                                          3502.9141 :STOP DEPTH
STEP        .M                                             0.1524 :STEP
NULL        .                                           -999.2500 :NULL VALUE
COMP        .                                   PEMEX EXPL & PROD :COMPANY
WELL        .                                               2098H :WELL
FLD         .                                           CANTARELL :FIELD
LOC         .                                             UNKNOWN :LOCATION
CNTY        .                                      CD. DEL CARMEN :COUNTY
STAT        .                                            CAMPECHE :STATE
CTRY        .                                              MEXICO :COUNTRY
SRVC        .                                             UNKNOWN :SERVICE COMPANY
DATE        .                                             UNKNOWN :LOG DATE
UWI         .                                          3060000609 :UNIQUE WELL ID
XCOORD      .                                       597710.950000 :SURFACE X
YCOORD      .                                      2140955.330000 :SURFACE Y
LAT         .                                           19.361435 :LATITUDE
LON         .                                          -92.069648 :LONGITUDE
ELEV        .M                                            23.0000 :SURFACE ELEV
ELEV_TYPE   .                                                  KB :ELEV TYPE
~CURVE INFORMATION
#MNEMONIC.UNIT        API CODE       : CURVE DESCRIPTION
#------------------------------------------------------------------------------
DEPTH    .M                          : Measured Depth
CALI     .inches      UNKNOWN        : CALI:Import:rC:NONE:v0 (auto-composite)
CGR      .API         UNKNOWN        : CGR:Import:rC:NONE:v0 (auto-composite)
DRHO     .g/cm3       UNKNOWN        : DRHO:Import:rC:NONE:v0 (auto-composite)
DT       .us/ft       UNKNOWN        : DT:Import:rC:NONE:v0 (auto-composite)
GR       .API         UNKNOWN        : GR:Import:rC:NONE:v0 (auto-composite)
ILD      .ohm.m       UNKNOWN        : ILD:Import:rC:NONE:v0 (auto-composite)
ILM      .ohm.m       UNKNOWN        : ILM:Import:rC:NONE:v0 (auto-composite)
LLD      .ohm.m       UNKNOWN        : LLD:Import:rC:NONE:v0 (auto-composite)
LLS      .ohm.m       UNKNOWN        : LLS:Import:rC:NONE:v0 (auto-composite)
MSFL     .ohm.m       UNKNOWN        : MSFL:Import:rC:NONE:v0 (auto-composite)
NPHI     .v/v_decimal UNKNOWN        : NPHI:Import:rC:NONE:v0 (auto-composite)
PEF      .b/elec      UNKNOWN        : PEF:Import:rC:NONE:v0 (auto-composite)
POTA     .wtpercent   UNKNOWN        : POTA:Import:rC:NONE:v0 (auto-composite)
RHOB     .g/cm3       UNKNOWN        : RHOB:Import:rC:NONE:v0 (auto-composite)
SP       .mV          UNKNOWN        : SP:Import:rC:NONE:v0 (auto-composite)
THOR     .ppm         UNKNOWN        : THOR:Import:rC:NONE:v0 (auto-composite)
URAN     .ppm         UNKNOWN        : URAN:Import:rC:NONE:v0 (auto-composite)
~A     DEPTH         CALI          CGR         DRHO           DT           GR          ILD          ILM          LLD          LLS         MSFL         NPHI          PEF         POTA         RHOB           SP         THOR         URAN
# ...
   3205.5818       8.4710       2.0825      -0.0015      56.9355      15.8359    -999.2500    -999.2500     164.6790     179.7043     491.2670       0.0196       3.9448       0.0035       2.5905       0.4230      -0.3050       2.3920
   3205.7341       8.3280       2.6010      -0.0050      57.4830      17.5330    -999.2500    -999.2500     150.2850     162.6600     341.2340       0.0225       4.7520       0.0030       2.6010       0.2840      -0.3410       2.6210
   3205.8865       8.3860       3.9263      -0.0045      55.6248      19.5033    -999.2500    -999.2500     131.4311     141.0434     236.7415       0.0252       4.1700       0.0030       2.6010      -1.0768      -0.4030       2.8120
   3206.0388       8.4440       5.2520      -0.0040      53.7660      21.4710    -999.2500    -999.2500     112.5720     119.4210     132.0530       0.0274       3.5870       0.0030       2.6010      -2.4380      -0.4650       3.0030
   3206.1914       8.4430       4.1912      -0.0015      53.8000      23.3646    -999.2500    -999.2500     100.8053     106.4151     293.5250       0.0291       3.6834       0.0035       2.5905      -0.3134      -0.5195       3.0145
   3206.3438       8.4420       3.1300       0.0010      53.8340      25.2560    -999.2500    -999.2500      89.0340      93.4040     455.3200       0.0306       3.7800       0.0040       2.5800       1.8120      -0.5740       3.0260
   3206.4961       8.3605       3.2740       0.0090      56.1184      26.3386    -999.2500    -999.2500      85.0181      88.3468     362.6246       0.0324       4.2165       0.0035       2.5900       1.2676      -0.3840       3.1405
   3206.6484       8.2790       3.4180       0.0170      58.4040      27.4200    -999.2500    -999.2500      81.0000      83.2870     269.7320       0.0351       4.6540       0.0030       2.6000       0.7230      -0.1940       3.2550
   3206.8010       8.3215       3.6464       0.0140      57.0414      27.7412    -999.2500    -999.2500      78.5228      78.9579     191.3667       0.0393       5.2279       0.0030       2.5970      -1.9501      -0.2020       3.2405
   3206.9534       8.3640       3.8750       0.0110      55.6780      28.0620    -999.2500    -999.2500      76.0440      74.6260     112.8250       0.0441       5.8030       0.0030       2.5940      -4.6250      -0.2100       3.2260
   3207.1057       8.4951       4.0836       0.0055      56.1953      28.6998    -999.2500    -999.2500      74.0382      71.2576      97.6580       0.0488       5.7376       0.0035       2.5885      -2.3115      -0.1945       3.2560
   3207.2581       8.6260       4.2920       0.0000      56.7130      29.3370    -999.2500    -999.2500      72.0340      67.8920      82.4550       0.0527       5.6720       0.0040       2.5830       0.0000      -0.1790       3.2860
   3207.4104       8.5545       4.6666      -0.0055      58.9635      30.1478    -999.2500    -999.2500      71.3152      67.2088      77.7546       0.0552       5.7239       0.0050       2.5780      -0.6252       0.0161       3.6121
   3207.5630       8.4830       5.0410      -0.0110      61.2160      30.9580    -999.2500    -999.2500      70.5970      66.5260      73.0500       0.0570       5.7760       0.0060       2.5730      -1.2500       0.2110       3.9380
   3207.7153       8.4835       5.5677      -0.0085      60.1297      31.6587    -999.2500    -999.2500      67.0760      64.9270      68.7642       0.0592       5.7615       0.0060       2.5685      -0.3747       0.1895       3.9235
   3207.8677       8.4840       6.0940      -0.0060      59.0440      32.3590    -999.2500    -999.2500      63.5570      63.3290      64.4740       0.0617       5.7470       0.0060       2.5640       0.5000       0.1680       3.9090
   3208.0200       8.5305       8.0214      -0.0065      56.8045      36.8955    -999.2500    -999.2500      63.8636      60.9285      60.5333       0.0647       5.7225       0.0050       2.5610       0.4375       0.1135       3.8750
   3208.1726       8.5770       9.9480      -0.0070      54.5660      41.4300    -999.2500    -999.2500      64.1700      58.5290      56.5880       0.0678       5.6980       0.0040       2.5580       0.3750       0.0590       3.8410
   3208.3250       8.5730       9.6985      -0.0065      54.5850      41.0644    -999.2500    -999.2500      63.9540      57.3653      57.2226       0.0704       5.8259       0.0040       2.5555       2.9689       0.0810       3.8575
   3208.4773       8.5690       9.4490      -0.0060      54.6040      40.6990    -999.2500    -999.2500      63.7380      56.2020      57.8580       0.0725       5.9540       0.0040       2.5530       5.5620       0.1030       3.8740
   3208.6296       8.5620       8.3979      -0.0085      55.4581      39.3724    -999.2500    -999.2500      61.7108      54.9134      54.5863       0.0743       5.8781       0.0050       2.5495       4.1189       0.2135       3.9340
   3208.7822       8.5550       7.3470      -0.0110      56.3120      38.0460    -999.2500    -999.2500      59.6840      53.6250      51.3100       0.0761       5.8020       0.0060       2.5460       2.6760       0.3240       3.9940
   3208.9346       8.5515       7.7635      -0.0100      57.8941      38.5935    -999.2500    -999.2500      57.0024      51.6889      45.9256       0.0780       5.8235       0.0060       2.5325       0.2129       0.2495       3.9415
   3209.0869       8.5480       8.1800      -0.0090      59.4760      39.1410    -999.2500    -999.2500      54.3210      49.7530      40.5330       0.0804       5.8450       0.0060       2.5190      -2.2500       0.1750       3.8890
   3209.2393       8.5540       9.6790      -0.0060      59.4370      41.1214    -999.2500    -999.2500      49.7316      43.8951      31.7438       0.0837       5.7970       0.0050       2.5260      -0.0001      -0.1190       3.4300
   3209.3916       8.5600      11.1780      -0.0030      59.3980      43.1020    -999.2500    -999.2500      45.1420      38.0370      22.9400       0.0862       5.7490       0.0040       2.5330       2.2500      -0.4130       2.9710
   3209.5442       8.5590      10.4501       0.0035      57.7086      41.9541    -999.2500    -999.2500      46.6789      39.6364     684.0957       0.0852       5.5382       0.0040       2.5700       0.0312      -0.3990       2.9730
   3209.6965       8.5580       9.7220       0.0100      56.0190      40.8060    -999.2500    -999.2500      48.2160      41.2360    1346.4280       0.0783       5.3270       0.0040       2.6070      -2.1880      -0.3850       2.9750
   3209.8489       8.5045       7.0984       0.0050      56.1980      34.5084    -999.2500    -999.2500      58.1255      49.7527     914.2870       0.0615       5.4199       0.0025       2.6450      -0.6882       0.4344       3.2415
   3210.0012       8.4510       4.4740       0.0000      56.3770      28.2190    -999.2500    -999.2500      68.0380      58.2720     481.3220       0.0444       5.5130       0.0010       2.6830       0.8120       1.2540       3.5080
   3210.1538       8.4770       4.6025       0.0000      56.7864      28.3651    -999.2500    -999.2500      91.2900      78.4242     306.2158       0.0390       5.3906       0.0015       2.6755       0.7185       1.0615       3.4605
   3210.3062       8.5030       4.7310       0.0000      57.1960      28.5110    -999.2500    -999.2500     114.5520      98.5850     130.7540       0.0404       5.2680       0.0020       2.6680       0.6250       0.8690       3.4130
   3210.4585       8.6030       5.3518       0.0010      56.1438      30.1068    -999.2500    -999.2500     108.6031      92.1803      83.4266       0.0440       5.4528       0.0035       2.6540       0.6250       1.0400       3.4390
   3210.6108       8.7030       5.9730       0.0020      55.0910      31.7010    -999.2500    -999.2500     102.6510      85.7720      35.9970       0.0494       5.6380       0.0050       2.6400       0.6250       1.2110       3.4650
   3210.7634       8.6575       7.3005      -0.0025      55.1605      34.0161    -999.2500    -999.2500      89.7969      73.4687      55.9792       0.0568       5.5591       0.0040       2.6185      -0.4996       1.1775       3.4040
