#------------------------------------------------------------------------------
#
#   Created by  : [OpenWorks] Log Export Utility (LEXP)
#   Created on  : 2016-05-19 09:39:42
#   Project     : CANT971
#   User        : R5K
#   Interpreter : PEP
#
#------------------------------------------------------------------------------
~VERSION INFORMATION
VERS. 2.0 : CWLS Log ASCII Standard - version 2.0
WRAP.  NO : One line per depth step
~WELL INFORMATION
#MNEMONIC   .UNIT                                           VALUE :DESCRIPTION
#------------------------------------------------------------------------------
STRT        .M                                          1520.0377 :START DEPTH
STOP        .M                                          3502.9141 :STOP DEPTH
STEP        .M                                             0.1524 :STEP
NULL        .                                           -999.2500 :NULL VALUE
COMP        .                                   PEMEX EXPL & PROD :COMPANY
WELL        .                                               2098H :WELL
FLD         .                                           CANTARELL :FIELD
LOC         .                                             UNKNOWN :LOCATION
CNTY        .                                      CD. DEL CARMEN :COUNTY
STAT        .                                            CAMPECHE :STATE
CTRY        .                                              MEXICO :COUNTRY
SRVC        .                                             UNKNOWN :SERVICE COMPANY
DATE        .                                             UNKNOWN :LOG DATE
UWI         .                                          3060000609 :UNIQUE WELL ID
XCOORD      .                                       597710.950000 :SURFACE X
YCOORD      .                                      2140955.330000 :SURFACE Y
LAT         .                                           19.361435 :LATITUDE
LON         .                                          -92.069648 :LONGITUDE
ELEV        .M                                            23.0000 :SURFACE ELEV
ELEV_TYPE   .                                                  KB :ELEV TYPE
~CURVE INFORMATION
#MNEMONIC.UNIT        API CODE       : CURVE DESCRIPTION
#------------------------------------------------------------------------------
DEPTH    .M                          : Measured Depth
CALI     .inches      UNKNOWN        : CALI:Import:rC:NONE:v0 (auto-composite)
CGR      .API         UNKNOWN        : CGR:Import:rC:NONE:v0 (auto-composite)
DRHO     .g/cm3       UNKNOWN        : DRHO:Import:rC:NONE:v0 (auto-composite)
DT       .us/ft       UNKNOWN        : DT:Import:rC:NONE:v0 (auto-composite)
GR       .API         UNKNOWN        : GR:Import:rC:NONE:v0 (auto-composite)
ILD      .ohm.m       UNKNOWN        : ILD:Import:rC:NONE:v0 (auto-composite)
ILM      .ohm.m       UNKNOWN        : ILM:Import:rC:NONE:v0 (auto-composite)
LLD      .ohm.m       UNKNOWN        : LLD:Import:rC:NONE:v0 (auto-composite)
LLS      .ohm.m       UNKNOWN        : LLS:Import:rC:NONE:v0 (auto-composite)
MSFL     .ohm.m       UNKNOWN        : MSFL:Import:rC:NONE:v0 (auto-composite)
NPHI     .v/v_decimal UNKNOWN        : NPHI:Import:rC:NONE:v0 (auto-composite)
PEF      .b/elec      UNKNOWN        : PEF:Import:rC:NONE:v0 (auto-composite)
POTA     .wtpercent   UNKNOWN        : POTA:Import:rC:NONE:v0 (auto-composite)
RHOB     .g/cm3       UNKNOWN        : RHOB:Import:rC:NONE:v0 (auto-composite)
SP       .mV          UNKNOWN        : SP:Import:rC:NONE:v0 (auto-composite)
THOR     .ppm         UNKNOWN        : THOR:Import:rC:NONE:v0 (auto-composite)
URAN     .ppm         UNKNOWN        : URAN:Import:rC:NONE:v0 (auto-composite)
~A     DEPTH         CALI          CGR         DRHO           DT           GR          ILD          ILM          LLD          LLS         MSFL         NPHI          PEF         POTA         RHOB           SP         THOR         URAN
# ...
   3365.6018       8.4020       5.0981      -0.0075      59.0538      16.8536    -999.2500    -999.2500     123.2559     130.9200     158.1046       0.0457       5.4367       0.0025       2.5615       3.4466       0.1425       2.0960
   3365.7542       8.3830       4.4760      -0.0110      60.1780      16.1730    -999.2500    -999.2500     128.6030     135.8730     183.4670       0.0427       5.2590       0.0020       2.5700       2.8540       0.0850       2.1180
   3365.9065       8.3980       4.7904      -0.0070      59.4402      17.6706    -999.2500    -999.2500     142.8203     143.0671     191.2892       0.0401       5.2925       0.0020       2.5910       2.0452       0.1050       2.2120
   3366.0588       8.4130       5.1050      -0.0030      58.7020      19.1690    -999.2500    -999.2500     157.0450     150.2650     199.1280       0.0369       5.3260       0.0020       2.6120       1.2360       0.1250       2.3060
   3366.2114       8.4715       5.4569       0.0005      57.7428      20.3576    -999.2500    -999.2500     154.9067     149.8152     201.4134       0.0323       5.5453       0.0025       2.6255      -1.5686       0.0080       2.2580
   3366.3638       8.5300       5.8090       0.0040      56.7830      21.5470    -999.2500    -999.2500     152.7670     149.3650     203.7040       0.0274       5.7650       0.0030       2.6390      -4.3750      -0.1090       2.2100
   3366.5161       8.5890       5.6336       0.0055      56.8925      21.8251    -999.2500    -999.2500     139.6756     132.8444     178.3083       0.0231       5.6971       0.0025       2.6340      -3.0320      -0.1760       2.0081
   3366.6685       8.6480       5.4580       0.0070      57.0020      22.1030    -999.2500    -999.2500     126.5740     116.3110     152.8520       0.0204       5.6290       0.0020       2.6290      -1.6880      -0.2430       1.8060
   3366.8208       8.6305       4.3370       0.0060      56.5427      21.1482    -999.2500    -999.2500     127.6520     118.0762     131.2047       0.0198       5.4233       0.0020       2.6205      -2.5311      -0.3310       1.6656
   3366.9734       8.6130       3.2150       0.0050      56.0830      20.1940    -999.2500    -999.2500     128.7310     119.8430     109.5030       0.0201       5.2170       0.0020       2.6120      -3.3750      -0.4190       1.5250
   3367.1257       8.5530       3.7652       0.0135      55.0106      21.4719    -999.2500    -999.2500     141.5827     128.5595     140.8117       0.0197       4.6343       0.0020       2.6165      -2.0737      -0.3880       1.5305
   3367.2781       8.4930       4.3150       0.0220      53.9370      22.7490    -999.2500    -999.2500     154.4270     137.2710     172.2030       0.0190       4.0500       0.0020       2.6210      -0.7710      -0.3570       1.5360
   3367.4304       8.4960       4.1590       0.0210      55.4106      22.2094    -999.2500    -999.2500     190.5340     164.4981     151.5520       0.0184       3.6061       0.0020       2.6010      -0.0419      -0.2165       1.5950
   3367.5830       8.4990       4.0030       0.0200      56.8860      21.6700    -999.2500    -999.2500     226.6250     191.7130     130.8440       0.0182       3.1610       0.0020       2.5810       0.6880      -0.0760       1.6540
   3367.7354       8.5325       3.5044       0.0245      58.4200      19.5542    -999.2500    -999.2500     214.2670     181.7384     180.9891       0.0186       2.9723       0.0020       2.5825    -999.2500       0.0355       1.5895
   3367.8877       8.5660       3.0060       0.0290      59.9560      17.4390    -999.2500    -999.2500     201.9130     171.7670     231.2790       0.0197       2.7830       0.0020       2.5840    -999.2500       0.1470       1.5250
   3368.0400       8.4765       2.1934       0.0230      56.4055      15.5043    -999.2500    -999.2500     182.1471     153.3722     185.0506       0.0213       3.0526       0.0020       2.5790    -999.2500       0.3585       1.6375
   3368.1926       8.3870       1.3810       0.0170      52.8500      13.5700    -999.2500    -999.2500     162.3850     134.9810     138.6830       0.0231       3.3230       0.0020       2.5740    -999.2500       0.5700       1.7500
   3368.3450       8.3200       1.5340       0.0100      53.7608      13.7665    -999.2500    -999.2500     150.5681     124.1816     166.9866       0.0246       4.0623       0.0020       2.5670    -999.2500       0.4735       1.7375
   3368.4973       8.2530       1.6870       0.0030      54.6730      13.9630    -999.2500    -999.2500     138.7520     113.3830     195.3790       0.0257       4.8040       0.0020       2.5600    -999.2500       0.3770       1.7250
   3368.6497       8.2300       2.2915      -0.0045      56.1403      15.3315    -999.2500    -999.2500     127.8743     107.7137     183.3896       0.0267       4.7521       0.0020       2.5605    -999.2500       0.4625       1.7530
   3368.8020       8.2070       2.8960      -0.0120      57.6100      16.7000    -999.2500    -999.2500     116.9960     102.0440     171.3610       0.0273       4.7000       0.0020       2.5610    -999.2500       0.5480       1.7810
   3368.9546       8.1530       3.5099      -0.0075      57.1205      16.6870    -999.2500    -999.2500     117.8319      98.4673     722.4406       0.0272       5.0624       0.0025       2.5670    -999.2500       0.5050       1.7375
   3369.1069       8.0990       4.1240      -0.0030      56.6310      16.6740    -999.2500    -999.2500     118.6680      94.8900    1275.3900       0.0266       5.4260       0.0030       2.5730    -999.2500       0.4620       1.6940
   3369.2593       8.1140       5.1158      -0.0035      57.0189      18.3837    -999.2500    -999.2500     119.3279      93.7062     722.2368       0.0257       5.3661       0.0045       2.5770    -999.2500       0.5475       1.6425
   3369.4116       8.1290       6.1080      -0.0040      57.4070      20.0940    -999.2500    -999.2500     119.9880      92.5220     168.0260       0.0243       5.3060       0.0060       2.5810    -999.2500       0.6330       1.5910
   3369.5642       8.1230       5.5036      -0.0020      57.9464      19.3917    -999.2500    -999.2500     117.0361      89.8496     181.8045       0.0225       5.2665       0.0070       2.6035    -999.2500       0.9094       1.6520
   3369.7166       8.1170       4.8990       0.0000      58.4860      18.6890    -999.2500    -999.2500     114.0830      87.1760     195.6110       0.0211       5.2270       0.0080       2.6260    -999.2500       1.1860       1.7130
   3369.8689       8.1300       5.2404      -0.0030      60.5269      19.1729    -999.2500    -999.2500     103.7609      78.9818     205.2780       0.0206       5.2869       0.0085       2.6250    -999.2500       1.4589       1.7795
   3370.0212       8.1430       5.5820      -0.0060      62.5690      19.6570    -999.2500    -999.2500      93.4330      70.7830     214.9660       0.0221       5.3470       0.0090       2.6240    -999.2500       1.7320       1.8460
   3370.1738       8.2025       9.6026       0.0285      64.3484      25.6769    -999.2500    -999.2500      57.5158      43.2049     121.9759       0.0266       5.6327       0.0070       2.6015    -999.2500       1.1127       2.0989
   3370.3262       8.2620      13.6260       0.0630      66.1290      31.7010    -999.2500    -999.2500      21.5740      15.6080      28.7730       0.0393       5.9190       0.0050       2.5790    -999.2500       0.4930       2.3520
   3370.4785       8.2930      17.0734       0.1149      62.6874      35.9177    -999.2500    -999.2500      19.2374      13.9432      18.4585       0.0659       5.0381       0.0075       2.4716    -999.2500       0.9272       2.4520
   3370.6309       8.3240      20.5180       0.1670      59.2430      40.1310    -999.2500    -999.2500      16.8990      12.2770       8.1190       0.0990       4.1550       0.0100       2.3640    -999.2500       1.3610       2.5520
   3370.7832       8.4781      18.9695       0.1600      58.6478      38.0388    -999.2500    -999.2500      18.8056      13.7888       9.5642       0.1323       4.2004       0.0090       2.3660    -999.2500       1.3280       2.4810
