#------------------------------------------------------------------------------
#
#   Created by  : [OpenWorks] Log Export Utility (LEXP)
#   Created on  : 2016-05-19 09:39:42
#   Project     : CANT971
#   User        : R5K
#   Interpreter : PEP
#
#------------------------------------------------------------------------------
~VERSION INFORMATION
VERS. 2.0 : CWLS Log ASCII Standard - version 2.0
WRAP.  NO : One line per depth step
~WELL INFORMATION
#MNEMONIC   .UNIT                                           VALUE :DESCRIPTION
#------------------------------------------------------------------------------
STRT        .M                                          1520.0377 :START DEPTH
STOP        .M                                          3502.9141 :STOP DEPTH
STEP        .M                                             0.1524 :STEP
NULL        .                                           -999.2500 :NULL VALUE
COMP        .                                   PEMEX EXPL & PROD :COMPANY
WELL        .                                               2098H :WELL
FLD         .                                           CANTARELL :FIELD
LOC         .                                             UNKNOWN :LOCATION
CNTY        .                                      CD. DEL CARMEN :COUNTY
STAT        .                                            CAMPECHE :STATE
CTRY        .                                              MEXICO :COUNTRY
SRVC        .                                             UNKNOWN :SERVICE COMPANY
DATE        .                                             UNKNOWN :LOG DATE
UWI         .                                          3060000609 :UNIQUE WELL ID
XCOORD      .                                       597710.950000 :SURFACE X
YCOORD      .                                      2140955.330000 :SURFACE Y
LAT         .                                           19.361435 :LATITUDE
LON         .                                          -92.069648 :LONGITUDE
ELEV        .M                                            23.0000 :SURFACE ELEV
ELEV_TYPE   .                                                  KB :ELEV TYPE
~CURVE INFORMATION
#MNEMONIC.UNIT        API CODE       : CURVE DESCRIPTION
#------------------------------------------------------------------------------
DEPTH    .M                          : Measured Depth
CALI     .inches      UNKNOWN        : CALI:Import:rC:NONE:v0 (auto-composite)
CGR      .API         UNKNOWN        : CGR:Import:rC:NONE:v0 (auto-composite)
DRHO     .g/cm3       UNKNOWN        : DRHO:Import:rC:NONE:v0 (auto-composite)
DT       .us/ft       UNKNOWN        : DT:Import:rC:NONE:v0 (auto-composite)
GR       .API         UNKNOWN        : GR:Import:rC:NONE:v0 (auto-composite)
ILD      .ohm.m       UNKNOWN        : ILD:Import:rC:NONE:v0 (auto-composite)
ILM      .ohm.m       UNKNOWN        : ILM:Import:rC:NONE:v0 (auto-composite)
LLD      .ohm.m       UNKNOWN        : LLD:Import:rC:NONE:v0 (auto-composite)
LLS      .ohm.m       UNKNOWN        : LLS:Import:rC:NONE:v0 (auto-composite)
MSFL     .ohm.m       UNKNOWN        : MSFL:Import:rC:NONE:v0 (auto-composite)
NPHI     .v/v_decimal UNKNOWN        : NPHI:Import:rC:NONE:v0 (auto-composite)
PEF      .b/elec      UNKNOWN        : PEF:Import:rC:NONE:v0 (auto-composite)
POTA     .wtpercent   UNKNOWN        : POTA:Import:rC:NONE:v0 (auto-composite)
RHOB     .g/cm3       UNKNOWN        : RHOB:Import:rC:NONE:v0 (auto-composite)
SP       .mV          UNKNOWN        : SP:Import:rC:NONE:v0 (auto-composite)
THOR     .ppm         UNKNOWN        : THOR:Import:rC:NONE:v0 (auto-composite)
URAN     .ppm         UNKNOWN        : URAN:Import:rC:NONE:v0 (auto-composite)
~A     DEPTH         CALI          CGR         DRHO           DT           GR          ILD          ILM          LLD          LLS         MSFL         NPHI          PEF         POTA         RHOB           SP         THOR         URAN
# ...
   3237.5857       9.0810       2.4834       0.0045      60.8901      19.6665    -999.2500    -999.2500      54.4309      57.5818     169.1214       0.1009       5.1669       0.0010       2.4269      -1.6787       0.4305       1.9955
   3237.7380       9.1080       2.8260       0.0040      60.6870      20.5490    -999.2500    -999.2500      58.6170      62.3520     275.8870       0.0809       5.2920       0.0010       2.4970      -1.0450       0.3680       1.8970
   3237.8906       9.1740       3.4208       0.0025      58.6227      20.5340    -999.2500    -999.2500      81.0493      84.7673     263.1957       0.0571       5.3884       0.0010       2.5499      -0.1168       0.4615       1.9145
   3238.0430       9.2400       4.0160       0.0010      56.5570      20.5190    -999.2500    -999.2500     103.4960     107.1970     250.4760       0.0380       5.4850       0.0010       2.6030       0.8120       0.5550       1.9320
   3238.1953       9.2255       3.7309      -0.0015      54.1889      19.5646    -999.2500    -999.2500      94.6143      97.9301     147.1287       0.0334       5.2942       0.0005       2.5765       0.4801       0.7201       1.9790
   3238.3477       9.2110       3.4460      -0.0040      51.8190      18.6110    -999.2500    -999.2500      85.7400      88.6710      43.5360       0.0388       5.1030       0.0000       2.5500       0.1480       0.8850       2.0260
   3238.5000       9.0985       3.7766      -0.0070      52.7201      19.2282    -999.2500    -999.2500      77.4991      80.5046     109.1635       0.0512       5.2199       0.0000       2.5150      -0.3318       0.8545       2.0005
   3238.6526       8.9860       4.1070      -0.0100      53.6220      19.8450    -999.2500    -999.2500      69.2640      72.3440     174.9550       0.0612       5.3370       0.0000       2.4800      -0.8120       0.8240       1.9750
   3238.8049       9.0080       3.9244      -0.0095      55.0208      19.7730    -999.2500    -999.2500      84.3534      88.5847     164.3315       0.0584       5.5987       0.0000       2.5170      -0.4634       0.6064       1.8765
   3238.9573       9.0300       3.7420      -0.0090      56.4210      19.7010    -999.2500    -999.2500      99.4340     104.8160     153.6800       0.0489       5.8610       0.0000       2.5540      -0.1150       0.3890       1.7780
   3239.1096       9.1235       3.3119      -0.0080      57.4404      19.1849    -999.2500    -999.2500      98.9874     103.8543     121.6029       0.0384       5.7266       0.0000       2.5485       1.1618       0.4105       1.8320
   3239.2622       9.2170       2.8820      -0.0070      58.4610      18.6690    -999.2500    -999.2500      98.5410     102.8930      89.4890       0.0299       5.5920       0.0000       2.5430       2.4380       0.4320       1.8860
   3239.4146       9.1575       2.4759      -0.0055      56.7447      17.4768    -999.2500    -999.2500      94.6118      98.3407      93.0912       0.0274       5.4381       0.0005       2.5360       1.9519       0.3600       1.9535
   3239.5669       9.0980       2.0700      -0.0040      55.0290      16.2850    -999.2500    -999.2500      90.6840      93.7900      96.6980       0.0293       5.2840       0.0010       2.5290       1.4660       0.2880       2.0210
   3239.7192       9.1805       2.9296       0.0005      56.0676      17.1361    -999.2500    -999.2500      78.0077      81.2227      60.9990       0.0349       5.0342       0.0015       2.4865       0.0454       0.2105       2.0785
   3239.8718       9.2630       3.7890       0.0050      57.1060      17.9870    -999.2500    -999.2500      65.3340      68.6580      25.2500       0.0462       4.7840       0.0020       2.4440      -1.3750       0.1330       2.1360
   3240.0242       9.2460       3.7490       0.0265      59.5541      18.9250    -999.2500    -999.2500      55.5201      59.3471     128.1456       0.0662       4.5177       0.0020       2.4795      -0.5000       0.2055       2.2480
   3240.1765       9.2290       3.7090       0.0480      62.0020      19.8630    -999.2500    -999.2500      45.7070      50.0370     231.1980       0.0839       4.2510       0.0020       2.5150       0.3750       0.2780       2.3600
   3240.3289       9.2045       3.5860       0.0395      64.0229      20.2425    -999.2500    -999.2500      43.3621      46.9806     131.9404       0.0877       5.1158       0.0020       2.5030      -0.1875       0.2655       2.3405
   3240.4812       9.1800       3.4630       0.0310      66.0440      20.6220    -999.2500    -999.2500      41.0170      43.9240      32.5190       0.0846       5.9820       0.0020       2.4910      -0.7500       0.2530       2.3210
   3240.6338       9.1335       3.8425       0.0195      64.3141      21.8544    -999.2500    -999.2500      43.5898      46.7088      44.2231       0.0808       5.9046       0.0010       2.4940      -0.4690       0.2595       2.2690
   3240.7861       9.0870       4.2220       0.0080      62.5840      23.0870    -999.2500    -999.2500      46.1630      49.4940      55.9480       0.0756       5.8270       0.0000       2.4970      -0.1880       0.2660       2.2170
   3240.9385       9.0065       3.6411       0.0015      59.9264      22.3506    -999.2500    -999.2500      53.0965      56.8339      87.0055       0.0680       5.7451       0.0000       2.5155      -0.5939       0.1665       2.0970
   3241.0908       8.9260       3.0600      -0.0050      57.2680      21.6140    -999.2500    -999.2500      60.0320      64.1760     118.1220       0.0582       5.6630       0.0000       2.5340      -1.0000       0.0670       1.9770
   3241.2434       8.8630       1.9967      -0.0050      54.7945      20.3658    -999.2500    -999.2500      66.0802      70.8841     167.1234       0.0461       5.8218       0.0005       2.5765      -0.9390      -0.0975       1.8180
   3241.3958       8.8000       0.9330      -0.0050      52.3200      19.1170    -999.2500    -999.2500      72.1310      77.5950     216.2240       0.0347       5.9810       0.0010       2.6190      -0.8780      -0.2620       1.6590
   3241.5481       8.8140       1.0060      -0.0055      53.2892      17.9974    -999.2500    -999.2500      83.0690      88.1201     295.0721       0.0271       5.8516       0.0015       2.6190      -0.0017      -0.2140       1.5535
   3241.7004       8.8280       1.0790      -0.0060      54.2590      16.8790    -999.2500    -999.2500      94.0130      98.6510     374.0900       0.0225       5.7220       0.0020       2.6190       0.8750      -0.1660       1.4480
   3241.8530       8.7405       1.3809      -0.0055      55.6135      15.9106    -999.2500    -999.2500     117.0632     120.2537     355.0587       0.0205       4.7126       0.0020       2.6095       0.8140       0.2414       1.3770
   3242.0054       8.6530       1.6830      -0.0050      56.9690      14.9430    -999.2500    -999.2500     140.1290     141.8710     335.9840       0.0200       3.7010       0.0020       2.6000       0.7530       0.6490       1.3060
   3242.1577       8.6560       2.0977      -0.0040      57.5773      14.4103    -999.2500    -999.2500     136.5801     138.6767     536.9658       0.0198       3.9842       0.0010       2.6040       0.5976       0.6430       1.2525
   3242.3101       8.6590       2.5120      -0.0030      58.1860      13.8780    -999.2500    -999.2500     133.0340     135.4850     738.4310       0.0200       4.2680       0.0000       2.6080       0.4420       0.6370       1.1990
   3242.4624       8.6785       3.3908       0.0005      57.6473      14.0000    -999.2500    -999.2500     127.7402     130.8619     678.9073       0.0208       4.8797       0.0010       2.6150      -1.3722       0.2684       1.3000
   3242.6150       8.6980       4.2690       0.0040      57.1080      14.1220    -999.2500    -999.2500     122.4500     126.2420     619.2330       0.0219       5.4930       0.0020       2.6220      -3.1880      -0.1000       1.4010
   3242.7673       8.6335       3.0537       0.0035      55.2155      12.7706    -999.2500    -999.2500     116.9700     120.8805     539.2323       0.0233       5.4511       0.0020       2.6170      -1.3125       0.0290       1.6066
