#------------------------------------------------------------------------------
#
#   Created by  : [OpenWorks] Log Export Utility (LEXP)
#   Created on  : 2016-05-19 09:39:42
#   Project     : CANT971
#   User        : R5K
#   Interpreter : PEP
#
#------------------------------------------------------------------------------
~VERSION INFORMATION
VERS. 2.0 : CWLS Log ASCII Standard - version 2.0
WRAP.  NO : One line per depth step
~WELL INFORMATION
#MNEMONIC   .UNIT                                           VALUE :DESCRIPTION
#------------------------------------------------------------------------------
STRT        .M                                          1520.0377 :START DEPTH
STOP        .M                                          3502.9141 :STOP DEPTH
STEP        .M                                             0.1524 :STEP
NULL        .                                           -999.2500 :NULL VALUE
COMP        .                                   PEMEX EXPL & PROD :COMPANY
WELL        .                                               2098H :WELL
FLD         .                                           CANTARELL :FIELD
LOC         .                                             UNKNOWN :LOCATION
CNTY        .                                      CD. DEL CARMEN :COUNTY
STAT        .                                            CAMPECHE :STATE
CTRY        .                                              MEXICO :COUNTRY
SRVC        .                                             UNKNOWN :SERVICE COMPANY
DATE        .                                             UNKNOWN :LOG DATE
UWI         .                                          3060000609 :UNIQUE WELL ID
XCOORD      .                                       597710.950000 :SURFACE X
YCOORD      .                                      2140955.330000 :SURFACE Y
LAT         .                                           19.361435 :LATITUDE
LON         .                                          -92.069648 :LONGITUDE
ELEV        .M                                            23.0000 :SURFACE ELEV
ELEV_TYPE   .                                                  KB :ELEV TYPE
~CURVE INFORMATION
#MNEMONIC.UNIT        API CODE       : CURVE DESCRIPTION
#------------------------------------------------------------------------------
DEPTH    .M                          : Measured Depth
CALI     .inches      UNKNOWN        : CALI:Import:rC:NONE:v0 (auto-composite)
CGR      .API         UNKNOWN        : CGR:Import:rC:NONE:v0 (auto-composite)
DRHO     .g/cm3       UNKNOWN        : DRHO:Import:rC:NONE:v0 (auto-composite)
DT       .us/ft       UNKNOWN        : DT:Import:rC:NONE:v0 (auto-composite)
GR       .API         UNKNOWN        : GR:Import:rC:NONE:v0 (auto-composite)
ILD      .ohm.m       UNKNOWN        : ILD:Import:rC:NONE:v0 (auto-composite)
ILM      .ohm.m       UNKNOWN        : ILM:Import:rC:NONE:v0 (auto-composite)
LLD      .ohm.m       UNKNOWN        : LLD:Import:rC:NONE:v0 (auto-composite)
LLS      .ohm.m       UNKNOWN        : LLS:Import:rC:NONE:v0 (auto-composite)
MSFL     .ohm.m       UNKNOWN        : MSFL:Import:rC:NONE:v0 (auto-composite)
NPHI     .v/v_decimal UNKNOWN        : NPHI:Import:rC:NONE:v0 (auto-composite)
PEF      .b/elec      UNKNOWN        : PEF:Import:rC:NONE:v0 (auto-composite)
POTA     .wtpercent   UNKNOWN        : POTA:Import:rC:NONE:v0 (auto-composite)
RHOB     .g/cm3       UNKNOWN        : RHOB:Import:rC:NONE:v0 (auto-composite)
SP       .mV          UNKNOWN        : SP:Import:rC:NONE:v0 (auto-composite)
THOR     .ppm         UNKNOWN        : THOR:Import:rC:NONE:v0 (auto-composite)
URAN     .ppm         UNKNOWN        : URAN:Import:rC:NONE:v0 (auto-composite)
~A     DEPTH         CALI          CGR         DRHO           DT           GR          ILD          ILM          LLD          LLS         MSFL         NPHI          PEF         POTA         RHOB           SP         THOR         URAN
# ...
   3104.2358       9.4860       3.7380       0.0060      54.1160      13.3260    -999.2500    -999.2500     129.0730     117.9080     237.8940       0.0395       5.0070       0.0020       2.6180       2.1750      -0.1260       1.4740
   3104.3882       9.4250       2.8215       0.0040      54.8560      13.8874    -999.2500    -999.2500     127.5011     117.0580     223.4293       0.0354       4.8851       0.0015       2.6150       1.1631      -0.0660       1.5285
   3104.5405       9.3640       1.9050       0.0020      55.5960      14.4480    -999.2500    -999.2500     125.9290     116.2080     208.9400       0.0316       4.7630       0.0010       2.6120       0.1510      -0.0060       1.5830
   3104.6929       9.3455       1.6800      -0.0025      57.3803      13.9191    -999.2500    -999.2500     121.6705     114.1507     225.9709       0.0288       4.4423       0.0000       2.5840      -0.8304       0.0540       1.6125
   3104.8452       9.3270       1.4550      -0.0070      59.1650      13.3910    -999.2500    -999.2500     117.4110     112.0930     243.0330       0.0270       4.1210      -0.0010       2.5560      -1.8120       0.1140       1.6420
   3104.9978       9.2120       0.5692      -0.0050      59.0965      13.4200    -999.2500    -999.2500     120.8559     112.4179     234.0661       0.0259       4.1969      -0.0010       2.5645      -1.7215       0.2795       1.6960
   3105.1501       9.0970      -0.3170      -0.0030      59.0280      13.4490    -999.2500    -999.2500     124.3020     112.7430     225.0960       0.0246       4.2730      -0.0010       2.5730      -1.6310       0.4450       1.7500
   3105.3025       9.1010      -0.2720       0.0035      59.7408      13.6076    -999.2500    -999.2500     120.3994     110.2701     176.5056       0.0224       4.6416       0.0000       2.6195      -1.2528       0.3219       1.8671
   3105.4548       9.1050      -0.2270       0.0100      60.4540      13.7660    -999.2500    -999.2500     116.4950     107.7960     127.8920       0.0212       5.0110       0.0010       2.6660      -0.8750       0.1990       1.9840
   3105.6074       9.1015       0.1997       0.0035      59.7692      16.8475    -999.2500    -999.2500     119.6406     113.9921     139.3251       0.0222       4.8446      -0.0000       2.6600      -2.0321      -0.3198       2.4287
   3105.7598       9.0980       0.6260      -0.0030      59.0840      19.9260    -999.2500    -999.2500     122.7880     120.1920     150.7650       0.0232       4.6780      -0.0010       2.6540      -3.1880      -0.8380       2.8730
   3105.9121       9.0360      -2.1112      -0.0020      57.2247      19.0226    -999.2500    -999.2500     117.4277     115.0002     255.3024       0.0228       4.6915      -0.0005       2.6625      -2.7233      -0.7435       2.8565
   3106.0645       8.9740      -4.8460      -0.0010      55.3670      18.1200    -999.2500    -999.2500     112.0720     109.8130     359.9160       0.0222       4.7050       0.0000       2.6710      -2.2590      -0.6490       2.8400
   3106.2170       8.9780      -3.9006       0.0010      55.8687      18.9318    -999.2500    -999.2500      90.5419      89.2368     298.3603       0.0222       5.0798       0.0005       2.6570      -0.9100      -0.4084       2.8030
   3106.3694       8.9820      -2.9560       0.0030      56.3700      19.7430    -999.2500    -999.2500      69.0280      68.6760     236.7520       0.0238       5.4550       0.0010       2.6430       0.4380      -0.1680       2.7660
   3106.5217       9.0530      -0.4002       0.0055      57.9360      21.9767    -999.2500    -999.2500      71.2182      71.0197     158.3944       0.0277       5.3550       0.0015       2.6030       0.0324      -0.3551       2.6130
   3106.6741       9.1240       2.1540       0.0080      59.5010      24.2090    -999.2500    -999.2500      73.4070      73.3620      79.9600       0.0309       5.2550       0.0020       2.5630      -0.3730      -0.5420       2.4600
   3106.8264       9.1160       1.9034       0.0075      58.9779      23.5703    -999.2500    -999.2500      84.9749      86.0216     147.5531       0.0315       5.2975       0.0015       2.5695      -4.5000      -0.5360       2.4635
   3106.9790       9.1080       1.6530       0.0070      58.4550      22.9320    -999.2500    -999.2500      96.5370      98.6750     215.2210       0.0301       5.3400       0.0010       2.5760      -8.6250      -0.5300       2.4670
   3107.1313       9.0755       1.0199       0.0045      59.4327      21.4982    -999.2500    -999.2500     118.8401     122.3339     199.1449       0.0273       5.6833       0.0010       2.5905      -1.7172      -0.4990       2.4490
   3107.2837       9.0430       0.3870       0.0020      60.4100      20.0650    -999.2500    -999.2500     141.1350     145.9840     183.0490       0.0239       6.0270       0.0010       2.6050       5.1880      -0.4680       2.4310
   3107.4360       9.0605       0.1200      -0.0015      60.3275      19.6735    -999.2500    -999.2500     156.2094     158.5385     188.7027       0.0200       5.6573       0.0005       2.6080       4.6799      -0.4175       2.3840
   3107.5886       9.0780      -0.1470      -0.0050      60.2450      19.2820    -999.2500    -999.2500     171.2800     171.0900     194.3640       0.0171       5.2870       0.0000       2.6110       4.1720      -0.3670       2.3370
   3107.7410       9.1205      -0.7935      -0.0045      59.8455      18.2619    -999.2500    -999.2500     178.1314     178.0649     211.9669       0.0162       5.4124       0.0000       2.6250       2.7809      -0.2985       2.3545
   3107.8933       9.1630      -1.4400      -0.0040      59.4460      17.2420    -999.2500    -999.2500     184.9820     185.0390     229.5960       0.0164       5.5380       0.0000       2.6390       1.3900      -0.2300       2.3720
   3108.0457       9.1765      -1.0715      -0.0025      58.5495      17.7514    -999.2500    -999.2500     186.0660     190.3725     242.6530       0.0170       6.0831       0.0005       2.6360      -0.2740       0.1710       2.4760
   3108.1980       9.1900      -0.7030      -0.0010      57.6530      18.2600    -999.2500    -999.2500     187.1500     195.7060     255.7310       0.0176       6.6290       0.0010       2.6330      -1.9380       0.5720       2.5800
   3108.3506       9.2005       2.5638      -0.0000      54.8882      22.3580    -999.2500    -999.2500     190.7943     195.0590     269.7334       0.0182       6.4976       0.0015       2.6245      -0.0001       0.5550       2.5665
   3108.5029       9.2110       5.8310       0.0010      52.1230      26.4500    -999.2500    -999.2500     194.4390     194.4120     283.7600       0.0197       6.3660       0.0020       2.6160       1.9380       0.5380       2.5530
   3108.6553       9.2295       5.6905       0.0030      52.5314      26.2008    -999.2500    -999.2500     193.8676     193.0017     274.6929       0.0223       5.8455       0.0015       2.6165      -0.1557       0.3740       2.4520
   3108.8076       9.2480       5.5500       0.0050      52.9400      25.9520    -999.2500    -999.2500     193.2960     191.5910     265.6090       0.0246       5.3240       0.0010       2.6170      -2.2500       0.2100       2.3510
   3108.9602       9.2465       4.8896       0.0040      54.9851      24.8768    -999.2500    -999.2500     187.4111     186.9019     239.7934       0.0254       5.4975       0.0010       2.6190      -1.0002       0.2970       2.3595
   3109.1125       9.2450       4.2290       0.0030      57.0310      23.8030    -999.2500    -999.2500     181.5240     182.2110     213.9680       0.0254       5.6710       0.0010       2.6210       0.2500       0.3840       2.3680
   3109.2649       9.2280       3.4386       0.0000      56.9895      22.6434    -999.2500    -999.2500     169.9389     170.8759     190.6874       0.0253       5.6195       0.0005       2.6205       0.1990       0.3645       2.3445
   3109.4172       9.2110       2.6490      -0.0030      56.9480      21.4850    -999.2500    -999.2500     158.3480     159.5350     167.3950       0.0251       5.5680       0.0000       2.6200       0.1480       0.3450       2.3210
