#------------------------------------------------------------------------------
#
#   Created by  : [OpenWorks] Log Export Utility (LEXP)
#   Created on  : 2016-05-19 09:39:42
#   Project     : CANT971
#   User        : R5K
#   Interpreter : PEP
#
#------------------------------------------------------------------------------
~VERSION INFORMATION
VERS. 2.0 : CWLS Log ASCII Standard - version 2.0
WRAP.  NO : One line per depth step
~WELL INFORMATION
#MNEMONIC   .UNIT                                           VALUE :DESCRIPTION
#------------------------------------------------------------------------------
STRT        .M                                          1520.0377 :START DEPTH
STOP        .M                                          3502.9141 :STOP DEPTH
STEP        .M                                             0.1524 :STEP
NULL        .                                           -999.2500 :NULL VALUE
COMP        .                                   PEMEX EXPL & PROD :COMPANY
WELL        .                                               2098H :WELL
FLD         .                                           CANTARELL :FIELD
LOC         .                                             UNKNOWN :LOCATION
CNTY        .                                      CD. DEL CARMEN :COUNTY
STAT        .                                            CAMPECHE :STATE
CTRY        .                                              MEXICO :COUNTRY
SRVC        .                                             UNKNOWN :SERVICE COMPANY
DATE        .                                             UNKNOWN :LOG DATE
UWI         .                                          3060000609 :UNIQUE WELL ID
XCOORD      .                                       597710.950000 :SURFACE X
YCOORD      .                                      2140955.330000 :SURFACE Y
LAT         .                                           19.361435 :LATITUDE
LON         .                                          -92.069648 :LONGITUDE
ELEV        .M                                            23.0000 :SURFACE ELEV
ELEV_TYPE   .                                                  KB :ELEV TYPE
~CURVE INFORMATION
#MNEMONIC.UNIT        API CODE       : CURVE DESCRIPTION
#------------------------------------------------------------------------------
DEPTH    .M                          : Measured Depth
CALI     .inches      UNKNOWN        : CALI:Import:rC:NONE:v0 (auto-composite)
CGR      .API         UNKNOWN        : CGR:Import:rC:NONE:v0 (auto-composite)
DRHO     .g/cm3       UNKNOWN        : DRHO:Import:rC:NONE:v0 (auto-composite)
DT       .us/ft       UNKNOWN        : DT:Import:rC:NONE:v0 (auto-composite)
GR       .API         UNKNOWN        : GR:Import:rC:NONE:v0 (auto-composite)
ILD      .ohm.m       UNKNOWN        : ILD:Import:rC:NONE:v0 (auto-composite)
ILM      .ohm.m       UNKNOWN        : ILM:Import:rC:NONE:v0 (auto-composite)
LLD      .ohm.m       UNKNOWN        : LLD:Import:rC:NONE:v0 (auto-composite)
LLS      .ohm.m       UNKNOWN        : LLS:Import:rC:NONE:v0 (auto-composite)
MSFL     .ohm.m       UNKNOWN        : MSFL:Import:rC:NONE:v0 (auto-composite)
NPHI     .v/v_decimal UNKNOWN        : NPHI:Import:rC:NONE:v0 (auto-composite)
PEF      .b/elec      UNKNOWN        : PEF:Import:rC:NONE:v0 (auto-composite)
POTA     .wtpercent   UNKNOWN        : POTA:Import:rC:NONE:v0 (auto-composite)
RHOB     .g/cm3       UNKNOWN        : RHOB:Import:rC:NONE:v0 (auto-composite)
SP       .mV          UNKNOWN        : SP:Import:rC:NONE:v0 (auto-composite)
THOR     .ppm         UNKNOWN        : THOR:Import:rC:NONE:v0 (auto-composite)
URAN     .ppm         UNKNOWN        : URAN:Import:rC:NONE:v0 (auto-composite)
~A     DEPTH         CALI          CGR         DRHO           DT           GR          ILD          ILM          LLD          LLS         MSFL         NPHI          PEF         POTA         RHOB           SP         THOR         URAN
# ...
   3008.2236       8.1990      46.9450    -999.2500    -999.2500      36.0960    -999.2500    -999.2500    -999.2500    -999.2500       1.4950    -999.2500    -999.2500       0.0250    -999.2500       1.1240       1.6510      -1.3570
   3008.3762       8.1990      46.9450    -999.2500    -999.2500      36.0960    -999.2500    -999.2500    -999.2500    -999.2500       1.4425    -999.2500    -999.2500       0.0250    -999.2500       0.8779       1.6510      -1.3570
   3008.5286       8.1990      46.9450    -999.2500    -999.2500      36.0960    -999.2500    -999.2500       0.1540       0.1580       1.3900    -999.2500    -999.2500       0.0250    -999.2500       0.6320       1.6510      -1.3570
   3008.6809       8.1990      46.9450    -999.2500    -999.2500      36.0960    -999.2500    -999.2500       0.4101       0.1375       0.9452    -999.2500    -999.2500       0.0250    -999.2500       0.1468       1.6510      -1.3570
   3008.8333       8.1990      46.9450    -999.2500    -999.2500      36.0960    -999.2500    -999.2500       0.6660       0.1170       0.5000    -999.2500    -999.2500       0.0250    -999.2500      -0.3380       1.6510      -1.3570
   3008.9858       8.1990      46.9045    -999.2500    -999.2500      36.0960    -999.2500    -999.2500       0.6660       0.1280       0.7424    -999.2500    -999.2500       0.0250    -999.2500      -0.7317       1.6445      -1.3520
   3009.1382       8.1990      46.8640    -999.2500    -999.2500      36.0960    -999.2500    -999.2500    -999.2500       0.1390       0.9850    -999.2500    -999.2500       0.0250    -999.2500      -1.1250       1.6380      -1.3470
   3009.2905       8.1990      46.6589    -999.2500    -999.2500      36.0960    -999.2500    -999.2500    -999.2500       0.1195       0.9520    -999.2500    -999.2500       0.0250    -999.2500      -0.9314       1.6035      -1.3215
   3009.4429       8.1990      46.4540    -999.2500    -999.2500      36.0960    -999.2500    -999.2500       1.0280       0.1000       0.9190    -999.2500    -999.2500       0.0250    -999.2500      -0.7380       1.5690      -1.2960
   3009.5952       8.1990      46.2379    -999.2500    -999.2500      36.0960    -999.2500    -999.2500       0.6599       0.1415       0.7171    -999.2500    -999.2500       0.0250    -999.2500       1.4126       1.5335      -1.2690
   3009.7478       8.1990      46.0220    -999.2500    -999.2500      36.0960    -999.2500    -999.2500       0.2920       0.1830       0.5150    -999.2500    -999.2500       0.0250    -999.2500       3.5620       1.4980      -1.2420
   3009.9001       8.1990      45.8565    -999.2500    -999.2500      36.0960    -999.2500    -999.2500       0.7501       0.1775       0.5360    -999.2500    -999.2500       0.0250    -999.2500       3.3805       1.4735      -1.2210
   3010.0525       8.1990      45.6910    -999.2500    -999.2500      36.0960    -999.2500    -999.2500       1.2080       0.1720       0.5570    -999.2500    -999.2500       0.0250    -999.2500       3.1990       1.4490      -1.2000
   3010.2048       8.1990      45.3535    -999.2500    -999.2500      36.0960    -999.2500    -999.2500       1.1460       0.1450       0.6564      -3.7975    -999.2500       0.0250    -999.2500       2.4214       1.3535      -1.1575
   3010.3574       8.1990      45.0160    -999.2500    -999.2500      36.0960    -999.2500    -999.2500       1.0840       0.1180       0.7560      -0.7025    -999.2500       0.0250    -999.2500       1.6440       1.2580      -1.1150
   3010.5098       8.1990      44.6855    -999.2500    -999.2500      36.0960    -999.2500    -999.2500       1.4560       0.1865       0.7730       0.2868    -999.2500       0.0245    -999.2500       0.5094       1.2725      -1.0740
   3010.6621       8.1990      44.3550    -999.2500    -999.2500      36.0960    -999.2500    -999.2500       1.8280       0.2550       0.7900       0.2803    -999.2500       0.0240    -999.2500      -0.6250       1.2870      -1.0330
   3010.8145       8.1990      44.2180    -999.2500    -999.2500      36.0960    -999.2500    -999.2500       1.6415       0.1840       1.0450       0.2606    -999.2500       0.0240    -999.2500      -0.4375       1.2835      -1.0160
   3010.9670       8.1990      44.0810    -999.2500    -999.2500      36.0960    -999.2500    -999.2500       1.4550       0.1130       1.3000       0.2451    -999.2500       0.0240    -999.2500      -0.2500       1.2800      -0.9990
   3011.1194       8.1990      43.6780    -999.2500    -999.2500      36.0960    -999.2500    -999.2500       1.4550       0.1185       1.1835       0.2517    -999.2500       0.0240    -999.2500      -0.2810       1.2635      -0.9485
   3011.2717       8.1990      43.2750    -999.2500    -999.2500      36.0960    -999.2500    -999.2500    -999.2500       0.1240       1.0670       0.2642    -999.2500       0.0240    -999.2500      -0.3120       1.2470      -0.8980
   3011.4241       8.1990      42.7146    -999.2500    -999.2500      36.0960    -999.2500    -999.2500    -999.2500       0.1120       1.4020       0.2673    -999.2500       0.0235    -999.2500       0.3134       1.2550      -0.8280
   3011.5764       8.1990      42.1540    -999.2500    -999.2500      36.0960    -999.2500    -999.2500    -999.2500       0.1000       1.7370       0.2637    -999.2500       0.0230    -999.2500       0.9380       1.2630      -0.7580
   3011.7290       8.1990      41.3996    -999.2500    -999.2500      36.0960    -999.2500    -999.2500    -999.2500       0.1000       1.7310       0.2555    -999.2500       0.0225    -999.2500      -2.1269       1.3190      -0.6635
   3011.8813       8.1990      40.6450    -999.2500    -999.2500      36.0960    -999.2500    -999.2500       0.3640       0.1000       1.7250       0.2487    -999.2500       0.0220    -999.2500      -5.1880       1.3750      -0.5690
   3012.0337       8.1990      38.8675    -999.2500    -999.2500      33.3950    -999.2500    -999.2500       0.4230       0.1110       1.4381       0.2491    -999.2500       0.0205    -999.2500      -1.0292       1.5341      -0.4169
   3012.1860       8.1990      37.0920    -999.2500    -999.2500      30.6970    -999.2500    -999.2500       0.4820       0.1220       1.1510       0.2564    -999.2500       0.0190    -999.2500       3.1250       1.6930      -0.2650
   3012.3386       8.1990      33.2066    -999.2500    -999.2500      31.4344    -999.2500    -999.2500       1.5882       0.1110       1.3030       0.2709    -999.2500       0.0160    -999.2500       1.9994       1.9616      -0.0269
   3012.4910       8.1990      29.3250    -999.2500    -999.2500      32.1710    -999.2500    -999.2500       2.6950       0.1000       1.4550       0.2834    -999.2500       0.0130    -999.2500       0.8750       2.2300       0.2110
   3012.6433       8.1990      28.8128    -999.2500    -999.2500      31.9564    -999.2500    -999.2500       1.5200       0.1075       1.2561       0.2846    -999.2500       0.0115    -999.2500       1.3127       2.3345       0.3210
   3012.7957       8.1990      28.3010    -999.2500    -999.2500      31.7420    -999.2500    -999.2500       0.3460       0.1150       1.0570       0.2826    -999.2500       0.0100    -999.2500       1.7500       2.4390       0.4310
   3012.9480       8.1990      26.9250    -999.2500    -999.2500      30.9307    -999.2500    -999.2500       0.3800       0.1075       1.2044       0.2851    -999.2500       0.0100    -999.2500       1.5724       2.4800       0.4715
   3013.1006       8.1990      25.5500    -999.2500    -999.2500      30.1200    -999.2500    -999.2500       0.4140       0.1000       1.3520       0.2936    -999.2500       0.0100    -999.2500       1.3950       2.5210       0.5120
   3013.2529       8.1990      28.3408    -999.2500    -999.2500      33.0719    -999.2500    -999.2500       0.9822       0.1000       1.1746       0.3101    -999.2500       0.0110    -999.2500      -0.1155       2.7001       0.5460
   3013.4053       8.1990      31.1300    -999.2500    -999.2500      36.0220    -999.2500    -999.2500       1.5500       0.1000       0.9970       0.3211    -999.2500       0.0120    -999.2500      -1.6250       2.8790       0.5800
