#------------------------------------------------------------------------------
#
#   Created by  : [OpenWorks] Log Export Utility (LEXP)
#   Created on  : 2016-05-19 09:39:42
#   Project     : CANT971
#   User        : R5K
#   Interpreter : PEP
#
#------------------------------------------------------------------------------
~VERSION INFORMATION
VERS. 2.0 : CWLS Log ASCII Standard - version 2.0
WRAP.  NO : One line per depth step
~WELL INFORMATION
#MNEMONIC   .UNIT                                           VALUE :DESCRIPTION
#------------------------------------------------------------------------------
STRT        .M                                          1520.0377 :START DEPTH
STOP        .M                                          3502.9141 :STOP DEPTH
STEP        .M                                             0.1524 :STEP
NULL        .                                           -999.2500 :NULL VALUE
COMP        .                                   PEMEX EXPL & PROD :COMPANY
WELL        .                                               2098H :WELL
FLD         .                                           CANTARELL :FIELD
LOC         .                                             UNKNOWN :LOCATION
CNTY        .                                      CD. DEL CARMEN :COUNTY
STAT        .                                            CAMPECHE :STATE
CTRY        .                                              MEXICO :COUNTRY
SRVC        .                                             UNKNOWN :SERVICE COMPANY
DATE        .                                             UNKNOWN :LOG DATE
UWI         .                                          3060000609 :UNIQUE WELL ID
XCOORD      .                                       597710.950000 :SURFACE X
YCOORD      .                                      2140955.330000 :SURFACE Y
LAT         .                                           19.361435 :LATITUDE
LON         .                                          -92.069648 :LONGITUDE
ELEV        .M                                            23.0000 :SURFACE ELEV
ELEV_TYPE   .                                                  KB :ELEV TYPE
~CURVE INFORMATION
#MNEMONIC.UNIT        API CODE       : CURVE DESCRIPTION
#------------------------------------------------------------------------------
DEPTH    .M                          : Measured Depth
CALI     .inches      UNKNOWN        : CALI:Import:rC:NONE:v0 (auto-composite)
CGR      .API         UNKNOWN        : CGR:Import:rC:NONE:v0 (auto-composite)
DRHO     .g/cm3       UNKNOWN        : DRHO:Import:rC:NONE:v0 (auto-composite)
DT       .us/ft       UNKNOWN        : DT:Import:rC:NONE:v0 (auto-composite)
GR       .API         UNKNOWN        : GR:Import:rC:NONE:v0 (auto-composite)
ILD      .ohm.m       UNKNOWN        : ILD:Import:rC:NONE:v0 (auto-composite)
ILM      .ohm.m       UNKNOWN        : ILM:Import:rC:NONE:v0 (auto-composite)
LLD      .ohm.m       UNKNOWN        : LLD:Import:rC:NONE:v0 (auto-composite)
LLS      .ohm.m       UNKNOWN        : LLS:Import:rC:NONE:v0 (auto-composite)
MSFL     .ohm.m       UNKNOWN        : MSFL:Import:rC:NONE:v0 (auto-composite)
NPHI     .v/v_decimal UNKNOWN        : NPHI:Import:rC:NONE:v0 (auto-composite)
PEF      .b/elec      UNKNOWN        : PEF:Import:rC:NONE:v0 (auto-composite)
POTA     .wtpercent   UNKNOWN        : POTA:Import:rC:NONE:v0 (auto-composite)
RHOB     .g/cm3       UNKNOWN        : RHOB:Import:rC:NONE:v0 (auto-composite)
SP       .mV          UNKNOWN        : SP:Import:rC:NONE:v0 (auto-composite)
THOR     .ppm         UNKNOWN        : THOR:Import:rC:NONE:v0 (auto-composite)
URAN     .ppm         UNKNOWN        : URAN:Import:rC:NONE:v0 (auto-composite)
~A     DEPTH         CALI          CGR         DRHO           DT           GR          ILD          ILM          LLD          LLS         MSFL         NPHI          PEF         POTA         RHOB           SP         THOR         URAN
# ...
   3269.5896       8.4515       2.3296      -0.0085      60.8413      19.0292    -999.2500    -999.2500      78.0323      91.3049     307.8895       0.0346       5.1952       0.0020       2.6015       1.2534       0.1819       1.7184
   3269.7422       8.4790       3.9070      -0.0090      61.3980      20.8800    -999.2500    -999.2500      71.6170      87.1250     183.6420       0.0396       5.0350       0.0020       2.5910      -6.5000      -0.0010       1.5570
   3269.8945       8.5105       3.8370      -0.0080      61.0587      19.8342    -999.2500    -999.2500      71.8131      83.4604     206.6109       0.0486       4.8348       0.0020       2.5790      -5.3542       0.0000       1.4410
   3270.0469       8.5420       3.7670      -0.0070      60.7190      18.7890    -999.2500    -999.2500      72.0090      79.7980     229.6400       0.0534       4.6340       0.0020       2.5670      -4.2090       0.0010       1.3250
   3270.1992       8.5070       3.6835      -0.0055      60.2887      17.4267    -999.2500    -999.2500      78.1264      85.3268     294.1679       0.0478       4.7149       0.0015       2.5795      -2.8402       0.1990       1.7386
   3270.3518       8.4720       3.6000      -0.0040      59.8580      16.0650    -999.2500    -999.2500      84.2410      90.8530     358.8730       0.0402       4.7960       0.0010       2.5920      -1.4720       0.3970       2.1520
   3270.5042       8.5360       3.6825      -0.0020      59.2574      15.2109    -999.2500    -999.2500      81.4120      88.3636     465.3101       0.0380       4.9373       0.0010       2.5855      -0.1733       0.2810       2.1155
   3270.6565       8.6000       3.7650       0.0000      58.6570      14.3570    -999.2500    -999.2500      78.5840      85.8750     572.0530       0.0395       5.0790       0.0010       2.5790       1.1250       0.1650       2.0790
   3270.8088       8.5715       3.4760       0.0025      58.1454      17.1093    -999.2500    -999.2500      74.4436      80.2734     352.2291       0.0433       5.3728       0.0010       2.5725      -0.8127       0.3135       2.1315
   3270.9614       8.5430       3.1870       0.0050      57.6340      19.8610    -999.2500    -999.2500      70.3040      74.6730     132.0990       0.0455       5.6670       0.0010       2.5660      -2.7500       0.4620       2.1840
   3271.1138       8.5500       2.7255       0.0040      57.3365      19.3720    -999.2500    -999.2500      81.2585      85.1934     141.2201       0.0434       6.1671       0.0005       2.5705      -1.3569       0.4320       2.1545
   3271.2661       8.5570       2.2640       0.0030      57.0390      18.8830    -999.2500    -999.2500      92.2120      95.7130     150.3550       0.0382       6.6680       0.0000       2.5750       0.0360       0.4020       2.1250
   3271.4185       8.5670       3.0690       0.0010      57.2655      20.1070    -999.2500    -999.2500      91.0935      94.3600     169.1805       0.0309       6.5896       0.0000       2.5850       1.4555       0.3220       2.0680
   3271.5708       8.5770       3.8740      -0.0010      57.4920      21.3310    -999.2500    -999.2500      89.9750      93.0070     188.0370       0.0251       6.5110       0.0000       2.5950       2.8750       0.2420       2.0110
   3271.7234       8.5985       3.3225      -0.0045      57.9570      20.5431    -999.2500    -999.2500      85.4494      88.3874     169.3625       0.0230       6.1453       0.0005       2.6070       0.1252       0.3065       1.9810
   3271.8757       8.6200       2.7710      -0.0080      58.4220      19.7550    -999.2500    -999.2500      80.9230      83.7670     150.6550       0.0230       5.7790       0.0010       2.6190      -2.6250       0.3710       1.9510
   3272.0281       8.6430       1.8591      -0.0065      59.6833      18.1692    -999.2500    -999.2500      75.5943      78.5293     153.3205       0.0236       5.7935       0.0010       2.6295      -0.0319       0.4805       1.9400
   3272.1804       8.6660       0.9470      -0.0050      60.9450      16.5830    -999.2500    -999.2500      70.2640      73.2900     155.9910       0.0248       5.8080       0.0010       2.6400       2.5620       0.5900       1.9290
   3272.3330       8.6215       1.5189      -0.0025      60.8610      17.1354    -999.2500    -999.2500      70.4949      70.8555     155.4955       0.0269       5.6821       0.0010       2.6335       0.3440       0.4730       1.8400
   3272.4854       8.5770       2.0910       0.0000      60.7770      17.6880    -999.2500    -999.2500      70.7260      68.4200     154.9990       0.0296       5.5560       0.0010       2.6270      -1.8750       0.3560       1.7510
   3272.6377       8.5155       3.2177       0.0010      60.9849      18.6595    -999.2500    -999.2500      70.4506      68.8054     115.9554       0.0327       5.1684       0.0015       2.6095      -0.7503       0.4205       1.5356
   3272.7900       8.4540       4.3450       0.0020      61.1930      19.6300    -999.2500    -999.2500      70.1750      69.1910      76.8280       0.0355       4.7800       0.0020       2.5920       0.3750       0.4850       1.3200
   3272.9426       8.4165       3.6362       0.0055      60.5407      18.6115    -999.2500    -999.2500      69.2053      68.3303      78.5680       0.0375       4.2711       0.0025       2.5710      -0.7181       0.6674       1.1531
   3273.0950       8.3790       2.9270       0.0090      59.8880      17.5940    -999.2500    -999.2500      68.2350      67.4690      80.3120       0.0380       3.7610       0.0030       2.5500      -1.8120       0.8500       0.9860
   3273.2473       8.3410       3.4317       0.0085      57.7553      15.4616    -999.2500    -999.2500      62.8821      61.5693     115.1032       0.0365       4.0187       0.0025       2.5515      -0.8919       1.1171       0.8539
   3273.3997       8.3030       3.9360       0.0080      55.6210      13.3310    -999.2500    -999.2500      57.5250      55.6650     149.9780       0.0351       4.2770       0.0020       2.5530       0.0290       1.3840       0.7220
   3273.5520       8.2685       6.4208       0.0095      55.9174      14.7830    -999.2500    -999.2500      51.6302      49.5588     107.7743       0.0353       3.6897       0.0025       2.5600       1.4513       1.3145       0.7345
   3273.7046       8.2340       8.9040       0.0110      56.2140      16.2340    -999.2500    -999.2500      45.7300      43.4470      65.4640       0.0366       3.1010       0.0030       2.5670       2.8750       1.2450       0.7470
   3273.8569       8.2365       8.5109       0.0270      56.7912      15.0612    -999.2500    -999.2500      43.6669      41.1829     150.9646       0.0383       3.2263       0.0035       2.5590       0.2178       0.9234       0.7150
   3274.0093       8.2390       8.1180       0.0430      57.3690      13.8890    -999.2500    -999.2500      41.6050      38.9200     236.6920       0.0404       3.3520       0.0040       2.5510      -2.4380       0.6020       0.6830
   3274.1616       8.2715       9.3553       0.0590      57.9991      15.2273    -999.2500    -999.2500      41.2839      38.9970     129.4394       0.0428       3.6321       0.0040       2.5280      -0.3746       1.1551       0.7675
   3274.3142       8.3040      10.5920       0.0750      58.6300      16.5650    -999.2500    -999.2500      40.9630      39.0740      21.8890       0.0457       3.9130       0.0040       2.5050       1.6880       1.7080       0.8520
   3274.4666       8.4015      10.0694       0.0690      58.5240      15.7844    -999.2500    -999.2500      42.1597      39.5166      25.9756       0.0494       4.3064       0.0035       2.5255       1.4070       2.5686       0.8350
   3274.6189       8.4990       9.5470       0.0630      58.4180      15.0040    -999.2500    -999.2500      43.3560      39.9590      30.0740       0.0533       4.7010       0.0030       2.5460       1.1260       3.4290       0.8180
   3274.7712       8.4965      11.4307       0.0300      59.3726      17.2462    -999.2500    -999.2500      45.4142      41.3071      29.9906       0.0567       4.9603       0.0030       2.5660       0.8260       3.4285       0.7490
