#------------------------------------------------------------------------------
#
#   Created by  : [OpenWorks] Log Export Utility (LEXP)
#   Created on  : 2016-05-19 09:39:42
#   Project     : CANT971
#   User        : R5K
#   Interpreter : PEP
#
#------------------------------------------------------------------------------
~VERSION INFORMATION
VERS. 2.0 : CWLS Log ASCII Standard - version 2.0
WRAP.  NO : One line per depth step
~WELL INFORMATION
#MNEMONIC   .UNIT                                           VALUE :DESCRIPTION
#------------------------------------------------------------------------------
STRT        .M                                          1520.0377 :START DEPTH
STOP        .M                                          3502.9141 :STOP DEPTH
STEP        .M                                             0.1524 :STEP
NULL        .                                           -999.2500 :NULL VALUE
COMP        .                                   PEMEX EXPL & PROD :COMPANY
WELL        .                                               2098H :WELL
FLD         .                                           CANTARELL :FIELD
LOC         .                                             UNKNOWN :LOCATION
CNTY        .                                      CD. DEL CARMEN :COUNTY
STAT        .                                            CAMPECHE :STATE
CTRY        .                                              MEXICO :COUNTRY
SRVC        .                                             UNKNOWN :SERVICE COMPANY
DATE        .                                             UNKNOWN :LOG DATE
UWI         .                                          3060000609 :UNIQUE WELL ID
XCOORD      .                                       597710.950000 :SURFACE X
YCOORD      .                                      2140955.330000 :SURFACE Y
LAT         .                                           19.361435 :LATITUDE
LON         .                                          -92.069648 :LONGITUDE
ELEV        .M                                            23.0000 :SURFACE ELEV
ELEV_TYPE   .                                                  KB :ELEV TYPE
~CURVE INFORMATION
#MNEMONIC.UNIT        API CODE       : CURVE DESCRIPTION
#------------------------------------------------------------------------------
DEPTH    .M                          : Measured Depth
CALI     .inches      UNKNOWN        : CALI:Import:rC:NONE:v0 (auto-composite)
CGR      .API         UNKNOWN        : CGR:Import:rC:NONE:v0 (auto-composite)
DRHO     .g/cm3       UNKNOWN        : DRHO:Import:rC:NONE:v0 (auto-composite)
DT       .us/ft       UNKNOWN        : DT:Import:rC:NONE:v0 (auto-composite)
GR       .API         UNKNOWN        : GR:Import:rC:NONE:v0 (auto-composite)
ILD      .ohm.m       UNKNOWN        : ILD:Import:rC:NONE:v0 (auto-composite)
ILM      .ohm.m       UNKNOWN        : ILM:Import:rC:NONE:v0 (auto-composite)
LLD      .ohm.m       UNKNOWN        : LLD:Import:rC:NONE:v0 (auto-composite)
LLS      .ohm.m       UNKNOWN        : LLS:Import:rC:NONE:v0 (auto-composite)
MSFL     .ohm.m       UNKNOWN        : MSFL:Import:rC:NONE:v0 (auto-composite)
NPHI     .v/v_decimal UNKNOWN        : NPHI:Import:rC:NONE:v0 (auto-composite)
PEF      .b/elec      UNKNOWN        : PEF:Import:rC:NONE:v0 (auto-composite)
POTA     .wtpercent   UNKNOWN        : POTA:Import:rC:NONE:v0 (auto-composite)
RHOB     .g/cm3       UNKNOWN        : RHOB:Import:rC:NONE:v0 (auto-composite)
SP       .mV          UNKNOWN        : SP:Import:rC:NONE:v0 (auto-composite)
THOR     .ppm         UNKNOWN        : THOR:Import:rC:NONE:v0 (auto-composite)
URAN     .ppm         UNKNOWN        : URAN:Import:rC:NONE:v0 (auto-composite)
~A     DEPTH         CALI          CGR         DRHO           DT           GR          ILD          ILM          LLD          LLS         MSFL         NPHI          PEF         POTA         RHOB           SP         THOR         URAN
# ...
   3333.5977       8.9905       8.7530      -0.0035      50.8435      17.2510    -999.2500    -999.2500      79.8051      88.0836     185.7854       0.0144       5.3747       0.0045       2.6175       0.6935       1.4490       0.1850
   3333.7500       8.9550      10.7800      -0.0050      51.5190      18.5180    -999.2500    -999.2500      71.6500      84.0300     134.5010       0.0148       5.1200       0.0040       2.6060       3.3120       2.1250      -0.3180
   3333.9026       8.9195      10.4345      -0.0080      53.2759      18.3835    -999.2500    -999.2500      73.9733      78.1935     138.4071       0.0158       5.2754       0.0030       2.5895       2.3951       1.3491       0.0510
   3334.0549       8.8840      10.0890      -0.0110      55.0330      18.2490    -999.2500    -999.2500      76.2970      72.3560     142.3200       0.0177       5.4310       0.0020       2.5730       1.4780       0.5730       0.4200
   3334.2073       8.8705       8.0908      -0.0130      56.8053      15.8263    -999.2500    -999.2500      65.9440      68.7150     169.5069       0.0204       5.8251       0.0025       2.5770      -2.8544       0.5855       0.7115
   3334.3596       8.8570       6.0920      -0.0150      58.5780      13.4030    -999.2500    -999.2500      55.5880      65.0730     196.7450       0.0245       6.2200       0.0030       2.5810      -7.1880       0.5980       1.0030
   3334.5122       8.8635       6.2100      -0.0125      60.4386      13.8724    -999.2500    -999.2500      64.2992      61.7097     139.7583       0.0302       6.1671       0.0030       2.5900      -2.7509       0.6470       1.0880
   3334.6646       8.8700       6.3280      -0.0100      62.3000      14.3420    -999.2500    -999.2500      73.0140      58.3450      82.6570       0.0333       6.1140       0.0030       2.5990       1.6880       0.6960       1.1730
   3334.8169       8.8610       6.8469      -0.0055      61.0303      15.5417    -999.2500    -999.2500      71.5519      66.5643      85.5614       0.0316       5.8048       0.0030       2.5935       0.0944       0.8125       1.2800
   3334.9692       8.8520       7.3660      -0.0010      59.7600      16.7420    -999.2500    -999.2500      70.0890      74.7880      88.4720       0.0292       5.4950       0.0030       2.5880      -1.5000       0.9290       1.3870
   3335.1218       8.7930       8.1937       0.0030      61.5369      18.4264    -999.2500    -999.2500      66.5617      72.9461     101.2960       0.0294       5.2648       0.0025       2.5835      -1.2371       0.8370       1.3195
   3335.2742       8.7340       9.0220       0.0070      63.3150      20.1120    -999.2500    -999.2500      63.0320      71.1030     114.1490       0.0309       5.0340       0.0020       2.5790      -0.9740       0.7450       1.2520
   3335.4265       8.6525       7.5179       0.0020      62.4368      18.0672    -999.2500    -999.2500      65.9644      67.1840     124.1805       0.0325       4.8932       0.0020       2.5835      -0.4987       0.9536       1.3315
   3335.5789       8.5710       6.0150      -0.0030      61.5580      16.0240    -999.2500    -999.2500      68.8990      63.2620     134.2360       0.0335       4.7520       0.0020       2.5880      -0.0230       1.1620       1.4110
   3335.7312       8.5810       6.6297      -0.0030      60.8008      17.2729    -999.2500    -999.2500      76.9273      66.2277     138.9631       0.0335       5.5280       0.0025       2.5960       0.2509       1.0465       1.4045
   3335.8838       8.5910       7.2440      -0.0030      60.0430      18.5210    -999.2500    -999.2500      84.9630      69.1960     143.7020       0.0328       6.3060       0.0030       2.6040       0.5250       0.9310       1.3980
   3336.0361       8.6045       7.2120      -0.0045      58.3534      18.4395    -999.2500    -999.2500      92.2661      76.2420     157.7669       0.0317       6.0154       0.0025       2.5990       0.7314       0.6779       1.3825
   3336.1885       8.6180       7.1800      -0.0060      56.6620      18.3580    -999.2500    -999.2500      99.5650      83.2840     171.8690       0.0303       5.7240       0.0020       2.5940       0.9380       0.4250       1.3670
   3336.3408       8.6040       6.0122      -0.0060      58.1716      17.0637    -999.2500    -999.2500      99.3995      87.6910     185.3284       0.0285       5.7470       0.0020       2.5960      -1.1858       0.5575       1.4595
   3336.4934       8.5900       4.8450      -0.0060      59.6830      15.7700    -999.2500    -999.2500      99.2340      92.0960     198.8250       0.0267       5.7700       0.0020       2.5980      -3.3120       0.6900       1.5520
   3336.6458       8.5735       5.3201      -0.0050      59.6635      16.9852    -999.2500    -999.2500      94.3367      92.8641     215.7610       0.0252       5.7056       0.0015       2.6010      -0.5931       0.6610       1.4980
   3336.7981       8.5570       5.7950      -0.0040      59.6440      18.2000    -999.2500    -999.2500      89.4410      93.6320     232.7460       0.0239       5.6410       0.0010       2.6040       2.1250       0.6320       1.4440
   3336.9504       8.5395       4.9689      -0.0065      58.6702      16.9429    -999.2500    -999.2500      81.7653      88.5840     213.8181       0.0228       5.8776       0.0015       2.6085       0.9064       0.7195       1.5315
   3337.1030       8.5220       4.1430      -0.0090      57.6950      15.6860    -999.2500    -999.2500      74.0910      83.5370     194.8330       0.0220       6.1150       0.0020       2.6130      -0.3120       0.8070       1.6190
   3337.2554       8.4965       4.9915      -0.0115      56.7920      16.9000    -999.2500    -999.2500      68.5958      76.1878     180.3857       0.0219       6.0476       0.0020       2.6120      -0.1800       0.7440       1.6985
   3337.4077       8.4710       5.8400      -0.0140      55.8890      18.1140    -999.2500    -999.2500      63.1010      68.8390     165.8930       0.0225       5.9800       0.0020       2.6110      -0.0480       0.6810       1.7780
   3337.5601       8.4735       5.6965      -0.0170      55.3990      18.9605    -999.2500    -999.2500      63.6880      61.7967     132.1496       0.0241       5.6158       0.0020       2.6005       0.1515       0.3065       1.8375
   3337.7124       8.4760       5.5530      -0.0200      54.9090      19.8070    -999.2500    -999.2500      64.2750      54.7540      98.3500       0.0254       5.2510       0.0020       2.5900       0.3510      -0.0680       1.8970
   3337.8650       8.5110       3.8687      -0.0180      54.3571      18.8151    -999.2500    -999.2500      69.1620      55.4409      82.7265       0.0258       5.7321       0.0025       2.5960       1.3629       0.0410       2.0300
   3338.0173       8.5460       2.1840      -0.0160      53.8050      17.8230    -999.2500    -999.2500      74.0500      56.1280      67.0750       0.0254       6.2140       0.0030       2.6020       2.3750       0.1500       2.1630
   3338.1697       8.5435       4.3187      -0.0120      53.5085      20.7810    -999.2500    -999.2500      69.0703      61.0412      67.1274       0.0248       6.0801       0.0030       2.6080       2.1475       0.2385       2.1460
   3338.3220       8.5410       6.4540      -0.0080      53.2120      23.7400    -999.2500    -999.2500      64.0890      65.9560      67.1800       0.0237       5.9460       0.0030       2.6140       1.9200       0.3270       2.1290
   3338.4746       8.5105       6.1201      -0.0050      53.4020      23.2716    -999.2500    -999.2500      57.8669      62.1433      87.4283       0.0223       5.6748       0.0035       2.6215       0.2104       0.6114       2.3754
   3338.6270       8.4800       5.7860      -0.0020      53.5920      22.8030    -999.2500    -999.2500      51.6420      58.3290     107.7180       0.0216       5.4030       0.0040       2.6290      -1.5000       0.8960       2.6220
   3338.7793       8.5040       7.7904      -0.0000      53.1126      26.7806    -999.2500    -999.2500      49.4406      52.9165      98.2393       0.0224       5.1403       0.0035       2.6355      -0.2504       0.7071       2.5045
