#------------------------------------------------------------------------------
#
#   Created by  : [OpenWorks] Log Export Utility (LEXP)
#   Created on  : 2016-05-19 09:39:42
#   Project     : CANT971
#   User        : R5K
#   Interpreter : PEP
#
#------------------------------------------------------------------------------
~VERSION INFORMATION
VERS. 2.0 : CWLS Log ASCII Standard - version 2.0
WRAP.  NO : One line per depth step
~WELL INFORMATION
#MNEMONIC   .UNIT                                           VALUE :DESCRIPTION
#------------------------------------------------------------------------------
STRT        .M                                          1520.0377 :START DEPTH
STOP        .M                                          3502.9141 :STOP DEPTH
STEP        .M                                             0.1524 :STEP
NULL        .                                           -999.2500 :NULL VALUE
COMP        .                                   PEMEX EXPL & PROD :COMPANY
WELL        .                                               2098H :WELL
FLD         .                                           CANTARELL :FIELD
LOC         .                                             UNKNOWN :LOCATION
CNTY        .                                      CD. DEL CARMEN :COUNTY
STAT        .                                            CAMPECHE :STATE
CTRY        .                                              MEXICO :COUNTRY
SRVC        .                                             UNKNOWN :SERVICE COMPANY
DATE        .                                             UNKNOWN :LOG DATE
UWI         .                                          3060000609 :UNIQUE WELL ID
XCOORD      .                                       597710.950000 :SURFACE X
YCOORD      .                                      2140955.330000 :SURFACE Y
LAT         .                                           19.361435 :LATITUDE
LON         .                                          -92.069648 :LONGITUDE
ELEV        .M                                            23.0000 :SURFACE ELEV
ELEV_TYPE   .                                                  KB :ELEV TYPE
~CURVE INFORMATION
#MNEMONIC.UNIT        API CODE       : CURVE DESCRIPTION
#------------------------------------------------------------------------------
DEPTH    .M                          : Measured Depth
CALI     .inches      UNKNOWN        : CALI:Import:rC:NONE:v0 (auto-composite)
CGR      .API         UNKNOWN        : CGR:Import:rC:NONE:v0 (auto-composite)
DRHO     .g/cm3       UNKNOWN        : DRHO:Import:rC:NONE:v0 (auto-composite)
DT       .us/ft       UNKNOWN        : DT:Import:rC:NONE:v0 (auto-composite)
GR       .API         UNKNOWN        : GR:Import:rC:NONE:v0 (auto-composite)
ILD      .ohm.m       UNKNOWN        : ILD:Import:rC:NONE:v0 (auto-composite)
ILM      .ohm.m       UNKNOWN        : ILM:Import:rC:NONE:v0 (auto-composite)
LLD      .ohm.m       UNKNOWN        : LLD:Import:rC:NONE:v0 (auto-composite)
LLS      .ohm.m       UNKNOWN        : LLS:Import:rC:NONE:v0 (auto-composite)
MSFL     .ohm.m       UNKNOWN        : MSFL:Import:rC:NONE:v0 (auto-composite)
NPHI     .v/v_decimal UNKNOWN        : NPHI:Import:rC:NONE:v0 (auto-composite)
PEF      .b/elec      UNKNOWN        : PEF:Import:rC:NONE:v0 (auto-composite)
POTA     .wtpercent   UNKNOWN        : POTA:Import:rC:NONE:v0 (auto-composite)
RHOB     .g/cm3       UNKNOWN        : RHOB:Import:rC:NONE:v0 (auto-composite)
SP       .mV          UNKNOWN        : SP:Import:rC:NONE:v0 (auto-composite)
THOR     .ppm         UNKNOWN        : THOR:Import:rC:NONE:v0 (auto-composite)
URAN     .ppm         UNKNOWN        : URAN:Import:rC:NONE:v0 (auto-composite)
~A     DEPTH         CALI          CGR         DRHO           DT           GR          ILD          ILM          LLD          LLS         MSFL         NPHI          PEF         POTA         RHOB           SP         THOR         URAN
# ...
   3466.9478       8.2760       1.1410       0.0220    -999.2500      23.5860    -999.2500    -999.2500     107.5210      94.2460     135.5860       0.0318       4.3410       0.0010       2.5850    -999.2500      -0.1430       2.9650
   3467.1001       8.2015       1.4029       0.0195    -999.2500      23.8349    -999.2500    -999.2500     109.9918      96.1015     156.4061       0.0312       4.0985       0.0010       2.5780    -999.2500      -0.0315       2.9410
   3467.2524       8.1270       1.6650       0.0170    -999.2500      24.0840    -999.2500    -999.2500     112.4640      97.9580     177.3050       0.0302       3.8550       0.0010       2.5710    -999.2500       0.0800       2.9170
   3467.4050       8.1555       2.1188       0.0145    -999.2500      24.4244    -999.2500    -999.2500     114.4498      97.6356     175.6976       0.0291       3.8026       0.0010       2.5655    -999.2500       0.1455       2.9070
   3467.5574       8.1840       2.5730       0.0120    -999.2500      24.7650    -999.2500    -999.2500     116.4370      97.3130     174.0840       0.0281       3.7500       0.0010       2.5600    -999.2500       0.2110       2.8970
   3467.7097       8.1715       1.5559       0.0130    -999.2500      23.5265    -999.2500    -999.2500     121.6893      99.0173     159.2835       0.0275       3.6861       0.0005       2.5440    -999.2500       0.1390       2.8635
   3467.8621       8.1590       0.5380       0.0140    -999.2500      22.2870    -999.2500    -999.2500     126.9460     100.7230     144.4470       0.0273       3.6220       0.0000       2.5280    -999.2500       0.0670       2.8300
   3468.0144       8.1470       0.8993       0.0205    -999.2500      22.8113    -999.2500    -999.2500     126.4747      99.1817     127.1206       0.0276       4.0754       0.0005       2.5445    -999.2500       0.0015       2.8440
   3468.1670       8.1350       1.2610       0.0270    -999.2500      23.3360    -999.2500    -999.2500     126.0030      97.6390     109.7500       0.0282       4.5300       0.0010       2.5610    -999.2500      -0.0640       2.8580
   3468.3193       8.1905       1.0169       0.0230    -999.2500      23.2995    -999.2500    -999.2500     124.4261      95.8330     128.9702       0.0289       5.0813       0.0010       2.5580    -999.2500      -0.1325       2.8920
   3468.4717       8.2460       0.7730       0.0190    -999.2500      23.2630    -999.2500    -999.2500     122.8500      94.0280     148.2420       0.0294       5.6340       0.0010       2.5550    -999.2500      -0.2010       2.9260
   3468.6240       8.2040       0.2514       0.0135    -999.2500      23.1585    -999.2500    -999.2500     121.8203      94.4791     146.8624       0.0293       5.5227       0.0010       2.5600    -999.2500      -0.3215       2.9845
   3468.7766       8.1620      -0.2700       0.0080    -999.2500      23.0540    -999.2500    -999.2500     120.7910      94.9300     145.4790       0.0295       5.4110       0.0010       2.5650    -999.2500      -0.4420       3.0430
   3468.9290       8.1790      -0.7651       0.0080    -999.2500      23.5271    -999.2500    -999.2500     121.2206      95.9681     156.7969       0.0309       5.4430       0.0010       2.5795    -999.2500      -0.5450       3.1650
   3469.0813       8.1960      -1.2600       0.0080    -999.2500      24.0000    -999.2500    -999.2500     121.6500      97.0060     168.1480       0.0323       5.4750       0.0010       2.5940    -999.2500      -0.6480       3.2870
   3469.2336       8.2455      -2.3421       0.0060    -999.2500      24.4355    -999.2500    -999.2500     122.0665      97.7886     146.6828       0.0325       5.1770       0.0010       2.6020    -999.2500      -0.8925       3.4845
   3469.3862       8.2950      -3.4240       0.0040    -999.2500      24.8710    -999.2500    -999.2500     122.4830      98.5710     125.1520       0.0319       4.8780       0.0010       2.6100    -999.2500      -1.1370       3.6820
   3469.5386       8.2915      -0.8820       0.0055    -999.2500      24.3760    -999.2500    -999.2500     122.1590      97.6520      85.8781       0.0309       5.1775       0.0020       2.6095    -999.2500      -0.8825       3.3090
   3469.6909       8.2880       1.6600       0.0070    -999.2500      23.8810    -999.2500    -999.2500     121.8350      96.7330      46.4790       0.0298       5.4780       0.0030       2.6090    -999.2500      -0.6280       2.9360
   3469.8433       8.2585       3.4819       0.0080    -999.2500      24.2115    -999.2500    -999.2500     122.7645      94.1116      54.0520       0.0289       5.7401       0.0035       2.5950    -999.2500      -0.4445       2.7105
   3469.9956       8.2290       5.3040       0.0090    -999.2500      24.5420    -999.2500    -999.2500     123.6940      91.4900      61.6500       0.0291       6.0030       0.0040       2.5810    -999.2500      -0.2610       2.4850
   3470.1482       8.2320       6.0439       0.0110    -999.2500      25.2239    -999.2500    -999.2500     123.5180      89.2253      77.7543       0.0312       5.7744       0.0045       2.5840    -999.2500      -0.2010       2.4865
   3470.3005       8.2350       6.7840       0.0130    -999.2500      25.9060    -999.2500    -999.2500     123.3420      86.9600      93.9140       0.0333       5.5450       0.0050       2.5870    -999.2500      -0.1410       2.4880
   3470.4529       8.2610       6.6220       0.0120    -999.2500      25.5901    -999.2500    -999.2500     123.8394      85.9757     101.1606       0.0334       5.6478       0.0050       2.5885    -999.2500      -0.1645       2.4680
   3470.6052       8.2870       6.4600       0.0110    -999.2500      25.2740    -999.2500    -999.2500     124.3370      84.9910     108.4330       0.0326       5.7510       0.0050       2.5900    -999.2500      -0.1880       2.4480
   3470.7578       8.2640       6.5255       0.0100    -999.2500      25.8119    -999.2500    -999.2500     126.6604      87.9088     145.2830       0.0316       5.6657       0.0045       2.5885    -999.2500      -0.0135       2.5095
   3470.9102       8.2410       6.5910       0.0090    -999.2500      26.3500    -999.2500    -999.2500     128.9850      90.8280     182.2690       0.0301       5.5800       0.0040       2.5870    -999.2500       0.1610       2.5710
   3471.0625       8.2195       6.6820       0.0070    -999.2500      26.8034    -999.2500    -999.2500     125.5170      88.9411     178.5561       0.0276       5.6264       0.0040       2.5875    -999.2500       0.1380       2.6130
   3471.2148       8.1980       6.7730       0.0050    -999.2500      27.2570    -999.2500    -999.2500     122.0470      87.0530     174.8290       0.0255       5.6730       0.0040       2.5880    -999.2500       0.1150       2.6550
   3471.3674       8.3095       6.0403       0.0055    -999.2500      26.9156    -999.2500    -999.2500     108.7569      78.3332     150.7345       0.0256       5.6695       0.0035       2.5940    -999.2500       0.0545       2.7110
   3471.5198       8.4210       5.3070       0.0060    -999.2500      26.5740    -999.2500    -999.2500      95.4570      69.6070     126.5450       0.0265       5.6660       0.0030       2.6000    -999.2500      -0.0060       2.7670
   3471.6721       8.3790       4.6383       0.0075    -999.2500      26.1117    -999.2500    -999.2500      82.2112      60.2770     186.9821       0.0266       5.6196       0.0030       2.6055    -999.2500      -0.1155       2.7940
   3471.8245       8.3370       3.9690       0.0090    -999.2500      25.6490    -999.2500    -999.2500      68.9540      50.9390     247.5680       0.0263       5.5730       0.0030       2.6110    -999.2500      -0.2250       2.8210
   3471.9768       8.2905       3.3373       0.0050    -999.2500      25.3337    -999.2500    -999.2500      71.0935      52.2953     229.8509       0.0259       5.6139       0.0025       2.6165    -999.2500      -0.2115       2.8510
   3472.1294       8.2440       2.7050       0.0010    -999.2500      25.0180    -999.2500    -999.2500      73.2350      53.6530     212.0880       0.0252       5.6550       0.0020       2.6220    -999.2500      -0.1980       2.8810
