#------------------------------------------------------------------------------
#
#   Created by  : [OpenWorks] Log Export Utility (LEXP)
#   Created on  : 2016-05-19 09:39:42
#   Project     : CANT971
#   User        : R5K
#   Interpreter : PEP
#
#------------------------------------------------------------------------------
~VERSION INFORMATION
VERS. 2.0 : CWLS Log ASCII Standard - version 2.0
WRAP.  NO : One line per depth step
~WELL INFORMATION
#MNEMONIC   .UNIT                                           VALUE :DESCRIPTION
#------------------------------------------------------------------------------
STRT        .M                                          1520.0377 :START DEPTH
STOP        .M                                          3502.9141 :STOP DEPTH
STEP        .M                                             0.1524 :STEP
NULL        .                                           -999.2500 :NULL VALUE
COMP        .                                   PEMEX EXPL & PROD :COMPANY
WELL        .                                               2098H :WELL
FLD         .                                           CANTARELL :FIELD
LOC         .                                             UNKNOWN :LOCATION
CNTY        .                                      CD. DEL CARMEN :COUNTY
STAT        .                                            CAMPECHE :STATE
CTRY        .                                              MEXICO :COUNTRY
SRVC        .                                             UNKNOWN :SERVICE COMPANY
DATE        .                                             UNKNOWN :LOG DATE
UWI         .                                          3060000609 :UNIQUE WELL ID
XCOORD      .                                       597710.950000 :SURFACE X
YCOORD      .                                      2140955.330000 :SURFACE Y
LAT         .                                           19.361435 :LATITUDE
LON         .                                          -92.069648 :LONGITUDE
ELEV        .M                                            23.0000 :SURFACE ELEV
ELEV_TYPE   .                                                  KB :ELEV TYPE
~CURVE INFORMATION
#MNEMONIC.UNIT        API CODE       : CURVE DESCRIPTION
#------------------------------------------------------------------------------
DEPTH    .M                          : Measured Depth
CALI     .inches      UNKNOWN        : CALI:Import:rC:NONE:v0 (auto-composite)
CGR      .API         UNKNOWN        : CGR:Import:rC:NONE:v0 (auto-composite)
DRHO     .g/cm3       UNKNOWN        : DRHO:Import:rC:NONE:v0 (auto-composite)
DT       .us/ft       UNKNOWN        : DT:Import:rC:NONE:v0 (auto-composite)
GR       .API         UNKNOWN        : GR:Import:rC:NONE:v0 (auto-composite)
ILD      .ohm.m       UNKNOWN        : ILD:Import:rC:NONE:v0 (auto-composite)
ILM      .ohm.m       UNKNOWN        : ILM:Import:rC:NONE:v0 (auto-composite)
LLD      .ohm.m       UNKNOWN        : LLD:Import:rC:NONE:v0 (auto-composite)
LLS      .ohm.m       UNKNOWN        : LLS:Import:rC:NONE:v0 (auto-composite)
MSFL     .ohm.m       UNKNOWN        : MSFL:Import:rC:NONE:v0 (auto-composite)
NPHI     .v/v_decimal UNKNOWN        : NPHI:Import:rC:NONE:v0 (auto-composite)
PEF      .b/elec      UNKNOWN        : PEF:Import:rC:NONE:v0 (auto-composite)
POTA     .wtpercent   UNKNOWN        : POTA:Import:rC:NONE:v0 (auto-composite)
RHOB     .g/cm3       UNKNOWN        : RHOB:Import:rC:NONE:v0 (auto-composite)
SP       .mV          UNKNOWN        : SP:Import:rC:NONE:v0 (auto-composite)
THOR     .ppm         UNKNOWN        : THOR:Import:rC:NONE:v0 (auto-composite)
URAN     .ppm         UNKNOWN        : URAN:Import:rC:NONE:v0 (auto-composite)
~A     DEPTH         CALI          CGR         DRHO           DT           GR          ILD          ILM          LLD          LLS         MSFL         NPHI          PEF         POTA         RHOB           SP         THOR         URAN
# ...
   3301.5938       8.4080       6.8074      -0.0100      53.9004      13.4734    -999.2500    -999.2500      52.6058      51.1983     135.5166       0.0211       5.6353       0.0030       2.6175      -5.6862       0.2715       0.9305
   3301.7461       8.3730       6.4610      -0.0060      54.0650       9.9150    -999.2500    -999.2500      54.3540      53.0880     137.1600       0.0209       5.3930       0.0030       2.6240      -3.9350       0.4530       1.1070
   3301.8984       8.3450       5.5999      -0.0070      53.7672      10.6916    -999.2500    -999.2500      57.6469      56.7704     186.9151       0.0212       4.9077       0.0030       2.6150      -0.7482       0.2560       1.2150
   3302.0510       8.3170       4.7390      -0.0080      53.4690      11.4680    -999.2500    -999.2500      60.9390      60.4520     236.8190       0.0220       4.4210       0.0030       2.6060       2.4380       0.0590       1.3230
   3302.2034       8.2930       5.6695      -0.0095      55.0606      13.0536    -999.2500    -999.2500      57.6444      59.1139     177.6608       0.0233       3.8873       0.0035       2.5935       1.9990       0.1025       1.3970
   3302.3557       8.2690       6.6000      -0.0110      56.6520      14.6390    -999.2500    -999.2500      54.3500      57.7760     118.3180       0.0241       3.3520       0.0040       2.5810       1.5600       0.1460       1.4710
   3302.5081       8.2765       6.1120      -0.0095      56.6165      15.6320    -999.2500    -999.2500      54.4030      55.8625     220.2314       0.0238       3.3775       0.0045       2.5755      -0.4700       0.4165       1.5900
   3302.6604       8.2840       5.6240      -0.0080      56.5810      16.6250    -999.2500    -999.2500      54.4560      53.9490     322.3120       0.0233       3.4030       0.0050       2.5700      -2.5000       0.6870       1.7090
   3302.8130       8.2950       5.9355      -0.0030      57.3119      17.3139    -999.2500    -999.2500      54.0595      52.9971     231.0825       0.0234       3.7812       0.0045       2.5605      -2.0605       0.5630       1.5745
   3302.9653       8.3060       6.2470       0.0020      58.0430      18.0030    -999.2500    -999.2500      53.6630      52.0450     139.6920       0.0241       4.1600       0.0040       2.5510      -1.6210       0.4390       1.4400
   3303.1177       8.3235       8.0782       0.0055      57.4516      20.7866    -999.2500    -999.2500      53.0411      51.5771      81.9356       0.0254       4.5207       0.0045       2.5590       1.0016       0.2230       1.4970
   3303.2700       8.3410       9.9100       0.0090      56.8600      23.5710    -999.2500    -999.2500      52.4190      51.1090      24.0700       0.0272       4.8820       0.0050       2.5670       3.6250       0.0070       1.5540
   3303.4226       8.3560       8.2878       0.0095      57.3744      20.8721    -999.2500    -999.2500      54.5925      53.2131      25.2773       0.0292       5.0249       0.0040       2.5870       2.8512       0.0540       1.6210
   3303.5750       8.3710       6.6650       0.0100      57.8890      18.1720    -999.2500    -999.2500      56.7670      55.3180      26.4870       0.0310       5.1680       0.0030       2.6070       2.0770       0.1010       1.6880
   3303.7273       8.3760       7.2733       0.0085      57.6656      19.5903    -999.2500    -999.2500      59.3503      57.3070      30.5362       0.0323       5.4122       0.0020       2.6050       0.9138      -0.0310       1.6570
   3303.8796       8.3810       7.8820       0.0070      57.4420      21.0070    -999.2500    -999.2500      61.9350      59.2970      34.5940       0.0336       5.6570       0.0010       2.6030      -0.2500      -0.1630       1.6260
   3304.0322       8.3855       6.5275       0.0055      56.9697      19.7549    -999.2500    -999.2500      63.2646      60.0577      48.2705       0.0353       5.4258       0.0015       2.5995      -0.0941       0.0074       1.7030
   3304.1846       8.3900       5.1720       0.0040      56.4970      18.5040    -999.2500    -999.2500      64.5950      60.8190      61.9780       0.0372       5.1940       0.0020       2.5960       0.0620       0.1780       1.7800
   3304.3369       8.3940       3.2912       0.0030      57.1667      16.4567    -999.2500    -999.2500      65.7016      63.5159      56.4791       0.0389       5.2489       0.0025       2.5975      -0.8127      -0.0206       1.6795
   3304.4893       8.3980       1.4120       0.0020      57.8370      14.4110    -999.2500    -999.2500      66.8090      66.2150      50.9670       0.0399       5.3040       0.0030       2.5990      -1.6880      -0.2190       1.5790
   3304.6416       8.4240       3.3222       0.0010      58.4912      16.9354    -999.2500    -999.2500      67.2343      66.0771      51.4124       0.0399       5.1762       0.0025       2.5980       0.7799      -0.0815       1.3444
   3304.7942       8.4500       5.2310       0.0000      59.1460      19.4580    -999.2500    -999.2500      67.6600      65.9390      51.8590       0.0393       5.0480       0.0020       2.5970       3.2500       0.0560       1.1100
   3304.9465       8.4460       4.4253      -0.0015      59.3149      18.1991    -999.2500    -999.2500      67.2114      64.1625      55.5861       0.0383       5.3511       0.0025       2.6025       3.0735       0.2641       1.1220
   3305.0989       8.4420       3.6200      -0.0030      59.4840      16.9410    -999.2500    -999.2500      66.7630      62.3870      59.3230       0.0370       5.6550       0.0030       2.6080       2.8970       0.4720       1.1340
   3305.2512       8.4515       3.6355      -0.0020      58.8109      14.7420    -999.2500    -999.2500      65.3087      62.7356      64.4779       0.0355       5.5891       0.0030       2.6045       0.7920       0.5545       1.1465
   3305.4038       8.4610       3.6510      -0.0010      58.1370      12.5440    -999.2500    -999.2500      63.8550      63.0840      69.6470       0.0348       5.5230       0.0030       2.6010      -1.3120       0.6370       1.1590
   3305.5562       8.4740       5.7298      -0.0015      58.1370      14.7863    -999.2500    -999.2500      64.0645      64.9253      76.2824       0.0352       5.3842       0.0020       2.6050      -0.1823       0.5990       1.1995
   3305.7085       8.4870       7.8080      -0.0020      58.1370      17.0280    -999.2500    -999.2500      64.2740      66.7660      82.9370       0.0356       5.2450       0.0010       2.6090       0.9470       0.5610       1.2400
   3305.8608       8.5090       7.6360      -0.0015      57.6274      16.8775    -999.2500    -999.2500      65.5906      65.0648      82.4223       0.0355       5.1511       0.0020       2.6085       2.7237       0.5845       1.2835
   3306.0134       8.5310       7.4640      -0.0010      57.1170      16.7270    -999.2500    -999.2500      66.9070      63.3640      81.9060       0.0352       5.0570       0.0030       2.6080       4.5000       0.6080       1.3270
   3306.1658       8.5465       5.7274      -0.0005      57.7830      15.5500    -999.2500    -999.2500      65.5670      60.6899      78.4939       0.0354       5.1059       0.0035       2.6025       0.4999       0.6330       1.3260
   3306.3181       8.5620       3.9910       0.0000      58.4490      14.3730    -999.2500    -999.2500      64.2270      58.0160      75.0710       0.0361       5.1550       0.0040       2.5970      -3.5000       0.6580       1.3250
   3306.4705       8.5895       6.8174       0.0020      57.3205      17.3129    -999.2500    -999.2500      62.2091      58.2940      90.8898       0.0373       5.2194       0.0030       2.5875      -1.8441       0.5690       1.2955
   3306.6228       8.6170       9.6440       0.0040      56.1920      20.2530    -999.2500    -999.2500      60.1910      58.5720     106.7350       0.0390       5.2840       0.0020       2.5780      -0.1880       0.4800       1.2660
   3306.7754       8.6580       9.3615       0.0035      56.7709      19.9615    -999.2500    -999.2500      59.3956      57.5081     100.1849       0.0408       5.3869       0.0025       2.5695      -0.4715       0.4895       1.2930
