#------------------------------------------------------------------------------
#
#   Created by  : [OpenWorks] Log Export Utility (LEXP)
#   Created on  : 2016-05-19 09:41:09
#   Project     : CANT971
#   User        : R5K
#   Interpreter : PEP
#
#------------------------------------------------------------------------------
~VERSION INFORMATION
VERS. 2.0 : CWLS Log ASCII Standard - version 2.0
WRAP.  NO : One line per depth step
~WELL INFORMATION
#MNEMONIC   .UNIT                                           VALUE :DESCRIPTION
#------------------------------------------------------------------------------
STRT        .M                                          1033.8815 :START DEPTH
STOP        .M                                          2740.3042 :STOP DEPTH
STEP        .M                                             0.1524 :STEP
NULL        .                                           -999.2500 :NULL VALUE
COMP        .                                             UNKNOWN :COMPANY
WELL        .                                            2275A-ST :WELL
FLD         .                                             UNKNOWN :FIELD
LOC         .                                             UNKNOWN :LOCATION
CNTY        .                                             UNKNOWN :COUNTY
STAT        .                                             UNKNOWN :STATE
CTRY        .                                             UNKNOWN :COUNTRY
SRVC        .                                             UNKNOWN :SERVICE COMPANY
DATE        .                                             UNKNOWN :LOG DATE
UWI         .                                            2275A-ST :UNIQUE WELL ID
XCOORD      .                                            0.000000 :SURFACE X
YCOORD      .                                            0.000000 :SURFACE Y
LAT         .                                            0.000000 :LATITUDE
LON         .                                            0.000000 :LONGITUDE
ELEV        .M                                             0.0000 :SURFACE ELEV
ELEV_TYPE   .                                                  KB :ELEV TYPE
~CURVE INFORMATION
#MNEMONIC.UNIT        API CODE       : CURVE DESCRIPTION
#------------------------------------------------------------------------------
DEPTH    .M                          : Measured Depth
DT       .us/ft       UNKNOWN        : DT:Sonico:rC:NONE:v0 (auto-composite)
GR       .API         UNKNOWN        : GR:Sonico:rC:NONE:v0 (auto-composite)
GR-LWD   .API         UNKNOWN        : GR-LWD:resistivos-LWD:rC:NONE:v0 (auto-composite)
ILD-LWD  .ohm.m       UNKNOWN        : ILD-LWD:resistivos-LWD:rC:NONE:v0 (auto-composite)
ILM-LWD  .ohm.m       UNKNOWN        : ILM-LWD:resistivos-LWD:rC:NONE:v0 (auto-composite)
~A     DEPTH           DT           GR       GR-LWD      ILD-LWD      ILM-LWD
# ...
   2729.1790    -999.2500    -999.2500      38.2093       3.5352       3.2766
   2729.3315    -999.2500    -999.2500      38.7282       3.4782       3.3111
   2729.4839    -999.2500    -999.2500      37.6835       3.4438       3.3812
   2729.6362    -999.2500    -999.2500      37.6441       3.5644       3.5115
   2729.7886    -999.2500    -999.2500      38.6020       3.7537       3.6743
   2729.9412    -999.2500    -999.2500      38.6541       3.8411       3.7928
   2730.0935    -999.2500    -999.2500      37.9974       3.8292       3.8259
   2730.2458    -999.2500    -999.2500      37.3784       3.7218       3.7163
   2730.3982    -999.2500    -999.2500      37.9234       3.7469       3.7136
   2730.5508    -999.2500    -999.2500      38.3513       3.7724       3.7111
   2730.7031    -999.2500    -999.2500      37.7074       3.7708       3.7158
   2730.8555    -999.2500    -999.2500      38.8004       3.8547       3.7653
   2731.0078    -999.2500    -999.2500      40.5526       3.7180       3.5788
   2731.1602    -999.2500    -999.2500      41.5368       3.7020       3.5235
   2731.3127    -999.2500    -999.2500      42.5093       3.6427       3.4458
   2731.4651    -999.2500    -999.2500      41.8104       3.4596       3.2730
   2731.6174    -999.2500    -999.2500      40.3313       3.2155       3.0327
   2731.7698    -999.2500    -999.2500      40.2769       3.0504       2.8798
   2731.9224    -999.2500    -999.2500      40.9869       2.8778       2.7134
   2732.0747    -999.2500    -999.2500      40.8699       3.0682       2.7887
   2732.2271    -999.2500    -999.2500      40.4865       3.4111       3.0159
   2732.3794    -999.2500    -999.2500      40.4749       3.6886       3.2799
   2732.5320    -999.2500    -999.2500      39.4116       3.7162       3.3837
   2732.6843    -999.2500    -999.2500      38.0947       3.6560       3.4198
   2732.8367    -999.2500    -999.2500      37.4727       3.5492       3.4124
   2732.9890    -999.2500    -999.2500      37.5457       3.6252       3.4896
   2733.1414    -999.2500    -999.2500      38.7028       3.6434       3.5072
   2733.2939    -999.2500    -999.2500      38.8730       3.6530       3.5318
   2733.4463    -999.2500    -999.2500      37.2387       3.6798       3.5554
   2733.5986    -999.2500    -999.2500      35.9727       3.6866       3.5805
   2733.7510    -999.2500    -999.2500      36.7870       3.7278       3.5926
   2733.9036    -999.2500    -999.2500      39.6306       3.8095       3.6628
   2734.0559    -999.2500    -999.2500      41.4873       3.8644       3.6845
   2734.2083    -999.2500    -999.2500      41.4861       3.8749       3.7315
   2734.3606    -999.2500    -999.2500      41.0413       3.9093       3.7481
   2734.5132    -999.2500    -999.2500      40.3086       3.7892       3.6406
   2734.6655    -999.2500    -999.2500      39.8724       3.8421       3.6451
   2734.8179    -999.2500    -999.2500      39.5812       3.8778       3.7376
   2734.9702    -999.2500    -999.2500      40.1692       3.8890       3.8213
   2735.1226    -999.2500    -999.2500      42.0004       3.7545       3.7410
   2735.2751    -999.2500    -999.2500      42.2282       3.5528       3.5252
   2735.4275    -999.2500    -999.2500      40.9689       3.4927       3.4669
   2735.5798    -999.2500    -999.2500      40.4853       3.4429       3.3995
   2735.7322    -999.2500    -999.2500      39.7897       3.2777       3.2394
   2735.8848    -999.2500    -999.2500      39.0377       3.1937       3.1456
   2736.0371    -999.2500    -999.2500      38.7862       3.1548       3.0920
   2736.1895    -999.2500    -999.2500      39.4464       3.2779       3.1549
   2736.3418    -999.2500    -999.2500      40.2757       3.2575       3.1031
   2736.4944    -999.2500    -999.2500      39.0785       3.1961       3.0040
   2736.6467    -999.2500    -999.2500      38.2960       3.0899       2.8897
   2736.7991    -999.2500    -999.2500      38.4030       3.3396       3.0305
   2736.9514    -999.2500    -999.2500      38.7565       3.3571       3.0178
   2737.1038    -999.2500    -999.2500      39.5256       3.2977       2.9808
   2737.2563    -999.2500    -999.2500      38.6962       3.2512       2.9491
   2737.4087    -999.2500    -999.2500      38.5163       3.1002       2.8630
   2737.5610    -999.2500    -999.2500      39.6089       3.2094       2.9491
   2737.7134    -999.2500    -999.2500      40.1265       3.2425       2.9630
   2737.8660    -999.2500    -999.2500      39.8495       3.3920       3.0776
   2738.0183    -999.2500    -999.2500      39.6614       3.5666       3.2208
   2738.1707    -999.2500    -999.2500      40.5977       3.6579       3.3235
   2738.3230    -999.2500    -999.2500      40.8699       3.6544       3.3343
   2738.4756    -999.2500    -999.2500      40.2085       3.6472       3.3580
   2738.6279    -999.2500    -999.2500      39.9896       3.5770       3.3379
   2738.7803    -999.2500    -999.2500      40.2271       3.5381       3.3073
   2738.9326    -999.2500    -999.2500      40.2219       3.4908       3.2587
   2739.0850    -999.2500    -999.2500      40.0448       3.4509       3.2313
   2739.2375    -999.2500    -999.2500      39.8679       3.4941       3.2575
   2739.3899    -999.2500    -999.2500      40.1645       3.4083       3.1962
   2739.5422    -999.2500    -999.2500      40.3489       3.3744       3.1660
   2739.6946    -999.2500    -999.2500      40.4564       3.3446       3.1265
   2739.8472    -999.2500    -999.2500      41.4572       3.3052       3.0896
   2739.9995    -999.2500    -999.2500      41.8788       3.3421       3.0944
   2740.1519    -999.2500    -999.2500      42.3374       3.3263       3.0681
   2740.3042    -999.2500    -999.2500      44.1444       3.2943       3.0418
