#------------------------------------------------------------------------------
#
#   Created by  : [OpenWorks] Log Export Utility (LEXP)
#   Created on  : 2016-05-19 09:41:09
#   Project     : CANT971
#   User        : R5K
#   Interpreter : PEP
#
#------------------------------------------------------------------------------
~VERSION INFORMATION
VERS. 2.0 : CWLS Log ASCII Standard - version 2.0
WRAP.  NO : One line per depth step
~WELL INFORMATION
#MNEMONIC   .UNIT                                           VALUE :DESCRIPTION
#------------------------------------------------------------------------------
STRT        .M                                          1033.8815 :START DEPTH
STOP        .M                                          2740.3042 :STOP DEPTH
STEP        .M                                             0.1524 :STEP
NULL        .                                           -999.2500 :NULL VALUE
COMP        .                                             UNKNOWN :COMPANY
WELL        .                                            2275A-ST :WELL
FLD         .                                             UNKNOWN :FIELD
LOC         .                                             UNKNOWN :LOCATION
CNTY        .                                             UNKNOWN :COUNTY
STAT        .                                             UNKNOWN :STATE
CTRY        .                                             UNKNOWN :COUNTRY
SRVC        .                                             UNKNOWN :SERVICE COMPANY
DATE        .                                             UNKNOWN :LOG DATE
UWI         .                                            2275A-ST :UNIQUE WELL ID
XCOORD      .                                            0.000000 :SURFACE X
YCOORD      .                                            0.000000 :SURFACE Y
LAT         .                                            0.000000 :LATITUDE
LON         .                                            0.000000 :LONGITUDE
ELEV        .M                                             0.0000 :SURFACE ELEV
ELEV_TYPE   .                                                  KB :ELEV TYPE
~CURVE INFORMATION
#MNEMONIC.UNIT        API CODE       : CURVE DESCRIPTION
#------------------------------------------------------------------------------
DEPTH    .M                          : Measured Depth
DT       .us/ft       UNKNOWN        : DT:Sonico:rC:NONE:v0 (auto-composite)
GR       .API         UNKNOWN        : GR:Sonico:rC:NONE:v0 (auto-composite)
GR-LWD   .API         UNKNOWN        : GR-LWD:resistivos-LWD:rC:NONE:v0 (auto-composite)
ILD-LWD  .ohm.m       UNKNOWN        : ILD-LWD:resistivos-LWD:rC:NONE:v0 (auto-composite)
ILM-LWD  .ohm.m       UNKNOWN        : ILM-LWD:resistivos-LWD:rC:NONE:v0 (auto-composite)
~A     DEPTH           DT           GR       GR-LWD      ILD-LWD      ILM-LWD
# ...
   2493.7212     130.3737      84.3750    -999.2500    -999.2500    -999.2500
   2493.8735     130.1931      84.3750    -999.2500    -999.2500    -999.2500
   2494.0259     130.2823      84.3750    -999.2500    -999.2500    -999.2500
   2494.1782     122.4641      84.3750    -999.2500    -999.2500    -999.2500
   2494.3306     122.4816      84.3750    -999.2500    -999.2500    -999.2500
   2494.4832     123.0145      84.3750    -999.2500    -999.2500    -999.2500
   2494.6355     122.7756      84.3750    -999.2500    -999.2500    -999.2500
   2494.7878     122.7756      84.3750    -999.2500    -999.2500    -999.2500
   2494.9402     122.7756      84.3750    -999.2500    -999.2500    -999.2500
   2495.0928     122.7756      84.3750    -999.2500    -999.2500    -999.2500
   2495.2451     122.7756      84.3750    -999.2500    -999.2500    -999.2500
   2495.3975     122.7756      84.3750    -999.2500    -999.2500    -999.2500
   2495.5498     122.7756      84.3750    -999.2500    -999.2500    -999.2500
   2495.7021     122.7756      84.3750    -999.2500    -999.2500    -999.2500
   2495.8547     122.7756      84.3750    -999.2500    -999.2500    -999.2500
   2496.0071     122.7756      84.3750    -999.2500    -999.2500    -999.2500
   2496.1594     123.0949      84.3750    -999.2500    -999.2500    -999.2500
   2496.3118     123.2624      84.3750    -999.2500    -999.2500    -999.2500
   2496.4644     123.4937      84.3750    -999.2500    -999.2500    -999.2500
   2496.6167     124.1309      84.3750    -999.2500    -999.2500    -999.2500
   2496.7690     124.4212      84.3750    -999.2500    -999.2500    -999.2500
   2496.9214     122.7756      84.3750    -999.2500    -999.2500    -999.2500
   2497.0740     122.7756      84.3750    -999.2500    -999.2500    -999.2500
   2497.2263     122.7756      84.3750    -999.2500    -999.2500    -999.2500
   2497.3787     122.7756      84.3750    -999.2500    -999.2500    -999.2500
   2497.5310     122.7756      84.3750    -999.2500    -999.2500    -999.2500
   2497.6833     122.7756      84.3750    -999.2500    -999.2500    -999.2500
   2497.8359     122.7756      84.3750    -999.2500    -999.2500    -999.2500
   2497.9883     122.7756      84.3750    -999.2500    -999.2500    -999.2500
   2498.1406     122.7756      84.3750    -999.2500    -999.2500    -999.2500
   2498.2930     122.7756      84.3750    -999.2500    -999.2500    -999.2500
   2498.4456     122.7756      84.3750    -999.2500    -999.2500    -999.2500
   2498.5979     122.7756      84.3750    -999.2500    -999.2500    -999.2500
   2498.7502     122.7756      84.3750    -999.2500    -999.2500    -999.2500
   2498.9026     122.7756      84.3750    -999.2500    -999.2500    -999.2500
   2499.0552     122.7756      84.3750    -999.2500    -999.2500    -999.2500
   2499.2075     122.7756      84.3750    -999.2500    -999.2500    -999.2500
   2499.3599     122.7756      84.3750    -999.2500    -999.2500    -999.2500
   2499.5122     122.7756      84.3750    -999.2500    -999.2500    -999.2500
   2499.6646     122.7756      84.3750    -999.2500    -999.2500    -999.2500
   2499.8171     122.7756      84.3750    -999.2500    -999.2500    -999.2500
   2499.9695     122.7756      84.3750    -999.2500       0.9669       0.9417
   2500.1218     122.7756      84.3750      53.1627       1.0284       0.9960
   2500.2742     122.7756      84.3750      51.6361       1.0649       1.0309
   2500.4268     122.7756      84.3750      52.3450       1.0575       1.0309
   2500.5791     122.7756      84.3750      52.4701       1.0786       1.0555
   2500.7314     122.7756      84.3750      48.7937       1.1444       1.1250
   2500.8838     122.7756      84.3750      43.2594       1.2649       1.2486
   2501.0364     122.7756      84.3750      40.2062       1.3613       1.3412
   2501.1887     122.7756      84.3750      40.2155       1.3517       1.3520
   2501.3411    -999.2500    -999.2500      42.7753       1.3470       1.3603
   2501.4934    -999.2500    -999.2500      46.7019       1.3194       1.3395
   2501.6458    -999.2500    -999.2500      49.7458       1.2931       1.2897
   2501.7983    -999.2500    -999.2500      50.8995       1.2360       1.2338
   2501.9507    -999.2500    -999.2500      49.2246       1.2929       1.2854
   2502.1030    -999.2500    -999.2500      45.7011       1.5553       1.5128
   2502.2554    -999.2500    -999.2500      43.4772       1.4984       1.4904
   2502.4080    -999.2500    -999.2500      42.1776       1.4121       1.4485
   2502.5603    -999.2500    -999.2500      38.8116       1.1890       1.3133
   2502.7126    -999.2500    -999.2500      34.6025       1.1294       1.2573
   2502.8650    -999.2500    -999.2500      31.7044       1.3926       1.3595
   2503.0176    -999.2500    -999.2500      30.3330       1.5119       1.4655
   2503.1699    -999.2500    -999.2500      30.2450       1.4902       1.4874
   2503.3223    -999.2500    -999.2500      30.0087       1.3951       1.3898
   2503.4746    -999.2500    -999.2500      30.6944       1.3670       1.3247
   2503.6270    -999.2500    -999.2500      33.4650       1.2947       1.2844
   2503.7795    -999.2500    -999.2500      37.6719       1.3189       1.3313
   2503.9319    -999.2500    -999.2500      42.0687       1.2043       1.2091
   2504.0842    -999.2500    -999.2500      44.2046       1.1171       1.1299
   2504.2366    -999.2500    -999.2500      42.3328       1.2729       1.2605
   2504.3892    -999.2500    -999.2500      37.6812       1.5370       1.5207
   2504.5415    -999.2500    -999.2500      33.1361       1.5831       1.5677
   2504.6938    -999.2500    -999.2500      31.0234       1.3734       1.4379
   2504.8462    -999.2500    -999.2500      33.1986       1.2135       1.3682
   2504.9988    -999.2500    -999.2500      36.9445       1.1514       1.2423
   2505.1511    -999.2500    -999.2500      38.2163       1.2990       1.3196
   2505.3035    -999.2500    -999.2500      38.1120       1.4527       1.4522
   2505.4558    -999.2500    -999.2500      38.9738       1.4947       1.5256
   2505.6082    -999.2500    -999.2500      40.4749       1.4355       1.4424
   2505.7607    -999.2500    -999.2500      40.8641       1.2636       1.2922
   2505.9131    -999.2500    -999.2500      40.4819       1.1157       1.1580
   2506.0654    -999.2500    -999.2500      41.9413       1.3260       1.3205
   2506.2178    -999.2500    -999.2500      44.9853       1.1509       1.1258
   2506.3704    -999.2500    -999.2500      46.6532       1.2297       1.1905
   2506.5227    -999.2500    -999.2500      45.4857       1.3938       1.3300
   2506.6750    -999.2500    -999.2500      44.6170       1.4553       1.3975
   2506.8274    -999.2500    -999.2500      45.6432       1.5112       1.4421
   2506.9800    -999.2500    -999.2500      44.7235       1.2594       1.2490
   2507.1323    -999.2500    -999.2500      43.2085       1.2304       1.2147
   2507.2847    -999.2500    -999.2500      44.0193       1.2188       1.2029
   2507.4370    -999.2500    -999.2500      44.7907       1.1379       1.1299
   2507.5894    -999.2500    -999.2500      44.2278       1.1928       1.1654
   2507.7419    -999.2500    -999.2500      45.5274       1.1874       1.1476
   2507.8943    -999.2500    -999.2500      49.3149       1.2164       1.1612
   2508.0466    -999.2500    -999.2500      50.2485       1.2155       1.1640
   2508.1990    -999.2500    -999.2500      48.7902       1.1029       1.0821
   2508.3516    -999.2500    -999.2500      50.6956       1.0251       1.0103
   2508.5039    -999.2500    -999.2500      54.1091       1.1296       1.0864
   2508.6562    -999.2500    -999.2500      54.7079       1.1831       1.1412
   2508.8086    -999.2500    -999.2500      54.6458       0.8066       0.8230
   2508.9612    -999.2500    -999.2500      55.4628       0.8401       0.8431
   2509.1135    -999.2500    -999.2500      54.7975       0.8988       0.8916
   2509.2659    -999.2500    -999.2500      53.6967       0.9431       0.9256
