#------------------------------------------------------------------------------
#
#   Created by  : [OpenWorks] Log Export Utility (LEXP)
#   Created on  : 2016-05-19 09:41:09
#   Project     : CANT971
#   User        : R5K
#   Interpreter : PEP
#
#------------------------------------------------------------------------------
~VERSION INFORMATION
VERS. 2.0 : CWLS Log ASCII Standard - version 2.0
WRAP.  NO : One line per depth step
~WELL INFORMATION
#MNEMONIC   .UNIT                                           VALUE :DESCRIPTION
#------------------------------------------------------------------------------
STRT        .M                                          1033.8815 :START DEPTH
STOP        .M                                          2740.3042 :STOP DEPTH
STEP        .M                                             0.1524 :STEP
NULL        .                                           -999.2500 :NULL VALUE
COMP        .                                             UNKNOWN :COMPANY
WELL        .                                            2275A-ST :WELL
FLD         .                                             UNKNOWN :FIELD
LOC         .                                             UNKNOWN :LOCATION
CNTY        .                                             UNKNOWN :COUNTY
STAT        .                                             UNKNOWN :STATE
CTRY        .                                             UNKNOWN :COUNTRY
SRVC        .                                             UNKNOWN :SERVICE COMPANY
DATE        .                                             UNKNOWN :LOG DATE
UWI         .                                            2275A-ST :UNIQUE WELL ID
XCOORD      .                                            0.000000 :SURFACE X
YCOORD      .                                            0.000000 :SURFACE Y
LAT         .                                            0.000000 :LATITUDE
LON         .                                            0.000000 :LONGITUDE
ELEV        .M                                             0.0000 :SURFACE ELEV
ELEV_TYPE   .                                                  KB :ELEV TYPE
~CURVE INFORMATION
#MNEMONIC.UNIT        API CODE       : CURVE DESCRIPTION
#------------------------------------------------------------------------------
DEPTH    .M                          : Measured Depth
DT       .us/ft       UNKNOWN        : DT:Sonico:rC:NONE:v0 (auto-composite)
GR       .API         UNKNOWN        : GR:Sonico:rC:NONE:v0 (auto-composite)
GR-LWD   .API         UNKNOWN        : GR-LWD:resistivos-LWD:rC:NONE:v0 (auto-composite)
ILD-LWD  .ohm.m       UNKNOWN        : ILD-LWD:resistivos-LWD:rC:NONE:v0 (auto-composite)
ILM-LWD  .ohm.m       UNKNOWN        : ILM-LWD:resistivos-LWD:rC:NONE:v0 (auto-composite)
~A     DEPTH           DT           GR       GR-LWD      ILD-LWD      ILM-LWD
# ...
   2572.2070    -999.2500    -999.2500      55.7642       0.9829       0.9182
   2572.3594    -999.2500    -999.2500      56.7302       0.7758       0.7566
   2572.5120    -999.2500    -999.2500      57.0221       0.7878       0.7605
   2572.6643    -999.2500    -999.2500      55.1063       0.8136       0.7723
   2572.8167    -999.2500    -999.2500      53.2253       0.8808       0.8155
   2572.9690    -999.2500    -999.2500      53.7094       0.9528       0.8904
   2573.1216    -999.2500    -999.2500      54.1982       0.9651       0.9337
   2573.2739    -999.2500    -999.2500      52.5489       0.9495       0.9412
   2573.4263    -999.2500    -999.2500      51.7103       1.0584       1.0269
   2573.5786    -999.2500    -999.2500      52.2338       1.1974       1.1236
   2573.7310    -999.2500    -999.2500      50.8717       1.3683       1.2361
   2573.8835    -999.2500    -999.2500      48.5018       1.2846       1.1712
   2574.0359    -999.2500    -999.2500      46.8733       1.1571       1.0767
   2574.1882    -999.2500    -999.2500      47.5080       1.1266       1.0435
   2574.3406    -999.2500    -999.2500      50.8612       1.1195       1.0402
   2574.4932    -999.2500    -999.2500      52.7967       1.1389       1.0536
   2574.6455    -999.2500    -999.2500      53.3886       1.0158       0.9653
   2574.7979    -999.2500    -999.2500      54.5040       0.9941       0.9645
   2574.9502    -999.2500    -999.2500      54.0071       0.8897       0.8888
   2575.1028    -999.2500    -999.2500      52.4001       0.9225       0.9134
   2575.2551    -999.2500    -999.2500      51.9792       1.3029       1.2027
   2575.4075    -999.2500    -999.2500      52.6017       1.8779       1.6179
   2575.5598    -999.2500    -999.2500      52.0967       1.4508       1.3212
   2575.7122    -999.2500    -999.2500      51.2090       1.1448       1.1091
   2575.8647    -999.2500    -999.2500      52.0897       1.1742       1.1532
   2576.0171    -999.2500    -999.2500      52.6566       1.2877       1.2239
   2576.1694    -999.2500    -999.2500      52.9612       1.3617       1.2245
   2576.3218    -999.2500    -999.2500      53.6805       1.3832       1.2416
   2576.4744    -999.2500    -999.2500      52.0728       1.4050       1.3181
   2576.6267    -999.2500    -999.2500      51.0130       1.4522       1.3719
   2576.7791    -999.2500    -999.2500      53.2311       1.3925       1.3005
   2576.9314    -999.2500    -999.2500      54.7056       1.2998       1.2237
   2577.0840    -999.2500    -999.2500      54.3697       1.1777       1.1400
   2577.2363    -999.2500    -999.2500      53.3203       1.0762       1.0515
   2577.3887    -999.2500    -999.2500      52.1736       1.1295       1.0621
   2577.5410    -999.2500    -999.2500      52.7527       1.2884       1.1654
   2577.6934    -999.2500    -999.2500      53.4430       1.4628       1.3075
   2577.8459    -999.2500    -999.2500      52.4895       1.4677       1.3193
   2577.9983    -999.2500    -999.2500      52.4201       1.3517       1.2369
   2578.1506    -999.2500    -999.2500      54.1491       1.2019       1.1417
   2578.3030    -999.2500    -999.2500      55.4515       1.1181       1.0732
   2578.4556    -999.2500    -999.2500      55.0095       1.0836       1.0315
   2578.6079    -999.2500    -999.2500      52.4492       1.0974       1.0307
   2578.7603    -999.2500    -999.2500      48.7057       1.1277       1.0552
   2578.9126    -999.2500    -999.2500      46.7656       1.2104       1.1274
   2579.0652    -999.2500    -999.2500      47.9899       1.4344       1.2902
   2579.2175    -999.2500    -999.2500      49.1794       1.4698       1.3263
   2579.3699    -999.2500    -999.2500      47.6539       1.1873       1.1260
   2579.5222    -999.2500    -999.2500      46.2107       1.1685       1.0982
   2579.6746    -999.2500    -999.2500      47.6878       1.1502       1.0672
   2579.8271    -999.2500    -999.2500      50.5432       1.0415       0.9670
   2579.9795    -999.2500    -999.2500      51.4221       0.8916       0.8411
   2580.1318    -999.2500    -999.2500      50.1836       0.8561       0.8208
   2580.2842    -999.2500    -999.2500      50.4256       0.8292       0.8212
   2580.4368    -999.2500    -999.2500      52.7593       0.8620       0.8503
   2580.5891    -999.2500    -999.2500      54.7830       1.1413       1.0602
   2580.7415    -999.2500    -999.2500      54.3882       1.1304       1.0560
   2580.8938    -999.2500    -999.2500      51.9998       1.1110       1.0423
   2581.0464    -999.2500    -999.2500      49.6254       1.0314       0.9794
   2581.1987    -999.2500    -999.2500      47.9458       0.9694       0.9237
   2581.3511    -999.2500    -999.2500      48.8834       0.9237       0.8708
   2581.5034    -999.2500    -999.2500      49.9414       0.9193       0.8584
   2581.6558    -999.2500    -999.2500      49.5135       0.8746       0.8283
   2581.8083    -999.2500    -999.2500      51.2701       0.9025       0.8659
   2581.9607    -999.2500    -999.2500      53.3226       1.0442       0.9982
   2582.1130    -999.2500    -999.2500      54.2492       1.1450       1.0895
   2582.2654    -999.2500    -999.2500      56.1992       1.1320       1.0874
   2582.4180    -999.2500    -999.2500      58.6889       0.9913       0.9850
   2582.5703    -999.2500    -999.2500      59.3729       0.9016       0.9227
   2582.7227    -999.2500    -999.2500      57.7495       0.9354       0.9432
   2582.8750    -999.2500    -999.2500      57.5387       0.9695       0.9457
   2583.0276    -999.2500    -999.2500      60.2584       0.9658       0.9208
   2583.1799    -999.2500    -999.2500      61.2232       0.9827       0.9375
   2583.3323    -999.2500    -999.2500      59.5727       1.0220       0.9734
   2583.4846    -999.2500    -999.2500      59.2124       1.0240       0.9702
   2583.6370    -999.2500    -999.2500      59.8947       0.9995       0.9434
   2583.7896    -999.2500    -999.2500      59.9201       0.9426       0.8959
   2583.9419    -999.2500    -999.2500      58.6970       0.8566       0.8240
   2584.0942    -999.2500    -999.2500      57.7148       0.8518       0.8094
   2584.2466    -999.2500    -999.2500      59.0526       0.8313       0.7930
   2584.3992    -999.2500    -999.2500      59.6630       0.8344       0.7998
   2584.5515    -999.2500    -999.2500      59.4649       0.7870       0.7633
   2584.7039    -999.2500    -999.2500      59.9062       0.7951       0.7686
   2584.8562    -999.2500    -999.2500      58.3634       0.8475       0.8121
   2585.0088    -999.2500    -999.2500      58.2198       0.9072       0.8593
   2585.1611    -999.2500    -999.2500      61.4166       0.8928       0.8467
   2585.3135    -999.2500    -999.2500      62.5167       0.8745       0.8223
   2585.4658    -999.2500    -999.2500      60.9110       0.8484       0.8016
   2585.6182    -999.2500    -999.2500      57.7121       0.7783       0.7435
   2585.7708    -999.2500    -999.2500      56.0098       0.7663       0.7245
   2585.9231    -999.2500    -999.2500      57.9742       0.7160       0.6848
   2586.0754    -999.2500    -999.2500      58.7665       0.6841       0.6592
   2586.2278    -999.2500    -999.2500      57.2032       0.6754       0.6512
   2586.3804    -999.2500    -999.2500      56.1541       0.7351       0.7096
   2586.5327    -999.2500    -999.2500      56.6379       0.7989       0.7644
   2586.6851    -999.2500    -999.2500      56.9735       0.8334       0.7914
   2586.8374    -999.2500    -999.2500      56.1812       0.9196       0.8606
   2586.9900    -999.2500    -999.2500      55.9171       0.9571       0.9008
   2587.1423    -999.2500    -999.2500      56.2590       0.7614       0.7513
   2587.2947    -999.2500    -999.2500      56.5454       0.8203       0.7880
   2587.4470    -999.2500    -999.2500      56.3857       0.9984       0.9281
   2587.5994    -999.2500    -999.2500      54.6461       1.0497       0.9597
   2587.7520    -999.2500    -999.2500      53.6762       0.9842       0.9065
