#------------------------------------------------------------------------------
#
#   Created by  : [OpenWorks] Log Export Utility (LEXP)
#   Created on  : 2016-05-19 09:41:09
#   Project     : CANT971
#   User        : R5K
#   Interpreter : PEP
#
#------------------------------------------------------------------------------
~VERSION INFORMATION
VERS. 2.0 : CWLS Log ASCII Standard - version 2.0
WRAP.  NO : One line per depth step
~WELL INFORMATION
#MNEMONIC   .UNIT                                           VALUE :DESCRIPTION
#------------------------------------------------------------------------------
STRT        .M                                          1033.8815 :START DEPTH
STOP        .M                                          2740.3042 :STOP DEPTH
STEP        .M                                             0.1524 :STEP
NULL        .                                           -999.2500 :NULL VALUE
COMP        .                                             UNKNOWN :COMPANY
WELL        .                                            2275A-ST :WELL
FLD         .                                             UNKNOWN :FIELD
LOC         .                                             UNKNOWN :LOCATION
CNTY        .                                             UNKNOWN :COUNTY
STAT        .                                             UNKNOWN :STATE
CTRY        .                                             UNKNOWN :COUNTRY
SRVC        .                                             UNKNOWN :SERVICE COMPANY
DATE        .                                             UNKNOWN :LOG DATE
UWI         .                                            2275A-ST :UNIQUE WELL ID
XCOORD      .                                            0.000000 :SURFACE X
YCOORD      .                                            0.000000 :SURFACE Y
LAT         .                                            0.000000 :LATITUDE
LON         .                                            0.000000 :LONGITUDE
ELEV        .M                                             0.0000 :SURFACE ELEV
ELEV_TYPE   .                                                  KB :ELEV TYPE
~CURVE INFORMATION
#MNEMONIC.UNIT        API CODE       : CURVE DESCRIPTION
#------------------------------------------------------------------------------
DEPTH    .M                          : Measured Depth
DT       .us/ft       UNKNOWN        : DT:Sonico:rC:NONE:v0 (auto-composite)
GR       .API         UNKNOWN        : GR:Sonico:rC:NONE:v0 (auto-composite)
GR-LWD   .API         UNKNOWN        : GR-LWD:resistivos-LWD:rC:NONE:v0 (auto-composite)
ILD-LWD  .ohm.m       UNKNOWN        : ILD-LWD:resistivos-LWD:rC:NONE:v0 (auto-composite)
ILM-LWD  .ohm.m       UNKNOWN        : ILM-LWD:resistivos-LWD:rC:NONE:v0 (auto-composite)
~A     DEPTH           DT           GR       GR-LWD      ILD-LWD      ILM-LWD
# ...
   2509.4182    -999.2500    -999.2500      53.8232       0.9218       0.9108
   2509.5706    -999.2500    -999.2500      53.7829       0.8726       0.8779
   2509.7231    -999.2500    -999.2500      53.6974       0.8246       0.8382
   2509.8755    -999.2500    -999.2500      53.8656       0.8458       0.8420
   2510.0278    -999.2500    -999.2500      54.0449       0.9222       0.9007
   2510.1802    -999.2500    -999.2500      53.7495       0.9691       0.9496
   2510.3328    -999.2500    -999.2500      53.7377       1.0158       0.9943
   2510.4851    -999.2500    -999.2500      53.9837       1.1166       1.0769
   2510.6375    -999.2500    -999.2500      53.9165       1.0506       1.0334
   2510.7898    -999.2500    -999.2500      54.4999       0.9420       0.9419
   2510.9424    -999.2500    -999.2500      53.6525       0.9043       0.8936
   2511.0947    -999.2500    -999.2500      53.0010       1.0410       0.9988
   2511.2471    -999.2500    -999.2500      53.3226       1.0862       1.0445
   2511.3994    -999.2500    -999.2500      51.2145       0.9815       0.9519
   2511.5518    -999.2500    -999.2500      51.1066       0.9498       0.9246
   2511.7043    -999.2500    -999.2500      53.6211       0.9369       0.9240
   2511.8567    -999.2500    -999.2500      53.9739       0.8554       0.8530
   2512.0090    -999.2500    -999.2500      54.4908       0.8560       0.8383
   2512.1614    -999.2500    -999.2500      55.3917       0.8637       0.8532
   2512.3140    -999.2500    -999.2500      54.5110       0.8714       0.8610
   2512.4663    -999.2500    -999.2500      54.1888       0.7925       0.7908
   2512.6187    -999.2500    -999.2500      55.0424       0.7294       0.7354
   2512.7710    -999.2500    -999.2500      55.4720       0.7894       0.7850
   2512.9236    -999.2500    -999.2500      55.7707       0.7946       0.7870
   2513.0759    -999.2500    -999.2500      55.1077       0.8169       0.8028
   2513.2283    -999.2500    -999.2500      53.2827       0.8540       0.8381
   2513.3806    -999.2500    -999.2500      51.2603       0.9102       0.9015
   2513.5330    -999.2500    -999.2500      49.6654       0.8198       0.8244
   2513.6855    -999.2500    -999.2500      50.0547       0.8138       0.8163
   2513.8379    -999.2500    -999.2500      49.9515       0.8605       0.8599
   2513.9902    -999.2500    -999.2500      48.5713       0.9527       0.9446
   2514.1426    -999.2500    -999.2500      48.8493       0.9843       0.9673
   2514.2952    -999.2500    -999.2500      50.0586       1.0474       1.0157
   2514.4475    -999.2500    -999.2500      50.0933       1.1137       1.0792
   2514.5999    -999.2500    -999.2500      48.5227       1.1736       1.1395
   2514.7522    -999.2500    -999.2500      47.1559       1.2078       1.1709
   2514.9048    -999.2500    -999.2500      47.7211       1.2065       1.1914
   2515.0571    -999.2500    -999.2500      50.0720       1.2120       1.2120
   2515.2095    -999.2500    -999.2500      51.2043       1.1796       1.1752
   2515.3618    -999.2500    -999.2500      50.4797       1.1106       1.1001
   2515.5142    -999.2500    -999.2500      50.2080       1.1347       1.1055
   2515.6667    -999.2500    -999.2500      47.8949       1.3010       1.2246
   2515.8191    -999.2500    -999.2500      46.3787       1.2031       1.1472
   2515.9714    -999.2500    -999.2500      51.2469       0.9226       0.9229
   2516.1238    -999.2500    -999.2500      55.9484       0.7953       0.8043
   2516.2764    -999.2500    -999.2500      56.0109       0.7689       0.7719
   2516.4287    -999.2500    -999.2500      55.1886       0.7243       0.7264
   2516.5811    -999.2500    -999.2500      54.4357       0.7373       0.7244
   2516.7334    -999.2500    -999.2500      53.3521       0.6824       0.6936
   2516.8860    -999.2500    -999.2500      52.9154       0.7541       0.7613
   2517.0383    -999.2500    -999.2500      53.0861       0.8619       0.8559
   2517.1907    -999.2500    -999.2500      52.8511       0.9119       0.9028
   2517.3430    -999.2500    -999.2500      51.3967       1.0362       1.0043
   2517.4954    -999.2500    -999.2500      50.5058       1.1462       1.0828
   2517.6479    -999.2500    -999.2500      51.9614       1.0742       1.0271
   2517.8003    -999.2500    -999.2500      53.3124       0.9684       0.9238
   2517.9526    -999.2500    -999.2500      53.4354       0.9026       0.8572
   2518.1050    -999.2500    -999.2500      53.7947       0.8886       0.8342
   2518.2576    -999.2500    -999.2500      54.1999       0.9225       0.8638
   2518.4099    -999.2500    -999.2500      54.4660       0.9663       0.9045
   2518.5623    -999.2500    -999.2500      55.5421       0.9441       0.8935
   2518.7146    -999.2500    -999.2500      55.6689       0.9238       0.8910
   2518.8672    -999.2500    -999.2500      53.8138       0.9154       0.8914
   2519.0195    -999.2500    -999.2500      52.6164       0.8876       0.8623
   2519.1719    -999.2500    -999.2500      52.7249       0.8834       0.8585
   2519.3242    -999.2500    -999.2500      53.4291       0.9100       0.8800
   2519.4766    -999.2500    -999.2500      55.8935       0.9415       0.9033
   2519.6292    -999.2500    -999.2500      58.2446       0.8653       0.8247
   2519.7815    -999.2500    -999.2500      57.4500       0.8434       0.8054
   2519.9338    -999.2500    -999.2500      55.2848       0.7718       0.7469
   2520.0862    -999.2500    -999.2500      54.7287       0.6989       0.6791
   2520.2388    -999.2500    -999.2500      55.6003       0.6310       0.6145
   2520.3911    -999.2500    -999.2500      55.6624       0.5968       0.5883
   2520.5435    -999.2500    -999.2500      53.9342       0.6629       0.6447
   2520.6958    -999.2500    -999.2500      51.3360       0.8622       0.8267
   2520.8484    -999.2500    -999.2500      50.5494       0.9362       0.8978
   2521.0007    -999.2500    -999.2500      51.5944       0.9558       0.9372
   2521.1531    -999.2500    -999.2500      52.0804       0.8698       0.8614
   2521.3054    -999.2500    -999.2500      50.4551       0.8880       0.8852
   2521.4578    -999.2500    -999.2500      49.2570       0.9251       0.9147
   2521.6104    -999.2500    -999.2500      50.2647       0.9192       0.9147
   2521.7627    -999.2500    -999.2500      51.0717       0.8837       0.8696
   2521.9150    -999.2500    -999.2500      53.1031       0.8752       0.8590
   2522.0674    -999.2500    -999.2500      54.6358       0.8539       0.8429
   2522.2200    -999.2500    -999.2500      54.0118       0.7581       0.7574
   2522.3723    -999.2500    -999.2500      53.8819       0.6736       0.6753
   2522.5247    -999.2500    -999.2500      54.7875       0.7029       0.7014
   2522.6770    -999.2500    -999.2500      55.8642       0.7580       0.7452
   2522.8296    -999.2500    -999.2500      54.3076       0.7954       0.7759
   2522.9819    -999.2500    -999.2500      51.5889       0.8432       0.8167
   2523.1343    -999.2500    -999.2500      50.7344       0.9588       0.9162
   2523.2866    -999.2500    -999.2500      50.1593       0.8805       0.8754
   2523.4390    -999.2500    -999.2500      49.8587       0.7796       0.7829
   2523.5916    -999.2500    -999.2500      52.1643       0.7210       0.7204
   2523.7439    -999.2500    -999.2500      55.9171       0.7068       0.6896
   2523.8962    -999.2500    -999.2500      55.4585       0.6902       0.6669
   2524.0486    -999.2500    -999.2500      51.3581       0.6901       0.6611
   2524.2012    -999.2500    -999.2500      50.4755       0.6519       0.6279
   2524.3535    -999.2500    -999.2500      52.6647       0.7131       0.6760
   2524.5059    -999.2500    -999.2500      54.5341       0.7972       0.7335
   2524.6582    -999.2500    -999.2500      56.2090       0.8096       0.7520
   2524.8108    -999.2500    -999.2500      58.2592       0.6378       0.6142
   2524.9631    -999.2500    -999.2500      58.4329       0.5849       0.5643
