#------------------------------------------------------------------------------
#
#   Created by  : [OpenWorks] Log Export Utility (LEXP)
#   Created on  : 2016-05-19 09:41:09
#   Project     : CANT971
#   User        : R5K
#   Interpreter : PEP
#
#------------------------------------------------------------------------------
~VERSION INFORMATION
VERS. 2.0 : CWLS Log ASCII Standard - version 2.0
WRAP.  NO : One line per depth step
~WELL INFORMATION
#MNEMONIC   .UNIT                                           VALUE :DESCRIPTION
#------------------------------------------------------------------------------
STRT        .M                                          1033.8815 :START DEPTH
STOP        .M                                          2740.3042 :STOP DEPTH
STEP        .M                                             0.1524 :STEP
NULL        .                                           -999.2500 :NULL VALUE
COMP        .                                             UNKNOWN :COMPANY
WELL        .                                            2275A-ST :WELL
FLD         .                                             UNKNOWN :FIELD
LOC         .                                             UNKNOWN :LOCATION
CNTY        .                                             UNKNOWN :COUNTY
STAT        .                                             UNKNOWN :STATE
CTRY        .                                             UNKNOWN :COUNTRY
SRVC        .                                             UNKNOWN :SERVICE COMPANY
DATE        .                                             UNKNOWN :LOG DATE
UWI         .                                            2275A-ST :UNIQUE WELL ID
XCOORD      .                                            0.000000 :SURFACE X
YCOORD      .                                            0.000000 :SURFACE Y
LAT         .                                            0.000000 :LATITUDE
LON         .                                            0.000000 :LONGITUDE
ELEV        .M                                             0.0000 :SURFACE ELEV
ELEV_TYPE   .                                                  KB :ELEV TYPE
~CURVE INFORMATION
#MNEMONIC.UNIT        API CODE       : CURVE DESCRIPTION
#------------------------------------------------------------------------------
DEPTH    .M                          : Measured Depth
DT       .us/ft       UNKNOWN        : DT:Sonico:rC:NONE:v0 (auto-composite)
GR       .API         UNKNOWN        : GR:Sonico:rC:NONE:v0 (auto-composite)
GR-LWD   .API         UNKNOWN        : GR-LWD:resistivos-LWD:rC:NONE:v0 (auto-composite)
ILD-LWD  .ohm.m       UNKNOWN        : ILD-LWD:resistivos-LWD:rC:NONE:v0 (auto-composite)
ILM-LWD  .ohm.m       UNKNOWN        : ILM-LWD:resistivos-LWD:rC:NONE:v0 (auto-composite)
~A     DEPTH           DT           GR       GR-LWD      ILD-LWD      ILM-LWD
# ...
   2525.1155    -999.2500    -999.2500      54.6940       0.6021       0.5738
   2525.2678    -999.2500    -999.2500      50.7651       0.8675       0.8141
   2525.4202    -999.2500    -999.2500      50.4014       1.0095       0.9551
   2525.5728    -999.2500    -999.2500      50.9690       1.0274       0.9778
   2525.7251    -999.2500    -999.2500      50.4385       1.0205       0.9914
   2525.8774    -999.2500    -999.2500      50.2902       1.0192       0.9885
   2526.0298    -999.2500    -999.2500      49.7347       1.0113       0.9944
   2526.1824    -999.2500    -999.2500      48.6834       1.0062       1.0127
   2526.3347    -999.2500    -999.2500      48.1363       0.9877       0.9874
   2526.4871    -999.2500    -999.2500      46.9242       0.9315       0.9212
   2526.6394    -999.2500    -999.2500      47.7918       0.8951       0.8739
   2526.7917    -999.2500    -999.2500      51.0107       0.9027       0.8779
   2526.9443    -999.2500    -999.2500      51.1462       0.8673       0.8488
   2527.0967    -999.2500    -999.2500      49.5304       0.8700       0.8548
   2527.2490    -999.2500    -999.2500      48.9466       0.7685       0.7630
   2527.4014    -999.2500    -999.2500      49.0184       0.7203       0.7202
   2527.5540    -999.2500    -999.2500      49.8640       0.7316       0.7141
   2527.7063    -999.2500    -999.2500      51.6593       0.6480       0.6238
   2527.8586    -999.2500    -999.2500      53.6562       0.6637       0.6393
   2528.0110    -999.2500    -999.2500      53.1280       0.6679       0.6552
   2528.1636    -999.2500    -999.2500      51.8214       0.8170       0.7853
   2528.3159    -999.2500    -999.2500      52.4034       0.8388       0.8000
   2528.4683    -999.2500    -999.2500      52.0646       0.9249       0.8921
   2528.6206    -999.2500    -999.2500      51.1817       0.9278       0.9126
   2528.7729    -999.2500    -999.2500      51.8436       0.8863       0.8822
   2528.9255    -999.2500    -999.2500      52.1817       0.8629       0.8565
   2529.0779    -999.2500    -999.2500      50.9273       0.8690       0.8640
   2529.2302    -999.2500    -999.2500      49.8153       0.8374       0.8299
   2529.3826    -999.2500    -999.2500      50.3296       0.8275       0.8150
   2529.5352    -999.2500    -999.2500      50.6632       0.8796       0.8426
   2529.6875    -999.2500    -999.2500      50.4581       0.8655       0.8257
   2529.8398    -999.2500    -999.2500      51.4300       0.8411       0.8128
   2529.9922    -999.2500    -999.2500      51.4450       0.8242       0.8037
   2530.1448    -999.2500    -999.2500      48.8145       0.8167       0.7926
   2530.2971    -999.2500    -999.2500      45.6200       0.8185       0.7939
   2530.4495    -999.2500    -999.2500      44.9088       0.7943       0.7798
   2530.6018    -999.2500    -999.2500      46.6463       0.7421       0.7277
   2530.7542    -999.2500    -999.2500      46.8501       0.6617       0.6537
   2530.9067    -999.2500    -999.2500      45.3861       0.5685       0.5546
   2531.0591    -999.2500    -999.2500      43.2432       0.6404       0.6076
   2531.2114    -999.2500    -999.2500      40.7738       1.0036       0.9304
   2531.3638    -999.2500    -999.2500      40.8850       1.1812       1.1256
   2531.5164    -999.2500    -999.2500      43.4146       1.0422       0.9970
   2531.6687    -999.2500    -999.2500      47.0076       1.0977       1.0642
   2531.8210    -999.2500    -999.2500      50.5450       1.0571       1.0402
   2531.9734    -999.2500    -999.2500      52.0253       1.0158       1.0039
   2532.1260    -999.2500    -999.2500      51.7473       0.9957       0.9625
   2532.2783    -999.2500    -999.2500      50.5450       0.9745       0.9213
   2532.4307    -999.2500    -999.2500      49.8987       0.9420       0.8944
   2532.5830    -999.2500    -999.2500      50.8230       0.8839       0.8444
   2532.7354    -999.2500    -999.2500      53.3457       0.7948       0.7684
   2532.8879    -999.2500    -999.2500      57.2654       0.7715       0.7508
   2533.0403    -999.2500    -999.2500      58.0507       0.8349       0.8082
   2533.1926    -999.2500    -999.2500      53.5959       0.9051       0.8606
   2533.3450    -999.2500    -999.2500      50.4999       0.8480       0.8134
   2533.4976    -999.2500    -999.2500      52.5465       0.7156       0.7083
   2533.6499    -999.2500    -999.2500      55.8859       0.7528       0.7419
   2533.8022    -999.2500    -999.2500      58.2476       0.7870       0.7698
   2533.9546    -999.2500    -999.2500      57.3024       0.7434       0.7303
   2534.1072    -999.2500    -999.2500      53.4025       0.7149       0.7087
   2534.2595    -999.2500    -999.2500      50.8138       0.8053       0.8008
   2534.4119    -999.2500    -999.2500      48.4108       1.0500       1.0281
   2534.5642    -999.2500    -999.2500      45.5630       1.2102       1.1658
   2534.7166    -999.2500    -999.2500      43.5333       1.2226       1.1780
   2534.8691    -999.2500    -999.2500      42.4357       1.2221       1.2015
   2535.0215    -999.2500    -999.2500      41.4215       1.3247       1.3226
   2535.1738    -999.2500    -999.2500      40.9371       1.3895       1.3670
   2535.3262    -999.2500    -999.2500      40.7224       1.3767       1.3674
   2535.4788    -999.2500    -999.2500      38.4849       1.3400       1.3491
   2535.6311    -999.2500    -999.2500      36.6615       1.2967       1.2906
   2535.7834    -999.2500    -999.2500      37.4389       1.2583       1.2469
   2535.9358    -999.2500    -999.2500      39.8773       1.1946       1.1864
   2536.0884    -999.2500    -999.2500      43.0811       1.1161       1.0897
   2536.2407    -999.2500    -999.2500      46.3266       1.0990       1.0656
   2536.3931    -999.2500    -999.2500      48.3406       1.0912       1.0636
   2536.5454    -999.2500    -999.2500      49.6013       1.1216       1.0753
   2536.6978    -999.2500    -999.2500      51.2956       1.1303       1.0679
   2536.8503    -999.2500    -999.2500      52.1940       0.9743       0.9411
   2537.0027    -999.2500    -999.2500      52.6983       0.8789       0.8569
   2537.1550    -999.2500    -999.2500      53.5728       0.8279       0.8107
   2537.3074    -999.2500    -999.2500      52.8558       0.7110       0.7039
   2537.4600    -999.2500    -999.2500      50.7999       0.6341       0.6366
   2537.6123    -999.2500    -999.2500      49.1018       0.7677       0.7654
   2537.7646    -999.2500    -999.2500      47.7851       0.8749       0.8765
   2537.9170    -999.2500    -999.2500      46.8019       0.9725       0.9793
   2538.0696    -999.2500    -999.2500      45.9805       1.1001       1.1081
   2538.2219    -999.2500    -999.2500      45.4115       1.2701       1.2690
   2538.3743    -999.2500    -999.2500      45.6710       1.4408       1.3953
   2538.5266    -999.2500    -999.2500      46.3683       1.4334       1.3835
   2538.6790    -999.2500    -999.2500      46.5536       1.3461       1.3166
   2538.8315    -999.2500    -999.2500      46.1783       1.2904       1.2559
   2538.9839    -999.2500    -999.2500      46.5698       1.3099       1.2660
   2539.1362    -999.2500    -999.2500      48.1567       1.3265       1.2832
   2539.2886    -999.2500    -999.2500      49.7319       1.1993       1.1488
   2539.4412    -999.2500    -999.2500      49.9237       1.1152       1.0747
   2539.5935    -999.2500    -999.2500      48.8391       1.1293       1.0936
   2539.7458    -999.2500    -999.2500      47.4056       1.0973       1.0652
   2539.8982    -999.2500    -999.2500      45.9467       1.0330       1.0001
   2540.0508    -999.2500    -999.2500      46.2455       0.9734       0.9518
   2540.2031    -999.2500    -999.2500      47.3320       0.9173       0.9150
   2540.3555    -999.2500    -999.2500      46.8409       0.9091       0.9003
   2540.5078    -999.2500    -999.2500      46.1829       0.9669       0.9438
   2540.6602    -999.2500    -999.2500      45.8355       1.0112       0.9829
