#------------------------------------------------------------------------------
#
#   Created by  : [OpenWorks] Log Export Utility (LEXP)
#   Created on  : 2016-05-19 09:41:09
#   Project     : CANT971
#   User        : R5K
#   Interpreter : PEP
#
#------------------------------------------------------------------------------
~VERSION INFORMATION
VERS. 2.0 : CWLS Log ASCII Standard - version 2.0
WRAP.  NO : One line per depth step
~WELL INFORMATION
#MNEMONIC   .UNIT                                           VALUE :DESCRIPTION
#------------------------------------------------------------------------------
STRT        .M                                          1033.8815 :START DEPTH
STOP        .M                                          2740.3042 :STOP DEPTH
STEP        .M                                             0.1524 :STEP
NULL        .                                           -999.2500 :NULL VALUE
COMP        .                                             UNKNOWN :COMPANY
WELL        .                                            2275A-ST :WELL
FLD         .                                             UNKNOWN :FIELD
LOC         .                                             UNKNOWN :LOCATION
CNTY        .                                             UNKNOWN :COUNTY
STAT        .                                             UNKNOWN :STATE
CTRY        .                                             UNKNOWN :COUNTRY
SRVC        .                                             UNKNOWN :SERVICE COMPANY
DATE        .                                             UNKNOWN :LOG DATE
UWI         .                                            2275A-ST :UNIQUE WELL ID
XCOORD      .                                            0.000000 :SURFACE X
YCOORD      .                                            0.000000 :SURFACE Y
LAT         .                                            0.000000 :LATITUDE
LON         .                                            0.000000 :LONGITUDE
ELEV        .M                                             0.0000 :SURFACE ELEV
ELEV_TYPE   .                                                  KB :ELEV TYPE
~CURVE INFORMATION
#MNEMONIC.UNIT        API CODE       : CURVE DESCRIPTION
#------------------------------------------------------------------------------
DEPTH    .M                          : Measured Depth
DT       .us/ft       UNKNOWN        : DT:Sonico:rC:NONE:v0 (auto-composite)
GR       .API         UNKNOWN        : GR:Sonico:rC:NONE:v0 (auto-composite)
GR-LWD   .API         UNKNOWN        : GR-LWD:resistivos-LWD:rC:NONE:v0 (auto-composite)
ILD-LWD  .ohm.m       UNKNOWN        : ILD-LWD:resistivos-LWD:rC:NONE:v0 (auto-composite)
ILM-LWD  .ohm.m       UNKNOWN        : ILM-LWD:resistivos-LWD:rC:NONE:v0 (auto-composite)
~A     DEPTH           DT           GR       GR-LWD      ILD-LWD      ILM-LWD
# ...
   2697.7847    -999.2500    -999.2500      35.4980       2.6984       2.4568
   2697.9370    -999.2500    -999.2500      36.4735       2.4707       2.2881
   2698.0894    -999.2500    -999.2500      37.6918       2.4313       2.2373
   2698.2419    -999.2500    -999.2500      37.9295       2.3972       2.1964
   2698.3943    -999.2500    -999.2500      37.8964       2.3121       2.1251
   2698.5466    -999.2500    -999.2500      37.6041       2.2830       2.1027
   2698.6990    -999.2500    -999.2500      37.7345       2.2271       2.0614
   2698.8516    -999.2500    -999.2500      38.1746       2.1979       2.0603
   2699.0039    -999.2500    -999.2500      36.6978       2.2098       2.0687
   2699.1562    -999.2500    -999.2500      36.2542       2.3305       2.1533
   2699.3086    -999.2500    -999.2500      37.5144       2.5388       2.3017
   2699.4612    -999.2500    -999.2500      36.8866       2.6494       2.3851
   2699.6135    -999.2500    -999.2500      34.8561       2.5376       2.3308
   2699.7659    -999.2500    -999.2500      34.1878       2.7287       2.4603
   2699.9182    -999.2500    -999.2500      36.0144       2.7167       2.4640
   2700.0706    -999.2500    -999.2500      38.1317       2.8028       2.5197
   2700.2231    -999.2500    -999.2500      38.8174       2.7852       2.4968
   2700.3755    -999.2500    -999.2500      38.7410       2.6399       2.3822
   2700.5278    -999.2500    -999.2500      37.7881       2.5155       2.2888
   2700.6802    -999.2500    -999.2500      37.0194       2.4587       2.2254
   2700.8328    -999.2500    -999.2500      38.0042       2.3571       2.1424
   2700.9851    -999.2500    -999.2500      39.3922       2.2420       2.0397
   2701.1375    -999.2500    -999.2500      39.1211       2.1201       1.9446
   2701.2898    -999.2500    -999.2500      37.8517       2.0323       1.8716
   2701.4424    -999.2500    -999.2500      35.7742       1.9741       1.8221
   2701.5947    -999.2500    -999.2500      33.8561       1.9696       1.8139
   2701.7471    -999.2500    -999.2500      34.2906       1.9934       1.8303
   2701.8994    -999.2500    -999.2500      35.0250       2.0124       1.8543
   2702.0518    -999.2500    -999.2500      34.1132       2.1115       1.9303
   2702.2043    -999.2500    -999.2500      33.1465       2.1470       1.9720
   2702.3567    -999.2500    -999.2500      32.9461       2.1680       1.9984
   2702.5090    -999.2500    -999.2500      33.1419       2.2458       2.0643
   2702.6614    -999.2500    -999.2500      33.9005       2.3635       2.1504
   2702.8140    -999.2500    -999.2500      33.9909       2.4674       2.2028
   2702.9663    -999.2500    -999.2500      34.2480       2.4490       2.1874
   2703.1187    -999.2500    -999.2500      35.3345       2.5935       2.2819
   2703.2710    -999.2500    -999.2500      34.9082       2.7146       2.3602
   2703.4236    -999.2500    -999.2500      33.6527       2.7378       2.3862
   2703.5759    -999.2500    -999.2500      34.1693       2.7604       2.4273
   2703.7283    -999.2500    -999.2500      35.6936       2.7244       2.4169
   2703.8806    -999.2500    -999.2500      37.2248       2.7029       2.4234
   2704.0330    -999.2500    -999.2500      39.3468       2.6051       2.3761
   2704.1855    -999.2500    -999.2500      40.7251       2.5613       2.3077
   2704.3379    -999.2500    -999.2500      41.0193       2.7047       2.4347
   2704.4902    -999.2500    -999.2500      40.6151       2.7472       2.4629
   2704.6426    -999.2500    -999.2500      40.0927       2.5006       2.2864
   2704.7952    -999.2500    -999.2500      40.0276       2.4709       2.2676
   2704.9475    -999.2500    -999.2500      40.1488       2.4329       2.2484
   2705.0999    -999.2500    -999.2500      39.9026       2.6231       2.3903
   2705.2522    -999.2500    -999.2500      37.9195       2.3490       2.2175
   2705.4048    -999.2500    -999.2500      36.6804       1.9612       1.9414
   2705.5571    -999.2500    -999.2500      38.1433       2.0996       1.9924
   2705.7095    -999.2500    -999.2500      38.7900       2.2905       2.0968
   2705.8618    -999.2500    -999.2500      38.4818       2.3236       2.0962
   2706.0142    -999.2500    -999.2500      38.3456       2.5181       2.2029
   2706.1667    -999.2500    -999.2500      38.2381       2.3733       2.1304
   2706.3191    -999.2500    -999.2500      39.1911       2.3388       2.1116
   2706.4714    -999.2500    -999.2500      38.9970       2.3052       2.0697
   2706.6238    -999.2500    -999.2500      37.7402       2.2358       2.0248
   2706.7764    -999.2500    -999.2500      37.8410       2.3083       2.0892
   2706.9287    -999.2500    -999.2500      37.2121       2.3152       2.0736
   2707.0811    -999.2500    -999.2500      36.6769       2.1113       1.9517
   2707.2334    -999.2500    -999.2500      38.6402       2.1465       1.9597
   2707.3860    -999.2500    -999.2500      39.4811       2.1573       1.9238
   2707.5383    -999.2500    -999.2500      39.3931       2.2154       1.9368
   2707.6907    -999.2500    -999.2500      40.8143       2.1567       1.9033
   2707.8430    -999.2500    -999.2500      41.2718       2.0111       1.8188
   2707.9954    -999.2500    -999.2500      40.6116       1.9452       1.7519
   2708.1479    -999.2500    -999.2500      39.6502       1.8268       1.6836
   2708.3003    -999.2500    -999.2500      39.0862       1.8354       1.6803
   2708.4526    -999.2500    -999.2500      39.7684       2.2189       1.9460
   2708.6050    -999.2500    -999.2500      38.8730       2.5399       2.2319
   2708.7576    -999.2500    -999.2500      38.8997       3.0290       2.6096
   2708.9099    -999.2500    -999.2500      41.6040       3.4958       3.0374
   2709.0623    -999.2500    -999.2500      40.3239       3.6887       3.2907
   2709.2146    -999.2500    -999.2500      37.0381       3.6505       3.3321
   2709.3672    -999.2500    -999.2500      36.9306       3.5279       3.2838
   2709.5195    -999.2500    -999.2500      37.2735       3.2360       3.0926
   2709.6719    -999.2500    -999.2500      37.2040       3.1081       2.9149
   2709.8242    -999.2500    -999.2500      38.2001       2.9179       2.7012
   2709.9766    -999.2500    -999.2500      37.9302       2.9682       2.7204
   2710.1292    -999.2500    -999.2500      36.0665       2.8847       2.6109
   2710.2815    -999.2500    -999.2500      35.6426       2.5966       2.3262
   2710.4338    -999.2500    -999.2500      36.0233       2.9082       2.5194
   2710.5862    -999.2500    -999.2500      36.2592       2.7401       2.4210
   2710.7388    -999.2500    -999.2500      36.8155       2.6346       2.3400
   2710.8911    -999.2500    -999.2500      38.4155       2.4036       2.2067
   2711.0435    -999.2500    -999.2500      40.5688       2.0600       2.0560
   2711.1958    -999.2500    -999.2500      41.1741       2.4466       2.3310
   2711.3484    -999.2500    -999.2500      41.0810       2.8940       2.6596
   2711.5007    -999.2500    -999.2500      41.8690       3.1542       2.9086
   2711.6531    -999.2500    -999.2500      42.7788       3.2791       3.0602
   2711.8054    -999.2500    -999.2500      43.0880       3.4544       3.2964
   2711.9578    -999.2500    -999.2500      43.1714       3.5382       3.4509
   2712.1104    -999.2500    -999.2500      43.4540       3.7208       3.5834
   2712.2627    -999.2500    -999.2500      43.1529       3.7758       3.6168
   2712.4150    -999.2500    -999.2500      41.5359       3.7930       3.6096
   2712.5674    -999.2500    -999.2500      39.0294       3.7870       3.5919
   2712.7200    -999.2500    -999.2500      36.9306       3.7961       3.5739
   2712.8723    -999.2500    -999.2500      38.4873       3.7334       3.5196
   2713.0247    -999.2500    -999.2500      40.8502       3.6979       3.4706
   2713.1770    -999.2500    -999.2500      40.0904       3.6640       3.4281
   2713.3296    -999.2500    -999.2500      40.3070       3.6290       3.3869
