#------------------------------------------------------------------------------
#
#   Created by  : [OpenWorks] Log Export Utility (LEXP)
#   Created on  : 2016-05-19 09:41:09
#   Project     : CANT971
#   User        : R5K
#   Interpreter : PEP
#
#------------------------------------------------------------------------------
~VERSION INFORMATION
VERS. 2.0 : CWLS Log ASCII Standard - version 2.0
WRAP.  NO : One line per depth step
~WELL INFORMATION
#MNEMONIC   .UNIT                                           VALUE :DESCRIPTION
#------------------------------------------------------------------------------
STRT        .M                                          1033.8815 :START DEPTH
STOP        .M                                          2740.3042 :STOP DEPTH
STEP        .M                                             0.1524 :STEP
NULL        .                                           -999.2500 :NULL VALUE
COMP        .                                             UNKNOWN :COMPANY
WELL        .                                            2275A-ST :WELL
FLD         .                                             UNKNOWN :FIELD
LOC         .                                             UNKNOWN :LOCATION
CNTY        .                                             UNKNOWN :COUNTY
STAT        .                                             UNKNOWN :STATE
CTRY        .                                             UNKNOWN :COUNTRY
SRVC        .                                             UNKNOWN :SERVICE COMPANY
DATE        .                                             UNKNOWN :LOG DATE
UWI         .                                            2275A-ST :UNIQUE WELL ID
XCOORD      .                                            0.000000 :SURFACE X
YCOORD      .                                            0.000000 :SURFACE Y
LAT         .                                            0.000000 :LATITUDE
LON         .                                            0.000000 :LONGITUDE
ELEV        .M                                             0.0000 :SURFACE ELEV
ELEV_TYPE   .                                                  KB :ELEV TYPE
~CURVE INFORMATION
#MNEMONIC.UNIT        API CODE       : CURVE DESCRIPTION
#------------------------------------------------------------------------------
DEPTH    .M                          : Measured Depth
DT       .us/ft       UNKNOWN        : DT:Sonico:rC:NONE:v0 (auto-composite)
GR       .API         UNKNOWN        : GR:Sonico:rC:NONE:v0 (auto-composite)
GR-LWD   .API         UNKNOWN        : GR-LWD:resistivos-LWD:rC:NONE:v0 (auto-composite)
ILD-LWD  .ohm.m       UNKNOWN        : ILD-LWD:resistivos-LWD:rC:NONE:v0 (auto-composite)
ILM-LWD  .ohm.m       UNKNOWN        : ILM-LWD:resistivos-LWD:rC:NONE:v0 (auto-composite)
~A     DEPTH           DT           GR       GR-LWD      ILD-LWD      ILM-LWD
# ...
   2556.5098    -999.2500    -999.2500      55.9218       0.8361       0.7962
   2556.6624    -999.2500    -999.2500      54.1716       0.8872       0.8296
   2556.8147    -999.2500    -999.2500      53.4268       0.9189       0.8561
   2556.9670    -999.2500    -999.2500      54.5098       0.8878       0.8522
   2557.1194    -999.2500    -999.2500      54.9233       0.8867       0.8601
   2557.2720    -999.2500    -999.2500      54.4577       0.9551       0.9044
   2557.4243    -999.2500    -999.2500      54.1380       1.0488       0.9746
   2557.5767    -999.2500    -999.2500      54.5573       1.0633       0.9919
   2557.7290    -999.2500    -999.2500      54.9419       1.0648       0.9938
   2557.8813    -999.2500    -999.2500      54.5226       0.9992       0.9436
   2558.0339    -999.2500    -999.2500      54.6708       0.9666       0.9170
   2558.1863    -999.2500    -999.2500      55.0646       0.9713       0.9145
   2558.3386    -999.2500    -999.2500      54.8839       0.9540       0.9015
   2558.4910    -999.2500    -999.2500      54.6199       0.9244       0.8726
   2558.6436    -999.2500    -999.2500      53.3573       0.9220       0.8695
   2558.7959    -999.2500    -999.2500      53.4291       0.9044       0.8619
   2558.9482    -999.2500    -999.2500      56.0492       0.9230       0.8808
   2559.1006    -999.2500    -999.2500      58.1202       0.9344       0.8903
   2559.2532    -999.2500    -999.2500      58.4885       0.9182       0.8782
   2559.4055    -999.2500    -999.2500      58.0368       0.9292       0.8916
   2559.5579    -999.2500    -999.2500      56.8067       0.9859       0.9309
   2559.7102    -999.2500    -999.2500      54.7496       0.9985       0.9432
   2559.8625    -999.2500    -999.2500      54.5348       1.0296       0.9680
   2560.0151    -999.2500    -999.2500      54.9871       1.0271       0.9692
   2560.1675    -999.2500    -999.2500      54.4468       0.9454       0.9042
   2560.3198    -999.2500    -999.2500      55.3009       0.8380       0.8113
   2560.4722    -999.2500    -999.2500      57.7912       0.9131       0.8634
   2560.6248    -999.2500    -999.2500      60.8190       0.9860       0.9139
   2560.7771    -999.2500    -999.2500      61.1595       1.0506       0.9671
   2560.9294    -999.2500    -999.2500      58.4144       0.9678       0.9054
   2561.0818    -999.2500    -999.2500      56.7766       0.9224       0.8711
   2561.2344    -999.2500    -999.2500      55.6345       0.9530       0.9002
   2561.3867    -999.2500    -999.2500      53.7465       0.9855       0.9254
   2561.5391    -999.2500    -999.2500      53.3726       0.9596       0.8959
   2561.6914    -999.2500    -999.2500      54.1292       0.7921       0.7556
   2561.8438    -999.2500    -999.2500      53.4375       0.7271       0.7029
   2561.9963    -999.2500    -999.2500      51.9628       0.7406       0.7182
   2562.1487    -999.2500    -999.2500      51.3651       0.7600       0.7294
   2562.3010    -999.2500    -999.2500      51.2886       0.7609       0.7307
   2562.4534    -999.2500    -999.2500      51.6709       0.7819       0.7518
   2562.6060    -999.2500    -999.2500      52.6716       0.8495       0.8179
   2562.7583    -999.2500    -999.2500      54.9581       0.9122       0.8755
   2562.9106    -999.2500    -999.2500      59.8089       0.8873       0.8472
   2563.0630    -999.2500    -999.2500      62.1718       0.8278       0.8034
   2563.2156    -999.2500    -999.2500      57.5850       0.7790       0.7632
   2563.3679    -999.2500    -999.2500      53.0330       0.8013       0.7790
   2563.5203    -999.2500    -999.2500      52.6670       0.9974       0.9339
   2563.6726    -999.2500    -999.2500      53.2779       1.0522       0.9818
   2563.8250    -999.2500    -999.2500      53.0989       0.9898       0.9321
   2563.9775    -999.2500    -999.2500      53.0393       0.8958       0.8680
   2564.1299    -999.2500    -999.2500      53.2253       0.8197       0.8131
   2564.2822    -999.2500    -999.2500      51.8214       0.7945       0.7819
   2564.4346    -999.2500    -999.2500      48.1659       0.8358       0.8005
   2564.5872    -999.2500    -999.2500      46.1239       0.9678       0.9054
   2564.7395    -999.2500    -999.2500      47.9065       1.1126       1.0313
   2564.8918    -999.2500    -999.2500      47.9617       1.0395       0.9791
   2565.0442    -999.2500    -999.2500      46.5343       0.9155       0.8831
   2565.1968    -999.2500    -999.2500      46.5057       0.8827       0.8460
   2565.3491    -999.2500    -999.2500      48.0941       0.8788       0.8336
   2565.5015    -999.2500    -999.2500      51.1218       0.7851       0.7430
   2565.6538    -999.2500    -999.2500      50.3782       0.6955       0.6654
   2565.8062    -999.2500    -999.2500      48.4949       0.6803       0.6602
   2565.9587    -999.2500    -999.2500      51.0477       0.6917       0.6775
   2566.1111    -999.2500    -999.2500      53.5172       0.8732       0.8303
   2566.2634    -999.2500    -999.2500      51.6106       0.8970       0.8512
   2566.4158    -999.2500    -999.2500      48.2864       0.8334       0.8043
   2566.5684    -999.2500    -999.2500      47.7964       0.7905       0.7696
   2566.7207    -999.2500    -999.2500      48.5922       0.7755       0.7524
   2566.8730    -999.2500    -999.2500      48.9953       0.8090       0.7641
   2567.0254    -999.2500    -999.2500      49.6439       0.8650       0.8033
   2567.1780    -999.2500    -999.2500      49.6247       0.8418       0.7911
   2567.3303    -999.2500    -999.2500      48.4680       0.7497       0.7261
   2567.4827    -999.2500    -999.2500      48.0668       0.7231       0.7130
   2567.6350    -999.2500    -999.2500      49.2524       0.8364       0.8082
   2567.7874    -999.2500    -999.2500      50.7141       0.9497       0.8988
   2567.9399    -999.2500    -999.2500      53.6937       1.1180       1.0258
   2568.0923    -999.2500    -999.2500      55.3308       1.1289       1.0449
   2568.2446    -999.2500    -999.2500      53.0590       1.0064       0.9679
   2568.3970    -999.2500    -999.2500      53.0724       0.9158       0.8986
   2568.5496    -999.2500    -999.2500      56.5032       0.9421       0.8984
   2568.7019    -999.2500    -999.2500      58.0935       1.0184       0.9431
   2568.8542    -999.2500    -999.2500      58.3078       1.0767       0.9831
   2569.0066    -999.2500    -999.2500      58.7873       1.1077       1.0073
   2569.1592    -999.2500    -999.2500      58.6738       0.9964       0.9329
   2569.3115    -999.2500    -999.2500      58.8603       0.8444       0.8207
   2569.4639    -999.2500    -999.2500      58.6344       0.7811       0.7637
   2569.6162    -999.2500    -999.2500      58.4364       0.8319       0.7933
   2569.7686    -999.2500    -999.2500      59.6700       0.8692       0.8153
   2569.9211    -999.2500    -999.2500      60.1669       0.8211       0.7806
   2570.0735    -999.2500    -999.2500      58.8290       0.8386       0.7954
   2570.2258    -999.2500    -999.2500      57.2943       0.8724       0.8354
   2570.3782    -999.2500    -999.2500      56.7812       0.8396       0.8270
   2570.5308    -999.2500    -999.2500      57.1380       0.8888       0.8662
   2570.6831    -999.2500    -999.2500      57.3279       1.0078       0.9615
   2570.8354    -999.2500    -999.2500      57.1241       1.1504       1.0899
   2570.9878    -999.2500    -999.2500      57.2677       1.2429       1.1696
   2571.1404    -999.2500    -999.2500      57.5271       1.1797       1.1371
   2571.2927    -999.2500    -999.2500      56.0306       1.1635       1.1271
   2571.4451    -999.2500    -999.2500      52.5234       1.0998       1.0818
   2571.5974    -999.2500    -999.2500      50.2520       1.0870       1.0319
   2571.7498    -999.2500    -999.2500      49.8779       1.0434       0.9631
   2571.9023    -999.2500    -999.2500      50.9307       1.2760       1.1493
   2572.0547    -999.2500    -999.2500      53.7697       1.2203       1.1069
