#------------------------------------------------------------------------------
#
#   Created by  : [OpenWorks] Log Export Utility (LEXP)
#   Created on  : 2016-05-19 09:41:09
#   Project     : CANT971
#   User        : R5K
#   Interpreter : PEP
#
#------------------------------------------------------------------------------
~VERSION INFORMATION
VERS. 2.0 : CWLS Log ASCII Standard - version 2.0
WRAP.  NO : One line per depth step
~WELL INFORMATION
#MNEMONIC   .UNIT                                           VALUE :DESCRIPTION
#------------------------------------------------------------------------------
STRT        .M                                          1033.8815 :START DEPTH
STOP        .M                                          2740.3042 :STOP DEPTH
STEP        .M                                             0.1524 :STEP
NULL        .                                           -999.2500 :NULL VALUE
COMP        .                                             UNKNOWN :COMPANY
WELL        .                                            2275A-ST :WELL
FLD         .                                             UNKNOWN :FIELD
LOC         .                                             UNKNOWN :LOCATION
CNTY        .                                             UNKNOWN :COUNTY
STAT        .                                             UNKNOWN :STATE
CTRY        .                                             UNKNOWN :COUNTRY
SRVC        .                                             UNKNOWN :SERVICE COMPANY
DATE        .                                             UNKNOWN :LOG DATE
UWI         .                                            2275A-ST :UNIQUE WELL ID
XCOORD      .                                            0.000000 :SURFACE X
YCOORD      .                                            0.000000 :SURFACE Y
LAT         .                                            0.000000 :LATITUDE
LON         .                                            0.000000 :LONGITUDE
ELEV        .M                                             0.0000 :SURFACE ELEV
ELEV_TYPE   .                                                  KB :ELEV TYPE
~CURVE INFORMATION
#MNEMONIC.UNIT        API CODE       : CURVE DESCRIPTION
#------------------------------------------------------------------------------
DEPTH    .M                          : Measured Depth
DT       .us/ft       UNKNOWN        : DT:Sonico:rC:NONE:v0 (auto-composite)
GR       .API         UNKNOWN        : GR:Sonico:rC:NONE:v0 (auto-composite)
GR-LWD   .API         UNKNOWN        : GR-LWD:resistivos-LWD:rC:NONE:v0 (auto-composite)
ILD-LWD  .ohm.m       UNKNOWN        : ILD-LWD:resistivos-LWD:rC:NONE:v0 (auto-composite)
ILM-LWD  .ohm.m       UNKNOWN        : ILM-LWD:resistivos-LWD:rC:NONE:v0 (auto-composite)
~A     DEPTH           DT           GR       GR-LWD      ILD-LWD      ILM-LWD
# ...
   2713.4819    -999.2500    -999.2500      40.8236       3.6721       3.4037
   2713.6343    -999.2500    -999.2500      39.6746       3.6363       3.3632
   2713.7866    -999.2500    -999.2500      40.1170       3.6510       3.3614
   2713.9390    -999.2500    -999.2500      41.5487       3.6403       3.3286
   2714.0916    -999.2500    -999.2500      41.4734       3.6669       3.3354
   2714.2439    -999.2500    -999.2500      40.1161       3.7451       3.3749
   2714.3962    -999.2500    -999.2500      39.0554       3.7941       3.4055
   2714.5486    -999.2500    -999.2500      39.4269       3.7896       3.4145
   2714.7012    -999.2500    -999.2500      40.4110       3.7014       3.3627
   2714.8535    -999.2500    -999.2500      41.2436       3.6494       3.3050
   2715.0059    -999.2500    -999.2500      41.3145       3.5958       3.2547
   2715.1582    -999.2500    -999.2500      40.1692       3.6349       3.2386
   2715.3108    -999.2500    -999.2500      39.9977       3.6796       3.2546
   2715.4631    -999.2500    -999.2500      40.4935       3.6518       3.2583
   2715.6155    -999.2500    -999.2500      40.1958       3.8607       3.4524
   2715.7678    -999.2500    -999.2500      41.0031       3.8540       3.4835
   2715.9202    -999.2500    -999.2500      40.9204       3.3981       3.1998
   2716.0728    -999.2500    -999.2500      39.4408       3.1711       2.9996
   2716.2251    -999.2500    -999.2500      39.2073       3.2619       3.0007
   2716.3774    -999.2500    -999.2500      39.3167       3.2936       2.9924
   2716.5298    -999.2500    -999.2500      39.3120       3.4800       3.1553
   2716.6824    -999.2500    -999.2500      38.7329       3.7862       3.4188
   2716.8347    -999.2500    -999.2500      38.1086       3.7967       3.4404
   2716.9871    -999.2500    -999.2500      37.6534       3.6496       3.3226
   2717.1394    -999.2500    -999.2500      36.7047       3.2436       3.0379
   2717.2917    -999.2500    -999.2500      36.9931       3.0831       2.9391
   2717.4443    -999.2500    -999.2500      37.9105       2.9771       2.8256
   2717.5967    -999.2500    -999.2500      37.9035       2.8117       2.6591
   2717.7490    -999.2500    -999.2500      38.6611       2.5591       2.4357
   2717.9014    -999.2500    -999.2500      39.1777       2.3777       2.2887
   2718.0540    -999.2500    -999.2500      37.6395       2.7334       2.5460
   2718.2063    -999.2500    -999.2500      36.4636       3.1084       2.7916
   2718.3586    -999.2500    -999.2500      36.8676       2.8407       2.5972
   2718.5110    -999.2500    -999.2500      37.7812       2.4573       2.3361
   2718.6636    -999.2500    -999.2500      37.9640       2.3079       2.2559
   2718.8159    -999.2500    -999.2500      37.3490       2.4946       2.3661
   2718.9683    -999.2500    -999.2500      37.4185       3.1129       2.7543
   2719.1206    -999.2500    -999.2500      37.9668       3.0773       2.7524
   2719.2729    -999.2500    -999.2500      37.9348       2.9533       2.6773
   2719.4255    -999.2500    -999.2500      38.6520       2.8761       2.6456
   2719.5779    -999.2500    -999.2500      38.7681       2.7956       2.6132
   2719.7302    -999.2500    -999.2500      37.2100       2.7744       2.5897
   2719.8826    -999.2500    -999.2500      37.1975       2.7533       2.5861
   2720.0352    -999.2500    -999.2500      38.4234       2.8045       2.6110
   2720.1875    -999.2500    -999.2500      39.0266       2.8324       2.6430
   2720.3398    -999.2500    -999.2500      38.5817       2.8276       2.6358
   2720.4922    -999.2500    -999.2500      39.4468       2.7966       2.6083
   2720.6448    -999.2500    -999.2500      41.1781       2.7894       2.5992
   2720.7971    -999.2500    -999.2500      40.1865       2.8408       2.6498
   2720.9495    -999.2500    -999.2500      38.0889       2.8692       2.6583
   2721.1018    -999.2500    -999.2500      36.2681       2.8106       2.6380
   2721.2542    -999.2500    -999.2500      36.7230       2.8123       2.6397
   2721.4067    -999.2500    -999.2500      39.0463       2.8088       2.6156
   2721.5591    -999.2500    -999.2500      40.3763       2.7798       2.5804
   2721.7114    -999.2500    -999.2500      41.1491       2.7361       2.5473
   2721.8638    -999.2500    -999.2500      39.7730       2.7962       2.5797
   2722.0164    -999.2500    -999.2500      36.5379       3.0104       2.6870
   2722.1687    -999.2500    -999.2500      34.7623       2.8921       2.6237
   2722.3210    -999.2500    -999.2500      35.5453       2.8412       2.6270
   2722.4734    -999.2500    -999.2500      37.7275       2.7910       2.5960
   2722.6260    -999.2500    -999.2500      38.4188       2.7625       2.5499
   2722.7783    -999.2500    -999.2500      37.5996       2.7165       2.4950
   2722.9307    -999.2500    -999.2500      38.1056       2.7635       2.5340
   2723.0830    -999.2500    -999.2500      39.6228       2.8980       2.6033
   2723.2354    -999.2500    -999.2500      40.3590       2.8183       2.5689
   2723.3879    -999.2500    -999.2500      39.7442       2.7996       2.5483
   2723.5403    -999.2500    -999.2500      38.4893       2.8013       2.5450
   2723.6926    -999.2500    -999.2500      37.7037       2.8840       2.6127
   2723.8450    -999.2500    -999.2500      38.8368       2.7945       2.5608
   2723.9976    -999.2500    -999.2500      39.9491       2.7024       2.4906
   2724.1499    -999.2500    -999.2500      38.8024       2.7039       2.5123
   2724.3022    -999.2500    -999.2500      38.6286       2.7045       2.5434
   2724.4546    -999.2500    -999.2500      39.8912       2.6649       2.4960
   2724.6072    -999.2500    -999.2500      40.2414       2.6958       2.4828
   2724.7595    -999.2500    -999.2500      39.6048       2.7331       2.4591
   2724.9119    -999.2500    -999.2500      39.7550       2.7850       2.4772
   2725.0642    -999.2500    -999.2500      40.0371       3.0365       2.6062
   2725.2166    -999.2500    -999.2500      39.3074       2.9228       2.5833
   2725.3691    -999.2500    -999.2500      37.4206       2.9769       2.6584
   2725.5215    -999.2500    -999.2500      34.7368       2.8961       2.7031
   2725.6738    -999.2500    -999.2500      35.0600       2.7485       2.5447
   2725.8262    -999.2500    -999.2500      36.8310       2.7152       2.4802
   2725.9788    -999.2500    -999.2500      36.0179       2.6718       2.4323
   2726.1311    -999.2500    -999.2500      34.8897       2.6783       2.3899
   2726.2834    -999.2500    -999.2500      35.0032       2.9794       2.5308
   2726.4358    -999.2500    -999.2500      34.8967       3.2852       2.7430
   2726.5884    -999.2500    -999.2500      34.1285       3.3614       2.8523
   2726.7407    -999.2500    -999.2500      33.2723       3.5003       2.9990
   2726.8931    -999.2500    -999.2500      33.2482       3.7645       3.1862
   2727.0454    -999.2500    -999.2500      33.8843       3.5430       3.0466
   2727.1978    -999.2500    -999.2500      34.7924       3.5217       3.0102
   2727.3503    -999.2500    -999.2500      35.7144       3.5108       3.0152
   2727.5027    -999.2500    -999.2500      35.3530       3.4385       2.9821
   2727.6550    -999.2500    -999.2500      34.2063       3.4300       2.9398
   2727.8074    -999.2500    -999.2500      34.7345       3.3574       2.8874
   2727.9600    -999.2500    -999.2500      36.0549       3.2685       2.8382
   2728.1123    -999.2500    -999.2500      35.3275       3.3079       2.8030
   2728.2646    -999.2500    -999.2500      34.3268       3.4812       2.8892
   2728.4170    -999.2500    -999.2500      35.4549       3.5673       2.9994
   2728.5696    -999.2500    -999.2500      38.2325       3.6022       3.0749
   2728.7219    -999.2500    -999.2500      39.4209       3.5323       3.0590
   2728.8743    -999.2500    -999.2500      37.4078       3.5402       3.1080
   2729.0266    -999.2500    -999.2500      36.5970       3.5840       3.1997
