#------------------------------------------------------------------------------
#
#   Created by  : [OpenWorks] Log Export Utility (LEXP)
#   Created on  : 2016-05-19 09:41:09
#   Project     : CANT971
#   User        : R5K
#   Interpreter : PEP
#
#------------------------------------------------------------------------------
~VERSION INFORMATION
VERS. 2.0 : CWLS Log ASCII Standard - version 2.0
WRAP.  NO : One line per depth step
~WELL INFORMATION
#MNEMONIC   .UNIT                                           VALUE :DESCRIPTION
#------------------------------------------------------------------------------
STRT        .M                                          1033.8815 :START DEPTH
STOP        .M                                          2740.3042 :STOP DEPTH
STEP        .M                                             0.1524 :STEP
NULL        .                                           -999.2500 :NULL VALUE
COMP        .                                             UNKNOWN :COMPANY
WELL        .                                            2275A-ST :WELL
FLD         .                                             UNKNOWN :FIELD
LOC         .                                             UNKNOWN :LOCATION
CNTY        .                                             UNKNOWN :COUNTY
STAT        .                                             UNKNOWN :STATE
CTRY        .                                             UNKNOWN :COUNTRY
SRVC        .                                             UNKNOWN :SERVICE COMPANY
DATE        .                                             UNKNOWN :LOG DATE
UWI         .                                            2275A-ST :UNIQUE WELL ID
XCOORD      .                                            0.000000 :SURFACE X
YCOORD      .                                            0.000000 :SURFACE Y
LAT         .                                            0.000000 :LATITUDE
LON         .                                            0.000000 :LONGITUDE
ELEV        .M                                             0.0000 :SURFACE ELEV
ELEV_TYPE   .                                                  KB :ELEV TYPE
~CURVE INFORMATION
#MNEMONIC.UNIT        API CODE       : CURVE DESCRIPTION
#------------------------------------------------------------------------------
DEPTH    .M                          : Measured Depth
DT       .us/ft       UNKNOWN        : DT:Sonico:rC:NONE:v0 (auto-composite)
GR       .API         UNKNOWN        : GR:Sonico:rC:NONE:v0 (auto-composite)
GR-LWD   .API         UNKNOWN        : GR-LWD:resistivos-LWD:rC:NONE:v0 (auto-composite)
ILD-LWD  .ohm.m       UNKNOWN        : ILD-LWD:resistivos-LWD:rC:NONE:v0 (auto-composite)
ILM-LWD  .ohm.m       UNKNOWN        : ILM-LWD:resistivos-LWD:rC:NONE:v0 (auto-composite)
~A     DEPTH           DT           GR       GR-LWD      ILD-LWD      ILM-LWD
# ...
   2650.6931    -999.2500    -999.2500      48.0455       1.8147       1.7388
   2650.8455    -999.2500    -999.2500      47.1721       1.9304       1.7887
   2650.9978    -999.2500    -999.2500      46.0833       1.9529       1.7936
   2651.1504    -999.2500    -999.2500      44.8625       1.8967       1.7665
   2651.3027    -999.2500    -999.2500      42.4116       1.8773       1.7811
   2651.4551    -999.2500    -999.2500      39.8124       2.0475       1.9142
   2651.6074    -999.2500    -999.2500      39.3549       2.2236       2.0393
   2651.7598    -999.2500    -999.2500      40.6985       2.2509       2.0526
   2651.9124    -999.2500    -999.2500      42.5842       2.3183       2.1027
   2652.0647    -999.2500    -999.2500      43.1193       2.4649       2.2024
   2652.2170    -999.2500    -999.2500      41.7690       2.4120       2.1751
   2652.3694    -999.2500    -999.2500      41.6175       2.2241       2.0453
   2652.5220    -999.2500    -999.2500      43.9998       2.1534       1.9933
   2652.6743    -999.2500    -999.2500      44.4119       2.0622       1.9213
   2652.8267    -999.2500    -999.2500      42.1128       2.1436       1.9797
   2652.9790    -999.2500    -999.2500      41.2271       1.9909       1.8312
   2653.1313    -999.2500    -999.2500      42.2086       2.0547       1.8821
   2653.2839    -999.2500    -999.2500      43.3994       2.0477       1.8990
   2653.4363    -999.2500    -999.2500      43.8273       2.0823       1.9278
   2653.5886    -999.2500    -999.2500      43.7438       2.0461       1.8930
   2653.7410    -999.2500    -999.2500      44.5939       1.9732       1.8442
   2653.8936    -999.2500    -999.2500      44.3005       2.0096       1.8756
   2654.0459    -999.2500    -999.2500      42.2228       1.9957       1.8618
   2654.1982    -999.2500    -999.2500      41.1560       1.9353       1.8081
   2654.3506    -999.2500    -999.2500      40.7228       1.7825       1.6832
   2654.5032    -999.2500    -999.2500      41.0379       1.7181       1.6058
   2654.6555    -999.2500    -999.2500      42.1220       1.8697       1.7113
   2654.8079    -999.2500    -999.2500      43.1876       2.2073       1.9838
   2654.9602    -999.2500    -999.2500      44.4061       2.2363       2.0322
   2655.1125    -999.2500    -999.2500      45.7382       2.3424       2.1562
   2655.2651    -999.2500    -999.2500      46.8663       2.4511       2.2984
   2655.4175    -999.2500    -999.2500      47.9574       2.2808       2.2109
   2655.5698    -999.2500    -999.2500      47.6933       2.1277       2.0828
   2655.7222    -999.2500    -999.2500      46.4007       1.9814       1.9513
   2655.8748    -999.2500    -999.2500      47.0076       1.5369       1.5212
   2656.0271    -999.2500    -999.2500      47.9667       1.4708       1.4211
   2656.1794    -999.2500    -999.2500      48.6941       1.7503       1.6013
   2656.3318    -999.2500    -999.2500      50.3168       2.0298       1.8275
   2656.4844    -999.2500    -999.2500      50.1975       2.0765       1.9125
   2656.6367    -999.2500    -999.2500      47.8150       2.0315       1.9191
   2656.7891    -999.2500    -999.2500      47.4941       2.1384       2.0175
   2656.9414    -999.2500    -999.2500      49.2788       2.1821       2.0664
   2657.0938    -999.2500    -999.2500      48.9081       1.9224       1.8709
   2657.2463    -999.2500    -999.2500      47.7422       1.6684       1.6216
   2657.3987    -999.2500    -999.2500      47.3947       1.4359       1.3906
   2657.5510    -999.2500    -999.2500      45.8540       1.4638       1.3747
   2657.7034    -999.2500    -999.2500      43.8532       2.1337       1.8536
   2657.8560    -999.2500    -999.2500      43.2194       2.2738       2.0024
   2658.0083    -999.2500    -999.2500      43.7441       2.1317       1.9187
   2658.1606    -999.2500    -999.2500      44.8486       2.0140       1.8676
   2658.3130    -999.2500    -999.2500      44.1831       1.9750       1.8894
   2658.4656    -999.2500    -999.2500      41.8857       1.9118       1.8213
   2658.6179    -999.2500    -999.2500      41.1056       1.9653       1.8143
   2658.7703    -999.2500    -999.2500      42.2713       1.9745       1.8109
   2658.9226    -999.2500    -999.2500      42.8407       1.9952       1.8166
   2659.0750    -999.2500    -999.2500      41.5475       1.9154       1.7609
   2659.2275    -999.2500    -999.2500      41.5707       1.9137       1.7560
   2659.3799    -999.2500    -999.2500      42.2934       1.9419       1.7743
   2659.5322    -999.2500    -999.2500      42.5656       1.9112       1.7515
   2659.6846    -999.2500    -999.2500      43.0370       1.7741       1.6658
   2659.8372    -999.2500    -999.2500      42.9467       1.7526       1.6552
   2659.9895    -999.2500    -999.2500      42.8830       1.7276       1.6195
   2660.1418    -999.2500    -999.2500      42.3861       1.9396       1.7450
   2660.2942    -999.2500    -999.2500      42.4452       2.0152       1.7996
   2660.4468    -999.2500    -999.2500      43.2930       2.1901       1.9416
   2660.5991    -999.2500    -999.2500      42.7718       2.1101       1.9006
   2660.7515    -999.2500    -999.2500      42.1422       1.9907       1.8418
   2660.9038    -999.2500    -999.2500      41.8405       1.9993       1.8424
   2661.0562    -999.2500    -999.2500      42.7878       1.9348       1.7817
   2661.2087    -999.2500    -999.2500      45.4565       1.7960       1.6560
   2661.3611    -999.2500    -999.2500      45.7789       1.7551       1.6274
   2661.5134    -999.2500    -999.2500      44.4451       1.6687       1.5757
   2661.6658    -999.2500    -999.2500      42.9861       1.5640       1.4884
   2661.8184    -999.2500    -999.2500      42.5381       1.4480       1.3971
   2661.9707    -999.2500    -999.2500      44.4946       1.4089       1.3764
   2662.1230    -999.2500    -999.2500      45.9040       1.5476       1.4787
   2662.2754    -999.2500    -999.2500      46.5351       1.6832       1.5763
   2662.4280    -999.2500    -999.2500      46.8426       1.7672       1.6506
   2662.5803    -999.2500    -999.2500      47.2543       1.8447       1.7289
   2662.7327    -999.2500    -999.2500      47.6348       2.0197       1.8595
   2662.8850    -999.2500    -999.2500      46.7876       2.2020       1.9922
   2663.0374    -999.2500    -999.2500      46.9289       2.1851       1.9728
   2663.1899    -999.2500    -999.2500      47.1906       1.9461       1.7907
   2663.3423    -999.2500    -999.2500      45.2951       1.9252       1.7627
   2663.4946    -999.2500    -999.2500      42.9961       1.7871       1.6772
   2663.6470    -999.2500    -999.2500      41.8542       1.8331       1.7097
   2663.7996    -999.2500    -999.2500      41.5968       1.9296       1.7650
   2663.9519    -999.2500    -999.2500      41.3586       1.9547       1.7838
   2664.1042    -999.2500    -999.2500      40.6429       2.0680       1.8710
   2664.2566    -999.2500    -999.2500      40.0528       2.1260       1.9425
   2664.4092    -999.2500    -999.2500      40.8956       2.1828       2.0172
   2664.5615    -999.2500    -999.2500      42.4076       2.2224       2.0408
   2664.7139    -999.2500    -999.2500      42.2680       2.2972       2.0771
   2664.8662    -999.2500    -999.2500      40.8252       2.1860       1.9925
   2665.0186    -999.2500    -999.2500      39.2419       2.0977       1.9456
   2665.1711    -999.2500    -999.2500      38.5667       1.9982       1.8557
   2665.3235    -999.2500    -999.2500      39.2243       1.7967       1.6829
   2665.4758    -999.2500    -999.2500      40.2801       1.8029       1.6674
   2665.6282    -999.2500    -999.2500      40.9174       1.8531       1.7033
   2665.7808    -999.2500    -999.2500      41.0807       1.8989       1.7461
   2665.9331    -999.2500    -999.2500      42.6571       1.9796       1.8148
   2666.0854    -999.2500    -999.2500      43.9451       2.3358       2.0472
   2666.2378    -999.2500    -999.2500      42.2402       2.4654       2.1476
