#------------------------------------------------------------------------------
#
#   Created by  : [OpenWorks] Log Export Utility (LEXP)
#   Created on  : 2016-05-19 09:41:09
#   Project     : CANT971
#   User        : R5K
#   Interpreter : PEP
#
#------------------------------------------------------------------------------
~VERSION INFORMATION
VERS. 2.0 : CWLS Log ASCII Standard - version 2.0
WRAP.  NO : One line per depth step
~WELL INFORMATION
#MNEMONIC   .UNIT                                           VALUE :DESCRIPTION
#------------------------------------------------------------------------------
STRT        .M                                          1033.8815 :START DEPTH
STOP        .M                                          2740.3042 :STOP DEPTH
STEP        .M                                             0.1524 :STEP
NULL        .                                           -999.2500 :NULL VALUE
COMP        .                                             UNKNOWN :COMPANY
WELL        .                                            2275A-ST :WELL
FLD         .                                             UNKNOWN :FIELD
LOC         .                                             UNKNOWN :LOCATION
CNTY        .                                             UNKNOWN :COUNTY
STAT        .                                             UNKNOWN :STATE
CTRY        .                                             UNKNOWN :COUNTRY
SRVC        .                                             UNKNOWN :SERVICE COMPANY
DATE        .                                             UNKNOWN :LOG DATE
UWI         .                                            2275A-ST :UNIQUE WELL ID
XCOORD      .                                            0.000000 :SURFACE X
YCOORD      .                                            0.000000 :SURFACE Y
LAT         .                                            0.000000 :LATITUDE
LON         .                                            0.000000 :LONGITUDE
ELEV        .M                                             0.0000 :SURFACE ELEV
ELEV_TYPE   .                                                  KB :ELEV TYPE
~CURVE INFORMATION
#MNEMONIC.UNIT        API CODE       : CURVE DESCRIPTION
#------------------------------------------------------------------------------
DEPTH    .M                          : Measured Depth
DT       .us/ft       UNKNOWN        : DT:Sonico:rC:NONE:v0 (auto-composite)
GR       .API         UNKNOWN        : GR:Sonico:rC:NONE:v0 (auto-composite)
GR-LWD   .API         UNKNOWN        : GR-LWD:resistivos-LWD:rC:NONE:v0 (auto-composite)
ILD-LWD  .ohm.m       UNKNOWN        : ILD-LWD:resistivos-LWD:rC:NONE:v0 (auto-composite)
ILM-LWD  .ohm.m       UNKNOWN        : ILM-LWD:resistivos-LWD:rC:NONE:v0 (auto-composite)
~A     DEPTH           DT           GR       GR-LWD      ILD-LWD      ILM-LWD
# ...
   2619.2986    -999.2500    -999.2500      47.6794       0.9372       0.9135
   2619.4512    -999.2500    -999.2500      48.0686       0.9283       0.9147
   2619.6035    -999.2500    -999.2500      47.0771       1.0538       1.0118
   2619.7559    -999.2500    -999.2500      45.1938       1.2124       1.1292
   2619.9082    -999.2500    -999.2500      44.6309       1.4697       1.3136
   2620.0608    -999.2500    -999.2500      44.7536       1.5094       1.3589
   2620.2131    -999.2500    -999.2500      46.3961       1.3744       1.2813
   2620.3655    -999.2500    -999.2500      48.0802       1.2945       1.2174
   2620.5178    -999.2500    -999.2500      47.6690       1.3654       1.2529
   2620.6702    -999.2500    -999.2500      47.4015       1.5737       1.3964
   2620.8228    -999.2500    -999.2500      48.3455       1.6031       1.4297
   2620.9751    -999.2500    -999.2500      48.9813       1.4037       1.2873
   2621.1274    -999.2500    -999.2500      49.3474       1.1650       1.1197
   2621.2798    -999.2500    -999.2500      50.5242       1.0958       1.0761
   2621.4324    -999.2500    -999.2500      51.4624       1.2659       1.1936
   2621.5847    -999.2500    -999.2500      52.1272       1.3706       1.2562
   2621.7371    -999.2500    -999.2500      52.3299       1.3568       1.2526
   2621.8894    -999.2500    -999.2500      51.1223       1.1761       1.1340
   2622.0417    -999.2500    -999.2500      50.1556       1.1950       1.1561
   2622.1943    -999.2500    -999.2500      50.3069       1.2252       1.1655
   2622.3467    -999.2500    -999.2500      50.9805       1.2919       1.1928
   2622.4990    -999.2500    -999.2500      52.2373       1.2904       1.2011
   2622.6514    -999.2500    -999.2500      51.6326       1.1169       1.0730
   2622.8040    -999.2500    -999.2500      48.4115       1.0692       1.0474
   2622.9563    -999.2500    -999.2500      47.1686       1.1044       1.0714
   2623.1086    -999.2500    -999.2500      47.6204       1.1586       1.1095
   2623.2610    -999.2500    -999.2500      48.2401       1.4345       1.2970
   2623.4136    -999.2500    -999.2500      48.5093       1.4993       1.3461
   2623.5659    -999.2500    -999.2500      45.8366       1.4259       1.3122
   2623.7183    -999.2500    -999.2500      43.1488       1.4445       1.3350
   2623.8706    -999.2500    -999.2500      42.8193       1.3804       1.2880
   2624.0229    -999.2500    -999.2500      43.8895       1.3662       1.2732
   2624.1755    -999.2500    -999.2500      44.9718       1.3388       1.2445
   2624.3279    -999.2500    -999.2500      44.7959       1.2734       1.2018
   2624.4802    -999.2500    -999.2500      44.0955       1.3198       1.2405
   2624.6326    -999.2500    -999.2500      42.4321       1.3618       1.2688
   2624.7852    -999.2500    -999.2500      41.0911       1.4064       1.3020
   2624.9375    -999.2500    -999.2500      41.5776       1.3868       1.2796
   2625.0898    -999.2500    -999.2500      41.6935       1.3341       1.2398
   2625.2422    -999.2500    -999.2500      41.1421       1.3064       1.2083
   2625.3948    -999.2500    -999.2500      41.5795       1.0957       1.0558
   2625.5471    -999.2500    -999.2500      41.2894       1.1180       1.0563
   2625.6995    -999.2500    -999.2500      39.5038       1.2313       1.1511
   2625.8518    -999.2500    -999.2500      39.1360       1.2441       1.1738
   2626.0042    -999.2500    -999.2500      39.8692       1.2508       1.1898
   2626.1567    -999.2500    -999.2500      40.6904       1.2924       1.2484
   2626.3091    -999.2500    -999.2500      40.9197       1.3521       1.3207
   2626.4614    -999.2500    -999.2500      39.8055       1.5246       1.4439
   2626.6138    -999.2500    -999.2500      38.6425       1.6769       1.5358
   2626.7664    -999.2500    -999.2500      37.8827       1.7313       1.5779
   2626.9187    -999.2500    -999.2500      38.8568       1.6938       1.5561
   2627.0710    -999.2500    -999.2500      40.4182       1.6517       1.5151
   2627.2234    -999.2500    -999.2500      40.7043       1.6280       1.4828
   2627.3760    -999.2500    -999.2500      41.9128       1.4411       1.3306
   2627.5283    -999.2500    -999.2500      43.7839       1.3283       1.2316
   2627.6807    -999.2500    -999.2500      44.7911       1.2475       1.1701
   2627.8330    -999.2500    -999.2500      45.7833       1.0433       1.0090
   2627.9854    -999.2500    -999.2500      46.5253       1.1022       1.0693
   2628.1379    -999.2500    -999.2500      46.0048       1.1053       1.0829
   2628.2903    -999.2500    -999.2500      44.1054       1.1525       1.1236
   2628.4426    -999.2500    -999.2500      41.5725       1.3335       1.2632
   2628.5950    -999.2500    -999.2500      40.9207       1.4319       1.3663
   2628.7476    -999.2500    -999.2500      42.3954       1.4389       1.3877
   2628.8999    -999.2500    -999.2500      43.6672       1.5121       1.4347
   2629.0522    -999.2500    -999.2500      43.3614       1.5205       1.4318
   2629.2046    -999.2500    -999.2500      41.8695       1.5726       1.4523
   2629.3572    -999.2500    -999.2500      41.3751       1.6700       1.5126
   2629.5095    -999.2500    -999.2500      41.5988       1.7527       1.5787
   2629.6619    -999.2500    -999.2500      42.0747       1.7865       1.6171
   2629.8142    -999.2500    -999.2500      43.1830       1.8200       1.6487
   2629.9666    -999.2500    -999.2500      43.6718       1.8368       1.6739
   2630.1191    -999.2500    -999.2500      44.2625       1.8569       1.7033
   2630.2715    -999.2500    -999.2500      45.3536       1.8248       1.6829
   2630.4238    -999.2500    -999.2500      45.9907       1.6019       1.5099
   2630.5762    -999.2500    -999.2500      47.0146       1.3621       1.3007
   2630.7288    -999.2500    -999.2500      47.6227       1.3325       1.2651
   2630.8811    -999.2500    -999.2500      45.6223       1.2687       1.2025
   2631.0334    -999.2500    -999.2500      45.5494       1.2866       1.2086
   2631.1858    -999.2500    -999.2500      49.2871       1.1776       1.1165
   2631.3384    -999.2500    -999.2500      50.1628       1.2541       1.2014
   2631.4907    -999.2500    -999.2500      48.6552       1.3130       1.2688
   2631.6431    -999.2500    -999.2500      47.7730       1.3672       1.3186
   2631.7954    -999.2500    -999.2500      47.4645       1.5787       1.4645
   2631.9478    -999.2500    -999.2500      48.5794       1.7720       1.6207
   2632.1003    -999.2500    -999.2500      49.0346       1.8010       1.6789
   2632.2527    -999.2500    -999.2500      47.3656       1.8787       1.7627
   2632.4050    -999.2500    -999.2500      46.9277       2.0773       1.9028
   2632.5574    -999.2500    -999.2500      47.6783       2.2621       2.0287
   2632.7100    -999.2500    -999.2500      46.7227       2.2962       2.0485
   2632.8623    -999.2500    -999.2500      45.5378       2.0597       1.8853
   2633.0146    -999.2500    -999.2500      43.9324       1.9274       1.7763
   2633.1670    -999.2500    -999.2500      41.7907       1.6861       1.5876
   2633.3196    -999.2500    -999.2500      42.0502       1.4895       1.4158
   2633.4719    -999.2500    -999.2500      43.7243       1.4171       1.3287
   2633.6243    -999.2500    -999.2500      43.9911       1.3445       1.2697
   2633.7766    -999.2500    -999.2500      45.0841       1.3312       1.2610
   2633.9290    -999.2500    -999.2500      47.6667       1.3727       1.2840
   2634.0815    -999.2500    -999.2500      47.0910       1.4076       1.3239
   2634.2339    -999.2500    -999.2500      43.5328       1.4510       1.3661
   2634.3862    -999.2500    -999.2500      40.6684       1.6259       1.4957
   2634.5386    -999.2500    -999.2500      39.6943       1.7102       1.5690
   2634.6912    -999.2500    -999.2500      39.5286       1.7284       1.5764
   2634.8435    -999.2500    -999.2500      38.3113       1.7767       1.6114
