#------------------------------------------------------------------------------
#
#   Created by  : [OpenWorks] Log Export Utility (LEXP)
#   Created on  : 2016-05-19 09:41:09
#   Project     : CANT971
#   User        : R5K
#   Interpreter : PEP
#
#------------------------------------------------------------------------------
~VERSION INFORMATION
VERS. 2.0 : CWLS Log ASCII Standard - version 2.0
WRAP.  NO : One line per depth step
~WELL INFORMATION
#MNEMONIC   .UNIT                                           VALUE :DESCRIPTION
#------------------------------------------------------------------------------
STRT        .M                                          1033.8815 :START DEPTH
STOP        .M                                          2740.3042 :STOP DEPTH
STEP        .M                                             0.1524 :STEP
NULL        .                                           -999.2500 :NULL VALUE
COMP        .                                             UNKNOWN :COMPANY
WELL        .                                            2275A-ST :WELL
FLD         .                                             UNKNOWN :FIELD
LOC         .                                             UNKNOWN :LOCATION
CNTY        .                                             UNKNOWN :COUNTY
STAT        .                                             UNKNOWN :STATE
CTRY        .                                             UNKNOWN :COUNTRY
SRVC        .                                             UNKNOWN :SERVICE COMPANY
DATE        .                                             UNKNOWN :LOG DATE
UWI         .                                            2275A-ST :UNIQUE WELL ID
XCOORD      .                                            0.000000 :SURFACE X
YCOORD      .                                            0.000000 :SURFACE Y
LAT         .                                            0.000000 :LATITUDE
LON         .                                            0.000000 :LONGITUDE
ELEV        .M                                             0.0000 :SURFACE ELEV
ELEV_TYPE   .                                                  KB :ELEV TYPE
~CURVE INFORMATION
#MNEMONIC.UNIT        API CODE       : CURVE DESCRIPTION
#------------------------------------------------------------------------------
DEPTH    .M                          : Measured Depth
DT       .us/ft       UNKNOWN        : DT:Sonico:rC:NONE:v0 (auto-composite)
GR       .API         UNKNOWN        : GR:Sonico:rC:NONE:v0 (auto-composite)
GR-LWD   .API         UNKNOWN        : GR-LWD:resistivos-LWD:rC:NONE:v0 (auto-composite)
ILD-LWD  .ohm.m       UNKNOWN        : ILD-LWD:resistivos-LWD:rC:NONE:v0 (auto-composite)
ILM-LWD  .ohm.m       UNKNOWN        : ILM-LWD:resistivos-LWD:rC:NONE:v0 (auto-composite)
~A     DEPTH           DT           GR       GR-LWD      ILD-LWD      ILM-LWD
# ...
   2634.9958    -999.2500    -999.2500      37.2503       1.7226       1.5859
   2635.1482    -999.2500    -999.2500      37.6673       1.7294       1.5963
   2635.3008    -999.2500    -999.2500      39.9560       1.6873       1.5546
   2635.4531    -999.2500    -999.2500      41.6749       1.6279       1.5049
   2635.6055    -999.2500    -999.2500      41.6656       1.6988       1.5549
   2635.7578    -999.2500    -999.2500      43.4007       1.7216       1.5694
   2635.9102    -999.2500    -999.2500      44.5196       1.8234       1.6550
   2636.0627    -999.2500    -999.2500      43.0880       1.7470       1.6170
   2636.2151    -999.2500    -999.2500      42.2791       1.7378       1.6094
   2636.3674    -999.2500    -999.2500      42.4037       1.7263       1.5998
   2636.5198    -999.2500    -999.2500      42.4876       1.7110       1.5916
   2636.6724    -999.2500    -999.2500      43.2224       1.7209       1.5848
   2636.8247    -999.2500    -999.2500      44.8393       1.5996       1.4895
   2636.9771    -999.2500    -999.2500      44.5806       1.5598       1.4619
   2637.1294    -999.2500    -999.2500      42.4169       1.5672       1.4726
   2637.2820    -999.2500    -999.2500      42.6750       1.6056       1.5019
   2637.4343    -999.2500    -999.2500      44.1808       1.6376       1.5329
   2637.5867    -999.2500    -999.2500      44.4574       1.6959       1.5771
   2637.7390    -999.2500    -999.2500      44.9651       1.7075       1.5935
   2637.8914    -999.2500    -999.2500      45.2960       1.7262       1.6135
   2638.0439    -999.2500    -999.2500      43.7784       1.7884       1.6433
   2638.1963    -999.2500    -999.2500      42.2435       1.8463       1.6846
   2638.3486    -999.2500    -999.2500      42.2701       1.8662       1.7175
   2638.5010    -999.2500    -999.2500      42.7057       1.8480       1.7060
   2638.6536    -999.2500    -999.2500      42.9444       1.8654       1.7221
   2638.8059    -999.2500    -999.2500      42.8969       1.7798       1.6709
   2638.9583    -999.2500    -999.2500      44.1270       1.7010       1.6007
   2639.1106    -999.2500    -999.2500      46.0694       1.5413       1.4693
   2639.2632    -999.2500    -999.2500      45.9270       1.7280       1.6061
   2639.4155    -999.2500    -999.2500      44.6642       1.9089       1.7390
   2639.5679    -999.2500    -999.2500      44.6142       1.7609       1.6657
   2639.7202    -999.2500    -999.2500      45.7854       1.9117       1.7925
   2639.8726    -999.2500    -999.2500      47.9783       1.8590       1.7840
   2640.0251    -999.2500    -999.2500      50.0998       1.9489       1.8611
   2640.1775    -999.2500    -999.2500      50.4769       1.8995       1.7715
   2640.3298    -999.2500    -999.2500      50.7751       2.0090       1.8476
   2640.4822    -999.2500    -999.2500      50.8498       2.0865       1.9100
   2640.6348    -999.2500    -999.2500      49.0176       1.9557       1.8084
   2640.7871    -999.2500    -999.2500      47.7827       1.8286       1.6953
   2640.9395    -999.2500    -999.2500      48.2922       1.8231       1.6639
   2641.0918    -999.2500    -999.2500      46.6625       1.7308       1.6000
   2641.2444    -999.2500    -999.2500      42.6838       1.7177       1.5893
   2641.3967    -999.2500    -999.2500      40.9684       1.8133       1.6401
   2641.5491    -999.2500    -999.2500      40.8340       1.7703       1.6152
   2641.7014    -999.2500    -999.2500      41.1097       1.7566       1.6133
   2641.8538    -999.2500    -999.2500      42.0896       1.7457       1.6146
   2642.0063    -999.2500    -999.2500      41.0147       1.7882       1.6521
   2642.1587    -999.2500    -999.2500      38.3113       1.8034       1.6671
   2642.3110    -999.2500    -999.2500      36.9943       1.8284       1.6908
   2642.4634    -999.2500    -999.2500      37.1752       1.8980       1.7263
   2642.6160    -999.2500    -999.2500      37.6549       1.9030       1.7341
   2642.7683    -999.2500    -999.2500      38.1273       1.9003       1.7361
   2642.9207    -999.2500    -999.2500      40.0765       1.9873       1.7952
   2643.0730    -999.2500    -999.2500      43.2224       2.1444       1.9207
   2643.2256    -999.2500    -999.2500      44.2417       1.9056       1.7509
   2643.3779    -999.2500    -999.2500      44.4323       1.6659       1.5739
   2643.5303    -999.2500    -999.2500      44.9055       1.9940       1.8242
   2643.6826    -999.2500    -999.2500      44.1149       2.0147       1.8245
   2643.8350    -999.2500    -999.2500      43.7598       2.0037       1.8118
   2643.9875    -999.2500    -999.2500      44.2875       2.1681       1.9497
   2644.1399    -999.2500    -999.2500      45.0041       2.1309       1.9855
   2644.2922    -999.2500    -999.2500      45.3091       2.0801       1.9405
   2644.4446    -999.2500    -999.2500      43.9602       1.7736       1.6866
   2644.5972    -999.2500    -999.2500      44.0911       1.6315       1.5624
   2644.7495    -999.2500    -999.2500      47.3181       1.6896       1.5846
   2644.9019    -999.2500    -999.2500      48.2470       1.7368       1.5985
   2645.0542    -999.2500    -999.2500      45.4474       1.5796       1.4565
   2645.2068    -999.2500    -999.2500      43.4981       1.5507       1.4379
   2645.3591    -999.2500    -999.2500      42.8036       1.4088       1.3621
   2645.5115    -999.2500    -999.2500      41.4072       1.5619       1.4854
   2645.6638    -999.2500    -999.2500      41.2295       1.8682       1.7222
   2645.8162    -999.2500    -999.2500      43.3035       1.9665       1.8202
   2645.9688    -999.2500    -999.2500      44.6864       2.0568       1.9056
   2646.1211    -999.2500    -999.2500      43.4953       2.2155       2.0261
   2646.2734    -999.2500    -999.2500      42.1026       2.3065       2.1107
   2646.4258    -999.2500    -999.2500      41.5308       2.2702       2.0963
   2646.5784    -999.2500    -999.2500      41.2556       2.2476       2.0715
   2646.7307    -999.2500    -999.2500      41.5012       2.2093       2.0422
   2646.8831    -999.2500    -999.2500      41.4155       2.1704       1.9984
   2647.0354    -999.2500    -999.2500      41.6517       2.1543       1.9661
   2647.1880    -999.2500    -999.2500      41.4664       2.0573       1.8893
   2647.3403    -999.2500    -999.2500      41.0541       2.1284       1.9399
   2647.4927    -999.2500    -999.2500      41.7236       2.1658       1.9705
   2647.6450    -999.2500    -999.2500      41.5035       2.1674       1.9765
   2647.7974    -999.2500    -999.2500      41.6494       2.2092       2.0079
   2647.9500    -999.2500    -999.2500      42.8286       2.2700       2.0589
   2648.1023    -999.2500    -999.2500      42.8066       2.3852       2.1344
   2648.2546    -999.2500    -999.2500      43.5548       2.4779       2.2214
   2648.4070    -999.2500    -999.2500      45.9872       2.5007       2.2764
   2648.5596    -999.2500    -999.2500      47.2729       2.3579       2.2031
   2648.7119    -999.2500    -999.2500      47.5798       2.0081       1.9562
   2648.8643    -999.2500    -999.2500      48.3443       2.2581       2.1597
   2649.0166    -999.2500    -999.2500      49.2037       2.0242       1.9695
   2649.1692    -999.2500    -999.2500      48.7196       1.5194       1.4868
   2649.3215    -999.2500    -999.2500      47.5029       1.5120       1.4662
   2649.4739    -999.2500    -999.2500      48.2067       1.4586       1.4322
   2649.6262    -999.2500    -999.2500      48.9369       1.6592       1.5739
   2649.7786    -999.2500    -999.2500      49.1898       1.5296       1.4632
   2649.9312    -999.2500    -999.2500      49.6161       1.4576       1.4526
   2650.0835    -999.2500    -999.2500      47.6146       1.8391       1.7860
   2650.2358    -999.2500    -999.2500      45.4277       2.0257       1.9270
   2650.3882    -999.2500    -999.2500      46.4355       1.7799       1.7471
   2650.5408    -999.2500    -999.2500      48.0848       1.7873       1.7266
