#------------------------------------------------------------------------------
#
#   Created by  : [OpenWorks] Log Export Utility (LEXP)
#   Created on  : 2016-05-19 09:41:09
#   Project     : CANT971
#   User        : R5K
#   Interpreter : PEP
#
#------------------------------------------------------------------------------
~VERSION INFORMATION
VERS. 2.0 : CWLS Log ASCII Standard - version 2.0
WRAP.  NO : One line per depth step
~WELL INFORMATION
#MNEMONIC   .UNIT                                           VALUE :DESCRIPTION
#------------------------------------------------------------------------------
STRT        .M                                          1033.8815 :START DEPTH
STOP        .M                                          2740.3042 :STOP DEPTH
STEP        .M                                             0.1524 :STEP
NULL        .                                           -999.2500 :NULL VALUE
COMP        .                                             UNKNOWN :COMPANY
WELL        .                                            2275A-ST :WELL
FLD         .                                             UNKNOWN :FIELD
LOC         .                                             UNKNOWN :LOCATION
CNTY        .                                             UNKNOWN :COUNTY
STAT        .                                             UNKNOWN :STATE
CTRY        .                                             UNKNOWN :COUNTRY
SRVC        .                                             UNKNOWN :SERVICE COMPANY
DATE        .                                             UNKNOWN :LOG DATE
UWI         .                                            2275A-ST :UNIQUE WELL ID
XCOORD      .                                            0.000000 :SURFACE X
YCOORD      .                                            0.000000 :SURFACE Y
LAT         .                                            0.000000 :LATITUDE
LON         .                                            0.000000 :LONGITUDE
ELEV        .M                                             0.0000 :SURFACE ELEV
ELEV_TYPE   .                                                  KB :ELEV TYPE
~CURVE INFORMATION
#MNEMONIC.UNIT        API CODE       : CURVE DESCRIPTION
#------------------------------------------------------------------------------
DEPTH    .M                          : Measured Depth
DT       .us/ft       UNKNOWN        : DT:Sonico:rC:NONE:v0 (auto-composite)
GR       .API         UNKNOWN        : GR:Sonico:rC:NONE:v0 (auto-composite)
GR-LWD   .API         UNKNOWN        : GR-LWD:resistivos-LWD:rC:NONE:v0 (auto-composite)
ILD-LWD  .ohm.m       UNKNOWN        : ILD-LWD:resistivos-LWD:rC:NONE:v0 (auto-composite)
ILM-LWD  .ohm.m       UNKNOWN        : ILM-LWD:resistivos-LWD:rC:NONE:v0 (auto-composite)
~A     DEPTH           DT           GR       GR-LWD      ILD-LWD      ILM-LWD
# ...
   2603.6016    -999.2500    -999.2500      43.5319       0.9054       0.8794
   2603.7539    -999.2500    -999.2500      43.1659       0.9705       0.9226
   2603.9062    -999.2500    -999.2500      42.6446       1.1276       1.0418
   2604.0586    -999.2500    -999.2500      42.8258       1.0761       1.0042
   2604.2112    -999.2500    -999.2500      44.0401       0.9370       0.8989
   2604.3635    -999.2500    -999.2500      43.6926       0.8907       0.8767
   2604.5159    -999.2500    -999.2500      42.3595       0.9379       0.9240
   2604.6682    -999.2500    -999.2500      41.6101       1.0151       0.9763
   2604.8206    -999.2500    -999.2500      40.3246       1.0053       0.9518
   2604.9731    -999.2500    -999.2500      39.7052       1.0405       0.9810
   2605.1255    -999.2500    -999.2500      40.6848       1.1116       1.0460
   2605.2778    -999.2500    -999.2500      41.8579       1.0487       0.9950
   2605.4302    -999.2500    -999.2500      42.5147       0.9331       0.8972
   2605.5828    -999.2500    -999.2500      40.6591       0.8939       0.8597
   2605.7351    -999.2500    -999.2500      38.7966       0.9565       0.9080
   2605.8875    -999.2500    -999.2500      40.3823       1.0425       0.9697
   2606.0398    -999.2500    -999.2500      41.8880       1.0286       0.9606
   2606.1924    -999.2500    -999.2500      41.3738       0.9372       0.8914
   2606.3447    -999.2500    -999.2500      41.0506       0.8600       0.8425
   2606.4971    -999.2500    -999.2500      41.5776       0.8614       0.8443
   2606.6494    -999.2500    -999.2500      42.4869       0.8953       0.8634
   2606.8018    -999.2500    -999.2500      43.5120       0.9101       0.8730
   2606.9543    -999.2500    -999.2500      42.5042       0.9035       0.8703
   2607.1067    -999.2500    -999.2500      40.4193       0.9734       0.9299
   2607.2590    -999.2500    -999.2500      39.2703       1.0295       0.9771
   2607.4114    -999.2500    -999.2500      38.0866       1.0257       0.9735
   2607.5640    -999.2500    -999.2500      37.7866       1.0046       0.9545
   2607.7163    -999.2500    -999.2500      38.9599       0.9253       0.8950
   2607.8687    -999.2500    -999.2500      40.0371       0.9141       0.8848
   2608.0210    -999.2500    -999.2500      40.5827       1.0006       0.9498
   2608.1736    -999.2500    -999.2500      42.0699       1.0946       1.0277
   2608.3259    -999.2500    -999.2500      42.6189       1.1230       1.0587
   2608.4783    -999.2500    -999.2500      41.6772       1.1567       1.1002
   2608.6306    -999.2500    -999.2500      42.7961       1.1937       1.1395
   2608.7830    -999.2500    -999.2500      44.7420       1.2400       1.1837
   2608.9355    -999.2500    -999.2500      44.7698       1.2230       1.1693
   2609.0879    -999.2500    -999.2500      44.2000       1.2799       1.2033
   2609.2402    -999.2500    -999.2500      44.1791       1.3046       1.2166
   2609.3926    -999.2500    -999.2500      44.6054       1.4505       1.3304
   2609.5452    -999.2500    -999.2500      46.3937       1.4657       1.3488
   2609.6975    -999.2500    -999.2500      47.7559       1.3441       1.2627
   2609.8499    -999.2500    -999.2500      46.7676       1.2041       1.1588
   2610.0022    -999.2500    -999.2500      44.5400       1.1244       1.0953
   2610.1548    -999.2500    -999.2500      43.1353       1.1379       1.0955
   2610.3071    -999.2500    -999.2500      44.2069       1.2449       1.1635
   2610.4595    -999.2500    -999.2500      45.5830       1.4170       1.2802
   2610.6118    -999.2500    -999.2500      45.1868       1.3850       1.2835
   2610.7642    -999.2500    -999.2500      43.9011       1.4011       1.3208
   2610.9167    -999.2500    -999.2500      43.0880       1.2705       1.2399
   2611.0691    -999.2500    -999.2500      44.0526       1.2235       1.1861
   2611.2214    -999.2500    -999.2500      44.6781       1.2367       1.1710
   2611.3738    -999.2500    -999.2500      43.7079       1.4815       1.3284
   2611.5264    -999.2500    -999.2500      43.5531       1.5381       1.3756
   2611.6787    -999.2500    -999.2500      43.7582       1.4339       1.3215
   2611.8311    -999.2500    -999.2500      43.8942       1.2540       1.1947
   2611.9834    -999.2500    -999.2500      44.0673       1.1621       1.1307
   2612.1360    -999.2500    -999.2500      43.7711       1.2064       1.1504
   2612.2883    -999.2500    -999.2500      44.1814       1.2649       1.1691
   2612.4407    -999.2500    -999.2500      45.3258       1.2681       1.1763
   2612.5930    -999.2500    -999.2500      46.0839       1.2104       1.1313
   2612.7454    -999.2500    -999.2500      46.0104       1.1099       1.0636
   2612.8979    -999.2500    -999.2500      45.4121       1.0423       1.0100
   2613.0503    -999.2500    -999.2500      44.8602       1.0697       1.0288
   2613.2026    -999.2500    -999.2500      44.6309       1.1080       1.0527
   2613.3550    -999.2500    -999.2500      45.0316       1.1703       1.0979
   2613.5076    -999.2500    -999.2500      46.0764       1.2024       1.1410
   2613.6599    -999.2500    -999.2500      46.8548       1.1312       1.0995
   2613.8123    -999.2500    -999.2500      46.3613       1.2058       1.1611
   2613.9646    -999.2500    -999.2500      44.8046       1.3596       1.2653
   2614.1172    -999.2500    -999.2500      43.0394       1.4932       1.3631
   2614.2695    -999.2500    -999.2500      42.2124       1.6228       1.4572
   2614.4219    -999.2500    -999.2500      43.0255       1.4950       1.3751
   2614.5742    -999.2500    -999.2500      43.6903       1.3417       1.2794
   2614.7266    -999.2500    -999.2500      44.8486       1.3250       1.2538
   2614.8792    -999.2500    -999.2500      46.4216       1.3530       1.2454
   2615.0315    -999.2500    -999.2500      45.4968       1.3681       1.2466
   2615.1838    -999.2500    -999.2500      44.8963       1.4107       1.2754
   2615.3362    -999.2500    -999.2500      46.1385       1.3936       1.2770
   2615.4888    -999.2500    -999.2500      45.9698       1.3457       1.2544
   2615.6411    -999.2500    -999.2500      44.9737       1.2715       1.1997
   2615.7935    -999.2500    -999.2500      45.9721       1.1238       1.0796
   2615.9458    -999.2500    -999.2500      47.9157       1.0513       1.0076
   2616.0984    -999.2500    -999.2500      47.5520       1.0671       1.0153
   2616.2507    -999.2500    -999.2500      45.9791       1.0837       1.0281
   2616.4031    -999.2500    -999.2500      45.4794       1.1116       1.0589
   2616.5554    -999.2500    -999.2500      44.4932       1.1029       1.0619
   2616.7078    -999.2500    -999.2500      43.5219       1.1438       1.1133
   2616.8604    -999.2500    -999.2500      42.8795       1.2122       1.1671
   2617.0127    -999.2500    -999.2500      41.1768       1.3449       1.2672
   2617.1650    -999.2500    -999.2500      42.0282       1.4785       1.3519
   2617.3174    -999.2500    -999.2500      45.1417       1.3713       1.2651
   2617.4700    -999.2500    -999.2500      45.5540       1.3467       1.2372
   2617.6223    -999.2500    -999.2500      45.7926       1.3685       1.2461
   2617.7747    -999.2500    -999.2500      47.8485       1.4303       1.2881
   2617.9270    -999.2500    -999.2500      49.3590       1.3841       1.2402
   2618.0796    -999.2500    -999.2500      50.6365       1.3504       1.2108
   2618.2319    -999.2500    -999.2500      50.7778       1.2198       1.1312
   2618.3843    -999.2500    -999.2500      50.0451       1.1802       1.1272
   2618.5366    -999.2500    -999.2500      49.7989       1.1182       1.0713
   2618.6890    -999.2500    -999.2500      49.3235       0.9940       0.9506
   2618.8416    -999.2500    -999.2500      48.6941       1.0888       1.0086
   2618.9939    -999.2500    -999.2500      47.8972       1.0061       0.9446
   2619.1462    -999.2500    -999.2500      47.5126       1.0163       0.9699
