#------------------------------------------------------------------------------
#
#   Created by  : [OpenWorks] Log Export Utility (LEXP)
#   Created on  : 2016-05-19 09:41:09
#   Project     : CANT971
#   User        : R5K
#   Interpreter : PEP
#
#------------------------------------------------------------------------------
~VERSION INFORMATION
VERS. 2.0 : CWLS Log ASCII Standard - version 2.0
WRAP.  NO : One line per depth step
~WELL INFORMATION
#MNEMONIC   .UNIT                                           VALUE :DESCRIPTION
#------------------------------------------------------------------------------
STRT        .M                                          1033.8815 :START DEPTH
STOP        .M                                          2740.3042 :STOP DEPTH
STEP        .M                                             0.1524 :STEP
NULL        .                                           -999.2500 :NULL VALUE
COMP        .                                             UNKNOWN :COMPANY
WELL        .                                            2275A-ST :WELL
FLD         .                                             UNKNOWN :FIELD
LOC         .                                             UNKNOWN :LOCATION
CNTY        .                                             UNKNOWN :COUNTY
STAT        .                                             UNKNOWN :STATE
CTRY        .                                             UNKNOWN :COUNTRY
SRVC        .                                             UNKNOWN :SERVICE COMPANY
DATE        .                                             UNKNOWN :LOG DATE
UWI         .                                            2275A-ST :UNIQUE WELL ID
XCOORD      .                                            0.000000 :SURFACE X
YCOORD      .                                            0.000000 :SURFACE Y
LAT         .                                            0.000000 :LATITUDE
LON         .                                            0.000000 :LONGITUDE
ELEV        .M                                             0.0000 :SURFACE ELEV
ELEV_TYPE   .                                                  KB :ELEV TYPE
~CURVE INFORMATION
#MNEMONIC.UNIT        API CODE       : CURVE DESCRIPTION
#------------------------------------------------------------------------------
DEPTH    .M                          : Measured Depth
DT       .us/ft       UNKNOWN        : DT:Sonico:rC:NONE:v0 (auto-composite)
GR       .API         UNKNOWN        : GR:Sonico:rC:NONE:v0 (auto-composite)
GR-LWD   .API         UNKNOWN        : GR-LWD:resistivos-LWD:rC:NONE:v0 (auto-composite)
ILD-LWD  .ohm.m       UNKNOWN        : ILD-LWD:resistivos-LWD:rC:NONE:v0 (auto-composite)
ILM-LWD  .ohm.m       UNKNOWN        : ILM-LWD:resistivos-LWD:rC:NONE:v0 (auto-composite)
~A     DEPTH           DT           GR       GR-LWD      ILD-LWD      ILM-LWD
# ...
   2682.0874    -999.2500    -999.2500      47.4710       2.5910       2.5400
   2682.2400    -999.2500    -999.2500      46.9210       2.6210       2.5692
   2682.3923    -999.2500    -999.2500      45.7289       2.5940       2.5558
   2682.5447    -999.2500    -999.2500      45.6872       2.6187       2.5566
   2682.6970    -999.2500    -999.2500      45.7984       2.6258       2.5417
   2682.8494    -999.2500    -999.2500      44.1245       2.5823       2.4868
   2683.0020    -999.2500    -999.2500      43.6058       2.4990       2.3693
   2683.1543    -999.2500    -999.2500      44.4529       2.4162       2.2706
   2683.3066    -999.2500    -999.2500      45.0628       2.4460       2.2531
   2683.4590    -999.2500    -999.2500      45.0886       2.4762       2.2253
   2683.6116    -999.2500    -999.2500      44.6225       2.5846       2.2981
   2683.7639    -999.2500    -999.2500      44.7859       2.4955       2.2428
   2683.9163    -999.2500    -999.2500      44.2890       2.2985       2.1067
   2684.0686    -999.2500    -999.2500      43.5043       2.1905       2.0452
   2684.2212    -999.2500    -999.2500      45.2146       2.1886       2.0760
   2684.3735    -999.2500    -999.2500      46.6629       2.1242       2.0027
   2684.5259    -999.2500    -999.2500      44.6540       2.2648       2.1010
   2684.6782    -999.2500    -999.2500      42.9859       2.3774       2.1809
   2684.8306    -999.2500    -999.2500      43.3500       2.3420       2.1773
   2684.9832    -999.2500    -999.2500      43.1679       2.7742       2.5604
   2685.1355    -999.2500    -999.2500      42.6293       2.9889       2.7381
   2685.2878    -999.2500    -999.2500      42.3472       2.4304       2.3491
   2685.4402    -999.2500    -999.2500      41.7111       2.5396       2.4306
   2685.5928    -999.2500    -999.2500      41.3474       2.6046       2.4723
   2685.7451    -999.2500    -999.2500      40.8542       2.7413       2.5384
   2685.8975    -999.2500    -999.2500      39.9398       2.7608       2.5094
   2686.0498    -999.2500    -999.2500      40.0858       2.8494       2.5881
   2686.2021    -999.2500    -999.2500      40.8850       2.9831       2.7386
   2686.3547    -999.2500    -999.2500      40.6857       2.9327       2.6972
   2686.5071    -999.2500    -999.2500      40.1286       2.9362       2.7388
   2686.6594    -999.2500    -999.2500      40.5378       2.9464       2.7558
   2686.8118    -999.2500    -999.2500      41.2111       2.9000       2.7264
   2686.9644    -999.2500    -999.2500      41.5617       2.8112       2.6450
   2687.1167    -999.2500    -999.2500      41.8046       2.7582       2.5983
   2687.2690    -999.2500    -999.2500      41.8521       2.7641       2.5976
   2687.4214    -999.2500    -999.2500      40.7363       2.7696       2.5743
   2687.5740    -999.2500    -999.2500      39.1058       2.7134       2.5161
   2687.7263    -999.2500    -999.2500      38.7202       2.7016       2.4741
   2687.8787    -999.2500    -999.2500      38.9137       2.7294       2.4768
   2688.0310    -999.2500    -999.2500      39.1137       2.7315       2.4682
   2688.1833    -999.2500    -999.2500      39.2638       2.7253       2.4438
   2688.3359    -999.2500    -999.2500      39.7985       2.6501       2.3962
   2688.4883    -999.2500    -999.2500      41.6830       2.3856       2.2045
   2688.6406    -999.2500    -999.2500      42.6276       2.5801       2.3585
   2688.7930    -999.2500    -999.2500      41.7036       2.2778       2.1323
   2688.9456    -999.2500    -999.2500      41.5175       2.3809       2.2279
   2689.0979    -999.2500    -999.2500      42.0117       2.5053       2.3202
   2689.2502    -999.2500    -999.2500      41.3240       2.6355       2.4214
   2689.4026    -999.2500    -999.2500      39.9162       2.7468       2.5166
   2689.5552    -999.2500    -999.2500      39.4489       2.8003       2.6157
   2689.7075    -999.2500    -999.2500      40.8706       2.7673       2.6405
   2689.8599    -999.2500    -999.2500      42.3282       2.9829       2.7901
   2690.0122    -999.2500    -999.2500      42.0386       3.1183       2.8907
   2690.1646    -999.2500    -999.2500      42.5355       3.2002       2.9497
   2690.3171    -999.2500    -999.2500      43.7378       3.3036       3.0382
   2690.4695    -999.2500    -999.2500      43.7767       3.3600       3.1322
   2690.6218    -999.2500    -999.2500      44.1492       3.2451       3.0889
   2690.7742    -999.2500    -999.2500      44.8122       3.2238       3.0961
   2690.9268    -999.2500    -999.2500      44.2848       3.0945       3.0173
   2691.0791    -999.2500    -999.2500      43.4371       2.9551       2.8966
   2691.2314    -999.2500    -999.2500      42.9064       2.7057       2.6927
   2691.3838    -999.2500    -999.2500      41.8151       2.4221       2.4088
   2691.5364    -999.2500    -999.2500      41.5466       2.4517       2.4104
   2691.6887    -999.2500    -999.2500      42.5684       2.2690       2.2260
   2691.8411    -999.2500    -999.2500      42.9110       2.1329       2.0863
   2691.9934    -999.2500    -999.2500      43.2780       2.0552       1.9841
   2692.1458    -999.2500    -999.2500      44.3007       1.9921       1.9106
   2692.2983    -999.2500    -999.2500      44.9343       1.8808       1.8309
   2692.4507    -999.2500    -999.2500      44.8475       2.0693       1.9664
   2692.6030    -999.2500    -999.2500      44.3760       2.0796       1.9845
   2692.7554    -999.2500    -999.2500      43.1807       2.0914       2.0003
   2692.9080    -999.2500    -999.2500      41.6633       2.0936       2.0136
   2693.0603    -999.2500    -999.2500      41.1189       2.3188       2.1878
   2693.2126    -999.2500    -999.2500      40.5125       2.4813       2.3104
   2693.3650    -999.2500    -999.2500      39.2851       2.6595       2.4454
   2693.5176    -999.2500    -999.2500      38.2075       2.7543       2.5363
   2693.6699    -999.2500    -999.2500      36.7267       2.8142       2.5995
   2693.8223    -999.2500    -999.2500      35.4480       2.9090       2.6871
   2693.9746    -999.2500    -999.2500      35.7869       3.0552       2.7975
   2694.1270    -999.2500    -999.2500      37.6524       3.1311       2.8658
   2694.2795    -999.2500    -999.2500      39.6509       3.1031       2.8552
   2694.4319    -999.2500    -999.2500      40.5827       3.0481       2.8171
   2694.5842    -999.2500    -999.2500      40.0302       3.0188       2.7872
   2694.7366    -999.2500    -999.2500      38.8244       2.9924       2.7714
   2694.8892    -999.2500    -999.2500      39.1475       2.9684       2.7479
   2695.0415    -999.2500    -999.2500      39.9479       2.8858       2.6819
   2695.1938    -999.2500    -999.2500      39.6294       2.6346       2.4688
   2695.3462    -999.2500    -999.2500      39.6491       2.8591       2.6732
   2695.4988    -999.2500    -999.2500      40.3151       2.5607       2.4012
   2695.6511    -999.2500    -999.2500      40.7938       2.4329       2.2925
   2695.8035    -999.2500    -999.2500      40.5035       2.3580       2.2153
   2695.9558    -999.2500    -999.2500      39.5545       2.2165       2.0842
   2696.1082    -999.2500    -999.2500      38.2974       2.3261       2.1471
   2696.2607    -999.2500    -999.2500      37.9267       2.2294       2.0857
   2696.4131    -999.2500    -999.2500      39.4128       2.1676       2.0496
   2696.5654    -999.2500    -999.2500      40.4309       2.1889       2.0684
   2696.7178    -999.2500    -999.2500      38.6993       2.2902       2.1284
   2696.8704    -999.2500    -999.2500      36.0438       2.3866       2.1976
   2697.0227    -999.2500    -999.2500      36.3524       2.3220       2.1483
   2697.1750    -999.2500    -999.2500      38.3407       2.6804       2.3829
   2697.3274    -999.2500    -999.2500      38.3414       2.8686       2.5328
   2697.4800    -999.2500    -999.2500      36.7117       2.7840       2.5040
   2697.6323    -999.2500    -999.2500      35.5082       2.7273       2.4721
