#------------------------------------------------------------------------------
#
#   Created by  : [OpenWorks] Log Export Utility (LEXP)
#   Created on  : 2016-05-19 09:41:09
#   Project     : CANT971
#   User        : R5K
#   Interpreter : PEP
#
#------------------------------------------------------------------------------
~VERSION INFORMATION
VERS. 2.0 : CWLS Log ASCII Standard - version 2.0
WRAP.  NO : One line per depth step
~WELL INFORMATION
#MNEMONIC   .UNIT                                           VALUE :DESCRIPTION
#------------------------------------------------------------------------------
STRT        .M                                          1033.8815 :START DEPTH
STOP        .M                                          2740.3042 :STOP DEPTH
STEP        .M                                             0.1524 :STEP
NULL        .                                           -999.2500 :NULL VALUE
COMP        .                                             UNKNOWN :COMPANY
WELL        .                                            2275A-ST :WELL
FLD         .                                             UNKNOWN :FIELD
LOC         .                                             UNKNOWN :LOCATION
CNTY        .                                             UNKNOWN :COUNTY
STAT        .                                             UNKNOWN :STATE
CTRY        .                                             UNKNOWN :COUNTRY
SRVC        .                                             UNKNOWN :SERVICE COMPANY
DATE        .                                             UNKNOWN :LOG DATE
UWI         .                                            2275A-ST :UNIQUE WELL ID
XCOORD      .                                            0.000000 :SURFACE X
YCOORD      .                                            0.000000 :SURFACE Y
LAT         .                                            0.000000 :LATITUDE
LON         .                                            0.000000 :LONGITUDE
ELEV        .M                                             0.0000 :SURFACE ELEV
ELEV_TYPE   .                                                  KB :ELEV TYPE
~CURVE INFORMATION
#MNEMONIC.UNIT        API CODE       : CURVE DESCRIPTION
#------------------------------------------------------------------------------
DEPTH    .M                          : Measured Depth
DT       .us/ft       UNKNOWN        : DT:Sonico:rC:NONE:v0 (auto-composite)
GR       .API         UNKNOWN        : GR:Sonico:rC:NONE:v0 (auto-composite)
GR-LWD   .API         UNKNOWN        : GR-LWD:resistivos-LWD:rC:NONE:v0 (auto-composite)
ILD-LWD  .ohm.m       UNKNOWN        : ILD-LWD:resistivos-LWD:rC:NONE:v0 (auto-composite)
ILM-LWD  .ohm.m       UNKNOWN        : ILM-LWD:resistivos-LWD:rC:NONE:v0 (auto-composite)
~A     DEPTH           DT           GR       GR-LWD      ILD-LWD      ILM-LWD
# ...
   2666.3904    -999.2500    -999.2500      40.6224       2.3086       2.0786
   2666.5427    -999.2500    -999.2500      39.6163       2.2584       2.0664
   2666.6951    -999.2500    -999.2500      37.8576       2.2133       2.0502
   2666.8474    -999.2500    -999.2500      37.3592       2.2035       1.9983
   2666.9998    -999.2500    -999.2500      37.3951       2.2838       2.0405
   2667.1523    -999.2500    -999.2500      37.1460       2.1640       1.9520
   2667.3047    -999.2500    -999.2500      37.0696       2.1700       1.9252
   2667.4570    -999.2500    -999.2500      36.9723       2.2947       1.9602
   2667.6094    -999.2500    -999.2500      37.7414       2.4451       2.0742
   2667.7620    -999.2500    -999.2500      38.6194       2.4325       2.1642
   2667.9143    -999.2500    -999.2500      38.6912       2.2048       1.9771
   2668.0667    -999.2500    -999.2500      37.2734       1.9490       1.7976
   2668.2190    -999.2500    -999.2500      36.1754       1.9446       1.7881
   2668.3716    -999.2500    -999.2500      36.5623       1.8893       1.7339
   2668.5239    -999.2500    -999.2500      36.3561       1.7638       1.6241
   2668.6763    -999.2500    -999.2500      36.7847       1.6859       1.5937
   2668.8286    -999.2500    -999.2500      37.8526       1.7138       1.6109
   2668.9810    -999.2500    -999.2500      39.2333       1.7338       1.5802
   2669.1335    -999.2500    -999.2500      41.3332       1.6297       1.4929
   2669.2859    -999.2500    -999.2500      40.7043       1.6977       1.5468
   2669.4382    -999.2500    -999.2500      37.7275       1.8095       1.6440
   2669.5906    -999.2500    -999.2500      37.1229       1.7988       1.6505
   2669.7432    -999.2500    -999.2500      38.9263       1.7785       1.6427
   2669.8955    -999.2500    -999.2500      40.5885       1.7761       1.6588
   2670.0479    -999.2500    -999.2500      40.6232       1.7640       1.6413
   2670.2002    -999.2500    -999.2500      40.3614       1.7649       1.6194
   2670.3528    -999.2500    -999.2500      39.9931       1.6644       1.5114
   2670.5051    -999.2500    -999.2500      38.7178       1.3269       1.2339
   2670.6575    -999.2500    -999.2500      39.7915       1.2493       1.1758
   2670.8098    -999.2500    -999.2500      41.0668       1.5526       1.4271
   2670.9622    -999.2500    -999.2500      39.1464       1.5099       1.3927
   2671.1147    -999.2500    -999.2500      36.6074       1.2893       1.2037
   2671.2671    -999.2500    -999.2500      34.7380       1.5326       1.4755
   2671.4194    -999.2500    -999.2500      32.8616       2.5517       2.5257
   2671.5718    -999.2500    -999.2500      30.8601       2.8096       2.7292
   2671.7244    -999.2500    -999.2500      29.7877       2.3408       2.2727
   2671.8767    -999.2500    -999.2500      30.4771       1.7503       1.7751
   2672.0291    -999.2500    -999.2500      32.3730       1.9975       2.1297
   2672.1814    -999.2500    -999.2500      34.0198       2.3295       2.2618
   2672.3340    -999.2500    -999.2500      35.5757       2.0297       2.0052
   2672.4863    -999.2500    -999.2500      38.2934       1.6455       1.6055
   2672.6387    -999.2500    -999.2500      40.7753       1.8681       1.6849
   2672.7910    -999.2500    -999.2500      42.7336       1.8314       1.6295
   2672.9434    -999.2500    -999.2500      43.3660       1.6772       1.4728
   2673.0959    -999.2500    -999.2500      41.3054       1.6713       1.4253
   2673.2483    -999.2500    -999.2500      40.6834       1.7041       1.4786
   2673.4006    -999.2500    -999.2500      41.8419       1.7449       1.5252
   2673.5530    -999.2500    -999.2500      39.8140       2.0124       1.7499
   2673.7056    -999.2500    -999.2500      37.3663       2.4353       2.1843
   2673.8579    -999.2500    -999.2500      39.1587       2.5344       2.3777
   2674.0103    -999.2500    -999.2500      41.8211       2.0114       1.9374
   2674.1626    -999.2500    -999.2500      41.0754       1.6782       1.6296
   2674.3152    -999.2500    -999.2500      39.0669       2.0231       1.9601
   2674.4675    -999.2500    -999.2500      38.1040       2.5410       2.4564
   2674.6199    -999.2500    -999.2500      37.6568       1.9444       1.9475
   2674.7722    -999.2500    -999.2500      37.8566       0.7798       0.9600
   2674.9246    -999.2500    -999.2500      37.7888       0.5082       0.6335
   2675.0771    -999.2500    -999.2500      37.9831       0.8083       0.8456
   2675.2295    -999.2500    -999.2500      38.9906       1.3926       1.2723
   2675.3818    -999.2500    -999.2500      39.8073       1.8260       1.6263
   2675.5342    -999.2500    -999.2500      39.7809       1.9959       1.8743
   2675.6868    -999.2500    -999.2500      38.9804       1.9094       1.9934
   2675.8391    -999.2500    -999.2500      38.0766       1.9661       2.1578
   2675.9915    -999.2500    -999.2500      37.3171       2.3053       2.3309
   2676.1438    -999.2500    -999.2500      37.4426       2.6646       2.4611
   2676.2964    -999.2500    -999.2500      38.3768       2.7060       2.4565
   2676.4487    -999.2500    -999.2500      39.2554       2.7717       2.5038
   2676.6011    -999.2500    -999.2500      40.2613       2.9131       2.6397
   2676.7534    -999.2500    -999.2500      40.8931       3.0792       2.8139
   2676.9058    -999.2500    -999.2500      40.8483       3.1516       2.9067
   2677.0583    -999.2500    -999.2500      40.6413       2.9253       2.7842
   2677.2107    -999.2500    -999.2500      40.2981       2.8414       2.7304
   2677.3630    -999.2500    -999.2500      40.7798       2.3985       2.3442
   2677.5154    -999.2500    -999.2500      42.5173       2.1635       2.1039
   2677.6680    -999.2500    -999.2500      44.4883       2.0673       1.9885
   2677.8203    -999.2500    -999.2500      45.2484       1.9327       1.8726
   2677.9727    -999.2500    -999.2500      43.9701       1.7120       1.6501
   2678.1250    -999.2500    -999.2500      43.0124       1.4055       1.3600
   2678.2776    -999.2500    -999.2500      43.6461       1.1169       1.1154
   2678.4299    -999.2500    -999.2500      43.6815       1.4888       1.3819
   2678.5823    -999.2500    -999.2500      44.3695       2.1012       1.8461
   2678.7346    -999.2500    -999.2500      46.8911       2.2433       1.9857
   2678.8870    -999.2500    -999.2500      47.4125       2.3002       2.1177
   2679.0396    -999.2500    -999.2500      46.0279       2.5712       2.4351
   2679.1919    -999.2500    -999.2500      46.7569       2.4860       2.4372
   2679.3442    -999.2500    -999.2500      48.1923       2.5436       2.4735
   2679.4966    -999.2500    -999.2500      48.6545       2.3552       2.3470
   2679.6492    -999.2500    -999.2500      48.6285       2.2484       2.2803
   2679.8015    -999.2500    -999.2500      47.9046       2.2997       2.3172
   2679.9539    -999.2500    -999.2500      47.8916       2.3477       2.3283
   2680.1062    -999.2500    -999.2500      49.4097       2.3962       2.3679
   2680.2588    -999.2500    -999.2500      50.9402       2.3834       2.3647
   2680.4111    -999.2500    -999.2500      50.3063       2.4189       2.3922
   2680.5635    -999.2500    -999.2500      47.9440       2.4446       2.3982
   2680.7158    -999.2500    -999.2500      46.9302       2.3809       2.3427
   2680.8682    -999.2500    -999.2500      47.9961       2.4437       2.3892
   2681.0208    -999.2500    -999.2500      48.9545       2.5558       2.4736
   2681.1731    -999.2500    -999.2500      48.7032       2.6678       2.5784
   2681.3254    -999.2500    -999.2500      48.1631       2.6607       2.5862
   2681.4778    -999.2500    -999.2500      48.7448       2.6240       2.5752
   2681.6304    -999.2500    -999.2500      49.7627       2.6201       2.5849
   2681.7827    -999.2500    -999.2500      49.5770       2.6069       2.5801
   2681.9351    -999.2500    -999.2500      48.3223       2.6156       2.5836
