#------------------------------------------------------------------------------
#
#   Created by  : [OpenWorks] Log Export Utility (LEXP)
#   Created on  : 2016-05-19 09:41:09
#   Project     : CANT971
#   User        : R5K
#   Interpreter : PEP
#
#------------------------------------------------------------------------------
~VERSION INFORMATION
VERS. 2.0 : CWLS Log ASCII Standard - version 2.0
WRAP.  NO : One line per depth step
~WELL INFORMATION
#MNEMONIC   .UNIT                                           VALUE :DESCRIPTION
#------------------------------------------------------------------------------
STRT        .M                                          1033.8815 :START DEPTH
STOP        .M                                          2740.3042 :STOP DEPTH
STEP        .M                                             0.1524 :STEP
NULL        .                                           -999.2500 :NULL VALUE
COMP        .                                             UNKNOWN :COMPANY
WELL        .                                            2275A-ST :WELL
FLD         .                                             UNKNOWN :FIELD
LOC         .                                             UNKNOWN :LOCATION
CNTY        .                                             UNKNOWN :COUNTY
STAT        .                                             UNKNOWN :STATE
CTRY        .                                             UNKNOWN :COUNTRY
SRVC        .                                             UNKNOWN :SERVICE COMPANY
DATE        .                                             UNKNOWN :LOG DATE
UWI         .                                            2275A-ST :UNIQUE WELL ID
XCOORD      .                                            0.000000 :SURFACE X
YCOORD      .                                            0.000000 :SURFACE Y
LAT         .                                            0.000000 :LATITUDE
LON         .                                            0.000000 :LONGITUDE
ELEV        .M                                             0.0000 :SURFACE ELEV
ELEV_TYPE   .                                                  KB :ELEV TYPE
~CURVE INFORMATION
#MNEMONIC.UNIT        API CODE       : CURVE DESCRIPTION
#------------------------------------------------------------------------------
DEPTH    .M                          : Measured Depth
DT       .us/ft       UNKNOWN        : DT:Sonico:rC:NONE:v0 (auto-composite)
GR       .API         UNKNOWN        : GR:Sonico:rC:NONE:v0 (auto-composite)
GR-LWD   .API         UNKNOWN        : GR-LWD:resistivos-LWD:rC:NONE:v0 (auto-composite)
ILD-LWD  .ohm.m       UNKNOWN        : ILD-LWD:resistivos-LWD:rC:NONE:v0 (auto-composite)
ILM-LWD  .ohm.m       UNKNOWN        : ILM-LWD:resistivos-LWD:rC:NONE:v0 (auto-composite)
~A     DEPTH           DT           GR       GR-LWD      ILD-LWD      ILM-LWD
# ...
   2540.8127    -999.2500    -999.2500      45.0293       1.0503       1.0105
   2540.9651    -999.2500    -999.2500      44.5521       1.1559       1.0849
   2541.1174    -999.2500    -999.2500      45.9061       1.0694       1.0222
   2541.2698    -999.2500    -999.2500      47.7744       0.8477       0.8416
   2541.4224    -999.2500    -999.2500      49.2142       0.8442       0.8204
   2541.5747    -999.2500    -999.2500      51.9037       0.9220       0.8838
   2541.7271    -999.2500    -999.2500      54.2550       0.8468       0.8113
   2541.8794    -999.2500    -999.2500      55.4364       0.7903       0.7588
   2542.0320    -999.2500    -999.2500      57.3221       0.7941       0.7699
   2542.1843    -999.2500    -999.2500      58.9148       0.8041       0.7857
   2542.3367    -999.2500    -999.2500      58.4148       0.8232       0.8036
   2542.4890    -999.2500    -999.2500      57.3265       0.7712       0.7506
   2542.6414    -999.2500    -999.2500      55.8018       0.7670       0.7444
   2542.7939    -999.2500    -999.2500      54.7023       0.8040       0.7729
   2542.9463    -999.2500    -999.2500      56.7886       0.8196       0.7803
   2543.0986    -999.2500    -999.2500      60.1960       0.7826       0.7428
   2543.2510    -999.2500    -999.2500      61.4854       0.6797       0.6580
   2543.4036    -999.2500    -999.2500      60.3298       0.6382       0.6227
   2543.5559    -999.2500    -999.2500      61.0962       0.6918       0.6653
   2543.7083    -999.2500    -999.2500      63.4089       0.7238       0.6914
   2543.8606    -999.2500    -999.2500      62.6931       0.7031       0.6729
   2544.0132    -999.2500    -999.2500      60.4298       0.6918       0.6716
   2544.1655    -999.2500    -999.2500      59.3619       0.7042       0.6931
   2544.3179    -999.2500    -999.2500      60.5236       0.7289       0.7114
   2544.4702    -999.2500    -999.2500      61.1016       0.7401       0.7146
   2544.6226    -999.2500    -999.2500      60.4402       0.7960       0.7579
   2544.7751    -999.2500    -999.2500      60.9603       0.8550       0.8111
   2544.9275    -999.2500    -999.2500      61.9552       0.8362       0.7957
   2545.0798    -999.2500    -999.2500      62.8390       0.7759       0.7439
   2545.2322    -999.2500    -999.2500      64.1884       0.7024       0.6858
   2545.3848    -999.2500    -999.2500      64.7896       0.6726       0.6572
   2545.5371    -999.2500    -999.2500      62.5703       0.7929       0.7495
   2545.6895    -999.2500    -999.2500      60.7495       0.7296       0.6896
   2545.8418    -999.2500    -999.2500      62.2738       0.6951       0.6678
   2545.9944    -999.2500    -999.2500      64.7386       0.7268       0.6979
   2546.1467    -999.2500    -999.2500      63.7239       0.7635       0.7357
   2546.2991    -999.2500    -999.2500      61.0645       0.7819       0.7425
   2546.4514    -999.2500    -999.2500      61.2804       0.7812       0.7395
   2546.6038    -999.2500    -999.2500      61.9643       0.7046       0.6799
   2546.7563    -999.2500    -999.2500      62.4758       0.6778       0.6538
   2546.9087    -999.2500    -999.2500      63.7981       0.7132       0.6745
   2547.0610    -999.2500    -999.2500      64.0622       0.8335       0.7733
   2547.2134    -999.2500    -999.2500      63.4960       0.8760       0.8115
   2547.3660    -999.2500    -999.2500      63.0414       0.7592       0.7288
   2547.5183    -999.2500    -999.2500      62.9733       0.7494       0.7226
   2547.6707    -999.2500    -999.2500      63.0549       0.8021       0.7638
   2547.8230    -999.2500    -999.2500      62.9236       0.8591       0.8056
   2547.9756    -999.2500    -999.2500      61.8035       0.8864       0.8186
   2548.1279    -999.2500    -999.2500      59.4256       0.8682       0.8029
   2548.2803    -999.2500    -999.2500      58.4695       0.7671       0.7235
   2548.4326    -999.2500    -999.2500      58.6729       0.6727       0.6451
   2548.5850    -999.2500    -999.2500      58.4197       0.6609       0.6301
   2548.7375    -999.2500    -999.2500      58.3982       0.6495       0.6175
   2548.8899    -999.2500    -999.2500      58.5569       0.6221       0.5953
   2549.0422    -999.2500    -999.2500      59.2680       0.6148       0.5949
   2549.1946    -999.2500    -999.2500      59.6723       0.6854       0.6630
   2549.3472    -999.2500    -999.2500      58.7561       0.7522       0.7287
   2549.4995    -999.2500    -999.2500      59.7117       0.8320       0.7956
   2549.6519    -999.2500    -999.2500      61.6738       0.9129       0.8624
   2549.8042    -999.2500    -999.2500      60.1228       0.9524       0.8955
   2549.9568    -999.2500    -999.2500      58.9009       0.9298       0.8756
   2550.1091    -999.2500    -999.2500      60.0533       0.7873       0.7594
   2550.2615    -999.2500    -999.2500      60.2421       0.7095       0.6866
   2550.4138    -999.2500    -999.2500      59.7754       0.7784       0.7370
   2550.5662    -999.2500    -999.2500      58.5406       0.8213       0.7729
   2550.7188    -999.2500    -999.2500      56.5125       0.8020       0.7562
   2550.8711    -999.2500    -999.2500      54.7248       0.8539       0.8052
   2551.0234    -999.2500    -999.2500      53.2691       0.8603       0.8150
   2551.1758    -999.2500    -999.2500      52.1671       0.8062       0.7710
   2551.3284    -999.2500    -999.2500      52.0494       0.7120       0.6867
   2551.4807    -999.2500    -999.2500      52.1638       0.6895       0.6630
   2551.6331    -999.2500    -999.2500      51.4323       0.7013       0.6694
   2551.7854    -999.2500    -999.2500      52.0462       0.7060       0.6712
   2551.9380    -999.2500    -999.2500      53.1595       0.7164       0.6813
   2552.0903    -999.2500    -999.2500      53.5014       0.7439       0.7077
   2552.2427    -999.2500    -999.2500      54.6189       0.7146       0.6934
   2552.3950    -999.2500    -999.2500      54.6106       0.6863       0.6689
   2552.5474    -999.2500    -999.2500      52.7898       0.6625       0.6444
   2552.7000    -999.2500    -999.2500      50.8948       0.7251       0.6910
   2552.8523    -999.2500    -999.2500      51.0014       0.7723       0.7303
   2553.0046    -999.2500    -999.2500      53.2091       0.7606       0.7255
   2553.1570    -999.2500    -999.2500      54.2955       0.7944       0.7535
   2553.3096    -999.2500    -999.2500      54.9558       0.8202       0.7788
   2553.4619    -999.2500    -999.2500      55.5650       0.7793       0.7402
   2553.6143    -999.2500    -999.2500      54.3558       0.7714       0.7317
   2553.7666    -999.2500    -999.2500      53.8508       0.7466       0.7108
   2553.9192    -999.2500    -999.2500      54.9048       0.7038       0.6754
   2554.0715    -999.2500    -999.2500      56.4152       0.7086       0.6724
   2554.2239    -999.2500    -999.2500      58.7526       0.7184       0.6807
   2554.3762    -999.2500    -999.2500      60.1402       0.6844       0.6537
   2554.5286    -999.2500    -999.2500      59.2692       0.6496       0.6278
   2554.6812    -999.2500    -999.2500      58.3055       0.6582       0.6341
   2554.8335    -999.2500    -999.2500      58.9611       0.6187       0.6001
   2554.9858    -999.2500    -999.2500      60.9626       0.6320       0.6096
   2555.1382    -999.2500    -999.2500      63.0197       0.6578       0.6301
   2555.2908    -999.2500    -999.2500      62.5819       0.6414       0.6146
   2555.4431    -999.2500    -999.2500      59.4985       0.6731       0.6447
   2555.5955    -999.2500    -999.2500      57.2144       0.7012       0.6737
   2555.7478    -999.2500    -999.2500      56.2739       0.7720       0.7354
   2555.9004    -999.2500    -999.2500      54.2816       0.8447       0.8048
   2556.0527    -999.2500    -999.2500      52.4029       0.7908       0.7572
   2556.2051    -999.2500    -999.2500      53.1836       0.7135       0.6852
   2556.3574    -999.2500    -999.2500      55.4029       0.7550       0.7237
