#------------------------------------------------------------------------------
#
#   Created by  : [OpenWorks] Log Export Utility (LEXP)
#   Created on  : 2016-05-19 09:41:09
#   Project     : CANT971
#   User        : R5K
#   Interpreter : PEP
#
#------------------------------------------------------------------------------
~VERSION INFORMATION
VERS. 2.0 : CWLS Log ASCII Standard - version 2.0
WRAP.  NO : One line per depth step
~WELL INFORMATION
#MNEMONIC   .UNIT                                           VALUE :DESCRIPTION
#------------------------------------------------------------------------------
STRT        .M                                          1033.8815 :START DEPTH
STOP        .M                                          2740.3042 :STOP DEPTH
STEP        .M                                             0.1524 :STEP
NULL        .                                           -999.2500 :NULL VALUE
COMP        .                                             UNKNOWN :COMPANY
WELL        .                                            2275A-ST :WELL
FLD         .                                             UNKNOWN :FIELD
LOC         .                                             UNKNOWN :LOCATION
CNTY        .                                             UNKNOWN :COUNTY
STAT        .                                             UNKNOWN :STATE
CTRY        .                                             UNKNOWN :COUNTRY
SRVC        .                                             UNKNOWN :SERVICE COMPANY
DATE        .                                             UNKNOWN :LOG DATE
UWI         .                                            2275A-ST :UNIQUE WELL ID
XCOORD      .                                            0.000000 :SURFACE X
YCOORD      .                                            0.000000 :SURFACE Y
LAT         .                                            0.000000 :LATITUDE
LON         .                                            0.000000 :LONGITUDE
ELEV        .M                                             0.0000 :SURFACE ELEV
ELEV_TYPE   .                                                  KB :ELEV TYPE
~CURVE INFORMATION
#MNEMONIC.UNIT        API CODE       : CURVE DESCRIPTION
#------------------------------------------------------------------------------
DEPTH    .M                          : Measured Depth
DT       .us/ft       UNKNOWN        : DT:Sonico:rC:NONE:v0 (auto-composite)
GR       .API         UNKNOWN        : GR:Sonico:rC:NONE:v0 (auto-composite)
GR-LWD   .API         UNKNOWN        : GR-LWD:resistivos-LWD:rC:NONE:v0 (auto-composite)
ILD-LWD  .ohm.m       UNKNOWN        : ILD-LWD:resistivos-LWD:rC:NONE:v0 (auto-composite)
ILM-LWD  .ohm.m       UNKNOWN        : ILM-LWD:resistivos-LWD:rC:NONE:v0 (auto-composite)
~A     DEPTH           DT           GR       GR-LWD      ILD-LWD      ILM-LWD
# ...
   2587.9043    -999.2500    -999.2500      53.4199       0.8658       0.8152
   2588.0566    -999.2500    -999.2500      51.9002       0.7321       0.7165
   2588.2090    -999.2500    -999.2500      52.4562       0.6859       0.6733
   2588.3616    -999.2500    -999.2500      54.4001       0.7060       0.6775
   2588.5139    -999.2500    -999.2500      52.9595       0.7486       0.7078
   2588.6663    -999.2500    -999.2500      50.5361       0.7413       0.7167
   2588.8186    -999.2500    -999.2500      51.4207       0.8394       0.8102
   2588.9712    -999.2500    -999.2500      53.1998       0.9570       0.9171
   2589.1235    -999.2500    -999.2500      53.9886       1.0264       0.9726
   2589.2759    -999.2500    -999.2500      56.1349       0.9785       0.9241
   2589.4282    -999.2500    -999.2500      57.5688       0.8582       0.8248
   2589.5806    -999.2500    -999.2500      55.3218       0.8007       0.7684
   2589.7332    -999.2500    -999.2500      53.9608       0.8213       0.7728
   2589.8855    -999.2500    -999.2500      55.0368       0.7962       0.7514
   2590.0378    -999.2500    -999.2500      55.1063       0.7559       0.7205
   2590.1902    -999.2500    -999.2500      54.0222       0.7180       0.7038
   2590.3428    -999.2500    -999.2500      53.3249       0.7218       0.7152
   2590.4951    -999.2500    -999.2500      52.5790       0.8169       0.7962
   2590.6475    -999.2500    -999.2500      50.7952       0.9373       0.8957
   2590.7998    -999.2500    -999.2500      49.9752       0.9829       0.9327
   2590.9521    -999.2500    -999.2500      51.0871       0.9644       0.9251
   2591.1047    -999.2500    -999.2500      51.5875       1.0054       0.9611
   2591.2571    -999.2500    -999.2500      50.3597       1.0622       0.9953
   2591.4094    -999.2500    -999.2500      48.7705       0.9934       0.9340
   2591.5618    -999.2500    -999.2500      46.5906       0.7870       0.7591
   2591.7144    -999.2500    -999.2500      44.4363       0.7077       0.6892
   2591.8667    -999.2500    -999.2500      43.5606       0.7306       0.7089
   2592.0190    -999.2500    -999.2500      44.1824       0.7768       0.7443
   2592.1714    -999.2500    -999.2500      46.1709       0.7896       0.7566
   2592.3240    -999.2500    -999.2500      47.6859       0.8619       0.8251
   2592.4763    -999.2500    -999.2500      48.6415       0.9681       0.9263
   2592.6287    -999.2500    -999.2500      49.5545       0.9666       0.9280
   2592.7810    -999.2500    -999.2500      50.7894       0.8801       0.8478
   2592.9333    -999.2500    -999.2500      52.3473       0.9788       0.9186
   2593.0859    -999.2500    -999.2500      52.8491       0.9402       0.8869
   2593.2383    -999.2500    -999.2500      53.0682       0.8185       0.7745
   2593.3906    -999.2500    -999.2500      52.7414       0.8468       0.7936
   2593.5430    -999.2500    -999.2500      51.7450       0.7946       0.7611
   2593.6956    -999.2500    -999.2500      51.8481       0.7307       0.7141
   2593.8479    -999.2500    -999.2500      52.4492       0.7590       0.7261
   2594.0002    -999.2500    -999.2500      52.9585       0.8283       0.7845
   2594.1526    -999.2500    -999.2500      53.2066       0.8068       0.7723
   2594.3052    -999.2500    -999.2500      52.1441       0.7916       0.7582
   2594.4575    -999.2500    -999.2500      50.1517       0.7972       0.7644
   2594.6099    -999.2500    -999.2500      50.0470       0.8285       0.7837
   2594.7622    -999.2500    -999.2500      51.9651       0.8403       0.7841
   2594.9146    -999.2500    -999.2500      53.8841       0.8878       0.8190
   2595.0671    -999.2500    -999.2500      54.9043       0.8840       0.8284
   2595.2195    -999.2500    -999.2500      54.5883       0.8176       0.7764
   2595.3718    -999.2500    -999.2500      55.6721       0.7164       0.6973
   2595.5242    -999.2500    -999.2500      58.4955       0.7343       0.7070
   2595.6768    -999.2500    -999.2500      59.7447       0.8340       0.7831
   2595.8291    -999.2500    -999.2500      59.2078       0.7490       0.7125
   2595.9814    -999.2500    -999.2500      57.6496       0.7083       0.6712
   2596.1338    -999.2500    -999.2500      56.9404       0.8398       0.7882
   2596.2864    -999.2500    -999.2500      57.8280       0.7980       0.7657
   2596.4387    -999.2500    -999.2500      57.1634       0.8029       0.7611
   2596.5911    -999.2500    -999.2500      54.6963       1.0061       0.9117
   2596.7434    -999.2500    -999.2500      53.0956       1.0833       0.9695
   2596.8958    -999.2500    -999.2500      52.9218       0.9490       0.8755
   2597.0483    -999.2500    -999.2500      53.5728       0.6566       0.6286
   2597.2007    -999.2500    -999.2500      54.9868       0.6184       0.5964
   2597.3530    -999.2500    -999.2500      55.2472       0.6641       0.6350
   2597.5054    -999.2500    -999.2500      53.6339       0.7125       0.6679
   2597.6580    -999.2500    -999.2500      52.6554       0.6979       0.6649
   2597.8103    -999.2500    -999.2500      52.8083       0.7370       0.7203
   2597.9626    -999.2500    -999.2500      51.9558       0.8742       0.8546
   2598.1150    -999.2500    -999.2500      49.4725       1.0398       0.9803
   2598.2676    -999.2500    -999.2500      47.1038       1.0158       0.9489
   2598.4199    -999.2500    -999.2500      45.8748       0.9533       0.8952
   2598.5723    -999.2500    -999.2500      45.6026       0.9180       0.8741
   2598.7246    -999.2500    -999.2500      45.0061       0.8989       0.8540
   2598.8770    -999.2500    -999.2500      44.8996       0.8832       0.8255
   2599.0295    -999.2500    -999.2500      46.8640       0.8796       0.8235
   2599.1819    -999.2500    -999.2500      48.4068       0.8439       0.8005
   2599.3342    -999.2500    -999.2500      48.0408       0.8304       0.7946
   2599.4866    -999.2500    -999.2500      47.3811       0.8512       0.8130
   2599.6392    -999.2500    -999.2500      46.6463       0.8038       0.7742
   2599.7915    -999.2500    -999.2500      45.5028       0.7749       0.7477
   2599.9438    -999.2500    -999.2500      45.1405       0.8102       0.7728
   2600.0962    -999.2500    -999.2500      46.9354       0.8684       0.8230
   2600.2488    -999.2500    -999.2500      49.1213       0.8576       0.8154
   2600.4011    -999.2500    -999.2500      48.6221       0.7639       0.7469
   2600.5535    -999.2500    -999.2500      47.5215       0.8415       0.8166
   2600.7058    -999.2500    -999.2500      47.5333       1.0023       0.9483
   2600.8582    -999.2500    -999.2500      47.0470       1.1060       1.0348
   2601.0107    -999.2500    -999.2500      46.8177       1.0439       0.9756
   2601.1631    -999.2500    -999.2500      47.3574       1.0773       1.0061
   2601.3154    -999.2500    -999.2500      48.1045       0.9748       0.9385
   2601.4678    -999.2500    -999.2500      48.2238       0.9581       0.9080
   2601.6204    -999.2500    -999.2500      47.9146       0.9347       0.8770
   2601.7727    -999.2500    -999.2500      48.3281       0.8870       0.8384
   2601.9250    -999.2500    -999.2500      47.8323       0.9172       0.8667
   2602.0774    -999.2500    -999.2500      46.5131       1.0181       0.9572
   2602.2300    -999.2500    -999.2500      45.7822       0.9788       0.9323
   2602.3823    -999.2500    -999.2500      46.0840       0.8926       0.8691
   2602.5347    -999.2500    -999.2500      47.4608       0.8783       0.8645
   2602.6870    -999.2500    -999.2500      48.2558       0.9231       0.8998
   2602.8394    -999.2500    -999.2500      48.1335       1.0339       0.9775
   2602.9919    -999.2500    -999.2500      47.4941       1.0701       1.0034
   2603.1443    -999.2500    -999.2500      46.0694       1.0899       1.0279
   2603.2966    -999.2500    -999.2500      44.8718       1.1405       1.0758
   2603.4490    -999.2500    -999.2500      44.2273       1.0115       0.9776
