#------------------------------------------------------------------------------
#
#   Created by  : [OpenWorks] Log Export Utility (LEXP)
#   Created on  : 2016-05-19 09:43:50
#   Project     : CANT971
#   User        : R5K
#   Interpreter : PEP
#
#------------------------------------------------------------------------------
~VERSION INFORMATION
VERS. 2.0 : CWLS Log ASCII Standard - version 2.0
WRAP.  NO : One line per depth step
~WELL INFORMATION
#MNEMONIC   .UNIT                                           VALUE :DESCRIPTION
#------------------------------------------------------------------------------
STRT        .M                                           496.7353 :START DEPTH
STOP        .M                                          2986.9512 :STOP DEPTH
STEP        .M                                             0.1524 :STEP
NULL        .                                           -999.2500 :NULL VALUE
COMP        .                                   PEMEX EXPL & PROD :COMPANY
WELL        .                                                2277 :WELL
FLD         .                                           CANTARELL :FIELD
LOC         .                                             UNKNOWN :LOCATION
CNTY        .                                      CD. DEL CARMEN :COUNTY
STAT        .                                            CAMPECHE :STATE
CTRY        .                                              MEXICO :COUNTRY
SRVC        .                                             UNKNOWN :SERVICE COMPANY
DATE        .                                             UNKNOWN :LOG DATE
UWI         .                                          3060000527 :UNIQUE WELL ID
XCOORD      .                                       597712.670000 :SURFACE X
YCOORD      .                                      2140957.060000 :SURFACE Y
LAT         .                                           19.361451 :LATITUDE
LON         .                                          -92.069631 :LONGITUDE
ELEV        .M                                            23.0000 :SURFACE ELEV
ELEV_TYPE   .                                                  KB :ELEV TYPE
~CURVE INFORMATION
#MNEMONIC.UNIT        API CODE       : CURVE DESCRIPTION
#------------------------------------------------------------------------------
DEPTH    .M                          : Measured Depth
CALI     .inches      UNKNOWN        : CALI:litodensidad:r1:0001:v1 
CGR      .API         UNKNOWN        : CGR:Espectroscopia:r1:0001:v1 
DRHO     .g/cm3       UNKNOWN        : DRHO:litodensidad:r1:0001:v1 
DT       .us/ft       UNKNOWN        : DT:Sonico:r1:0001:v1 
GR       .API         UNKNOWN        : GR:PETROWORKS:rC:NONE:v3 
ILD      .ohm.m       UNKNOWN        : ILD:PETROWORKS:rC:NONE:v3 
LLD      .UNKNOWN     UNKNOWN        : LLD:PETROWORKS:rC:NONE:v1 
LLS      .ohm.m       UNKNOWN        : LLS:PETROWORKS:rC:NONE:v1 
MSFL     .UNKNOWN     UNKNOWN        : MSFL:PETROWORKS:rC:NONE:v1 
NPHI     .v/v_decimal UNKNOWN        : NPHI:PETROWORKS:rC:NONE:v2 
PEF      .UNKNOWN     UNKNOWN        : PEF:litodensidad:r1:0001:v1 
POTA     .wtpercent   UNKNOWN        : POTA:Espectroscopia:r1:0001:v2 
RHOB     .g/cm3       UNKNOWN        : RHOB:litodensidad:r1:0001:v1 
SFLU     .ohm.m       UNKNOWN        : SFLU:PETROWORKS:rC:NONE:v1 
SP       .mV          UNKNOWN        : SP:resistivos:r1:0001:v1 
THOR     .UNKNOWN     UNKNOWN        : THOR:Espectroscopia:r1:0001:v1 
URAN     .UNKNOWN     UNKNOWN        : URAN:Espectroscopia:r1:0001:v1 
~A     DEPTH         CALI          CGR         DRHO           DT           GR          ILD          LLD          LLS         MSFL         NPHI          PEF         POTA         RHOB         SFLU           SP         THOR         URAN
# ...
   2971.7112       6.3852    -999.2500       0.1477      48.9876    -999.2500    -999.2500      10.3610      11.4619   20000.0000       0.1176       3.0846    -999.2500       2.4801    -999.2500    -999.2500    -999.2500    -999.2500
   2971.8638       6.2795    -999.2500       0.1921      50.4201    -999.2500    -999.2500      12.5839      13.2714   11190.7891       0.1146       3.0402    -999.2500       2.5641    -999.2500    -999.2500    -999.2500    -999.2500
   2972.0161       6.2579    -999.2500       0.2317      51.5668    -999.2500    -999.2500      15.9004      16.1840     592.0691       0.1112       3.0999    -999.2500       2.6133    -999.2500    -999.2500    -999.2500    -999.2500
   2972.1685       6.2637    -999.2500       0.2293      52.0411    -999.2500    -999.2500      24.2439      26.3722     242.5665       0.1136       3.3342    -999.2500       2.6205    -999.2500    -999.2500    -999.2500    -999.2500
   2972.3208       6.2686    -999.2500       0.1932      51.9308    -999.2500    -999.2500      55.0039      57.3591      41.1507       0.1202       3.4588    -999.2500       2.6185    -999.2500    -999.2500    -999.2500    -999.2500
   2972.4734       6.2761    -999.2500       0.1311      51.5330    -999.2500    -999.2500     111.5381     112.2603      10.0041       0.1246       3.3393    -999.2500       2.6013    -999.2500    -999.2500    -999.2500    -999.2500
   2972.6257       6.2714    -999.2500       0.1022      50.8540    -999.2500    -999.2500      93.6758      95.7899       8.2822       0.1251       3.1979    -999.2500       2.6069    -999.2500    -999.2500    -999.2500    -999.2500
   2972.7781       6.2769    -999.2500       0.0951      48.9604    -999.2500    -999.2500      62.7489      65.9496      13.8946       0.1250       3.1476    -999.2500       2.6218    -999.2500    -999.2500    -999.2500    -999.2500
   2972.9304       6.2800    -999.2500       0.0908      46.7446    -999.2500    -999.2500      43.9682      44.0600      24.2929       0.1256       3.1234    -999.2500       2.6160    -999.2500    -999.2500    -999.2500    -999.2500
   2973.0830       6.2626    -999.2500       0.0846      46.3237    -999.2500    -999.2500      35.3580      33.9666      22.8116       0.1262       3.0743    -999.2500       2.5673    -999.2500    -999.2500    -999.2500    -999.2500
   2973.2354       6.2354    -999.2500       0.0733      46.6342    -999.2500    -999.2500      35.2764      33.7650      11.3685       0.1258       3.0011    -999.2500       2.4625    -999.2500    -999.2500    -999.2500    -999.2500
   2973.3877       6.2120    -999.2500       0.0728      47.1508    -999.2500    -999.2500      37.2757      39.1476      11.1806       0.1260       3.0236    -999.2500       2.4477    -999.2500    -999.2500    -999.2500    -999.2500
   2973.5400       6.1818    -999.2500       0.0830      49.0593    -999.2500    -999.2500      39.6157      43.5913      13.6629       0.1271       3.0955    -999.2500       2.4966    -999.2500    -999.2500    -999.2500    -999.2500
   2973.6924       6.1777    -999.2500       0.0928      52.1707    -999.2500    -999.2500      42.2873      43.7333      20.2573       0.1257       3.1226    -999.2500       2.5238    -999.2500    -999.2500    -999.2500    -999.2500
   2973.8450       6.1834    -999.2500       0.1053      53.8183    -999.2500    -999.2500      42.1723      44.4787      20.6823       0.1257       3.1321    -999.2500       2.5115    -999.2500    -999.2500    -999.2500    -999.2500
   2973.9973       6.1834    -999.2500       0.1104      53.3427    -999.2500    -999.2500      40.3685      45.5899      17.3683       0.1271       3.1496    -999.2500       2.4996    -999.2500    -999.2500    -999.2500    -999.2500
   2974.1497       6.1855    -999.2500       0.1190      52.8437    -999.2500    -999.2500      40.7926      44.8937      11.5997       0.1271       3.2281    -999.2500       2.5433    -999.2500    -999.2500    -999.2500    -999.2500
   2974.3020       6.1787    -999.2500       0.1269      53.1328    -999.2500    -999.2500      39.0533      42.4612       8.2300       0.1260       3.2753    -999.2500       2.5879    -999.2500    -999.2500    -999.2500    -999.2500
   2974.4546       6.1593    -999.2500       0.1509      53.4020    -999.2500    -999.2500      33.0705      36.7484       9.5657       0.1241       3.3454    -999.2500       2.6147    -999.2500    -999.2500    -999.2500    -999.2500
   2974.6069       6.1672    -999.2500       0.1656      53.5297    -999.2500    -999.2500      27.6724      30.5539      16.7472    -999.2500       3.3999    -999.2500       2.5961    -999.2500    -999.2500    -999.2500    -999.2500
   2974.7593       6.1772    -999.2500       0.1673      53.6834    -999.2500    -999.2500      22.8402      24.4937      25.4023    -999.2500       3.4789    -999.2500       2.5782    -999.2500    -999.2500    -999.2500    -999.2500
   2974.9116       6.1902    -999.2500       0.1585      53.5661    -999.2500    -999.2500      22.8902      23.6596      18.4193    -999.2500       3.5036    -999.2500       2.5764    -999.2500    -999.2500    -999.2500    -999.2500
   2975.0642       6.1844    -999.2500       0.1278      52.9155    -999.2500    -999.2500      24.1009      25.7525      13.1790    -999.2500       3.4334    -999.2500       2.5960    -999.2500    -999.2500    -999.2500    -999.2500
   2975.2166       6.1839    -999.2500       0.1035      52.1776    -999.2500    -999.2500      26.9107      31.8784      10.3399    -999.2500       3.3247    -999.2500       2.6133    -999.2500    -999.2500    -999.2500    -999.2500
   2975.3689       6.1680    -999.2500       0.1083      51.9269    -999.2500    -999.2500      32.7936      37.2511      15.5745    -999.2500       3.2559    -999.2500       2.6367    -999.2500    -999.2500    -999.2500    -999.2500
   2975.5212       6.1677    -999.2500       0.1308      52.2044    -999.2500    -999.2500      38.6250      41.6095      22.3432    -999.2500       3.2855    -999.2500       2.6659    -999.2500    -999.2500    -999.2500    -999.2500
   2975.6736       6.1355    -999.2500       0.1651      52.6489    -999.2500    -999.2500      38.8058      41.0290      24.5462    -999.2500       3.4259    -999.2500       2.6831    -999.2500    -999.2500    -999.2500    -999.2500
   2975.8262       6.0911    -999.2500       0.1776      52.9260    -999.2500    -999.2500      43.3480      46.3352      23.7253    -999.2500       3.5070    -999.2500       2.6661    -999.2500    -999.2500    -999.2500    -999.2500
   2975.9785       6.0415    -999.2500       0.1685      52.9567    -999.2500    -999.2500      52.2640      57.5450      19.8718    -999.2500       3.4932    -999.2500       2.6157    -999.2500    -999.2500    -999.2500    -999.2500
   2976.1309       6.0178    -999.2500       0.1573      52.5347    -999.2500    -999.2500      40.2901      45.5885      23.8785    -999.2500       3.4534    -999.2500       2.5851    -999.2500    -999.2500    -999.2500    -999.2500
   2976.2832       5.9862    -999.2500       0.1434      52.0124    -999.2500    -999.2500      27.3890      31.6848      25.3550    -999.2500       3.4188    -999.2500       2.5768    -999.2500    -999.2500    -999.2500    -999.2500
   2976.4358       5.9764    -999.2500       0.1335      52.0055    -999.2500    -999.2500      23.4526      24.4354      13.1568    -999.2500       3.3999    -999.2500       2.5888    -999.2500    -999.2500    -999.2500    -999.2500
   2976.5881       6.0081    -999.2500       0.1155      51.9986    -999.2500    -999.2500      22.9768      24.0043       8.9753    -999.2500       3.3360    -999.2500       2.6097    -999.2500    -999.2500    -999.2500    -999.2500
   2976.7405       6.0113    -999.2500       0.1037      51.9917    -999.2500    -999.2500      25.0275      28.5509      10.6463    -999.2500       3.2842    -999.2500       2.6183    -999.2500    -999.2500    -999.2500    -999.2500
   2976.8928       6.0195    -999.2500       0.0961      51.9848    -999.2500    -999.2500      42.6951      51.8821       6.8708    -999.2500       3.2428    -999.2500       2.6250    -999.2500    -999.2500    -999.2500    -999.2500
