#------------------------------------------------------------------------------
#
#   Created by  : [OpenWorks] Log Export Utility (LEXP)
#   Created on  : 2016-05-19 09:43:50
#   Project     : CANT971
#   User        : R5K
#   Interpreter : PEP
#
#------------------------------------------------------------------------------
~VERSION INFORMATION
VERS. 2.0 : CWLS Log ASCII Standard - version 2.0
WRAP.  NO : One line per depth step
~WELL INFORMATION
#MNEMONIC   .UNIT                                           VALUE :DESCRIPTION
#------------------------------------------------------------------------------
STRT        .M                                           496.7353 :START DEPTH
STOP        .M                                          2986.9512 :STOP DEPTH
STEP        .M                                             0.1524 :STEP
NULL        .                                           -999.2500 :NULL VALUE
COMP        .                                   PEMEX EXPL & PROD :COMPANY
WELL        .                                                2277 :WELL
FLD         .                                           CANTARELL :FIELD
LOC         .                                             UNKNOWN :LOCATION
CNTY        .                                      CD. DEL CARMEN :COUNTY
STAT        .                                            CAMPECHE :STATE
CTRY        .                                              MEXICO :COUNTRY
SRVC        .                                             UNKNOWN :SERVICE COMPANY
DATE        .                                             UNKNOWN :LOG DATE
UWI         .                                          3060000527 :UNIQUE WELL ID
XCOORD      .                                       597712.670000 :SURFACE X
YCOORD      .                                      2140957.060000 :SURFACE Y
LAT         .                                           19.361451 :LATITUDE
LON         .                                          -92.069631 :LONGITUDE
ELEV        .M                                            23.0000 :SURFACE ELEV
ELEV_TYPE   .                                                  KB :ELEV TYPE
~CURVE INFORMATION
#MNEMONIC.UNIT        API CODE       : CURVE DESCRIPTION
#------------------------------------------------------------------------------
DEPTH    .M                          : Measured Depth
CALI     .inches      UNKNOWN        : CALI:litodensidad:r1:0001:v1 
CGR      .API         UNKNOWN        : CGR:Espectroscopia:r1:0001:v1 
DRHO     .g/cm3       UNKNOWN        : DRHO:litodensidad:r1:0001:v1 
DT       .us/ft       UNKNOWN        : DT:Sonico:r1:0001:v1 
GR       .API         UNKNOWN        : GR:PETROWORKS:rC:NONE:v3 
ILD      .ohm.m       UNKNOWN        : ILD:PETROWORKS:rC:NONE:v3 
LLD      .UNKNOWN     UNKNOWN        : LLD:PETROWORKS:rC:NONE:v1 
LLS      .ohm.m       UNKNOWN        : LLS:PETROWORKS:rC:NONE:v1 
MSFL     .UNKNOWN     UNKNOWN        : MSFL:PETROWORKS:rC:NONE:v1 
NPHI     .v/v_decimal UNKNOWN        : NPHI:PETROWORKS:rC:NONE:v2 
PEF      .UNKNOWN     UNKNOWN        : PEF:litodensidad:r1:0001:v1 
POTA     .wtpercent   UNKNOWN        : POTA:Espectroscopia:r1:0001:v2 
RHOB     .g/cm3       UNKNOWN        : RHOB:litodensidad:r1:0001:v1 
SFLU     .ohm.m       UNKNOWN        : SFLU:PETROWORKS:rC:NONE:v1 
SP       .mV          UNKNOWN        : SP:resistivos:r1:0001:v1 
THOR     .UNKNOWN     UNKNOWN        : THOR:Espectroscopia:r1:0001:v1 
URAN     .UNKNOWN     UNKNOWN        : URAN:Espectroscopia:r1:0001:v1 
~A     DEPTH         CALI          CGR         DRHO           DT           GR          ILD          LLD          LLS         MSFL         NPHI          PEF         POTA         RHOB         SFLU           SP         THOR         URAN
# ...
   2918.3713    -999.2500      24.8841    -999.2500      54.5210      31.8621       0.0000       0.2057      25.8310      55.1335       0.1363    -999.2500       0.0056    -999.2500    -999.2500    -999.2500       4.8258       0.8313
   2918.5237    -999.2500      28.2689    -999.2500      54.6477      35.6104       0.0000       0.2000      25.7089      38.1418       0.1349    -999.2500       0.0064    -999.2500    -999.2500    -999.2500       5.4918       0.8259
   2918.6760    -999.2500      28.3840    -999.2500      54.2874      37.8941       0.0000       0.2000      24.9238      68.8900       0.1357    -999.2500       0.0061    -999.2500    -999.2500    -999.2500       5.6304       1.1649
   2918.8284    -999.2500      25.8781    -999.2500      54.1377      37.0943       0.0000       0.2000      24.9474      70.3446       0.1375    -999.2500       0.0053    -999.2500    -999.2500    -999.2500       5.2364       1.3687
   2918.9810    -999.2500      21.8446    -999.2500      54.1800      33.3666       0.0000       0.2000      25.7325      44.2154       0.1397    -999.2500       0.0048    -999.2500    -999.2500    -999.2500       4.2999       1.3189
   2919.1333    -999.2500      19.9526    -999.2500      54.1497      30.4244       0.0000       0.2000      25.8310      44.5608       0.1459    -999.2500       0.0051    -999.2500    -999.2500    -999.2500       3.6393       1.1513
   2919.2856    -999.2500      21.7539    -999.2500      53.1677      27.9611       0.0000       0.2000      24.8561      46.7622       0.1589    -999.2500       0.0061    -999.2500    -999.2500    -999.2500       3.7594       0.6508
   2919.4380    -999.2500      21.0982    -999.2500      51.3582      26.7024       0.0000       0.2000      20.6931      42.6212       0.1698    -999.2500       0.0060    -999.2500    -999.2500    -999.2500       3.5959       0.6135
   2919.5906    -999.2500      17.0340    -999.2500      50.5905      25.5699       0.0000       0.2000      19.7433      38.1964       0.1762    -999.2500       0.0049    -999.2500    -999.2500    -999.2500       2.8862       0.8956
   2919.7429    -999.2500      14.2518    -999.2500      51.1883      24.5247       0.0000       0.2000      20.9918      33.5775       0.1664    -999.2500       0.0043    -999.2500    -999.2500    -999.2500       2.3177       1.1392
   2919.8953    -999.2500      13.0652    -999.2500      51.4016      24.2799       0.0000       0.2000      23.8285      36.5787       0.1370    -999.2500       0.0039    -999.2500    -999.2500    -999.2500       2.1620       1.2483
   2920.0476       6.1233      11.5636      -0.3339      50.1720      23.9750       0.0000       0.2000      25.5853      37.8411       0.1229      32.2323       0.0033       2.6858    -999.2500    -999.2500       1.9702       1.3866
   2920.2002       6.1202       9.2151      -0.3261      49.3537      23.4461       0.0000       0.2000      24.8001      34.4670       0.1284      32.7517       0.0021       2.7347    -999.2500    -999.2500       1.7637       1.5709
   2920.3525       6.1119       9.3543      -0.3242      50.3846      23.2793       0.0000       0.2000      17.0087      27.8841       0.1360      31.8495       0.0020       2.7679    -999.2500    -999.2500       1.8421       1.5291
   2920.5049       6.1107      12.2710      -0.3163      52.4103      23.3493       0.0000       0.2000       6.0747      19.7423       0.1424      33.6259       0.0026       2.8562    -999.2500    -999.2500       2.4375       1.2305
   2920.6572       6.1056      14.0874      -0.3127      53.3762      25.3176       0.0000       0.2000       3.2608      11.7133       0.1515      35.1571       0.0035       2.8856    -999.2500    -999.2500       2.5925       1.1623
   2920.8096       6.1087      15.3855      -0.3127      52.9893      27.7675       0.0000       0.2000       1.3191       5.7553       0.1625      36.2731       0.0045       2.8661    -999.2500    -999.2500       2.5882       1.4343
   2920.9622       6.1060      15.2389      -0.3148      54.4010      30.9722       0.0000       0.2000       0.7320       3.0139       0.1894      35.9647       0.0049       2.8226    -999.2500    -999.2500       2.3688       1.7606
   2921.1145       6.1088      20.7096      -0.3227      56.7968      44.0908       0.0000       0.2000       0.4298       1.8420       0.2208      33.3541       0.0060       2.7070    -999.2500    -999.2500       3.4758       2.4862
   2921.2668       6.1077      34.3778      -0.3383      59.1630      62.8374       0.0000       0.2000       0.2434       1.2144       0.2281      28.2419       0.0091       2.5846    -999.2500    -999.2500       6.1292       2.9735
   2921.4192       6.1097      55.8835      -0.3624      61.5856     100.5055       0.0000       0.2000       0.2294       0.7846       0.2400      20.0764       0.0141       2.4270    -999.2500    -999.2500      10.2739       3.8422
   2921.5718       6.1152      85.5824      -0.3863      64.5454     123.0990       0.0000       0.2000       0.2188       0.4836       0.2601      11.0399       0.0205       2.2845    -999.2500    -999.2500      16.1323       4.8172
   2921.7241       6.1180      88.5852      -0.3888      67.2308     128.5785       0.0000       0.2000       0.2121       0.3275       0.2525       9.1031       0.0209       2.2724    -999.2500    -999.2500      16.8253       4.9692
   2921.8765       6.1187      68.3609      -0.3854      67.9203     109.2968       0.0000       0.2000       0.2110       0.2666       0.2284       9.6545       0.0164       2.2964    -999.2500    -999.2500      12.8975       4.6534
   2922.0288       6.1167      50.9541      -0.3828      66.1654      85.6151       0.0000       0.2000       0.2110       0.2292       0.2154      11.0086       0.0123       2.3127    -999.2500    -999.2500       9.5598       3.7970
   2922.1814       6.1178      35.4958      -0.3761      62.1754      65.1722       0.0000       0.2000       0.2110       0.2091       0.2065      14.2666       0.0085       2.3571    -999.2500    -999.2500       6.6967       3.1190
   2922.3337       6.1156      28.6815      -0.3653      57.9284      50.5814       0.0000       0.2000       0.2110       0.2000       0.1971      18.5018       0.0067       2.4325    -999.2500    -999.2500       5.4644       2.2101
   2922.4861       6.1146      27.0789      -0.3534      54.3234      40.8359       0.0000       0.2000       0.2110       0.2000       0.1855      22.5140       0.0062       2.5228    -999.2500    -999.2500       5.2346       1.4950
   2922.6384       6.1100      26.7090      -0.3475      52.5627      36.9683       0.0000       0.2000       0.2049       0.2000       0.1651      24.2510       0.0062       2.5756    -999.2500    -999.2500       5.1245       1.0514
   2922.7908       6.1117      27.3544      -0.3472      52.1614      34.6172       0.0000       0.2000       0.2000       0.2000       0.1507      24.5807       0.0062       2.5840    -999.2500    -999.2500       5.2919       0.7710
   2922.9434       6.1157      26.5363      -0.3515      51.4232      34.7779       0.0000       0.2000       0.2000       0.2000       0.1508      24.1244       0.0056       2.5490    -999.2500    -999.2500       5.2942       0.8963
   2923.0957       6.1164      25.2996      -0.3549      49.8740      35.4645    -999.2500       0.2000       0.2000       0.2000       0.1539      24.5427       0.0052       2.5102    -999.2500    -999.2500       5.1211       1.1234
   2923.2480       6.1149      23.9685      -0.3554      52.1372      36.4655    -999.2500    -999.2500    -999.2500    -999.2500       0.1555      25.8613       0.0050       2.4902    -999.2500    -999.2500       4.8173       1.3916
   2923.4004       6.1065      23.6864      -0.3534      57.0377      37.1048    -999.2500    -999.2500    -999.2500    -999.2500       0.1559      27.3956       0.0053       2.4912    -999.2500    -999.2500       4.6147       1.5040
   2923.5530       6.1034      24.6238      -0.3523      57.6223      37.5295    -999.2500    -999.2500    -999.2500    -999.2500       0.1595      27.2708       0.0061       2.4953    -999.2500    -999.2500       4.5737       1.4426
