#------------------------------------------------------------------------------
#
#   Created by  : [OpenWorks] Log Export Utility (LEXP)
#   Created on  : 2016-05-19 09:43:50
#   Project     : CANT971
#   User        : R5K
#   Interpreter : PEP
#
#------------------------------------------------------------------------------
~VERSION INFORMATION
VERS. 2.0 : CWLS Log ASCII Standard - version 2.0
WRAP.  NO : One line per depth step
~WELL INFORMATION
#MNEMONIC   .UNIT                                           VALUE :DESCRIPTION
#------------------------------------------------------------------------------
STRT        .M                                           496.7353 :START DEPTH
STOP        .M                                          2986.9512 :STOP DEPTH
STEP        .M                                             0.1524 :STEP
NULL        .                                           -999.2500 :NULL VALUE
COMP        .                                   PEMEX EXPL & PROD :COMPANY
WELL        .                                                2277 :WELL
FLD         .                                           CANTARELL :FIELD
LOC         .                                             UNKNOWN :LOCATION
CNTY        .                                      CD. DEL CARMEN :COUNTY
STAT        .                                            CAMPECHE :STATE
CTRY        .                                              MEXICO :COUNTRY
SRVC        .                                             UNKNOWN :SERVICE COMPANY
DATE        .                                             UNKNOWN :LOG DATE
UWI         .                                          3060000527 :UNIQUE WELL ID
XCOORD      .                                       597712.670000 :SURFACE X
YCOORD      .                                      2140957.060000 :SURFACE Y
LAT         .                                           19.361451 :LATITUDE
LON         .                                          -92.069631 :LONGITUDE
ELEV        .M                                            23.0000 :SURFACE ELEV
ELEV_TYPE   .                                                  KB :ELEV TYPE
~CURVE INFORMATION
#MNEMONIC.UNIT        API CODE       : CURVE DESCRIPTION
#------------------------------------------------------------------------------
DEPTH    .M                          : Measured Depth
CALI     .inches      UNKNOWN        : CALI:litodensidad:r1:0001:v1 
CGR      .API         UNKNOWN        : CGR:Espectroscopia:r1:0001:v1 
DRHO     .g/cm3       UNKNOWN        : DRHO:litodensidad:r1:0001:v1 
DT       .us/ft       UNKNOWN        : DT:Sonico:r1:0001:v1 
GR       .API         UNKNOWN        : GR:PETROWORKS:rC:NONE:v3 
ILD      .ohm.m       UNKNOWN        : ILD:PETROWORKS:rC:NONE:v3 
LLD      .UNKNOWN     UNKNOWN        : LLD:PETROWORKS:rC:NONE:v1 
LLS      .ohm.m       UNKNOWN        : LLS:PETROWORKS:rC:NONE:v1 
MSFL     .UNKNOWN     UNKNOWN        : MSFL:PETROWORKS:rC:NONE:v1 
NPHI     .v/v_decimal UNKNOWN        : NPHI:PETROWORKS:rC:NONE:v2 
PEF      .UNKNOWN     UNKNOWN        : PEF:litodensidad:r1:0001:v1 
POTA     .wtpercent   UNKNOWN        : POTA:Espectroscopia:r1:0001:v2 
RHOB     .g/cm3       UNKNOWN        : RHOB:litodensidad:r1:0001:v1 
SFLU     .ohm.m       UNKNOWN        : SFLU:PETROWORKS:rC:NONE:v1 
SP       .mV          UNKNOWN        : SP:resistivos:r1:0001:v1 
THOR     .UNKNOWN     UNKNOWN        : THOR:Espectroscopia:r1:0001:v1 
URAN     .UNKNOWN     UNKNOWN        : URAN:Espectroscopia:r1:0001:v1 
~A     DEPTH         CALI          CGR         DRHO           DT           GR          ILD          LLD          LLS         MSFL         NPHI          PEF         POTA         RHOB         SFLU           SP         THOR         URAN
# ...
   2950.3752       7.1416       0.3820       0.1062      49.6941       6.1911    -999.2500     184.2846     179.0576      16.1366       0.0969       3.0592       0.0001       2.5262    -999.2500     -45.9705       0.0662       0.6537
   2950.5276       7.1405       0.5725       0.1101      50.6234       6.2887    -999.2500     117.0780     115.7450       8.1315       0.0982       2.9896       0.0001       2.4825    -999.2500     -44.0437       0.1205       0.6402
   2950.6802       7.1585       0.9526       0.1229      52.0603       6.2213    -999.2500     119.8232     115.9119      14.1790       0.1004       3.0338       0.0001       2.4703    -999.2500     -41.0082       0.2270       0.5959
   2950.8325       7.1453       1.0012       0.1330      55.0767       5.9553    -999.2500     125.3763     130.3474      16.5428       0.1056       3.1112       0.0001       2.5078    -999.2500     -39.9040       0.2404       0.5571
   2950.9849       7.1361       1.2220       0.1404      58.5415       5.5194    -999.2500     133.3091     156.8753      15.7847       0.1110       3.1677       0.0002       2.5560    -999.2500     -40.9229       0.2477       0.4793
   2951.1372       7.1129       1.9368       0.1454      59.7782       5.5341    -999.2500     122.2607     143.0233      17.7169       0.1125       3.1904       0.0010       2.5870    -999.2500     -41.3658       0.1397       0.4085
   2951.2898       7.1127       2.4425       0.1449      58.8777       5.5392    -999.2500     105.9846     121.4251      29.2362       0.1167       3.1880       0.0013       2.5694    -999.2500     -42.1052       0.1613       0.3479
   2951.4421       7.1191       4.4670       0.1502      57.6708       5.3716    -999.2500      80.7954      90.4496      67.1396       0.1245       3.2170       0.0013       2.5394    -999.2500     -40.9460       0.7493       0.1007
   2951.5945       7.1326       4.4826       0.1536      56.9820       5.1316    -999.2500      67.9858      74.0869      66.8120       0.1244       3.2444       0.0012       2.5344    -999.2500     -40.7067       0.8055       0.0778
   2951.7468       7.1554       4.4212       0.1447      56.7007       4.8469    -999.2500      62.7633      66.6798      43.0542       0.1178       3.2531       0.0010       2.5381    -999.2500     -41.6851       0.8433       0.0470
   2951.8992       7.1532       4.2984       0.1333      56.9983       4.8151    -999.2500      62.6193      71.0134      32.2144       0.1155       3.2441       0.0011       2.5429    -999.2500     -41.2365       0.7932       0.0493
   2952.0518       7.1324       3.5085       0.1162      57.8125       4.8997    -999.2500      57.1369      67.8094      21.8199       0.1156       3.2220       0.0010       2.5475    -999.2500     -36.4904       0.6142       0.1536
   2952.2041       7.1275       3.1468       0.1091      58.4792       5.2015    -999.2500      41.0472      49.4436      11.7688       0.1141       3.2255       0.0012       2.5365    -999.2500     -37.0909       0.4214       0.2263
   2952.3564       7.1251       2.1821       0.1039      58.8052       5.6627    -999.2500      37.3773      42.8337       9.0330       0.1129       3.2627       0.0014       2.5114    -999.2500     -36.1208       0.0454       0.4011
   2952.5088       7.1189       2.1554       0.1017      59.1494       6.1560    -999.2500      39.4571      42.4234      10.2549       0.1164       3.2759       0.0014       2.5110    -999.2500     -35.5946       0.0364       0.4457
   2952.6614       7.1120       2.1520       0.0976      59.8869       6.0241    -999.2500      47.9175      60.2747      24.4543       0.1212       3.2356       0.0014       2.5246    -999.2500     -30.6133       0.0362       0.4343
   2952.8137       7.1113       2.2153       0.0979      61.2477       5.9874    -999.2500      47.4754      61.1997      29.9111       0.1195       3.1869       0.0015       2.5260    -999.2500     -29.9020       0.0365       0.4093
   2952.9661       7.1225       1.4591       0.1044      62.9378       6.0844    -999.2500      34.6336      38.5495      23.1912       0.1122       3.1661       0.0010       2.5277    -999.2500     -26.0319       0.0362       0.5125
   2953.1184       7.1223       1.2070       0.1090      64.1744       5.8261    -999.2500      31.0640      32.5337      18.0955       0.1063       3.1884       0.0008       2.5415    -999.2500     -23.3235       0.0379       0.5269
   2953.2710       7.1155       1.2954       0.1042      64.0760       5.5413    -999.2500      30.5834      32.6697      16.4291       0.1077       3.2234       0.0008       2.5577    -999.2500     -23.3116       0.0411       0.4748
   2953.4233       7.1175       1.7626       0.0955      61.3055       5.7472    -999.2500      32.8442      41.5641      33.4244       0.1087       3.2102       0.0012       2.5399    -999.2500     -25.2181       0.0403       0.4388
   2953.5757       7.1245       2.8598       0.0922      56.7614       5.8777    -999.2500     106.0905     142.9698     181.4248       0.1068       3.1661       0.0015       2.4953    -999.2500     -25.5925       0.2354       0.3437
   2953.7280       7.1336       3.7790       0.1001      53.9978       5.9312    -999.2500     251.2779     338.1320     462.1940       0.0992       3.1772       0.0012       2.5018    -999.2500     -23.6299       0.5849       0.2434
   2953.8804       7.1357       3.3700       0.1136      52.7344       5.5522    -999.2500     260.0624     316.1128     291.0016       0.0874       3.2457       0.0007       2.5701    -999.2500     -20.4728       0.6929       0.2406
   2954.0330       7.1475       2.2376       0.1171      51.3981       5.1352    -999.2500     225.6237     246.2233      98.8346       0.0822       3.2598       0.0004       2.6088    -999.2500     -22.4907       0.4593       0.3227
   2954.1853       7.1305       1.7147       0.1140      50.5449       4.8502    -999.2500     117.3476     134.8924     106.1872       0.0879       3.2021       0.0008       2.5945    -999.2500     -25.5048       0.1704       0.3433
   2954.3376       7.1285       1.7799       0.1118      51.0967       4.7164    -999.2500      66.7904      79.2741      88.8145       0.0973       3.1690       0.0011       2.5592    -999.2500     -26.9358       0.0880       0.3241
   2954.4900       7.1347       2.4381       0.1105      52.7155       4.6949    -999.2500      58.8255      64.7677      53.1962       0.0994       3.1775       0.0011       2.5394    -999.2500     -24.2844       0.2621       0.2510
   2954.6426       7.1296       1.3066       0.1068      53.6626       4.7824    -999.2500      33.4945      37.9844      27.2162       0.0972       3.1630       0.0008       2.5535    -999.2500     -16.6514       0.0397       0.3904
   2954.7949       7.1442       0.9562       0.1033      53.2885       4.8984    -999.2500      14.0779      17.7740      10.3541       0.0937       3.1137       0.0006       2.5747    -999.2500      -9.5909       0.0407       0.4358
   2954.9473       7.1390       1.0900       0.1072      53.1473       5.0643    -999.2500      11.7186      15.3498      13.7231       0.0897       3.0295       0.0007       2.5741    -999.2500      -2.4711       0.0408       0.4416
   2955.0996       7.1514       2.1078       0.1428      55.0134       5.3712    -999.2500      11.7178      14.5335     298.1049       0.0885       2.9116       0.0010       2.5554    -999.2500       4.5855       0.2158       0.3580
   2955.2522       7.1274       2.6836       0.2073      58.4004       5.7490    -999.2500      12.9606      14.5956     719.7928       0.0908       3.0273       0.0009       2.5483    -999.2500       9.2254       0.4237       0.3413
   2955.4045       7.1282       2.5234       0.2252      60.9502       5.8714    -999.2500      13.9627      16.6922     330.8749       0.0935       3.1761       0.0006       2.5413    -999.2500       7.8187       0.4629       0.3701
   2955.5569       7.1236       2.2726       0.1837      60.9232       5.8998    -999.2500      18.4213      22.0000      85.9821       0.0949       3.3069       0.0004       2.4899    -999.2500       2.6134       0.4819       0.4047
