#------------------------------------------------------------------------------
#
#   Created by  : [OpenWorks] Log Export Utility (LEXP)
#   Created on  : 2016-05-19 09:43:50
#   Project     : CANT971
#   User        : R5K
#   Interpreter : PEP
#
#------------------------------------------------------------------------------
~VERSION INFORMATION
VERS. 2.0 : CWLS Log ASCII Standard - version 2.0
WRAP.  NO : One line per depth step
~WELL INFORMATION
#MNEMONIC   .UNIT                                           VALUE :DESCRIPTION
#------------------------------------------------------------------------------
STRT        .M                                           496.7353 :START DEPTH
STOP        .M                                          2986.9512 :STOP DEPTH
STEP        .M                                             0.1524 :STEP
NULL        .                                           -999.2500 :NULL VALUE
COMP        .                                   PEMEX EXPL & PROD :COMPANY
WELL        .                                                2277 :WELL
FLD         .                                           CANTARELL :FIELD
LOC         .                                             UNKNOWN :LOCATION
CNTY        .                                      CD. DEL CARMEN :COUNTY
STAT        .                                            CAMPECHE :STATE
CTRY        .                                              MEXICO :COUNTRY
SRVC        .                                             UNKNOWN :SERVICE COMPANY
DATE        .                                             UNKNOWN :LOG DATE
UWI         .                                          3060000527 :UNIQUE WELL ID
XCOORD      .                                       597712.670000 :SURFACE X
YCOORD      .                                      2140957.060000 :SURFACE Y
LAT         .                                           19.361451 :LATITUDE
LON         .                                          -92.069631 :LONGITUDE
ELEV        .M                                            23.0000 :SURFACE ELEV
ELEV_TYPE   .                                                  KB :ELEV TYPE
~CURVE INFORMATION
#MNEMONIC.UNIT        API CODE       : CURVE DESCRIPTION
#------------------------------------------------------------------------------
DEPTH    .M                          : Measured Depth
CALI     .inches      UNKNOWN        : CALI:litodensidad:r1:0001:v1 
CGR      .API         UNKNOWN        : CGR:Espectroscopia:r1:0001:v1 
DRHO     .g/cm3       UNKNOWN        : DRHO:litodensidad:r1:0001:v1 
DT       .us/ft       UNKNOWN        : DT:Sonico:r1:0001:v1 
GR       .API         UNKNOWN        : GR:PETROWORKS:rC:NONE:v3 
ILD      .ohm.m       UNKNOWN        : ILD:PETROWORKS:rC:NONE:v3 
LLD      .UNKNOWN     UNKNOWN        : LLD:PETROWORKS:rC:NONE:v1 
LLS      .ohm.m       UNKNOWN        : LLS:PETROWORKS:rC:NONE:v1 
MSFL     .UNKNOWN     UNKNOWN        : MSFL:PETROWORKS:rC:NONE:v1 
NPHI     .v/v_decimal UNKNOWN        : NPHI:PETROWORKS:rC:NONE:v2 
PEF      .UNKNOWN     UNKNOWN        : PEF:litodensidad:r1:0001:v1 
POTA     .wtpercent   UNKNOWN        : POTA:Espectroscopia:r1:0001:v2 
RHOB     .g/cm3       UNKNOWN        : RHOB:litodensidad:r1:0001:v1 
SFLU     .ohm.m       UNKNOWN        : SFLU:PETROWORKS:rC:NONE:v1 
SP       .mV          UNKNOWN        : SP:resistivos:r1:0001:v1 
THOR     .UNKNOWN     UNKNOWN        : THOR:Espectroscopia:r1:0001:v1 
URAN     .UNKNOWN     UNKNOWN        : URAN:Espectroscopia:r1:0001:v1 
~A     DEPTH         CALI          CGR         DRHO           DT           GR          ILD          LLD          LLS         MSFL         NPHI          PEF         POTA         RHOB         SFLU           SP         THOR         URAN
# ...
   2929.0393       8.9054       2.8402       0.0559      52.2112      12.1265    -999.2500      41.3622      14.5961      12.0017       0.1513       3.0390       0.0013       2.6984    -999.2500      63.7139       0.3086       1.0156
   2929.1917       8.9068       2.8207       0.0612      56.1263      12.0068    -999.2500      52.4853      15.1573      16.4603       0.1468       3.0021       0.0009       2.6646    -999.2500      62.0904       0.4429       0.9801
   2929.3440       8.9291       2.7217       0.0828      60.2814      12.4352    -999.2500      44.8828      15.7254      12.9793       0.1470       2.9953       0.0009       2.5912    -999.2500      59.8965       0.4105       1.0880
   2929.4966       8.9442       4.1144       0.0999      62.5097      13.2061    -999.2500      25.6757      16.2978       4.5779       0.1577       3.0170       0.0014       2.5591    -999.2500      58.6011       0.6311       1.0125
   2929.6489       8.9331       6.5516       0.1357      63.5555      14.0975    -999.2500      31.3618      16.4967       3.0290       0.1655       3.1576       0.0020       2.5367    -999.2500      52.3239       1.0810       0.8807
   2929.8013       8.8689       7.4374       0.1559      63.7273      14.6613    -999.2500      33.9278      16.8119       2.1155       0.1682       3.2963       0.0021       2.5418    -999.2500      46.2963       1.2914       0.8175
   2929.9536       8.7176       7.2229       0.1630      62.7005      14.5668    -999.2500      29.1863      17.3736       2.1359       0.1731       3.4229       0.0018       2.5648    -999.2500      42.2625       1.3266       0.8207
   2930.1062       8.4478       6.7913       0.1512      61.1110      13.7348    -999.2500      27.3522      17.4207       1.5515       0.1686       3.4101       0.0015       2.5824    -999.2500      39.4134       1.3252       0.7629
   2930.2585       8.2017       5.6780       0.1387      59.5126      12.5809    -999.2500      26.7649      17.2345       0.7533       0.1622       3.1420       0.0012       2.4840    -999.2500      33.7075       1.1409       0.7709
   2930.4109       7.9058       4.7853       0.1476      58.6640      11.4853    -999.2500      25.7972      16.9023       0.8070       0.1692       3.0281       0.0011       2.4096    -999.2500      30.1843       0.9025       0.7853
   2930.5632       7.4295       3.3151       0.1760      58.0926      10.5068    -999.2500      34.3731      26.0017       1.1130       0.1762       2.9819       0.0011       2.4107    -999.2500      31.0213       0.4988       0.8000
   2930.7156       7.3184       2.6739       0.1905      56.3802       9.6946    -999.2500      56.3859      48.3802       1.7742       0.1641       2.9628       0.0012       2.4484    -999.2500      33.1651       0.2641       0.7825
   2930.8682       7.2621       2.1544       0.2016      54.9036       8.9505    -999.2500      65.3506      51.9346       3.8610       0.1344       3.0390       0.0013       2.5201    -999.2500      33.2218       0.0981       0.7333
   2931.0205       7.2648       2.2809       0.1927      55.4761       8.2988    -999.2500      69.6224      50.1955       6.0046       0.1169       3.1858       0.0011       2.5844    -999.2500      30.8859       0.2081       0.6703
   2931.1729       7.2715       2.4656       0.1479      56.5574       8.1223    -999.2500      68.0872      49.5866       5.8478       0.1176       3.3108       0.0007       2.6541    -999.2500      27.7903       0.4043       0.6270
   2931.3252       7.2671       2.6670       0.1097      56.9141       7.9793    -999.2500      57.8794      44.9498       5.5469       0.1156       3.2989       0.0006       2.6709    -999.2500      26.4500       0.5371       0.5944
   2931.4778       7.2795       3.6008       0.0826      56.4900       7.8712    -999.2500      38.7895      36.1878       5.0983       0.1085       3.2282       0.0007       2.6524    -999.2500      26.5804       0.7516       0.4767
   2931.6301       7.2759       4.1266       0.0760      56.7770       7.8449    -999.2500      38.3491      36.0407       4.5876       0.0999       3.2295       0.0009       2.6393    -999.2500      28.6793       0.8072       0.4115
   2931.7825       7.2768       4.1515       0.0835      58.1754       7.8543    -999.2500      41.9516      38.5722       4.0255       0.0988       3.2326       0.0011       2.6264    -999.2500      32.2672       0.7268       0.4099
   2931.9348       7.2699       3.9500       0.0937      59.2749       7.9439    -999.2500      48.6718      45.5368       3.3127       0.0979       3.2451       0.0010       2.6218    -999.2500      33.0097       0.7173       0.4416
   2932.0874       7.2712       4.1062       0.0950      59.8002       7.9850    -999.2500      44.1474      43.7011       3.3613       0.0946       3.2819       0.0011       2.6118    -999.2500      29.3316       0.7264       0.4407
   2932.2397       7.2724       4.3026       0.0818      60.2993       7.9898    -999.2500      31.2357      35.3013       3.9779       0.0924       3.2741       0.0017       2.6025    -999.2500      31.2001       0.5649       0.4110
   2932.3921       7.2868       4.5539       0.0590      60.8565       7.7777    -999.2500      19.0324      20.6623      58.2203       0.0908       3.1845       0.0025       2.5977    -999.2500      36.5639       0.3108       0.3605
   2932.5444       7.2915       4.3241       0.0586      61.0195       7.5713    -999.2500      10.1663       9.8466    1864.4351       0.0886       3.1254       0.0024       2.6109    -999.2500      47.4243       0.2744       0.3642
   2932.6968       7.2848       3.0993       0.0760      60.4661       7.4189    -999.2500       9.2697       9.4021    7910.5312       0.0932       3.0745       0.0013       2.6105    -999.2500      52.9271       0.3455       0.4795
   2932.8494       7.2777       2.8192       0.0930      59.6688       7.2768    -999.2500      10.5825      11.2996    6039.8423       0.1060       3.0925       0.0007       2.5971    -999.2500      61.5978       0.5125       0.4972
   2933.0017       7.2690       2.6706       0.1121      59.5595       7.1415    -999.2500      13.0494      14.4150       2.2709       0.1208       3.1422       0.0003       2.5835    -999.2500      62.6598       0.6300       0.4978
   2933.1541       7.2837       2.1989       0.1436      59.8500       6.9366    -999.2500      19.5117      22.2661       1.3136       0.1390       3.2300       0.0007       2.5801    -999.2500      55.6094       0.3405       0.5180
   2933.3064       7.2870       1.9063       0.1548      59.7798       6.8179    -999.2500      25.6562      29.2108       1.3832       0.1559       3.2203       0.0010       2.5738    -999.2500      45.1949       0.1347       0.5434
   2933.4590       7.2924       2.3908       0.1638      59.9622       6.8438    -999.2500      31.3814      34.7629       3.1782       0.1585       3.1631       0.0009       2.5616    -999.2500      27.2236       0.3065       0.4960
   2933.6113       7.2792       2.2583       0.1696      61.0321       6.8202    -999.2500      28.9231      31.8554       4.3113       0.1537       3.2073       0.0005       2.5735    -999.2500      20.4134       0.4596       0.5158
   2933.7637       7.2785       2.2296       0.1658      61.9337       6.7589    -999.2500      23.8762      26.2263       4.9787       0.1493       3.3522       0.0002       2.5973    -999.2500      25.1932       0.5583       0.5052
   2933.9160       7.2693       1.7854       0.1501      61.8326       6.4961    -999.2500      23.2285      24.6810       3.4045       0.1486       3.3626       0.0004       2.5799    -999.2500      29.6400       0.3585       0.5322
   2934.0686       7.2747       1.3985       0.1306      61.4849       6.4574    -999.2500      24.2422      25.5062       2.0207       0.1497       3.2541       0.0008       2.5136    -999.2500      32.9660       0.0950       0.5505
   2934.2209       7.2720       1.2487       0.1297      61.4056       6.6954    -999.2500      27.2913      29.2356       0.8701       0.1595       3.1833       0.0008       2.4668    -999.2500      31.3437       0.0397       0.6116
