#------------------------------------------------------------------------------
#
#   Created by  : [OpenWorks] Log Export Utility (LEXP)
#   Created on  : 2016-05-19 09:43:50
#   Project     : CANT971
#   User        : R5K
#   Interpreter : PEP
#
#------------------------------------------------------------------------------
~VERSION INFORMATION
VERS. 2.0 : CWLS Log ASCII Standard - version 2.0
WRAP.  NO : One line per depth step
~WELL INFORMATION
#MNEMONIC   .UNIT                                           VALUE :DESCRIPTION
#------------------------------------------------------------------------------
STRT        .M                                           496.7353 :START DEPTH
STOP        .M                                          2986.9512 :STOP DEPTH
STEP        .M                                             0.1524 :STEP
NULL        .                                           -999.2500 :NULL VALUE
COMP        .                                   PEMEX EXPL & PROD :COMPANY
WELL        .                                                2277 :WELL
FLD         .                                           CANTARELL :FIELD
LOC         .                                             UNKNOWN :LOCATION
CNTY        .                                      CD. DEL CARMEN :COUNTY
STAT        .                                            CAMPECHE :STATE
CTRY        .                                              MEXICO :COUNTRY
SRVC        .                                             UNKNOWN :SERVICE COMPANY
DATE        .                                             UNKNOWN :LOG DATE
UWI         .                                          3060000527 :UNIQUE WELL ID
XCOORD      .                                       597712.670000 :SURFACE X
YCOORD      .                                      2140957.060000 :SURFACE Y
LAT         .                                           19.361451 :LATITUDE
LON         .                                          -92.069631 :LONGITUDE
ELEV        .M                                            23.0000 :SURFACE ELEV
ELEV_TYPE   .                                                  KB :ELEV TYPE
~CURVE INFORMATION
#MNEMONIC.UNIT        API CODE       : CURVE DESCRIPTION
#------------------------------------------------------------------------------
DEPTH    .M                          : Measured Depth
CALI     .inches      UNKNOWN        : CALI:litodensidad:r1:0001:v1 
CGR      .API         UNKNOWN        : CGR:Espectroscopia:r1:0001:v1 
DRHO     .g/cm3       UNKNOWN        : DRHO:litodensidad:r1:0001:v1 
DT       .us/ft       UNKNOWN        : DT:Sonico:r1:0001:v1 
GR       .API         UNKNOWN        : GR:PETROWORKS:rC:NONE:v3 
ILD      .ohm.m       UNKNOWN        : ILD:PETROWORKS:rC:NONE:v3 
LLD      .UNKNOWN     UNKNOWN        : LLD:PETROWORKS:rC:NONE:v1 
LLS      .ohm.m       UNKNOWN        : LLS:PETROWORKS:rC:NONE:v1 
MSFL     .UNKNOWN     UNKNOWN        : MSFL:PETROWORKS:rC:NONE:v1 
NPHI     .v/v_decimal UNKNOWN        : NPHI:PETROWORKS:rC:NONE:v2 
PEF      .UNKNOWN     UNKNOWN        : PEF:litodensidad:r1:0001:v1 
POTA     .wtpercent   UNKNOWN        : POTA:Espectroscopia:r1:0001:v2 
RHOB     .g/cm3       UNKNOWN        : RHOB:litodensidad:r1:0001:v1 
SFLU     .ohm.m       UNKNOWN        : SFLU:PETROWORKS:rC:NONE:v1 
SP       .mV          UNKNOWN        : SP:resistivos:r1:0001:v1 
THOR     .UNKNOWN     UNKNOWN        : THOR:Espectroscopia:r1:0001:v1 
URAN     .UNKNOWN     UNKNOWN        : URAN:Espectroscopia:r1:0001:v1 
~A     DEPTH         CALI          CGR         DRHO           DT           GR          ILD          LLD          LLS         MSFL         NPHI          PEF         POTA         RHOB         SFLU           SP         THOR         URAN
# ...
   2961.0432       7.1357       4.0545       0.1153      55.9013       5.2207    -999.2500      18.4666      18.3837      11.8778       0.1115       3.0850       0.0009       2.5008    -999.2500     -10.7894       0.7887       0.1262
   2961.1958       7.1186       3.9455       0.1202      56.3155       5.5862    -999.2500      15.8228      16.2569      11.6137       0.1074       3.1467       0.0011       2.5598    -999.2500      -6.6716       0.6647       0.1852
   2961.3481       7.1270       3.8739       0.1203      57.5139       5.8876    -999.2500      14.1912      15.1627      10.0066       0.1011       3.1104       0.0012       2.5597    -999.2500      12.9517       0.6174       0.2247
   2961.5005       7.1505       3.4451       0.1267      59.2578       6.1530    -999.2500      13.1235      14.6418       7.6636       0.0964       3.0303       0.0011       2.4994    -999.2500      24.7119       0.5597       0.3015
   2961.6528       7.1396       3.4528       0.1297      61.3827       6.1927    -999.2500      12.5700      14.3857       5.9299       0.0984       3.0430       0.0011       2.4483    -999.2500      34.8954       0.5595       0.3039
   2961.8052       7.1226       3.5308       0.1225      64.1518       6.2545    -999.2500      11.2532      13.0693       8.3339       0.1070       3.1353       0.0010       2.4404    -999.2500      37.1167       0.6146       0.3027
   2961.9578       7.1093       3.3730       0.1125      68.0453       6.3555    -999.2500       8.5926       9.8890      17.9954       0.1115       3.1533       0.0010       2.4570    -999.2500      46.3279       0.5586       0.3323
   2962.1101       7.1057       2.5812       0.1106      71.8295       6.4081    -999.2500       6.9386       7.8845      23.9134       0.1178       3.1757       0.0009       2.4912    -999.2500      49.1271       0.3576       0.4285
   2962.2625       7.1142       2.3146       0.1119      73.7427       6.4562    -999.2500       5.7932       6.4820      26.9491       0.1361       3.1945       0.0009       2.4900    -999.2500      50.8896       0.2897       0.4595
   2962.4148       7.1275       3.2130       0.1050      74.0356       6.6684    -999.2500       6.0137       6.7621      13.8138       0.1483       3.2189       0.0010       2.4717    -999.2500      51.0036       0.5056       0.3814
   2962.5674       7.1219       2.6636       0.0975      72.6594       6.9553    -999.2500       6.9555       7.8433      13.8244       0.1468       3.1769       0.0008       2.4621    -999.2500      52.6233       0.4448       0.4721
   2962.7197       7.1200       2.6208       0.0889      67.9708       7.3375    -999.2500       8.8096       9.9378      30.4623       0.1355       3.0965       0.0007       2.4579    -999.2500      50.9399       0.4546       0.5187
   2962.8721       7.1249       3.5707       0.0818      62.8015       7.5454    -999.2500      18.9658      20.7373      21.0891       0.1256       3.0210       0.0009       2.4837    -999.2500      44.3204       0.6666       0.4569
   2963.0244       7.1206       4.8269       0.0856      60.0385       7.6230    -999.2500      30.7913      33.3689       8.6929       0.1189       3.0422       0.0013       2.5470    -999.2500      41.2101       0.8702       0.3116
   2963.1770       7.1212       5.9759       0.0966      54.7270       7.2418    -999.2500      40.5705      44.2829      14.2330       0.0953       3.1348       0.0017       2.6476    -999.2500      38.8467       1.0134       0.1449
   2963.3293       7.1188       5.2631       0.0980      49.2755       6.7243    -999.2500      44.9810      48.4137      26.7447       0.0811       3.1971       0.0015       2.6907    -999.2500      37.7007       0.8825       0.1615
   2963.4817       7.1136       3.4028       0.0912      48.2204       6.0798    -999.2500      44.4412      46.2900      45.6846       0.0783       3.2314       0.0010       2.6985    -999.2500      36.6640       0.5641       0.2951
   2963.6340       7.1295       2.6478       0.0864      48.3657       5.7579    -999.2500      49.2099      50.7150      54.3996       0.0776       3.2425       0.0007       2.6752    -999.2500      37.3115       0.4772       0.3405
   2963.7864       7.1188       3.2898       0.0845      48.2771       5.5396    -999.2500      54.6361      56.3958      52.7849       0.0776       3.2534       0.0007       2.6453    -999.2500      36.5394       0.6596       0.2507
   2963.9390       7.1213       4.4408       0.0816      48.2828       5.5102    -999.2500      59.8489      63.2255      22.7936       0.0787       3.2279       0.0008       2.6322    -999.2500      36.0533       0.9397       0.1203
   2964.0913       7.1221       5.3557       0.0773      48.8471       5.5025    -999.2500      62.2583      64.6615      12.5664       0.0799       3.1736       0.0010       2.6298    -999.2500      35.3688       1.1112       0.0411
   2964.2437       7.1390       4.8951       0.0826      50.0794       5.5095    -999.2500      62.7912      62.4868      15.5694       0.0797       3.1665       0.0010       2.6323    -999.2500      33.8420       0.9944       0.0725
   2964.3960       7.1266       3.5671       0.0961      51.8700       5.2883    -999.2500      61.5965      63.2055       8.3925       0.0803       3.2287       0.0009       2.6320    -999.2500      32.3600       0.6493       0.1742
   2964.5486       7.1214       2.3796       0.1071      53.6179       5.1219    -999.2500      62.5552      65.2450       3.1416       0.0846       3.3362       0.0009       2.6410    -999.2500      31.3738       0.2994       0.3033
   2964.7009       7.1149       1.6890       0.1084      54.6608       5.0967    -999.2500      68.2885      69.8472       2.9602       0.0872       3.3969       0.0011       2.6505    -999.2500      32.8466       0.0545       0.3780
   2964.8533       7.1240       2.2006       0.1026      55.0975       5.1049    -999.2500      71.2070      76.5454       5.6615       0.0860       3.3711       0.0010       2.6479    -999.2500      34.0692       0.2078       0.3231
   2965.0056       7.1245       2.3300       0.0980      55.0678       5.1464    -999.2500      72.2265      83.2429      13.2716       0.0835       3.3375       0.0009       2.6402    -999.2500      34.8972       0.3060       0.3146
   2965.1582       7.1428       2.8583       0.0893      54.6937       5.6618    -999.2500      58.7909      64.2240     112.1030       0.0803       3.2085       0.0006       2.5994    -999.2500      35.7195       0.5649       0.3190
   2965.3105       7.1423       3.1461       0.0938      54.3030       6.0348    -999.2500      46.8066      48.8416     133.1078       0.0836       3.2346       0.0005       2.5880    -999.2500      33.5699       0.7007       0.3342
   2965.4629       7.1377       3.9995       0.0935      54.1419       6.1894    -999.2500      37.0274      38.9842      35.8627       0.0901       3.2821       0.0006       2.5894    -999.2500      31.5895       0.8847       0.2481
   2965.6152       7.1173       6.0609       0.0842      54.3838       6.5390    -999.2500      27.3990      28.7789      14.7995       0.0933       3.3103       0.0009       2.6013    -999.2500      32.1213       1.3691       0.0434
   2965.7676       7.1249       6.5208       0.0786      55.1754       6.8667    -999.2500      18.4828      19.1622      17.3010       0.0962       3.2689       0.0010       2.6089    -999.2500      33.2946       1.4474       0.0436
   2965.9202       7.1253       4.6262       0.0814      56.3751       6.5308    -999.2500      14.6210      14.8798      12.5184       0.1034       3.1469       0.0007       2.5940    -999.2500      32.9044       1.0403       0.1989
   2966.0725       7.1231       3.8826       0.0917      57.9104       6.3567    -999.2500      12.6625      12.9091       9.3127       0.1045       3.0585       0.0007       2.5522    -999.2500      32.5310       0.8247       0.2648
   2966.2249       7.1279       3.6064       0.1113      60.4790       6.3627    -999.2500      12.8021      13.4867       7.8454       0.1032       2.9900       0.0011       2.4315    -999.2500      34.4972       0.5959       0.3045
