#------------------------------------------------------------------------------
#
#   Created by  : [OpenWorks] Log Export Utility (LEXP)
#   Created on  : 2016-05-19 09:43:50
#   Project     : CANT971
#   User        : R5K
#   Interpreter : PEP
#
#------------------------------------------------------------------------------
~VERSION INFORMATION
VERS. 2.0 : CWLS Log ASCII Standard - version 2.0
WRAP.  NO : One line per depth step
~WELL INFORMATION
#MNEMONIC   .UNIT                                           VALUE :DESCRIPTION
#------------------------------------------------------------------------------
STRT        .M                                           496.7353 :START DEPTH
STOP        .M                                          2986.9512 :STOP DEPTH
STEP        .M                                             0.1524 :STEP
NULL        .                                           -999.2500 :NULL VALUE
COMP        .                                   PEMEX EXPL & PROD :COMPANY
WELL        .                                                2277 :WELL
FLD         .                                           CANTARELL :FIELD
LOC         .                                             UNKNOWN :LOCATION
CNTY        .                                      CD. DEL CARMEN :COUNTY
STAT        .                                            CAMPECHE :STATE
CTRY        .                                              MEXICO :COUNTRY
SRVC        .                                             UNKNOWN :SERVICE COMPANY
DATE        .                                             UNKNOWN :LOG DATE
UWI         .                                          3060000527 :UNIQUE WELL ID
XCOORD      .                                       597712.670000 :SURFACE X
YCOORD      .                                      2140957.060000 :SURFACE Y
LAT         .                                           19.361451 :LATITUDE
LON         .                                          -92.069631 :LONGITUDE
ELEV        .M                                            23.0000 :SURFACE ELEV
ELEV_TYPE   .                                                  KB :ELEV TYPE
~CURVE INFORMATION
#MNEMONIC.UNIT        API CODE       : CURVE DESCRIPTION
#------------------------------------------------------------------------------
DEPTH    .M                          : Measured Depth
CALI     .inches      UNKNOWN        : CALI:litodensidad:r1:0001:v1 
CGR      .API         UNKNOWN        : CGR:Espectroscopia:r1:0001:v1 
DRHO     .g/cm3       UNKNOWN        : DRHO:litodensidad:r1:0001:v1 
DT       .us/ft       UNKNOWN        : DT:Sonico:r1:0001:v1 
GR       .API         UNKNOWN        : GR:PETROWORKS:rC:NONE:v3 
ILD      .ohm.m       UNKNOWN        : ILD:PETROWORKS:rC:NONE:v3 
LLD      .UNKNOWN     UNKNOWN        : LLD:PETROWORKS:rC:NONE:v1 
LLS      .ohm.m       UNKNOWN        : LLS:PETROWORKS:rC:NONE:v1 
MSFL     .UNKNOWN     UNKNOWN        : MSFL:PETROWORKS:rC:NONE:v1 
NPHI     .v/v_decimal UNKNOWN        : NPHI:PETROWORKS:rC:NONE:v2 
PEF      .UNKNOWN     UNKNOWN        : PEF:litodensidad:r1:0001:v1 
POTA     .wtpercent   UNKNOWN        : POTA:Espectroscopia:r1:0001:v2 
RHOB     .g/cm3       UNKNOWN        : RHOB:litodensidad:r1:0001:v1 
SFLU     .ohm.m       UNKNOWN        : SFLU:PETROWORKS:rC:NONE:v1 
SP       .mV          UNKNOWN        : SP:resistivos:r1:0001:v1 
THOR     .UNKNOWN     UNKNOWN        : THOR:Espectroscopia:r1:0001:v1 
URAN     .UNKNOWN     UNKNOWN        : URAN:Espectroscopia:r1:0001:v1 
~A     DEPTH         CALI          CGR         DRHO           DT           GR          ILD          LLD          LLS         MSFL         NPHI          PEF         POTA         RHOB         SFLU           SP         THOR         URAN
# ...
   2955.7092       7.1251       2.0985       0.1390      58.8944       5.7714    -999.2500      28.6830      32.6989      82.8828       0.0926       3.2245       0.0005       2.4653    -999.2500       1.5103       0.4129       0.4120
   2955.8616       7.1450       0.6613       0.1034      56.6964       5.7695    -999.2500      30.3583      35.6121      51.3116       0.0855       3.0519       0.0003       2.4820    -999.2500      -2.2070       0.0854       0.5840
   2956.0142       7.1423       0.6552       0.1074      55.7822       5.8721    -999.2500      29.3038      35.6751      13.2518       0.0844       3.0455       0.0001       2.5148    -999.2500      -7.5482       0.1462       0.5895
   2956.1665       7.1331       2.7515       0.1250      55.3704       6.5571    -999.2500      32.1748      35.6169      13.3653       0.0853       3.1554       0.0001       2.5647    -999.2500      -9.7039       0.7430       0.4608
   2956.3188       7.1243       2.6687       0.1327      55.0717       6.6421    -999.2500      33.3342      35.8759      10.7834       0.0833       3.2179       0.0001       2.5870    -999.2500     -10.2124       0.7161       0.4626
   2956.4712       7.1386       1.7103       0.1381      55.1358       5.9936    -999.2500      32.4190      36.5195       4.9341       0.0826       3.2727       0.0002       2.5972    -999.2500     -13.5318       0.4097       0.4785
   2956.6238       7.1384       1.8516       0.1353      55.7828       5.7914    -999.2500      46.0758      47.0380       3.0141       0.0906       3.2948       0.0007       2.5815    -999.2500     -18.2766       0.2358       0.4371
   2956.7761       7.1307       2.5190       0.1211      56.5601       5.7859    -999.2500      60.9256      57.9828       3.1773       0.1012       3.2914       0.0012       2.5485    -999.2500     -22.3434       0.2479       0.3562
   2956.9285       7.1226       1.7206       0.1068      57.1565       6.2305    -999.2500      65.1763      59.8952       9.0112       0.1036       3.2601       0.0011       2.5363    -999.2500     -28.3366       0.0469       0.4805
   2957.0808       7.1459       1.3940       0.0930      57.6649       6.4436    -999.2500      75.2248      72.5986      66.4801       0.0946       3.2260       0.0009       2.5460    -999.2500     -38.0492       0.0400       0.5870
   2957.2334       7.1535       1.5630       0.0948      56.2882       6.4504    -999.2500      90.3988      94.8413     169.5959       0.0818       3.2378       0.0009       2.5753    -999.2500     -41.3334       0.0719       0.5553
   2957.3857       7.1508       3.6175       0.1075      54.0570       6.0089    -999.2500      96.3052      90.1431      89.5956       0.0823       3.2923       0.0009       2.6067    -999.2500     -40.2295       0.6583       0.2576
   2957.5381       7.1429       3.3447       0.1130      54.0570       5.4888    -999.2500     101.8560      90.1370      13.8371       0.0880       3.3075       0.0007       2.6083    -999.2500     -40.4010       0.6526       0.2419
   2957.6904       7.1447       1.4743       0.1100      54.0570       4.9010    -999.2500     109.7641     114.1684      18.4794       0.0954       3.2457       0.0004       2.5933    -999.2500     -43.0209       0.2728       0.3696
   2957.8428       7.1537       0.6905       0.1039      54.1334       4.6121    -999.2500     140.9734     163.3747      23.0691       0.0978       3.1937       0.0003       2.5827    -999.2500     -44.3076       0.0850       0.4321
   2957.9954       7.1480       0.9065       0.0946      54.5141       4.5166    -999.2500     187.1104     228.7091      27.6251       0.0963       3.1543       0.0006       2.5738    -999.2500     -41.4710       0.0242       0.4016
   2958.1477       7.1353       1.3912       0.0895      55.1021       4.7417    -999.2500     144.4736     174.0547      38.3829       0.0950       3.1589       0.0009       2.5827    -999.2500     -36.7024       0.0221       0.3811
   2958.3000       7.1368       1.6024       0.0815      55.3999       4.9475    -999.2500      97.7785     115.0102      50.7853       0.0939       3.1185       0.0010       2.5801    -999.2500     -34.6287       0.0509       0.3718
   2958.4524       7.1274       1.4753       0.0876      55.2973       5.0909    -999.2500      48.5759      54.8136      66.1431       0.0933       3.0910       0.0009       2.5748    -999.2500     -27.0026       0.0646       0.4012
   2958.6050       7.1210       1.1148       0.1120      55.1551       5.2009    -999.2500      23.7116      25.3446      45.8479       0.0940       3.1576       0.0006       2.5725    -999.2500     -17.0682       0.0782       0.4537
   2958.7573       7.1357       1.0217       0.1216      55.0380       5.2969    -999.2500      10.5537      10.5764      10.8554       0.0971       3.2468       0.0005       2.5753    -999.2500      -6.1686       0.0761       0.4761
   2958.9097       7.1455       1.0668       0.1182      54.5812       5.4163    -999.2500      10.9842      11.3914       4.7522       0.1014       3.2975       0.0006       2.5647    -999.2500      -1.8596       0.0796       0.4787
   2959.0620       7.1366       1.5567       0.0979      55.7639       5.5377    -999.2500      13.0309      14.1653       1.7935       0.1063       3.2589       0.0006       2.5250    -999.2500       3.8636       0.1895       0.4450
   2959.2146       7.1314       1.7067       0.0900      62.2445       5.6622    -999.2500      17.4285      19.7886       3.4083       0.1118       3.2185       0.0006       2.5059    -999.2500       9.4821       0.2382       0.4413
   2959.3669       7.1423       1.8472       0.0911      68.6815       5.6291    -999.2500      32.8296      33.3745       8.0957       0.1136       3.2049       0.0005       2.5049    -999.2500      10.8115       0.3153       0.4275
   2959.5193       7.1439       2.2524       0.0936      69.6546       5.5142    -999.2500      49.5942      48.4129      13.4568       0.1168       3.2148       0.0006       2.5173    -999.2500      11.0056       0.3958       0.3596
   2959.6716       7.1464       3.4341       0.0939      70.5661       5.1643    -999.2500      52.7023      56.7833      17.0263       0.1218       3.2184       0.0010       2.5345    -999.2500      11.8696       0.5638       0.1821
   2959.8240       7.1459       3.8860       0.0944      71.0406       4.9703    -999.2500      51.8523      57.9082      16.9381       0.1235       3.2107       0.0012       2.5484    -999.2500       8.9758       0.6399       0.1170
   2959.9766       7.1570       4.5037       0.0940      70.0424       4.9425    -999.2500      46.8189      51.3749      12.9840       0.1253       3.1786       0.0014       2.5522    -999.2500       6.4323       0.7239       0.0484
   2960.1289       7.1306       4.4958       0.1003      67.3284       5.0402    -999.2500      46.4846      48.1356      10.1347       0.1265       3.1447       0.0015       2.5293    -999.2500      -2.4994       0.6835       0.0737
   2960.2812       7.1216       3.4505       0.1153      64.3879       5.1032    -999.2500      47.5996      47.1548       7.7016       0.1256       3.2018       0.0013       2.5053    -999.2500      -6.2093       0.4760       0.1860
   2960.4336       7.1210       3.4797       0.1259      61.5548       4.9394    -999.2500      51.0063      52.5902       6.0995       0.1272       3.2501       0.0011       2.4974    -999.2500      -9.4011       0.5625       0.1684
   2960.5862       7.1248       3.0478       0.1261      59.0716       4.8842    -999.2500      54.2245      58.2507      13.2470       0.1342       3.2088       0.0009       2.4853    -999.2500     -12.5629       0.5270       0.1930
   2960.7385       7.1223       1.5215       0.1181      57.4202       4.9134    -999.2500      57.2976      64.0847      27.1338       0.1346       3.1181       0.0008       2.4727    -999.2500     -13.4709       0.1326       0.3741
   2960.8909       7.1375       3.2778       0.1121      56.3441       5.0293    -999.2500      35.9384      38.8621      19.0361       0.1227       3.0498       0.0007       2.4734    -999.2500     -13.5973       0.6465       0.1903
