#------------------------------------------------------------------------------
#
#   Created by  : [OpenWorks] Log Export Utility (LEXP)
#   Created on  : 2016-05-19 09:43:50
#   Project     : CANT971
#   User        : R5K
#   Interpreter : PEP
#
#------------------------------------------------------------------------------
~VERSION INFORMATION
VERS. 2.0 : CWLS Log ASCII Standard - version 2.0
WRAP.  NO : One line per depth step
~WELL INFORMATION
#MNEMONIC   .UNIT                                           VALUE :DESCRIPTION
#------------------------------------------------------------------------------
STRT        .M                                           496.7353 :START DEPTH
STOP        .M                                          2986.9512 :STOP DEPTH
STEP        .M                                             0.1524 :STEP
NULL        .                                           -999.2500 :NULL VALUE
COMP        .                                   PEMEX EXPL & PROD :COMPANY
WELL        .                                                2277 :WELL
FLD         .                                           CANTARELL :FIELD
LOC         .                                             UNKNOWN :LOCATION
CNTY        .                                      CD. DEL CARMEN :COUNTY
STAT        .                                            CAMPECHE :STATE
CTRY        .                                              MEXICO :COUNTRY
SRVC        .                                             UNKNOWN :SERVICE COMPANY
DATE        .                                             UNKNOWN :LOG DATE
UWI         .                                          3060000527 :UNIQUE WELL ID
XCOORD      .                                       597712.670000 :SURFACE X
YCOORD      .                                      2140957.060000 :SURFACE Y
LAT         .                                           19.361451 :LATITUDE
LON         .                                          -92.069631 :LONGITUDE
ELEV        .M                                            23.0000 :SURFACE ELEV
ELEV_TYPE   .                                                  KB :ELEV TYPE
~CURVE INFORMATION
#MNEMONIC.UNIT        API CODE       : CURVE DESCRIPTION
#------------------------------------------------------------------------------
DEPTH    .M                          : Measured Depth
CALI     .inches      UNKNOWN        : CALI:litodensidad:r1:0001:v1 
CGR      .API         UNKNOWN        : CGR:Espectroscopia:r1:0001:v1 
DRHO     .g/cm3       UNKNOWN        : DRHO:litodensidad:r1:0001:v1 
DT       .us/ft       UNKNOWN        : DT:Sonico:r1:0001:v1 
GR       .API         UNKNOWN        : GR:PETROWORKS:rC:NONE:v3 
ILD      .ohm.m       UNKNOWN        : ILD:PETROWORKS:rC:NONE:v3 
LLD      .UNKNOWN     UNKNOWN        : LLD:PETROWORKS:rC:NONE:v1 
LLS      .ohm.m       UNKNOWN        : LLS:PETROWORKS:rC:NONE:v1 
MSFL     .UNKNOWN     UNKNOWN        : MSFL:PETROWORKS:rC:NONE:v1 
NPHI     .v/v_decimal UNKNOWN        : NPHI:PETROWORKS:rC:NONE:v2 
PEF      .UNKNOWN     UNKNOWN        : PEF:litodensidad:r1:0001:v1 
POTA     .wtpercent   UNKNOWN        : POTA:Espectroscopia:r1:0001:v2 
RHOB     .g/cm3       UNKNOWN        : RHOB:litodensidad:r1:0001:v1 
SFLU     .ohm.m       UNKNOWN        : SFLU:PETROWORKS:rC:NONE:v1 
SP       .mV          UNKNOWN        : SP:resistivos:r1:0001:v1 
THOR     .UNKNOWN     UNKNOWN        : THOR:Espectroscopia:r1:0001:v1 
URAN     .UNKNOWN     UNKNOWN        : URAN:Espectroscopia:r1:0001:v1 
~A     DEPTH         CALI          CGR         DRHO           DT           GR          ILD          LLD          LLS         MSFL         NPHI          PEF         POTA         RHOB         SFLU           SP         THOR         URAN
# ...
   2966.3772       7.0799       4.3006       0.1125      62.9574       6.7386    -999.2500      17.9010      19.3541      11.2942       0.1239       2.9863       0.0016       2.3364    -999.2500      38.5005       0.5846       0.2480
   2966.5298       6.9805       5.8627       0.1025      62.5786       7.1331    -999.2500      22.6549      24.8132      15.5724       0.1412       3.0629       0.0023       2.3015    -999.2500      40.6880       0.7521       0.1447
   2966.6821       6.9409       6.2199       0.0958      59.8180       7.2950    -999.2500      21.9398      24.2724      19.2713       0.1243       3.1078       0.0026       2.3609    -999.2500      41.6254       0.7316       0.1270
   2966.8345       6.9436       5.7585       0.0945      56.6158       7.2459    -999.2500      20.6794      22.8288      24.6328       0.0983       3.0983       0.0024       2.4673    -999.2500      41.8681       0.6657       0.1712
   2966.9868       6.9424       5.7373       0.0938      53.3537       7.0257    -999.2500      18.9807      20.6597      31.3307       0.0869       2.9555       0.0019       2.5185    -999.2500      41.7548       0.8677       0.1437
   2967.1394       6.9490       5.2485       0.1121      50.8554       6.7278    -999.2500      18.0713      19.7579      14.5525       0.0909       2.8395       0.0014       2.4539    -999.2500      41.4999       0.9508       0.1656
   2967.2917       6.9423       5.0949       0.1556      50.2564       6.4103    -999.2500      16.9040      18.5187       0.8397       0.1020       2.9057       0.0011       2.3636    -999.2500      41.2730       1.0007       0.1499
   2967.4441       6.9379       4.9191       0.2013      51.9033       6.0603    -999.2500      14.8548      16.0667       1.1342       0.1091       3.2864       0.0010       2.3732    -999.2500      40.9914       0.9841       0.1330
   2967.5964       6.9212       4.2924       0.2204      55.6801       5.8124    -999.2500      14.1331      15.1595       8.0683       0.1104       3.6746       0.0010       2.4333    -999.2500      40.5459       0.8313       0.1602
   2967.7488       6.9267       4.2855       0.1872      59.1728       5.6225    -999.2500      14.1809      15.1474      18.9279       0.1179       3.6749       0.0010       2.4819    -999.2500      39.7894       0.8032       0.1489
   2967.9014       6.9235       4.1542       0.1435      61.0784       5.7010    -999.2500      19.0432      20.2748      12.8739       0.1285       3.4888       0.0011       2.4892    -999.2500      39.5226       0.7221       0.1650
   2968.0537       6.9268       3.6021       0.1202      62.2143       5.7959    -999.2500      22.6761      24.2876       8.8257       0.1301       3.3442       0.0013       2.4874    -999.2500      39.7599       0.4974       0.2454
   2968.2061       6.9278       3.1782       0.1086      62.3892       5.9199    -999.2500      23.9832      26.1821       8.5466       0.1297       3.2957       0.0013       2.4997    -999.2500    -999.2500       0.3990       0.3083
   2968.3584       6.9244       3.3243       0.0966      61.9777       5.9805    -999.2500      26.5259      28.1460      23.6885       0.1300       3.2387       0.0010       2.5030    -999.2500    -999.2500       0.5332       0.2979
   2968.5110       6.9236       3.3138       0.0912      61.6699       5.9935    -999.2500      29.1548      29.8524      41.9892       0.1243       3.1527       0.0008       2.4972    -999.2500    -999.2500       0.6060       0.2992
   2968.6633       6.9294       2.4602       0.1004      61.7223       5.7159    -999.2500      26.4057      27.8455      20.2353       0.1184       3.1320       0.0006       2.4968    -999.2500    -999.2500       0.4429       0.3672
   2968.8157       6.9302       2.0422       0.1269      61.9770       5.4855    -999.2500      24.5114      25.9673       7.6588       0.1147       3.2486       0.0004       2.5290    -999.2500    -999.2500       0.4339       0.3778
   2968.9680       6.9334       2.5774       0.1335      62.0177       5.3179    -999.2500      23.7452      24.2589       7.1961       0.1103       3.3121       0.0003       2.5499    -999.2500    -999.2500       0.6202       0.3050
   2969.1206       6.9331       3.9760       0.1236      61.1834       5.3497    -999.2500      21.5039      21.8863       6.9493       0.1019       3.2732       0.0005       2.5619    -999.2500    -999.2500       0.9384       0.1610
   2969.2729       6.9290       3.8691       0.1145      59.1345       5.4186    -999.2500      19.4371      19.8458       6.2337       0.0984       3.1949       0.0007       2.5568    -999.2500    -999.2500       0.8105       0.1724
   2969.4253       6.9494       3.9029       0.1104      56.4156       5.3929    -999.2500      20.5683      20.6802       2.5420       0.1018       3.1273       0.0011       2.5683    -999.2500    -999.2500       0.6744       0.1667
   2969.5776       6.9489       3.7262       0.1113      53.8451       5.3930    -999.2500      18.1822      18.1761       1.1647       0.1067       3.1274       0.0011       2.5904    -999.2500    -999.2500       0.6248       0.1800
   2969.7300       6.9216       4.0538       0.1082      52.2536       5.4181    -999.2500      12.4136      12.4618       2.0129       0.1085       3.0608       0.0009       2.5959    -999.2500    -999.2500       0.7761       0.1503
   2969.8826       6.9156       4.3695       0.1090      52.6681       5.4784    -999.2500      11.5927      11.5081       3.0120       0.1061       3.0027       0.0007       2.5827    -999.2500    -999.2500       0.9591       0.1250
   2970.0349       6.9192       4.3302       0.1204      55.2622       5.5504    -999.2500      13.3539      13.6737     257.0565       0.1051       2.9467       0.0006       2.5649    -999.2500    -999.2500       0.9923       0.1409
   2970.1873       6.9362       3.9028       0.1478      58.1982       5.6440    -999.2500      21.3072      23.9356    1363.2686       0.1101       2.9458       0.0007       2.5518    -999.2500    -999.2500       0.8487       0.2031
   2970.3396       6.9428       4.1807       0.1560      59.6174       4.9859    -999.2500      27.6361      31.0232    1212.7074       0.1161       3.1543       0.0011       2.5685    -999.2500    -999.2500       0.7626       0.1604
   2970.4922       6.9327       2.7206       0.1498      60.2049    -999.2500    -999.2500      32.8295      35.8914     183.4405       0.1120       3.2708       0.0017       2.5773    -999.2500    -999.2500       0.0918       0.1292
   2970.6445       6.9359    -999.2500       0.1360      60.2308    -999.2500    -999.2500      29.5604      34.4603     277.9914       0.1028       3.3459    -999.2500       2.5870    -999.2500    -999.2500    -999.2500    -999.2500
   2970.7969       6.9354    -999.2500       0.1306      59.2372    -999.2500    -999.2500      24.6006      30.1273     428.5320       0.1006       3.3408    -999.2500       2.5949    -999.2500    -999.2500    -999.2500    -999.2500
   2970.9492       6.9245    -999.2500       0.1312      57.9156    -999.2500    -999.2500      16.8791      20.0408     566.6326       0.1088       3.2970    -999.2500       2.5976    -999.2500    -999.2500    -999.2500    -999.2500
   2971.1018       6.9162    -999.2500       0.1370      57.4707    -999.2500    -999.2500      12.3425      14.1641    8498.6504       0.1257       3.2372    -999.2500       2.5635    -999.2500    -999.2500    -999.2500    -999.2500
   2971.2542       6.9199    -999.2500       0.1436      57.2420    -999.2500    -999.2500       9.4707      10.4793   20000.0000       0.1350       3.1878    -999.2500       2.4688    -999.2500    -999.2500    -999.2500    -999.2500
   2971.4065       6.8692    -999.2500       0.1420      54.9082    -999.2500    -999.2500       9.3751      10.1500   20000.0000       0.1338       3.1466    -999.2500       2.3896    -999.2500    -999.2500    -999.2500    -999.2500
   2971.5588       6.6285    -999.2500       0.1375      50.6318    -999.2500    -999.2500       9.6076      10.3699   20000.0000       0.1255       3.1193    -999.2500       2.4112    -999.2500    -999.2500    -999.2500    -999.2500
