#------------------------------------------------------------------------------
#
#   Created by  : [OpenWorks] Log Export Utility (LEXP)
#   Created on  : 2016-05-19 09:43:50
#   Project     : CANT971
#   User        : R5K
#   Interpreter : PEP
#
#------------------------------------------------------------------------------
~VERSION INFORMATION
VERS. 2.0 : CWLS Log ASCII Standard - version 2.0
WRAP.  NO : One line per depth step
~WELL INFORMATION
#MNEMONIC   .UNIT                                           VALUE :DESCRIPTION
#------------------------------------------------------------------------------
STRT        .M                                           496.7353 :START DEPTH
STOP        .M                                          2986.9512 :STOP DEPTH
STEP        .M                                             0.1524 :STEP
NULL        .                                           -999.2500 :NULL VALUE
COMP        .                                   PEMEX EXPL & PROD :COMPANY
WELL        .                                                2277 :WELL
FLD         .                                           CANTARELL :FIELD
LOC         .                                             UNKNOWN :LOCATION
CNTY        .                                      CD. DEL CARMEN :COUNTY
STAT        .                                            CAMPECHE :STATE
CTRY        .                                              MEXICO :COUNTRY
SRVC        .                                             UNKNOWN :SERVICE COMPANY
DATE        .                                             UNKNOWN :LOG DATE
UWI         .                                          3060000527 :UNIQUE WELL ID
XCOORD      .                                       597712.670000 :SURFACE X
YCOORD      .                                      2140957.060000 :SURFACE Y
LAT         .                                           19.361451 :LATITUDE
LON         .                                          -92.069631 :LONGITUDE
ELEV        .M                                            23.0000 :SURFACE ELEV
ELEV_TYPE   .                                                  KB :ELEV TYPE
~CURVE INFORMATION
#MNEMONIC.UNIT        API CODE       : CURVE DESCRIPTION
#------------------------------------------------------------------------------
DEPTH    .M                          : Measured Depth
CALI     .inches      UNKNOWN        : CALI:litodensidad:r1:0001:v1 
CGR      .API         UNKNOWN        : CGR:Espectroscopia:r1:0001:v1 
DRHO     .g/cm3       UNKNOWN        : DRHO:litodensidad:r1:0001:v1 
DT       .us/ft       UNKNOWN        : DT:Sonico:r1:0001:v1 
GR       .API         UNKNOWN        : GR:PETROWORKS:rC:NONE:v3 
ILD      .ohm.m       UNKNOWN        : ILD:PETROWORKS:rC:NONE:v3 
LLD      .UNKNOWN     UNKNOWN        : LLD:PETROWORKS:rC:NONE:v1 
LLS      .ohm.m       UNKNOWN        : LLS:PETROWORKS:rC:NONE:v1 
MSFL     .UNKNOWN     UNKNOWN        : MSFL:PETROWORKS:rC:NONE:v1 
NPHI     .v/v_decimal UNKNOWN        : NPHI:PETROWORKS:rC:NONE:v2 
PEF      .UNKNOWN     UNKNOWN        : PEF:litodensidad:r1:0001:v1 
POTA     .wtpercent   UNKNOWN        : POTA:Espectroscopia:r1:0001:v2 
RHOB     .g/cm3       UNKNOWN        : RHOB:litodensidad:r1:0001:v1 
SFLU     .ohm.m       UNKNOWN        : SFLU:PETROWORKS:rC:NONE:v1 
SP       .mV          UNKNOWN        : SP:resistivos:r1:0001:v1 
THOR     .UNKNOWN     UNKNOWN        : THOR:Espectroscopia:r1:0001:v1 
URAN     .UNKNOWN     UNKNOWN        : URAN:Espectroscopia:r1:0001:v1 
~A     DEPTH         CALI          CGR         DRHO           DT           GR          ILD          LLD          LLS         MSFL         NPHI          PEF         POTA         RHOB         SFLU           SP         THOR         URAN
# ...
   2934.3733       7.2770       1.1625       0.1369      61.0789       6.5018    -999.2500      20.6573      22.5701       1.0274       0.1726       3.1760       0.0007       2.4336    -999.2500      27.0807       0.0398       0.6180
   2934.5256       7.2843       1.5090       0.1367      60.3812       6.2397    -999.2500      13.0260      14.5951       1.4699       0.1643       3.2086       0.0005       2.4264    -999.2500      24.1870       0.2208       0.5282
   2934.6780       7.2864       1.6201       0.1301      60.3655       6.1517    -999.2500      11.7521      12.2659       1.7964       0.1480       3.2363       0.0003       2.4394    -999.2500      23.4949       0.3323       0.5052
   2934.8306       7.2882       1.4279       0.1260      62.2540       6.1343    -999.2500      11.8721      12.0607       2.0443       0.1445       3.2145       0.0004       2.4548    -999.2500      26.5622       0.2527       0.5206
   2934.9829       7.2799       1.8021       0.1255      65.3530       6.1804    -999.2500      13.2373      13.7529       2.2218       0.1501       3.1977       0.0006       2.4667    -999.2500      28.4029       0.2875       0.4872
   2935.1353       7.2935       3.7774       0.1281      67.4693       6.5233    -999.2500     121.0483     121.7061       3.6559       0.1563       3.1543       0.0006       2.4916    -999.2500      31.4502       0.8188       0.3148
   2935.2876       7.2901       4.5164       0.1188      69.0920       6.8237    -999.2500     205.8277     204.5816       4.7924       0.1534       3.1740       0.0008       2.4927    -999.2500      28.3906       0.9607       0.2619
   2935.4402       7.2936       3.8396       0.1070      70.8152       6.8756    -999.2500     179.5413     170.2357       4.5394       0.1417       3.1676       0.0011       2.4922    -999.2500      22.8079       0.6471       0.3392
   2935.5925       7.2900       2.8187       0.0907      70.6416       7.0688    -999.2500     156.5285     144.4634       6.9950       0.1291       3.1170       0.0018       2.4862    -999.2500      18.2532       0.1016       0.4510
   2935.7449       7.2928       2.4621       0.0888      68.1804       7.3542    -999.2500     135.6359     124.2445      11.2049       0.1209       3.1030       0.0017       2.4905    -999.2500      13.0946       0.0362       0.5457
   2935.8972       7.2918       1.9726       0.0949      64.0459       7.2892    -999.2500     127.4037     115.8641       9.4784       0.1175       3.1270       0.0013       2.5021    -999.2500       8.8004       0.0281       0.5800
   2936.0498       7.2991       2.1020       0.0957      60.8508       7.1604    -999.2500     117.8118     106.6157       7.2082       0.1204       3.1487       0.0014       2.5061    -999.2500      -0.3294       0.0243       0.5699
   2936.2021       7.2998       1.9076       0.0832      58.9721       6.9255    -999.2500     104.5017      94.7240       4.2401       0.1245       3.1236       0.0009       2.5077    -999.2500      -3.5700       0.1841       0.5451
   2936.3545       7.2865       2.6136       0.0733      57.0483       6.8141    -999.2500      75.4637      68.6137       4.0578       0.1274       3.0735       0.0010       2.5177    -999.2500      -2.4293       0.3360       0.4799
   2936.5068       7.2799       2.8679       0.0714      55.9538       6.7572    -999.2500      40.7914      37.4519       5.2786       0.1329       3.0322       0.0008       2.5249    -999.2500       0.0158       0.4856       0.4325
   2936.6592       7.2804       2.8941       0.0823      56.5090       6.6357    -999.2500      39.4199      37.2841       9.1554       0.1364       3.0597       0.0008       2.5158    -999.2500       3.3114       0.4944       0.4111
   2936.8118       7.2761       3.2908       0.0965      58.0891       6.5975    -999.2500      35.3985      33.6765      12.5174       0.1323       3.1044       0.0010       2.5067    -999.2500       7.1224       0.5547       0.3645
   2936.9641       7.2698       3.6756       0.1146      59.2303       6.6827    -999.2500      27.4806      25.0113      15.1224       0.1233       3.1556       0.0013       2.5250    -999.2500      12.1297       0.5205       0.3334
   2937.1165       7.2890       3.6802       0.1246      59.7924       6.8538    -999.2500      23.3424      19.8227      11.3120       0.1188       3.1602       0.0012       2.5609    -999.2500      15.7450       0.5544       0.3514
   2937.2688       7.3134       3.9430       0.1341      60.8976       7.0514    -999.2500      20.5424      16.1387       5.8208       0.1195       3.1099       0.0011       2.5785    -999.2500      22.7460       0.6949       0.3471
   2937.4214       7.3251       4.3604       0.1375      63.3471       7.2463    -999.2500      18.9663      15.5139       2.4274       0.1216       3.0449       0.0011       2.5260    -999.2500      32.9521       0.7887       0.3189
   2937.5737       7.3250       5.0925       0.1444      66.8665       7.2878    -999.2500      19.7152      16.2630       2.3125       0.1242       2.9784       0.0014       2.4144    -999.2500      42.2245       0.9032       0.2512
   2937.7261       7.3218       5.0846       0.1558      70.0510       7.1641    -999.2500      22.9475      18.4796       5.6994       0.1283       2.9873       0.0014       2.3487    -999.2500      41.1387       0.8798       0.2359
   2937.8784       7.3241       4.5698       0.1669      72.0765       6.9705    -999.2500      27.0727      21.9965       3.8742       0.1384       3.0009       0.0013       2.2917    -999.2500      24.7937       0.7663       0.2612
   2938.0310       7.3426       3.1016       0.1661      72.4574       6.7788    -999.2500      31.2679      24.8719       1.9415       0.1516       2.9900       0.0010       2.2719    -999.2500      12.6481       0.4730       0.4072
   2938.1833       7.3700       1.3169       0.1624      72.0709       6.6469    -999.2500      35.0843      24.2717       3.4010       0.1614       3.0010       0.0007       2.3087    -999.2500       6.9725       0.1046       0.5878
   2938.3357       7.3682       0.6206       0.1628      71.4631       6.9730    -999.2500      36.7893      24.0501       4.4895       0.1584       3.0555       0.0003       2.4017    -999.2500       8.2262       0.0575       0.6773
   2938.4880       7.3557       0.2942       0.1666      70.7992       7.6587    -999.2500      36.8504      24.1231       5.2894       0.1432       3.1207       0.0001       2.5089    -999.2500      10.3913       0.0362       0.8153
   2938.6404       7.3483       0.2768       0.1729      70.0289       7.4858    -999.2500      42.4085      27.9341      13.4601       0.1286       3.1220       0.0001       2.5640    -999.2500      14.1436       0.0355       0.8300
   2938.7930       7.3464       0.2702       0.1828      68.0163       7.0963    -999.2500      48.5403      31.8256      19.9467       0.1233       3.1174       0.0001       2.5932    -999.2500      19.3553       0.0340       0.7639
   2938.9453       7.3384       0.2799       0.1911      65.1219       6.3415    -999.2500      54.9468      35.1138      20.5376       0.1234       3.1946       0.0001       2.5899    -999.2500      22.2883       0.0352       0.6864
   2939.0977       7.3400       0.3688       0.1851      63.9213       6.0345    -999.2500      53.9413      33.3403      20.2932       0.1311       3.4226       0.0001       2.5456    -999.2500      16.6369       0.0610       0.6179
   2939.2500       7.3365       0.9951       0.1698      64.0289       5.9806    -999.2500      48.7879      28.7349      19.5812       0.1412       3.5068       0.0001       2.5274    -999.2500       8.2641       0.2372       0.5551
   2939.4026       7.3327       1.7510       0.1476      64.6299       5.9551    -999.2500      45.7659      26.5512      44.8454       0.1445       3.4461       0.0001       2.5115    -999.2500      14.6685       0.4502       0.4847
   2939.5549       7.3346       1.6994       0.1404      64.9713       6.0890    -999.2500      44.3595      25.7492      49.6315       0.1448       3.3399       0.0001       2.4978    -999.2500      18.2036       0.4352       0.4717
