#------------------------------------------------------------------------------
#
#   Created by  : [OpenWorks] Log Export Utility (LEXP)
#   Created on  : 2016-05-19 09:43:50
#   Project     : CANT971
#   User        : R5K
#   Interpreter : PEP
#
#------------------------------------------------------------------------------
~VERSION INFORMATION
VERS. 2.0 : CWLS Log ASCII Standard - version 2.0
WRAP.  NO : One line per depth step
~WELL INFORMATION
#MNEMONIC   .UNIT                                           VALUE :DESCRIPTION
#------------------------------------------------------------------------------
STRT        .M                                           496.7353 :START DEPTH
STOP        .M                                          2986.9512 :STOP DEPTH
STEP        .M                                             0.1524 :STEP
NULL        .                                           -999.2500 :NULL VALUE
COMP        .                                   PEMEX EXPL & PROD :COMPANY
WELL        .                                                2277 :WELL
FLD         .                                           CANTARELL :FIELD
LOC         .                                             UNKNOWN :LOCATION
CNTY        .                                      CD. DEL CARMEN :COUNTY
STAT        .                                            CAMPECHE :STATE
CTRY        .                                              MEXICO :COUNTRY
SRVC        .                                             UNKNOWN :SERVICE COMPANY
DATE        .                                             UNKNOWN :LOG DATE
UWI         .                                          3060000527 :UNIQUE WELL ID
XCOORD      .                                       597712.670000 :SURFACE X
YCOORD      .                                      2140957.060000 :SURFACE Y
LAT         .                                           19.361451 :LATITUDE
LON         .                                          -92.069631 :LONGITUDE
ELEV        .M                                            23.0000 :SURFACE ELEV
ELEV_TYPE   .                                                  KB :ELEV TYPE
~CURVE INFORMATION
#MNEMONIC.UNIT        API CODE       : CURVE DESCRIPTION
#------------------------------------------------------------------------------
DEPTH    .M                          : Measured Depth
CALI     .inches      UNKNOWN        : CALI:litodensidad:r1:0001:v1 
CGR      .API         UNKNOWN        : CGR:Espectroscopia:r1:0001:v1 
DRHO     .g/cm3       UNKNOWN        : DRHO:litodensidad:r1:0001:v1 
DT       .us/ft       UNKNOWN        : DT:Sonico:r1:0001:v1 
GR       .API         UNKNOWN        : GR:PETROWORKS:rC:NONE:v3 
ILD      .ohm.m       UNKNOWN        : ILD:PETROWORKS:rC:NONE:v3 
LLD      .UNKNOWN     UNKNOWN        : LLD:PETROWORKS:rC:NONE:v1 
LLS      .ohm.m       UNKNOWN        : LLS:PETROWORKS:rC:NONE:v1 
MSFL     .UNKNOWN     UNKNOWN        : MSFL:PETROWORKS:rC:NONE:v1 
NPHI     .v/v_decimal UNKNOWN        : NPHI:PETROWORKS:rC:NONE:v2 
PEF      .UNKNOWN     UNKNOWN        : PEF:litodensidad:r1:0001:v1 
POTA     .wtpercent   UNKNOWN        : POTA:Espectroscopia:r1:0001:v2 
RHOB     .g/cm3       UNKNOWN        : RHOB:litodensidad:r1:0001:v1 
SFLU     .ohm.m       UNKNOWN        : SFLU:PETROWORKS:rC:NONE:v1 
SP       .mV          UNKNOWN        : SP:resistivos:r1:0001:v1 
THOR     .UNKNOWN     UNKNOWN        : THOR:Espectroscopia:r1:0001:v1 
URAN     .UNKNOWN     UNKNOWN        : URAN:Espectroscopia:r1:0001:v1 
~A     DEPTH         CALI          CGR         DRHO           DT           GR          ILD          LLD          LLS         MSFL         NPHI          PEF         POTA         RHOB         SFLU           SP         THOR         URAN
# ...
   2923.7053       6.1040      25.1002      -0.3552      58.2550      37.5569    -999.2500    -999.2500    -999.2500    -999.2500       0.1665      24.9148       0.0067       2.4821    -999.2500    -999.2500       4.4807       1.3976
   2923.8577       6.1090      24.9283      -0.3620      59.8626      37.2807    -999.2500    -999.2500    -999.2500    -999.2500       0.1717      20.7941       0.0073       2.4493    -999.2500    -999.2500       4.1880       1.3815
   2924.0100       6.1140      23.4836      -0.3686      61.8316      36.8912    -999.2500    -999.2500    -999.2500    -999.2500       0.1778      16.5919       0.0079       2.4178    -999.2500    -999.2500       3.5105       1.4895
   2924.1626       6.1150      21.4322      -0.3687      62.5613      36.7091    -999.2500    -999.2500    -999.2500    -999.2500       0.1839      15.8008       0.0080       2.4233    -999.2500    -999.2500       2.9003       1.6768
   2924.3149       6.1115      20.7690      -0.3615      59.7501      37.3849    -999.2500    -999.2500    -999.2500    -999.2500       0.1786      18.8471       0.0079       2.4718    -999.2500    -999.2500       2.7739       1.8010
   2924.4673       6.1056      22.5689      -0.3432      54.3702      39.2276    -999.2500    -999.2500    -999.2500    -999.2500       0.1620      28.3581       0.0073       2.5863    -999.2500    -999.2500       3.5091       1.8496
   2924.6196       6.1122      26.0921      -0.3329      49.0814      41.4616    -999.2500    -999.2500    -999.2500    -999.2500       0.1465      33.9752       0.0071       2.6480    -999.2500    -999.2500       4.5909       1.7154
   2924.7720       6.1099      30.1337      -0.3279      46.1408      43.6493    -999.2500    -999.2500    -999.2500    -999.2500       0.1430      36.7135       0.0076       2.6751    -999.2500    -999.2500       5.5153       1.5206
   2924.9246       6.1108      32.1715      -0.3312      45.8286      44.9099    -999.2500    -999.2500    -999.2500    -999.2500       0.1508      34.8998       0.0080       2.6542    -999.2500    -999.2500       5.9454       1.4319
   2925.0769       6.1062      30.5411      -0.3434      48.1349      44.2372    -999.2500    -999.2500    -999.2500    -999.2500       0.1576      27.9994       0.0081       2.5876    -999.2500      51.2000       5.4642       1.5702
   2925.2292       6.1023      25.5461      -0.3547      51.0211      41.6500    -999.2500    -999.2500       0.4471    -999.2500       0.1678      21.3616       0.0073       2.5292    -999.2500      51.2000       4.3565       1.8283
   2925.3816       6.0988      21.8522      -0.3622      51.0766      39.1491    -999.2500    -999.2500       0.4040       0.1000       0.1818      17.0042       0.0061       2.4883    -999.2500      51.2000       3.7944       1.8557
   2925.5342       6.1022      22.8033      -0.3653      50.9018      36.9977    -999.2500    -999.2500       0.4035       0.1000       0.1915      15.2971       0.0058       2.4642    -999.2500      51.2000       4.1666       1.5787
   2925.6865       6.1000      25.1525      -0.3697      51.8056      36.0257    -999.2500    -999.2500       0.5744       0.1000       0.2023      12.7699       0.0061       2.4297    -999.2500      51.2000       4.7230       1.1964
   2925.8389       6.1022      24.5237      -0.3706      53.8146      35.3011    -999.2500    -999.2500       0.5926       0.1000       0.2113      12.3096       0.0066       2.4153    -999.2500      51.2000       4.3500       1.2004
   2925.9912       6.1041      22.5291      -0.3675      55.4394      34.7548    -999.2500    -999.2500       0.5017       0.1000       0.2134      14.5897       0.0065       2.4187    -999.2500      51.2000       3.7997       1.3612
   2926.1438       6.1054      17.1137      -0.3549      57.0758      33.5524    -999.2500    -999.2500       0.5878       0.1000       0.2117      23.7555       0.0053       2.4817    -999.2500      51.2000       2.7400       1.8061
   2926.2961       6.1064      15.4838      -0.3533      59.2208      31.9557    -999.2500    -999.2500       0.7078       0.1000       0.2124      22.9552       0.0045       2.5474    -999.2500      51.2000       2.6242       1.8827
   2926.4485       6.1056      15.9465      -0.3833      61.3153      29.5363    -999.2500    -999.2500       0.8811       0.1000       0.2223     -28.6232       0.0051       2.6207    -999.2500      51.2000       2.4966       1.5214
   2926.6008       6.1074      14.5572      -0.4296      63.8554      28.2676    -999.2500    -999.2500       0.9062       0.1000       0.2407    -103.9219       0.0052       2.6577    -999.2500      51.2000       2.0801       1.5238
   2926.7532       6.1079      13.4182      -0.4432      65.7391      27.6038    -999.2500    -999.2500       0.8670       0.1000       0.2557    -139.3055       0.0047       2.6625    -999.2500      51.2000       1.9402       1.5788
   2926.9058       6.1149      15.5149      -0.3922      65.7871      27.5316    -999.2500       0.8371       1.3380       0.1000       0.2724     -93.3443       0.0046       2.6368    -999.2500      51.2000       2.5637       1.3408
   2927.0581       6.1200      17.1750      -0.3331      65.1551      27.1024    -999.2500       2.6858       2.0878       0.1138       0.2891     -35.8193       0.0047       2.5843    -999.2500      51.2000       3.0133       1.1124
   2927.2104       6.1115      18.2443      -0.2695      62.3310      26.0882    -999.2500       7.5358       3.2902       0.1499       0.3004       4.5291       0.0052       2.4999    -999.2500      56.5789       3.0987       0.8902
   2927.3628       6.1166      15.0958      -0.1290      59.8790      23.7701    -999.2500       9.2910       5.9562       0.3431       0.2868      11.9671       0.0053       2.4779    -999.2500      67.4079       2.1747       0.9483
   2927.5154       6.8836      10.8132       0.0197      60.8973      21.1444    -999.2500       9.7130       8.7088       0.5755       0.2562       7.1181       0.0046       2.5487    -999.2500      87.6657       1.2373       1.1494
   2927.6677       7.5249       7.4784       0.1152      62.5861      19.9302    -999.2500       7.8926       7.6457       0.6648       0.2458       5.0530       0.0035       2.6246    -999.2500     111.3921       0.7308       1.3809
   2927.8201       8.6513       3.1730       0.1475      63.1875      19.2731    -999.2500       8.9081       8.4275       1.5006       0.2364       3.7990       0.0016       2.6686    -999.2500     112.2112       0.2499       1.7559
   2927.9724       8.9949       2.1316       0.1134      62.3350      19.2760    -999.2500      13.2536      11.3756       3.2132       0.2286       3.4713       0.0013       2.6254    -999.2500      75.9023       0.1007       1.9005
   2928.1250       9.0116       2.0802       0.0852      60.6557      19.5587    -999.2500      20.5099      15.8522       9.6247       0.2126       3.2365       0.0014       2.5869    -999.2500      42.3272       0.0431       1.9338
   2928.2773       9.0158       3.1079       0.0748      59.0672      19.7728    -999.2500      29.2629      20.7414      14.9369       0.1953       3.1018       0.0021       2.5524    -999.2500      12.4512       0.0470       1.8676
   2928.4297       9.0012       3.9392       0.0803      57.5696      19.3767    -999.2500      41.9376      25.9791      10.4646       0.1880       3.1342       0.0025       2.5699    -999.2500      19.0380       0.1101       1.7457
   2928.5820       8.9641       4.6587       0.0831      55.0379      18.0357    -999.2500      43.5918      25.6308       7.3339       0.1718       3.1917       0.0027       2.6346    -999.2500      49.3120       0.2374       1.4690
   2928.7344       8.9281       4.4295       0.0771      51.9201      15.8787    -999.2500      35.8069      20.4981       5.3520       0.1536       3.1876       0.0025       2.6840    -999.2500      68.9541       0.2462       1.2743
   2928.8870       8.9163       4.0587       0.0662      50.8330      13.7440    -999.2500      36.9201      16.9508       8.2725       0.1517       3.1394       0.0021       2.7103    -999.2500      66.2042       0.3015       1.0835
