#------------------------------------------------------------------------------
#
#   Created by  : [OpenWorks] Log Export Utility (LEXP)
#   Created on  : 2016-05-19 09:43:50
#   Project     : CANT971
#   User        : R5K
#   Interpreter : PEP
#
#------------------------------------------------------------------------------
~VERSION INFORMATION
VERS. 2.0 : CWLS Log ASCII Standard - version 2.0
WRAP.  NO : One line per depth step
~WELL INFORMATION
#MNEMONIC   .UNIT                                           VALUE :DESCRIPTION
#------------------------------------------------------------------------------
STRT        .M                                           496.7353 :START DEPTH
STOP        .M                                          2986.9512 :STOP DEPTH
STEP        .M                                             0.1524 :STEP
NULL        .                                           -999.2500 :NULL VALUE
COMP        .                                   PEMEX EXPL & PROD :COMPANY
WELL        .                                                2277 :WELL
FLD         .                                           CANTARELL :FIELD
LOC         .                                             UNKNOWN :LOCATION
CNTY        .                                      CD. DEL CARMEN :COUNTY
STAT        .                                            CAMPECHE :STATE
CTRY        .                                              MEXICO :COUNTRY
SRVC        .                                             UNKNOWN :SERVICE COMPANY
DATE        .                                             UNKNOWN :LOG DATE
UWI         .                                          3060000527 :UNIQUE WELL ID
XCOORD      .                                       597712.670000 :SURFACE X
YCOORD      .                                      2140957.060000 :SURFACE Y
LAT         .                                           19.361451 :LATITUDE
LON         .                                          -92.069631 :LONGITUDE
ELEV        .M                                            23.0000 :SURFACE ELEV
ELEV_TYPE   .                                                  KB :ELEV TYPE
~CURVE INFORMATION
#MNEMONIC.UNIT        API CODE       : CURVE DESCRIPTION
#------------------------------------------------------------------------------
DEPTH    .M                          : Measured Depth
CALI     .inches      UNKNOWN        : CALI:litodensidad:r1:0001:v1 
CGR      .API         UNKNOWN        : CGR:Espectroscopia:r1:0001:v1 
DRHO     .g/cm3       UNKNOWN        : DRHO:litodensidad:r1:0001:v1 
DT       .us/ft       UNKNOWN        : DT:Sonico:r1:0001:v1 
GR       .API         UNKNOWN        : GR:PETROWORKS:rC:NONE:v3 
ILD      .ohm.m       UNKNOWN        : ILD:PETROWORKS:rC:NONE:v3 
LLD      .UNKNOWN     UNKNOWN        : LLD:PETROWORKS:rC:NONE:v1 
LLS      .ohm.m       UNKNOWN        : LLS:PETROWORKS:rC:NONE:v1 
MSFL     .UNKNOWN     UNKNOWN        : MSFL:PETROWORKS:rC:NONE:v1 
NPHI     .v/v_decimal UNKNOWN        : NPHI:PETROWORKS:rC:NONE:v2 
PEF      .UNKNOWN     UNKNOWN        : PEF:litodensidad:r1:0001:v1 
POTA     .wtpercent   UNKNOWN        : POTA:Espectroscopia:r1:0001:v2 
RHOB     .g/cm3       UNKNOWN        : RHOB:litodensidad:r1:0001:v1 
SFLU     .ohm.m       UNKNOWN        : SFLU:PETROWORKS:rC:NONE:v1 
SP       .mV          UNKNOWN        : SP:resistivos:r1:0001:v1 
THOR     .UNKNOWN     UNKNOWN        : THOR:Espectroscopia:r1:0001:v1 
URAN     .UNKNOWN     UNKNOWN        : URAN:Espectroscopia:r1:0001:v1 
~A     DEPTH         CALI          CGR         DRHO           DT           GR          ILD          LLD          LLS         MSFL         NPHI          PEF         POTA         RHOB         SFLU           SP         THOR         URAN
# ...
   2913.0374    -999.2500      16.5827    -999.2500      52.3245      19.0533       0.0000    2980.4172     137.2005      72.0127       0.1801    -999.2500       0.0066    -999.2500    -999.2500    -999.2500       2.0706       1.5370
   2913.1897    -999.2500      16.0073    -999.2500      51.2106      19.7306       0.0000    2206.5002     182.1945      40.9188       0.1916    -999.2500       0.0064    -999.2500    -999.2500    -999.2500       1.9992       1.6505
   2913.3420    -999.2500      17.6182    -999.2500      48.3737      20.4078       0.0000    1619.8859     183.3696      28.6140       0.2005    -999.2500       0.0053    -999.2500    -999.2500    -999.2500       2.9129       1.5356
   2913.4944    -999.2500      18.0880    -999.2500      48.8571      21.0851       0.0000    1155.9344     155.8479      28.6140       0.2086    -999.2500       0.0041    -999.2500    -999.2500    -999.2500       3.4886       1.4630
   2913.6470    -999.2500      17.4582    -999.2500      53.5457      20.4596       0.0000     710.3780     134.3142      28.6140       0.2238    -999.2500       0.0029    -999.2500    -999.2500    -999.2500       3.8196       1.4571
   2913.7993    -999.2500      17.5961    -999.2500      54.8537      19.7824       0.0000     382.2797     107.8062      25.2185       0.2439    -999.2500       0.0023    -999.2500    -999.2500    -999.2500       4.0879       1.3707
   2913.9517    -999.2500      18.3453    -999.2500      54.8981      19.1051       0.0000     298.4456      70.4231      14.7199       0.2645    -999.2500       0.0027    -999.2500    -999.2500    -999.2500       4.1146       1.1276
   2914.1040    -999.2500      17.1904    -999.2500      54.6851      18.8890       0.0000     230.0966      39.4395      27.5660       0.2493    -999.2500       0.0031    -999.2500    -999.2500    -999.2500       3.6608       1.1221
   2914.2566    -999.2500      12.8653    -999.2500      54.4494      18.8890       0.0000     170.9052      12.5324      49.3568       0.2128    -999.2500       0.0035    -999.2500    -999.2500    -999.2500       2.2413       1.3883
   2914.4089    -999.2500      11.1466    -999.2500      54.2138      18.8890       0.0000     156.0243      10.4988      28.6670       0.2025    -999.2500       0.0037    -999.2500    -999.2500    -999.2500       1.6895       1.4639
   2914.5613    -999.2500      14.0342    -999.2500      53.9783      18.8890       0.0000     143.6195      12.1678      24.0044       0.1815    -999.2500       0.0050    -999.2500    -999.2500    -999.2500       1.9905       0.8740
   2914.7136    -999.2500      16.6421    -999.2500      52.6891      18.8890       0.0000     134.8955      19.3410      43.1666       0.1694    -999.2500       0.0053    -999.2500    -999.2500    -999.2500       2.6103       0.4549
   2914.8662    -999.2500      17.5722    -999.2500      51.2223      18.8890       0.0000      98.3409      22.6720     105.2233       0.1659    -999.2500       0.0049    -999.2500    -999.2500    -999.2500       3.0359       0.1616
   2915.0186    -999.2500      16.3170    -999.2500      51.3293      18.8082       0.0000      55.3861      24.7386     166.0781       0.1605    -999.2500       0.0043    -999.2500    -999.2500    -999.2500       2.9238       0.2416
   2915.1709    -999.2500      11.9975    -999.2500      51.0323      18.1310       0.0000      29.1197      26.3503     121.0689       0.1541    -999.2500       0.0030    -999.2500    -999.2500    -999.2500       2.1988       0.7316
   2915.3232    -999.2500       9.1104    -999.2500      51.5718      18.1023       0.0000      11.6648      27.6053      87.1345       0.1569    -999.2500       0.0027    -999.2500    -999.2500    -999.2500       1.5111       1.2730
   2915.4756    -999.2500       7.1820    -999.2500      53.3098      18.7796       0.0000       3.7211      28.4752      65.1541       0.1563    -999.2500       0.0024    -999.2500    -999.2500    -999.2500       1.0659       1.9372
   2915.6282    -999.2500      11.8955    -999.2500      53.3688      19.4568       0.0000       1.5292      27.1881      51.0375       0.1528    -999.2500       0.0033    -999.2500    -999.2500    -999.2500       2.0570       1.6659
   2915.7805    -999.2500      17.0148    -999.2500      51.0453      21.0981       0.0000       0.6173      25.5245      48.4880       0.1519    -999.2500       0.0043    -999.2500    -999.2500    -999.2500       3.1264       1.3021
   2915.9329    -999.2500      15.5565    -999.2500      49.5687      26.6446       0.0000       0.4588      23.9926      86.2198       0.1616    -999.2500       0.0039    -999.2500    -999.2500    -999.2500       2.8549       1.5014
   2916.0852    -999.2500      10.3329    -999.2500      49.9417      29.4373       0.0000       0.3443      23.7359      96.3417       0.1758    -999.2500       0.0026    -999.2500    -999.2500    -999.2500       1.8848       2.0998
   2916.2378    -999.2500       6.7515    -999.2500      50.0457      30.0447       0.0000       0.2645      24.4827      84.7391       0.1803    -999.2500       0.0015    -999.2500    -999.2500    -999.2500       1.3365       2.5841
   2916.3901    -999.2500       7.1083    -999.2500      49.9875      30.7998       0.0000       0.2378      23.2049      97.4928       0.1841    -999.2500       0.0012    -999.2500    -999.2500    -999.2500       1.5533       2.6656
   2916.5425    -999.2500      12.5944    -999.2500      50.1109      31.1106       0.0000       0.2201      22.3527     107.3164       0.1868    -999.2500       0.0022    -999.2500    -999.2500    -999.2500       2.7090       2.0698
   2916.6948    -999.2500      18.1899    -999.2500      50.7570      30.2256       0.0000       0.2134      23.0616     104.0251       0.1873    -999.2500       0.0034    -999.2500    -999.2500    -999.2500       3.8086       1.3404
   2916.8474    -999.2500      19.9018    -999.2500      51.6841      29.3369       0.0000       0.2110      22.4354      82.3662       0.1834    -999.2500       0.0041    -999.2500    -999.2500    -999.2500       4.0292       1.0359
   2916.9998    -999.2500      19.1441    -999.2500      52.3910      28.4425       0.0000       0.2110      21.0500      50.2380       0.1782    -999.2500       0.0046    -999.2500    -999.2500    -999.2500       3.6014       1.0352
   2917.1521    -999.2500      15.8603    -999.2500      52.6211      28.1254       0.0000       0.2110      23.1750     104.7174       0.1782    -999.2500       0.0050    -999.2500    -999.2500    -999.2500       2.5118       1.3699
   2917.3044    -999.2500      11.1753    -999.2500      51.8393      27.7074       0.0000       0.2110      24.8237     155.2013       0.1794    -999.2500       0.0046    -999.2500    -999.2500    -999.2500       1.3551       1.8511
   2917.4568    -999.2500       9.7268    -999.2500      49.9414      27.1087       0.0000       0.2110      25.6089     198.3067       0.1797    -999.2500       0.0040    -999.2500    -999.2500    -999.2500       1.1645       1.9423
   2917.6094    -999.2500       9.8102    -999.2500      48.6210      26.6498       0.0000       0.2110      25.8310     210.5000       0.1752    -999.2500       0.0035    -999.2500    -999.2500    -999.2500       1.4008       1.8873
   2917.7617    -999.2500       8.4895    -999.2500      48.6882      26.2651       0.0000       0.2110      25.7135     209.5425       0.1701    -999.2500       0.0029    -999.2500    -999.2500    -999.2500       1.2653       1.9725
   2917.9141    -999.2500       8.2438    -999.2500      49.1684      26.1091       0.0000       0.2110      24.1816     197.0603       0.1645    -999.2500       0.0025    -999.2500    -999.2500    -999.2500       1.3521       1.9696
   2918.0664    -999.2500      13.3926    -999.2500      50.2438      26.7236       0.0000       0.2110      23.9864     159.6049       0.1503    -999.2500       0.0030    -999.2500    -999.2500    -999.2500       2.6128       1.4834
   2918.2190    -999.2500      19.1642    -999.2500      52.5641      28.3423       0.0000       0.2110      25.5183      89.8825       0.1385    -999.2500       0.0041    -999.2500    -999.2500    -999.2500       3.8146       0.9928
