#------------------------------------------------------------------------------
#
#   Created by  : [OpenWorks] Log Export Utility (LEXP)
#   Created on  : 2016-05-19 09:43:50
#   Project     : CANT971
#   User        : R5K
#   Interpreter : PEP
#
#------------------------------------------------------------------------------
~VERSION INFORMATION
VERS. 2.0 : CWLS Log ASCII Standard - version 2.0
WRAP.  NO : One line per depth step
~WELL INFORMATION
#MNEMONIC   .UNIT                                           VALUE :DESCRIPTION
#------------------------------------------------------------------------------
STRT        .M                                           496.7353 :START DEPTH
STOP        .M                                          2986.9512 :STOP DEPTH
STEP        .M                                             0.1524 :STEP
NULL        .                                           -999.2500 :NULL VALUE
COMP        .                                   PEMEX EXPL & PROD :COMPANY
WELL        .                                                2277 :WELL
FLD         .                                           CANTARELL :FIELD
LOC         .                                             UNKNOWN :LOCATION
CNTY        .                                      CD. DEL CARMEN :COUNTY
STAT        .                                            CAMPECHE :STATE
CTRY        .                                              MEXICO :COUNTRY
SRVC        .                                             UNKNOWN :SERVICE COMPANY
DATE        .                                             UNKNOWN :LOG DATE
UWI         .                                          3060000527 :UNIQUE WELL ID
XCOORD      .                                       597712.670000 :SURFACE X
YCOORD      .                                      2140957.060000 :SURFACE Y
LAT         .                                           19.361451 :LATITUDE
LON         .                                          -92.069631 :LONGITUDE
ELEV        .M                                            23.0000 :SURFACE ELEV
ELEV_TYPE   .                                                  KB :ELEV TYPE
~CURVE INFORMATION
#MNEMONIC.UNIT        API CODE       : CURVE DESCRIPTION
#------------------------------------------------------------------------------
DEPTH    .M                          : Measured Depth
CALI     .inches      UNKNOWN        : CALI:litodensidad:r1:0001:v1 
CGR      .API         UNKNOWN        : CGR:Espectroscopia:r1:0001:v1 
DRHO     .g/cm3       UNKNOWN        : DRHO:litodensidad:r1:0001:v1 
DT       .us/ft       UNKNOWN        : DT:Sonico:r1:0001:v1 
GR       .API         UNKNOWN        : GR:PETROWORKS:rC:NONE:v3 
ILD      .ohm.m       UNKNOWN        : ILD:PETROWORKS:rC:NONE:v3 
LLD      .UNKNOWN     UNKNOWN        : LLD:PETROWORKS:rC:NONE:v1 
LLS      .ohm.m       UNKNOWN        : LLS:PETROWORKS:rC:NONE:v1 
MSFL     .UNKNOWN     UNKNOWN        : MSFL:PETROWORKS:rC:NONE:v1 
NPHI     .v/v_decimal UNKNOWN        : NPHI:PETROWORKS:rC:NONE:v2 
PEF      .UNKNOWN     UNKNOWN        : PEF:litodensidad:r1:0001:v1 
POTA     .wtpercent   UNKNOWN        : POTA:Espectroscopia:r1:0001:v2 
RHOB     .g/cm3       UNKNOWN        : RHOB:litodensidad:r1:0001:v1 
SFLU     .ohm.m       UNKNOWN        : SFLU:PETROWORKS:rC:NONE:v1 
SP       .mV          UNKNOWN        : SP:resistivos:r1:0001:v1 
THOR     .UNKNOWN     UNKNOWN        : THOR:Espectroscopia:r1:0001:v1 
URAN     .UNKNOWN     UNKNOWN        : URAN:Espectroscopia:r1:0001:v1 
~A     DEPTH         CALI          CGR         DRHO           DT           GR          ILD          LLD          LLS         MSFL         NPHI          PEF         POTA         RHOB         SFLU           SP         THOR         URAN
# ...
   2945.0413       7.6551       1.0643       0.1757      73.1842       5.3197    -999.2500       7.9779       5.4818      34.8668       0.3217       2.5260       0.0006       1.8944    -999.2500      29.0896       0.0502       0.4613
   2945.1936       7.3423       0.9283       0.1852      72.4268       5.3417    -999.2500      16.2673      11.1649      16.2559       0.3561       2.8400       0.0002       2.0167    -999.2500      25.3859       0.1828       0.4818
   2945.3462       7.1610       0.7226       0.1829      72.1423       5.6767    -999.2500      21.6333      14.2479       8.4047       0.3057       3.0796       0.0001       2.1586    -999.2500      19.6614       0.1558       0.5518
   2945.4985       7.0921       0.4154       0.1764      71.8578       6.2031    -999.2500      25.3225      15.8228       6.8436       0.2305       3.4176       0.0002       2.3677    -999.2500      15.8845       0.0419       0.6444
   2945.6509       7.1040       0.5596       0.1579      71.5731       6.3919    -999.2500      28.9183      17.8492      10.2337       0.1939       3.5508       0.0003       2.4996    -999.2500      11.8994       0.0390       0.6563
   2945.8032       7.1027       1.2637       0.1384      71.2884       6.4151    -999.2500      31.5522      19.1539      10.7392       0.1602       3.4693       0.0008       2.5496    -999.2500      10.6393       0.0444       0.5823
   2945.9558       7.1101       2.2519       0.1245      71.0037       6.1233    -999.2500      32.3307      19.0787       5.8167       0.1436       3.2803       0.0015       2.5418    -999.2500       7.8790       0.0616       0.4404
   2946.1082       7.1105       2.6240       0.1180      71.4280       5.8395    -999.2500      33.7996      19.7825       4.1787       0.1226       3.1844       0.0017       2.5500    -999.2500       5.3897       0.0710       0.3504
   2946.2605       7.1226       3.1489       0.1221      72.2037       5.5876    -999.2500      35.5247      20.7989       4.5155       0.1130       3.2287       0.0014       2.5909    -999.2500       0.2321       0.3570       0.2697
   2946.4128       7.1350       4.0706       0.1251      72.0794       5.7360    -999.2500      36.8852      21.7252      13.3525       0.1104       3.2613       0.0010       2.6213    -999.2500      -1.8923       0.7732       0.1828
   2946.5652       7.1378       4.7980       0.1195      71.9240       5.9240    -999.2500      37.6944      22.7387      39.2690       0.1126       3.1776       0.0004       2.6020    -999.2500      -1.5168       1.2058       0.1242
   2946.7178       7.1383       4.6666       0.1130      71.7688       6.1654    -999.2500      37.7680      23.8686      87.9727       0.1168       3.0549       0.0001       2.5576    -999.2500      -0.6774       1.2785       0.1649
   2946.8701       7.1235       3.6012       0.1117      71.6137       6.2396    -999.2500      34.7636      23.2452      64.7445       0.1215       2.9548       0.0001       2.5092    -999.2500      -3.0231       0.9786       0.3153
   2947.0225       7.1366       0.7504       0.1241      71.1621       6.2428    -999.2500      31.2463      22.2117      30.1433       0.1257       2.8877       0.0001       2.4474    -999.2500      -7.3882       0.1699       0.6116
   2947.1748       7.1489       0.7071       0.1364      70.4236       6.0968    -999.2500      29.5497      21.5342      41.6342       0.1249       2.9247       0.0002       2.4249    -999.2500     -12.8888       0.1152       0.5870
   2947.3274       7.1413       1.7043       0.1481      69.7957       6.0877    -999.2500      30.2355      23.4011      34.2851       0.1219       3.0166       0.0007       2.3812    -999.2500     -14.5515       0.1895       0.4964
   2947.4797       7.1299       1.9748       0.1470      68.4362       6.2130    -999.2500      33.2367      27.7407       8.6277       0.1170       3.0565       0.0011       2.3525    -999.2500     -17.7005       0.1349       0.4740
   2947.6321       7.1240       1.9906       0.1386      65.9243       6.2145    -999.2500      32.0068      28.7202       2.6113       0.1082       3.1118       0.0014       2.3446    -999.2500     -19.2413       0.0235       0.4744
   2947.7844       7.1282       2.0625       0.1336      64.0647       6.2086    -999.2500      28.7424      27.3360       0.6053       0.1021       3.1717       0.0014       2.3945    -999.2500     -19.8041       0.0226       0.4601
   2947.9370       7.1304       1.6385       0.1247      65.1103       6.2442    -999.2500      20.7467      19.6374       1.9860       0.1045       3.2611       0.0011       2.5253    -999.2500     -17.9847       0.0225       0.5071
   2948.0894       7.1307       1.3388       0.1199      69.5441       5.9959    -999.2500      15.5055      14.4171       1.7916       0.1098       3.2534       0.0009       2.5853    -999.2500     -14.4014       0.0292       0.5608
   2948.2417       7.1398       1.3404       0.1177      74.4676       5.5450    -999.2500      12.2109      10.9485       0.4841       0.1155       3.0279       0.0008       2.5652    -999.2500      -7.1274       0.0786       0.4705
   2948.3940       7.1512       2.3306       0.1174      77.2387       5.4071    -999.2500      16.3699      15.8919       2.8579       0.1234       2.7979       0.0008       2.4729    -999.2500      -4.4232       0.3271       0.3294
   2948.5464       7.1427       4.2138       0.1152      79.3280       5.3270    -999.2500      30.1439      37.6063       9.7289       0.1297       2.5270       0.0010       2.2939    -999.2500      -6.6301       0.7822       0.1230
   2948.6990       7.1404       4.4787       0.1149      75.7328       5.3369    -999.2500      64.8423      96.4213      26.3613       0.1367       2.5479       0.0009       2.2690    -999.2500     -10.1354       0.9175       0.0959
   2948.8513       7.1308       3.7422       0.1181      68.2553       5.2685    -999.2500      90.5112     111.6616      43.8238       0.1557       2.7808       0.0005       2.3735    -999.2500     -20.0919       0.8747       0.1685
   2949.0037       7.1401       2.4036       0.1205      65.7707       5.1602    -999.2500     111.2580     105.4040      61.8412       0.1579       3.0079       0.0001       2.4911    -999.2500     -29.7150       0.6409       0.3071
   2949.1560       7.1354       2.1179       0.1232      64.1850       5.0510    -999.2500     117.2565     118.8553      85.3417       0.1280       3.0968       0.0002       2.5308    -999.2500     -38.5085       0.5071       0.3296
   2949.3086       7.1383       2.4385       0.1315      63.9256       4.8571    -999.2500     156.0526     160.9370      80.6272       0.1098       3.1350       0.0007       2.5391    -999.2500     -39.9387       0.4215       0.2763
   2949.4609       7.1272       2.6939       0.1472      59.9551       4.5261    -999.2500     247.5069     248.9862      30.6121       0.1070       3.1895       0.0011       2.5630    -999.2500     -40.7354       0.3318       0.2079
   2949.6133       7.1418       2.4616       0.1553      52.8507       4.3941    -999.2500     272.7823     270.9457      23.5111       0.1016       3.2385       0.0010       2.5912    -999.2500     -42.6595       0.3018       0.2069
   2949.7656       7.1429       1.1331       0.1501      50.1803       4.3829    -999.2500     274.4388     269.9627      29.6512       0.0998       3.2725       0.0005       2.6022    -999.2500     -46.9696       0.1398       0.3587
   2949.9180       7.1396       0.3932       0.1440      49.3397       4.8301    -999.2500     269.3596     267.8697      22.0822       0.0974       3.2877       0.0002       2.5961    -999.2500     -48.3029       0.0443       0.4899
   2950.0706       7.1364       0.3484       0.1257      48.8047       5.3549    -999.2500     262.5908     259.9639      20.0637       0.0962       3.2726       0.0001       2.5723    -999.2500     -49.5191       0.0583       0.5637
   2950.2229       7.1326       0.3677       0.1111      48.9434       5.9706    -999.2500     253.8588     245.3035      24.4948       0.0966       3.2060       0.0001       2.5582    -999.2500     -49.2291       0.0624       0.6256
