#------------------------------------------------------------------------------
#
#   Created by  : [OpenWorks] Log Export Utility (LEXP)
#   Created on  : 2016-05-19 09:43:50
#   Project     : CANT971
#   User        : R5K
#   Interpreter : PEP
#
#------------------------------------------------------------------------------
~VERSION INFORMATION
VERS. 2.0 : CWLS Log ASCII Standard - version 2.0
WRAP.  NO : One line per depth step
~WELL INFORMATION
#MNEMONIC   .UNIT                                           VALUE :DESCRIPTION
#------------------------------------------------------------------------------
STRT        .M                                           496.7353 :START DEPTH
STOP        .M                                          2986.9512 :STOP DEPTH
STEP        .M                                             0.1524 :STEP
NULL        .                                           -999.2500 :NULL VALUE
COMP        .                                   PEMEX EXPL & PROD :COMPANY
WELL        .                                                2277 :WELL
FLD         .                                           CANTARELL :FIELD
LOC         .                                             UNKNOWN :LOCATION
CNTY        .                                      CD. DEL CARMEN :COUNTY
STAT        .                                            CAMPECHE :STATE
CTRY        .                                              MEXICO :COUNTRY
SRVC        .                                             UNKNOWN :SERVICE COMPANY
DATE        .                                             UNKNOWN :LOG DATE
UWI         .                                          3060000527 :UNIQUE WELL ID
XCOORD      .                                       597712.670000 :SURFACE X
YCOORD      .                                      2140957.060000 :SURFACE Y
LAT         .                                           19.361451 :LATITUDE
LON         .                                          -92.069631 :LONGITUDE
ELEV        .M                                            23.0000 :SURFACE ELEV
ELEV_TYPE   .                                                  KB :ELEV TYPE
~CURVE INFORMATION
#MNEMONIC.UNIT        API CODE       : CURVE DESCRIPTION
#------------------------------------------------------------------------------
DEPTH    .M                          : Measured Depth
CALI     .inches      UNKNOWN        : CALI:litodensidad:r1:0001:v1 
CGR      .API         UNKNOWN        : CGR:Espectroscopia:r1:0001:v1 
DRHO     .g/cm3       UNKNOWN        : DRHO:litodensidad:r1:0001:v1 
DT       .us/ft       UNKNOWN        : DT:Sonico:r1:0001:v1 
GR       .API         UNKNOWN        : GR:PETROWORKS:rC:NONE:v3 
ILD      .ohm.m       UNKNOWN        : ILD:PETROWORKS:rC:NONE:v3 
LLD      .UNKNOWN     UNKNOWN        : LLD:PETROWORKS:rC:NONE:v1 
LLS      .ohm.m       UNKNOWN        : LLS:PETROWORKS:rC:NONE:v1 
MSFL     .UNKNOWN     UNKNOWN        : MSFL:PETROWORKS:rC:NONE:v1 
NPHI     .v/v_decimal UNKNOWN        : NPHI:PETROWORKS:rC:NONE:v2 
PEF      .UNKNOWN     UNKNOWN        : PEF:litodensidad:r1:0001:v1 
POTA     .wtpercent   UNKNOWN        : POTA:Espectroscopia:r1:0001:v2 
RHOB     .g/cm3       UNKNOWN        : RHOB:litodensidad:r1:0001:v1 
SFLU     .ohm.m       UNKNOWN        : SFLU:PETROWORKS:rC:NONE:v1 
SP       .mV          UNKNOWN        : SP:resistivos:r1:0001:v1 
THOR     .UNKNOWN     UNKNOWN        : THOR:Espectroscopia:r1:0001:v1 
URAN     .UNKNOWN     UNKNOWN        : URAN:Espectroscopia:r1:0001:v1 
~A     DEPTH         CALI          CGR         DRHO           DT           GR          ILD          LLD          LLS         MSFL         NPHI          PEF         POTA         RHOB         SFLU           SP         THOR         URAN
# ...
   2939.7073       7.3527       1.8623       0.1346      64.8718       6.5086    -999.2500      45.8198      27.3993      18.0661       0.1458       3.2026       0.0001       2.4743    -999.2500      13.4829       0.4811       0.5126
   2939.8596       7.3640       1.7557       0.1374      64.6191       6.8217    -999.2500      42.6891      25.5091       9.0072       0.1493       3.1982       0.0001       2.4719    -999.2500      10.2118       0.4518       0.5718
   2940.0122       7.3666       1.8511       0.1429      64.3794       7.0803    -999.2500      37.6709      22.1543       9.9510       0.1570       3.2378       0.0001       2.4763    -999.2500      11.4469       0.4795       0.5862
   2940.1646       7.3598       2.0349       0.1535      64.3205       7.1886    -999.2500      31.4931      17.8017      25.2804       0.1633       3.3983       0.0001       2.4934    -999.2500      22.0269       0.5293       0.5925
   2940.3169       7.3522       2.6375       0.1310      64.7446       7.2132    -999.2500      25.3144      13.9946      28.5738       0.1641       3.2333       0.0005       2.4629    -999.2500      27.7729       0.5592       0.5067
   2940.4692       7.3511       2.6353       0.1253      66.2667       7.1301    -999.2500      19.1347      10.8849      16.4810       0.1607       3.0929       0.0007       2.4405    -999.2500      35.5251       0.4834       0.5011
   2940.6216       7.3475       2.1254       0.1487      69.8134       6.8967    -999.2500      17.5436      10.2002       8.5785       0.1579       3.1064       0.0007       2.4350    -999.2500      40.8556       0.3275       0.5228
   2940.7742       7.3487       1.3846       0.1654      76.0307       6.6619    -999.2500      17.2589      10.2194       2.5933       0.1597       3.2574       0.0007       2.4561    -999.2500      38.7226       0.1194       0.5861
   2940.9265       7.4261       0.9360       0.1541      81.0530       6.6281    -999.2500      17.7654      10.7292       1.1867       0.1668       3.3464       0.0005       2.4579    -999.2500      36.8489       0.0620       0.6481
   2941.0789       7.5437       0.5156       0.1074      82.3516       6.6895    -999.2500      17.9805      10.8768       1.1599       0.1727       3.2290       0.0002       2.4173    -999.2500      42.3688       0.0815       0.6814
   2941.2312       7.6110       1.5544       0.0815      83.8069       6.8405    -999.2500      17.9241      10.6870       2.4186       0.1806       2.9939       0.0001       2.3634    -999.2500      45.0030       0.3885       0.5889
   2941.3838       7.6715       2.4794       0.0877      84.7810       6.8329    -999.2500      16.7720       9.7064       1.3759       0.1954       2.8158       0.0004       2.3344    -999.2500      46.8495       0.5461       0.4856
   2941.5361       7.7646       2.2428       0.1126      85.1711       6.8690    -999.2500      15.6542       8.8265       0.5503       0.2021       2.8039       0.0008       2.3410    -999.2500      47.1364       0.2995       0.5072
   2941.6885       7.8802       1.7219       0.1364      85.1336       7.1218    -999.2500      15.1410       8.6282       1.4625       0.2171       2.7974       0.0011       2.3181    -999.2500      45.9333       0.0407       0.6044
   2941.8408       7.9895       1.4389       0.1618      85.1555       7.4237    -999.2500      14.0414       7.9718       2.5006       0.2328       2.7266       0.0009       2.2454    -999.2500      41.8841       0.0402       0.6668
   2941.9934       8.0847       1.2228       0.1990      86.0564       7.7592    -999.2500      12.5450       7.0053       3.6239       0.2403       2.6721       0.0008       2.1819    -999.2500      40.0301       0.0422       0.7288
   2942.1458       8.0296       1.4747       0.2214      87.1149       7.2915    -999.2500      12.4599       7.0177       1.9063       0.2527       2.6638       0.0009       2.1650    -999.2500      40.1087       0.0479       0.6671
   2942.2981       7.7968       2.7417       0.2198      86.5017       6.8183    -999.2500      12.6596       7.2276       0.5892       0.2573       2.5745       0.0013       2.1239    -999.2500      42.1895       0.2506       0.4494
   2942.4504       7.5027       4.3888       0.1842      84.7585       6.4184    -999.2500      13.3364       7.7679       0.4247       0.2224       2.2426       0.0017       1.9852    -999.2500      46.0580       0.5557       0.2315
   2942.6028       7.3717       5.7149       0.1489      83.8790       6.1222    -999.2500      13.4051       7.5804       0.2596       0.1872       1.9105       0.0020       1.8460    -999.2500      46.6397       0.8317       0.0385
   2942.7554       7.3670       5.5217       0.1377      83.1629       5.8747    -999.2500      13.1905       7.0663       0.1000       0.1859       1.8384       0.0019       1.8087    -999.2500      46.2624       0.8095       0.0389
   2942.9077       7.3782       3.6921       0.1473      82.6297       5.5767    -999.2500      13.2295       7.2077       0.1000       0.1786       2.1053       0.0012       1.8564    -999.2500      41.6323       0.5747       0.1899
   2943.0601       7.3733       2.6400       0.1561      82.1347       5.4300    -999.2500      12.5626       7.0585       0.1016       0.1733       2.3503       0.0009       1.8902    -999.2500      33.2358       0.3870       0.3119
   2943.2124       7.3863       2.4769       0.1568      81.3245       5.5176    -999.2500      10.8113       6.4628       0.1057       0.1792       2.7470       0.0008       1.9818    -999.2500      33.9730       0.3946       0.3413
   2943.3650       7.4044       3.1422       0.1443      80.0217       5.2873    -999.2500       9.9745       6.1050       0.1344       0.1748       2.9433       0.0010       2.0899    -999.2500      37.8663       0.5136       0.2617
   2943.5173       7.4371       3.7029       0.1155      78.8435       4.9421    -999.2500       9.4597       5.8885       0.1992       0.1653       2.9602       0.0010       2.2516    -999.2500      40.8535       0.6501       0.1375
   2943.6697       7.4910       3.2546       0.1015      78.7500       4.5188    -999.2500       9.1264       6.1703       0.4830       0.1771       2.6684       0.0008       2.2095    -999.2500      45.3342       0.5901       0.1425
   2943.8220       7.6323       2.1015       0.0898      78.6566       4.2207    -999.2500       9.0551       6.2993       1.0875       0.2026       1.8926       0.0005       1.8755    -999.2500      48.0623       0.3844       0.2233
   2943.9746       7.7138       1.3711       0.0944      77.8516       4.0631    -999.2500       9.2756       6.2581       2.0493       0.2214       1.5191       0.0005       1.6683    -999.2500      43.5382       0.1958       0.2969
   2944.1270       7.7491       0.8095       0.1065      75.6584       4.0603    -999.2500       8.4567       5.8602       8.2096       0.2521       1.2943       0.0004       1.5143    -999.2500      39.6787       0.0513       0.3656
   2944.2793       7.7594       0.9740       0.1128      74.2613       4.1144    -999.2500       7.5463       5.4661      33.9285       0.2866       1.3329       0.0006       1.5219    -999.2500      33.8108       0.0277       0.3474
   2944.4316       7.7704       1.7754       0.1176      75.5134       4.2759    -999.2500       7.1293       5.3892     137.4613       0.3030       1.4390       0.0012       1.5524    -999.2500      29.6016       0.0209       0.2870
   2944.5840       7.7773       1.8962       0.1234      76.5855       4.5351    -999.2500       6.4862       4.8441     145.3730       0.3018       1.5377       0.0013       1.5712    -999.2500      27.9016       0.0208       0.2717
   2944.7366       7.7813       1.7281       0.1486      75.6139       4.8743    -999.2500       5.6593       3.9188      75.6088       0.2914       1.9670       0.0012       1.6954    -999.2500      29.7631       0.0284       0.3481
   2944.8889       7.7851       1.4939       0.1625      74.3142       5.1316    -999.2500       5.6671       3.8952      53.0269       0.2900       2.2214       0.0010       1.7844    -999.2500      30.3751       0.0283       0.4115
