#------------------------------------------------------------------------------
#
#   Created by  : [OpenWorks] Log Export Utility (LEXP)
#   Created on  : 2016-05-18 16:36:11
#   Project     : CANT971
#   User        : R5K
#   Interpreter : PEP
#
#------------------------------------------------------------------------------
~VERSION INFORMATION
VERS. 2.0 : CWLS Log ASCII Standard - version 2.0
WRAP.  NO : One line per depth step
~WELL INFORMATION
#MNEMONIC   .UNIT                                           VALUE :DESCRIPTION
#------------------------------------------------------------------------------
STRT        .M                                           551.6884 :START DEPTH
STOP        .M                                          3669.7925 :STOP DEPTH
STEP        .M                                             0.1524 :STEP
NULL        .                                           -999.2500 :NULL VALUE
COMP        .                                   PEMEX EXPL & PROD :COMPANY
WELL        .                                                2279 :WELL
FLD         .                                           CANTARELL :FIELD
LOC         .                                             UNKNOWN :LOCATION
CNTY        .                                      CD. DEL CARMEN :COUNTY
STAT        .                                            CAMPECHE :STATE
CTRY        .                                              MEXICO :COUNTRY
SRVC        .                                             UNKNOWN :SERVICE COMPANY
DATE        .                                             UNKNOWN :LOG DATE
UWI         .                                          3060000233 :UNIQUE WELL ID
XCOORD      .                                       600028.030000 :SURFACE X
YCOORD      .                                      2139445.390000 :SURFACE Y
LAT         .                                           19.347676 :LATITUDE
LON         .                                          -92.047667 :LONGITUDE
ELEV        .M                                            27.4000 :SURFACE ELEV
ELEV_TYPE   .                                                  KB :ELEV TYPE
~CURVE INFORMATION
#MNEMONIC.UNIT        API CODE       : CURVE DESCRIPTION
#------------------------------------------------------------------------------
DEPTH    .M                          : Measured Depth
CALI     .inches      UNKNOWN        : CALI:registros:rC:NONE:v0 (auto-composite)
DT       .UNKNOWN     UNKNOWN        : DT:registros:rC:NONE:v0 (auto-composite)
GR       .API         UNKNOWN        : GR:registros:rC:NONE:v0 (auto-composite)
ILD      .ohm.m       UNKNOWN        : ILD:registros:rC:NONE:v0 (auto-composite)
LLD      .ohm.m       UNKNOWN        : LLD:registros:rC:NONE:v0 (auto-composite)
LLS      .ohm.m       UNKNOWN        : LLS:registros:rC:NONE:v0 (auto-composite)
MSFL     .ohm.m       UNKNOWN        : MSFL:registros:rC:NONE:v0 (auto-composite)
NPHI     .UNKNOWN     UNKNOWN        : NPHI:registros:rC:NONE:v0 (auto-composite)
RHOB     .g/cm3       UNKNOWN        : RHOB:registros:rC:NONE:v0 (auto-composite)
~A     DEPTH         CALI           DT           GR          ILD          LLD          LLS         MSFL         NPHI         RHOB
# ...
   3235.1477       8.5600      85.5880      33.3000    -999.2500     250.9680     174.2450       2.1410       0.0706       2.7600
   3235.3000       8.5761      79.5305      32.7027    -999.2500     222.3533     167.2296       2.2474       0.0682       2.7600
   3235.4524       8.5920      73.4800      32.1090    -999.2500     194.0000     160.2560       2.3530       0.0649       2.7600
   3235.6047       8.6522      66.1862      30.0405    -999.2500     207.0588     153.8022       2.6074       0.0610       2.7550
   3235.7573       8.7120      58.9000      27.9840    -999.2500     220.0000     147.3860       2.8600       0.0557       2.7500
   3235.9097       8.7461      60.5202      27.1677    -999.2500     219.0001     136.3219       2.7782       0.0485       2.7500
   3236.0620       8.7800      62.1390      26.3560    -999.2500     218.0090     125.3210       2.6970       0.0396       2.7500
   3236.2144       8.7910      67.1215      25.4796    -999.2500     207.0666     109.2828       2.1465       0.0290       2.7651
   3236.3667       8.8020      72.1000      24.6080    -999.2500     196.2200      93.3340       1.6000       0.0205       2.7800
   3236.5193       8.8387      71.4308      23.2157    -999.2500     157.1216      77.1128       1.6000       0.0179       2.7740
   3236.6716       8.8750      70.7620      21.8310    -999.2500     118.3610      60.9800       1.6000       0.0186       2.7680
   3236.8240       8.8825      67.0300      20.5250    -999.2500      80.5698      43.8444       1.6100       0.0201       2.7389
   3236.9763       8.8900      63.3000      19.2260    -999.2500      43.1000      26.8000       1.6200       0.0227       2.7100
   3237.1289       8.8900      64.1882      18.1853    -999.2500      44.3663      27.0441       2.1719       0.0268       2.7100
   3237.2812       8.8900      65.0760      17.1500    -999.2500      45.6220      27.2870       2.7200       0.0332       2.7100
   3237.4336       8.8900      67.8519      16.2452    -999.2500      57.8113      31.4039       2.1682       0.0425       2.7075
   3237.5859       8.8900      70.6270      15.3450    -999.2500      69.9000      35.5000       1.6200       0.0499       2.7050
   3237.7385       8.8900      76.0683      13.7686    -999.2500      69.7213      35.4619       1.6491       0.0502       2.6950
   3237.8909       8.8900      81.5000      12.2000    -999.2500      69.5440      35.4240       1.6780       0.0479       2.6850
   3238.0432       8.8900      79.4078      12.2506    -999.2500      67.6574      33.3846       1.7994       0.0471       2.6524
   3238.1956       8.8900      77.3190      12.3010    -999.2500      65.7860      31.3550       1.9200       0.0473       2.6200
   3238.3479       8.8900      63.5991      12.7450    -999.2500      59.1584      26.0380       2.2262       0.0477       2.6215
   3238.5005       8.8900      49.9000      13.1870    -999.2500      52.5830      20.7460       2.5300       0.0487       2.6230
   3238.6528       8.8900      50.9112      14.0462    -999.2500      44.9895      18.6372       2.4693       0.0505       2.6305
   3238.8052       8.8900      51.9210      14.9000    -999.2500      37.4670      16.5380       2.4090       0.0532       2.6380
   3238.9575       8.8900      55.1625      14.6031    -999.2500      35.3186      16.0494       2.1460       0.0564       2.6591
   3239.1101       8.8900      58.4000      14.3080    -999.2500      33.1900      15.5630       1.8850       0.0591       2.6800
   3239.2625       8.8900      56.3488      12.6992    -999.2500      31.8479      15.1302       1.6315       0.0600       2.6499
   3239.4148       8.8900      54.3000      11.1000    -999.2500      30.5180      14.7000       1.3800       0.0598       2.6200
   3239.5671       8.8348      54.4301      11.1782    -999.2500      29.5547      14.9126       2.0174       0.0593       2.6200
   3239.7197       8.7800      54.5600      11.2560    -999.2500      28.6000      15.1240       2.6500       0.0581       2.6200
   3239.8721       8.7800      55.0302      11.6877    -999.2500      31.4125      16.9316       2.4041       0.0558       2.6250
   3240.0244       8.7800      55.5000      12.1170    -999.2500      34.2000      18.7290       2.1600       0.0524       2.6300
   3240.1768       8.7800      54.5496      12.7101    -999.2500      52.5380      26.5918       2.3306       0.0482       2.6516
   3240.3291       8.7800      53.6000      13.3000    -999.2500      70.7160      34.4110       2.5000       0.0432       2.6730
   3240.4817       8.7800      53.9946      13.3000    -999.2500     201.4205     131.9701       2.2190       0.0375       2.6931
   3240.6340       8.7800      54.3890      13.3000    -999.2500     331.0000     229.0000       1.9400       0.0316       2.7130
   3240.7864       8.7800      55.8654      14.0961    -999.2500     327.9872     219.4748       1.9882       0.0257       2.7180
   3240.9387       8.7800      57.3410      14.8880    -999.2500     325.0000     210.0000       2.0360       0.0214       2.7230
   3241.0913       8.7800      58.3707      17.0997    -999.2500     325.0000     210.0000       2.1835       0.0200       2.7265
   3241.2437       8.7800      59.4000      19.3000    -999.2500     325.0000     210.0000       2.3300       0.0200       2.7300
   3241.3960       8.7800      59.1865      20.1832    -999.2500     305.7297     197.3466       2.2698       0.0200       2.7300
   3241.5483       8.7800      58.9730      21.0620    -999.2500     286.6180     184.7570       2.2100       0.0200       2.7300
   3241.7009       8.7800      56.9848      24.9907    -999.2500     230.6546     153.9998       2.2697       0.0200       2.7325
   3241.8533       8.7800      55.0000      28.9000    -999.2500     175.1450     123.3940       2.3290       0.0201       2.7350
   3242.0056       8.7800      56.7514      28.3071    -999.2500     129.4402     112.5109       2.5327       0.0204       2.7526
   3242.1580       8.7800      58.5000      27.7180    -999.2500      84.1000     101.6800       2.7350       0.0216       2.7700
   3242.3103       8.7800      57.7565      25.7378    -999.2500      84.1000      94.4676       2.8730       0.0244       2.7645
   3242.4629       8.7800      57.0140      23.7700    -999.2500      84.1000      87.2890       3.0100       0.0294       2.7590
   3242.6152       8.7800      51.8535      22.3471    -999.2500      79.9989      82.3142       3.0020       0.0377       2.7404
   3242.7676       8.7800      46.7000      20.9330    -999.2500      75.9360      77.3620       2.9940       0.0491       2.7220
   3242.9199       8.7800      46.8001      18.8101    -999.2500      62.3028      66.1748       2.9097       0.0638       2.7009
   3243.0725       8.7800      46.9000      16.7000    -999.2500      48.7950      55.0370       2.8260       0.0825       2.6800
   3243.2249       8.7800      46.7999      17.3444    -999.2500      36.5690      44.7632       2.2408       0.1060       2.6850
   3243.3772       8.7800      46.7000      17.9850    -999.2500      24.4540      34.5500       1.6600       0.1316       2.6900
   3243.5295       8.7951      47.0852      19.9045    -999.2500      16.1900      22.7410       1.7438       0.1570       2.6499
   3243.6821       8.8100      47.4700      21.8130    -999.2500       8.0000      11.0000       1.8270       0.1769       2.6100
   3243.8345       8.8502      48.4854      22.3580    -999.2500       8.0000      11.0000       2.0894       0.1860       2.6100
   3243.9868       8.8900      49.5000      22.9000    -999.2500       8.0000      11.0000       2.3500       0.1872       2.6100
   3244.1392       8.8900      49.2999      23.4285    -999.2500       9.2128      12.2199       2.3796       0.1824       2.6185
   3244.2915       8.8900      49.1000      23.9540    -999.2500      10.4150      13.4330       2.4090       0.1699       2.6270
   3244.4441       8.8900      49.6847      25.8606    -999.2500      25.8738      27.1535       2.6554       0.1474       2.6556
