#------------------------------------------------------------------------------
#
#   Created by  : [OpenWorks] Log Export Utility (LEXP)
#   Created on  : 2016-05-18 16:36:11
#   Project     : CANT971
#   User        : R5K
#   Interpreter : PEP
#
#------------------------------------------------------------------------------
~VERSION INFORMATION
VERS. 2.0 : CWLS Log ASCII Standard - version 2.0
WRAP.  NO : One line per depth step
~WELL INFORMATION
#MNEMONIC   .UNIT                                           VALUE :DESCRIPTION
#------------------------------------------------------------------------------
STRT        .M                                           551.6884 :START DEPTH
STOP        .M                                          3669.7925 :STOP DEPTH
STEP        .M                                             0.1524 :STEP
NULL        .                                           -999.2500 :NULL VALUE
COMP        .                                   PEMEX EXPL & PROD :COMPANY
WELL        .                                                2279 :WELL
FLD         .                                           CANTARELL :FIELD
LOC         .                                             UNKNOWN :LOCATION
CNTY        .                                      CD. DEL CARMEN :COUNTY
STAT        .                                            CAMPECHE :STATE
CTRY        .                                              MEXICO :COUNTRY
SRVC        .                                             UNKNOWN :SERVICE COMPANY
DATE        .                                             UNKNOWN :LOG DATE
UWI         .                                          3060000233 :UNIQUE WELL ID
XCOORD      .                                       600028.030000 :SURFACE X
YCOORD      .                                      2139445.390000 :SURFACE Y
LAT         .                                           19.347676 :LATITUDE
LON         .                                          -92.047667 :LONGITUDE
ELEV        .M                                            27.4000 :SURFACE ELEV
ELEV_TYPE   .                                                  KB :ELEV TYPE
~CURVE INFORMATION
#MNEMONIC.UNIT        API CODE       : CURVE DESCRIPTION
#------------------------------------------------------------------------------
DEPTH    .M                          : Measured Depth
CALI     .inches      UNKNOWN        : CALI:registros:rC:NONE:v0 (auto-composite)
DT       .UNKNOWN     UNKNOWN        : DT:registros:rC:NONE:v0 (auto-composite)
GR       .API         UNKNOWN        : GR:registros:rC:NONE:v0 (auto-composite)
ILD      .ohm.m       UNKNOWN        : ILD:registros:rC:NONE:v0 (auto-composite)
LLD      .ohm.m       UNKNOWN        : LLD:registros:rC:NONE:v0 (auto-composite)
LLS      .ohm.m       UNKNOWN        : LLS:registros:rC:NONE:v0 (auto-composite)
MSFL     .ohm.m       UNKNOWN        : MSFL:registros:rC:NONE:v0 (auto-composite)
NPHI     .UNKNOWN     UNKNOWN        : NPHI:registros:rC:NONE:v0 (auto-composite)
RHOB     .g/cm3       UNKNOWN        : RHOB:registros:rC:NONE:v0 (auto-composite)
~A     DEPTH         CALI           DT           GR          ILD          LLD          LLS         MSFL         NPHI         RHOB
# ...
   3017.8252       9.7440      65.0550      31.8000    -999.2500       6.6550       7.8300       2.8600       0.1319       2.6400
   3017.9775       9.7621      67.2286      32.4549    -999.2500       7.0898       8.6968       2.7586       0.1331       2.6400
   3018.1301       9.7800      69.4000      33.1060    -999.2500       7.5200       9.5600       2.6580       0.1399       2.6400
   3018.2825       9.7800      67.7223      34.6504    -999.2500       7.1270       9.4346       2.4204       0.1551       2.6049
   3018.4348       9.7800      66.0460      36.1860    -999.2500       6.7380       9.3100       2.1850       0.1680       2.5700
   3018.5872       9.7800      61.6213      37.4776    -999.2500       5.7891       7.7356       1.8109       0.1676       2.5700
   3018.7395       9.7800      57.2000      38.7620    -999.2500       4.8500       6.1700       1.4400       0.1592       2.5700
   3018.8921       9.7800      58.7640      39.8364    -999.2500       5.2470       6.3194       1.7664       0.1463       2.5866
   3019.0444       9.7800      60.3270      40.9050    -999.2500       5.6400       6.4680       2.0900       0.1324       2.6030
   3019.1968       9.7800      63.8644      41.5542    -999.2500       5.1978       6.8821       2.0850       0.1205       2.6266
   3019.3491       9.7800      67.4000      42.2000    -999.2500       4.7600       7.2940       2.0800       0.1099       2.6500
   3019.5017       9.7248      67.0499      41.1473    -999.2500       5.1921       7.7662       2.1066       0.0999       2.6349
   3019.6541       9.6700      66.7000      40.1000    -999.2500       5.6200       8.2360       2.1330       0.0928       2.6200
   3019.8064       9.6700      68.1502      40.1627    -999.2500       6.6887       9.0014       2.2123       0.0913       2.6260
   3019.9587       9.6700      69.6000      40.2250    -999.2500       7.7470       9.7630       2.2910       0.0929       2.6320
   3020.1113       9.6700      68.9965      41.2149    -999.2500       9.1302      11.0346       2.4511       0.0958       2.6451
   3020.2637       9.6700      68.3930      42.2000    -999.2500      10.5000      12.3000       2.6100       0.0993       2.6580
   3020.4160       9.6700      67.3170      41.9071    -999.2500      10.2372      11.7487       2.4945       0.1030       2.6690
   3020.5684       9.6700      66.2410      41.6160    -999.2500       9.9770      11.2000       2.3800       0.1064       2.6800
   3020.7207       9.6489      64.9786      40.6399    -999.2500       8.6713      11.3002       2.3905       0.1093       2.6760
   3020.8733       9.6280      63.7160      39.6700    -999.2500       7.3800      11.4000       2.4010       0.1118       2.6720
   3021.0256       9.5336      56.2589      38.7321    -999.2500       8.1039      11.3790       2.4908       0.1142       2.6559
   3021.1780       9.4400      48.8000      37.8000    -999.2500       8.8200      11.3580       2.5800       0.1162       2.6400
   3021.3303       9.4400      52.9992      38.1591    -999.2500       8.7451      10.8474       2.5735       0.1176       2.6450
   3021.4829       9.4400      57.2000      38.5160    -999.2500       8.6710      10.3390       2.5670       0.1190       2.6500
   3021.6353       9.4400      54.6007      39.3479    -999.2500       8.2880       9.5784       2.5083       0.1211       2.6450
   3021.7876       9.4400      52.0000      40.1750    -999.2500       7.9090       8.8210       2.4500       0.1235       2.6400
   3021.9399       9.4400      53.1015      40.6388    -999.2500       7.4973       8.5124       2.4711       0.1258       2.6465
   3022.0925       9.4400      54.2020      41.1000    -999.2500       7.0900       8.2050       2.4920       0.1270       2.6530
   3022.2449       9.4636      55.8292      40.5986    -999.2500       7.1403       7.8966       2.6015       0.1260       2.6615
   3022.3972       9.4870      57.4550      40.1000    -999.2500       7.1900       7.5900       2.7100       0.1247       2.6700
   3022.5496       9.5232      58.2453      41.1529    -999.2500       7.1116       7.9560       2.6774       0.1250       2.6635
   3022.7019       9.5590      59.0350      42.2000    -999.2500       7.0340       8.3200       2.6450       0.1257       2.6570
   3022.8545       9.5861      60.1878      42.0290    -999.2500       6.9033       8.2112       2.5471       0.1255       2.6384
   3023.0068       9.6130      61.3400      41.8590    -999.2500       6.7740       8.1030       2.4500       0.1253       2.6200
   3023.1592       9.6416      61.9201      40.9270    -999.2500       6.7318       7.8308       2.4836       0.1259       2.6200
   3023.3115       9.6700      62.5000      40.0000    -999.2500       6.6900       7.5600       2.5170       0.1268       2.6200
   3023.4641       9.6700      62.8286      40.3870    -999.2500       6.7201       7.6282       2.5637       0.1281       2.6220
   3023.6165       9.6700      63.1570      40.7720    -999.2500       6.7500       7.6960       2.6100       0.1292       2.6240
   3023.7688       9.6700      63.5440      41.3735    -999.2500       6.8671       7.9867       2.5477       0.1297       2.6270
   3023.9211       9.6700      63.9310      41.9720    -999.2500       6.9830       8.2760       2.4860       0.1298       2.6300
   3024.0737       9.6700      64.4095      42.0863    -999.2500       7.0870       8.6494       2.2822       0.1296       2.6300
   3024.2261       9.6700      64.8880      42.2000    -999.2500       7.1900       9.0210       2.0800       0.1287       2.6300
   3024.3784       9.6590      65.2955      42.2000    -999.2500       7.3462       9.2992       2.0951       0.1268       2.6200
   3024.5308       9.6480      65.7030      42.2000    -999.2500       7.5010       9.5760       2.1100       0.1238       2.6100
   3024.6831       9.6033      66.2015      42.0475    -999.2500       8.1767      10.1949       2.2204       0.1193       2.6100
   3024.8357       9.5590      66.7000      41.8960    -999.2500       8.8450      10.8110       2.3300       0.1153       2.6100
   3024.9880       9.4993      66.5915      40.4937    -999.2500      10.0963      11.9225       2.1844       0.1144       2.6150
   3025.1404       9.4400      66.4830      39.1000    -999.2500      11.3340      13.0290       2.0400       0.1157       2.6200
   3025.2927       9.4400      66.0357      39.1000    -999.2500      12.2218      14.5679       2.1153       0.1189       2.6150
   3025.4453       9.4400      65.5890      39.1000    -999.2500      13.1000      16.1000       2.1900       0.1217       2.6100
   3025.5977       9.4400      64.9977      39.6260    -999.2500      12.6476      15.2977       2.0946       0.1215       2.6100
   3025.7500       9.4400      64.4070      40.1490    -999.2500      12.2000      14.5000       2.0000       0.1197       2.6100
   3025.9023       9.4400      63.7802      41.1123    -999.2500      13.1972      15.4342       2.0677       0.1175       2.6165
   3026.0549       9.4400      63.1540      42.0700    -999.2500      14.1840      16.3630       2.1350       0.1162       2.6230
   3026.2073       9.4400      62.4267      43.9904    -999.2500      17.1358      21.7466       2.3063       0.1176       2.6365
   3026.3596       9.4400      61.7000      45.9000    -999.2500      20.0570      27.1000       2.4760       0.1213       2.6500
   3026.5120       9.4400      61.8501      45.3470    -999.2500      22.3402      26.2482       2.5900       0.1272       2.6450
   3026.6643       9.4400      62.0000      44.7970    -999.2500      24.6000      25.4010       2.7030       0.1339       2.6400
   3026.8169       9.4400      61.9560      43.6981    -999.2500      22.8190      23.1139       2.7818       0.1403       2.6450
   3026.9692       9.4400      61.9120      42.6050    -999.2500      21.0560      20.8390       2.8600       0.1459       2.6500
   3027.1216       9.4400      61.5899      40.9482    -999.2500      18.1078      17.4105       2.8464       0.1501       2.6455
