#------------------------------------------------------------------------------
#
#   Created by  : [OpenWorks] Log Export Utility (LEXP)
#   Created on  : 2016-05-18 16:36:11
#   Project     : CANT971
#   User        : R5K
#   Interpreter : PEP
#
#------------------------------------------------------------------------------
~VERSION INFORMATION
VERS. 2.0 : CWLS Log ASCII Standard - version 2.0
WRAP.  NO : One line per depth step
~WELL INFORMATION
#MNEMONIC   .UNIT                                           VALUE :DESCRIPTION
#------------------------------------------------------------------------------
STRT        .M                                           551.6884 :START DEPTH
STOP        .M                                          3669.7925 :STOP DEPTH
STEP        .M                                             0.1524 :STEP
NULL        .                                           -999.2500 :NULL VALUE
COMP        .                                   PEMEX EXPL & PROD :COMPANY
WELL        .                                                2279 :WELL
FLD         .                                           CANTARELL :FIELD
LOC         .                                             UNKNOWN :LOCATION
CNTY        .                                      CD. DEL CARMEN :COUNTY
STAT        .                                            CAMPECHE :STATE
CTRY        .                                              MEXICO :COUNTRY
SRVC        .                                             UNKNOWN :SERVICE COMPANY
DATE        .                                             UNKNOWN :LOG DATE
UWI         .                                          3060000233 :UNIQUE WELL ID
XCOORD      .                                       600028.030000 :SURFACE X
YCOORD      .                                      2139445.390000 :SURFACE Y
LAT         .                                           19.347676 :LATITUDE
LON         .                                          -92.047667 :LONGITUDE
ELEV        .M                                            27.4000 :SURFACE ELEV
ELEV_TYPE   .                                                  KB :ELEV TYPE
~CURVE INFORMATION
#MNEMONIC.UNIT        API CODE       : CURVE DESCRIPTION
#------------------------------------------------------------------------------
DEPTH    .M                          : Measured Depth
CALI     .inches      UNKNOWN        : CALI:registros:rC:NONE:v0 (auto-composite)
DT       .UNKNOWN     UNKNOWN        : DT:registros:rC:NONE:v0 (auto-composite)
GR       .API         UNKNOWN        : GR:registros:rC:NONE:v0 (auto-composite)
ILD      .ohm.m       UNKNOWN        : ILD:registros:rC:NONE:v0 (auto-composite)
LLD      .ohm.m       UNKNOWN        : LLD:registros:rC:NONE:v0 (auto-composite)
LLS      .ohm.m       UNKNOWN        : LLS:registros:rC:NONE:v0 (auto-composite)
MSFL     .ohm.m       UNKNOWN        : MSFL:registros:rC:NONE:v0 (auto-composite)
NPHI     .UNKNOWN     UNKNOWN        : NPHI:registros:rC:NONE:v0 (auto-composite)
RHOB     .g/cm3       UNKNOWN        : RHOB:registros:rC:NONE:v0 (auto-composite)
~A     DEPTH         CALI           DT           GR          ILD          LLD          LLS         MSFL         NPHI         RHOB
# ...
   3121.7620       8.8900      85.1000       8.8900    -999.2500   10514.1777     472.5590       2.8600       0.1028       2.7300
   3121.9143       8.9402      73.2916       9.3800    -999.2500    8706.8994     425.3328       2.8600       0.1015       2.7099
   3122.0669       8.9900      61.5000       9.8670    -999.2500    6916.5928     378.3250       2.8600       0.1001       2.6900
   3122.2192       8.9398      67.5539      10.3891    -999.2500    5655.3345     328.0670       2.8761       0.1012       2.6649
   3122.3716       8.8900      73.6000      10.9080    -999.2500    4405.7720     278.0350       2.8920       0.1025       2.6400
   3122.5239       8.9101      68.2514      11.0043    -999.2500    3800.2593     244.9857       2.9407       0.1043       2.6450
   3122.6765       8.9300      62.9090      11.1000    -999.2500    3200.2820     212.0810       2.9890       0.1063       2.6500
   3122.8289       8.9596      61.6038      11.4255    -999.2500    2835.6448     189.5828       3.0482       0.1091       2.6450
   3122.9812       8.9890      60.3000      11.7490    -999.2500    2474.2981     167.2160       3.1070       0.1118       2.6400
   3123.1335       9.0447      65.7025      11.9471    -999.2500    2233.9800     145.5852       3.1386       0.1112       2.6480
   3123.2861       9.1000      71.1000      12.1440    -999.2500    1995.7990     124.0780       3.1700       0.1102       2.6560
   3123.4385       9.0498      69.6359      12.6203    -999.2500    1892.4460     103.6123       3.0144       0.1067       2.6781
   3123.5908       9.0000      68.1730      13.0940    -999.2500    1790.0000      83.2610       2.8600       0.1033       2.7000
   3123.7432       9.0000      64.2352      13.3978    -999.2500    1802.2653      58.8413       2.8846       0.1034       2.6849
   3123.8955       9.0000      60.3000      13.7000    -999.2500    1814.4050      34.5550       2.9090       0.1039       2.6700
   3124.0481       8.9754      60.8712      13.4548    -999.2500    3076.0139      22.2175       2.9145       0.1059       2.6740
   3124.2004       8.9510      61.4420      13.2110    -999.2500    4324.8730       9.9460       2.9200       0.1078       2.6780
   3124.3528       8.9204      62.2247      12.7869    -999.2500    8533.4561       7.6219       2.7243       0.1064       2.6830
   3124.5051       8.8900      63.0070      12.3650    -999.2500   12699.9971       5.3100       2.5300       0.1048       2.6880
   3124.6577       8.8900      65.1988      11.8311    -999.2500   12046.7793       4.8533       2.6681       0.1039       2.6890
   3124.8101       8.8900      67.3900      11.3000    -999.2500   11400.0000       4.3990       2.8050       0.1032       2.6900
   3124.9624       8.9352      67.9270      10.8709    -999.2500   11400.0000       4.1248       3.0133       0.1046       2.6820
   3125.1147       8.9800      68.4640      10.4440    -999.2500   11400.0000       3.8520       3.2200       0.1065       2.6740
   3125.2673       8.9900      81.3323       9.3594    -999.2500   11890.1064       3.6756       3.0092       0.1108       2.6519
   3125.4197       9.0000      94.2000       8.2800    -999.2500   12375.5039       3.5000       2.8000       0.1150       2.6300
   3125.5720       9.0000      82.1505       9.1533    -999.2500   13694.0107       3.6874       2.8050       0.1161       2.6425
   3125.7244       9.0000      70.1000      10.0210    -999.2500   15000.0020       3.8740       2.8100       0.1169       2.6550
   3125.8767       9.0000      73.5024      10.5622    -999.2500   13649.9912       3.9822       2.7769       0.1158       2.6625
   3126.0293       9.0000      76.9000      11.1000    -999.2500   12312.6172       4.0900       2.7440       0.1145       2.6700
   3126.1816       9.0000      65.7929      10.5483    -999.2500   11603.0303       3.7322       2.6115       0.1122       2.6600
   3126.3340       9.0000      54.7000      10.0000    -999.2500   10900.0029       3.3760       2.4800       0.1098       2.6500
   3126.4863       9.0000      54.9001      10.1655    -999.2500   11877.0859       2.9571       2.5989       0.1064       2.6500
   3126.6389       9.0000      55.1000      10.3300    -999.2500   12845.2656       2.5400       2.7170       0.1035       2.6500
   3126.7913       9.0000      53.2491      10.6549    -999.2500   14128.4062       2.5601       2.8505       0.1060       2.6450
   3126.9436       9.0000      51.4000      10.9780    -999.2500   15400.0068       2.5800       2.9830       0.1087       2.6400
   3127.0959       9.0000      52.1864      11.4127    -999.2500   13943.5508       2.4160       3.0166       0.1086       2.6400
   3127.2485       9.0000      52.9720      11.8450    -999.2500   12500.0020       2.2530       3.0500       0.1082       2.6400
   3127.4009       9.0000      53.1361      12.4627    -999.2500   13077.0557       2.0309       3.0299       0.1076       2.6400
   3127.5532       9.0000      53.3000      13.0770    -999.2500   13649.0635       1.8100       3.0100       0.1075       2.6400
   3127.7056       9.0000      53.3000      13.7403    -999.2500   15785.4336       2.0256       3.0100       0.1132       2.6249
   3127.8579       9.0000      53.3000      14.4000    -999.2500   17899.9961       2.2400       3.0100       0.1192       2.6100
   3128.0105       9.0000      53.5491      14.2336    -999.2500   17548.2246       2.3754       2.9849       0.1227       2.6100
   3128.1628       9.0000      53.7980      14.0680    -999.2500   17199.9980       2.5100       2.9600       0.1252       2.6100
   3128.3152       9.0000      57.3042      13.6830    -999.2500   17451.2480       2.2543       2.9098       0.1189       2.6140
   3128.4675       9.0000      60.8090      13.3000    -999.2500   17699.9941       2.0000       2.8600       0.1121       2.6180
   3128.6201       9.0000      68.7056      13.3000    -999.2500   17237.0293       2.3058       2.8600       0.1074       2.6190
   3128.7725       9.0000      76.6000      13.3000    -999.2500   16778.6152       2.6100       2.8600       0.1036       2.6200
   3128.9248       8.9538      75.7234      13.8022    -999.2500   15105.5596       2.4245       3.0156       0.1059       2.6200
   3129.0771       8.9080      74.8470      14.3020    -999.2500   13448.7490       2.2400       3.1700       0.1089       2.6200
   3129.2297       8.8864      74.3395      15.2388    -999.2500   10520.2236       2.3603       3.1534       0.1128       2.6326
   3129.3821       8.8650      73.8320      16.1710    -999.2500    7619.7480       2.4800       3.1370       0.1164       2.6450
   3129.5344       8.8223      64.1165      18.5174    -999.2500    5512.8579       2.2625       3.0532       0.1173       2.6601
   3129.6868       8.7800      54.4000      20.8490    -999.2500    3425.9021       2.0460       2.9700       0.1176       2.6750
   3129.8391       8.7800      63.5407      23.7554    -999.2500    2672.8860       1.8240       2.5684       0.1134       2.6860
   3129.9917       8.7800      72.6690      26.6440    -999.2500    1926.8950       1.6030       2.1700       0.1085       2.6970
   3130.1440       8.8222      76.6180      29.3953    -999.2500    1822.9688       1.5364       2.4295       0.1011       2.7111
   3130.2964       8.8640      80.5620      32.1300    -999.2500    1720.0000       1.4700       2.6870       0.0935       2.7250
   3130.4487       8.8760      88.2353      34.6314    -999.2500    1881.8835       1.5822       2.7773       0.0853       2.7401
   3130.6013       8.8880      95.9000      37.1180    -999.2500    2042.2970       1.6940       2.8670       0.0772       2.7550
   3130.7537       8.8890      89.4613      38.6068    -999.2500    2421.4141       1.7973       2.9137       0.0691       2.7701
   3130.9060       8.8900      83.0290      40.0870    -999.2500    2797.1331       1.9000       2.9600       0.0612       2.7850
   3131.0583       8.8900      68.9584      41.3972    -999.2500    2974.3491       1.8744       2.9550       0.0555       2.7875
