#------------------------------------------------------------------------------
#
#   Created by  : [OpenWorks] Log Export Utility (LEXP)
#   Created on  : 2016-05-18 16:36:11
#   Project     : CANT971
#   User        : R5K
#   Interpreter : PEP
#
#------------------------------------------------------------------------------
~VERSION INFORMATION
VERS. 2.0 : CWLS Log ASCII Standard - version 2.0
WRAP.  NO : One line per depth step
~WELL INFORMATION
#MNEMONIC   .UNIT                                           VALUE :DESCRIPTION
#------------------------------------------------------------------------------
STRT        .M                                           551.6884 :START DEPTH
STOP        .M                                          3669.7925 :STOP DEPTH
STEP        .M                                             0.1524 :STEP
NULL        .                                           -999.2500 :NULL VALUE
COMP        .                                   PEMEX EXPL & PROD :COMPANY
WELL        .                                                2279 :WELL
FLD         .                                           CANTARELL :FIELD
LOC         .                                             UNKNOWN :LOCATION
CNTY        .                                      CD. DEL CARMEN :COUNTY
STAT        .                                            CAMPECHE :STATE
CTRY        .                                              MEXICO :COUNTRY
SRVC        .                                             UNKNOWN :SERVICE COMPANY
DATE        .                                             UNKNOWN :LOG DATE
UWI         .                                          3060000233 :UNIQUE WELL ID
XCOORD      .                                       600028.030000 :SURFACE X
YCOORD      .                                      2139445.390000 :SURFACE Y
LAT         .                                           19.347676 :LATITUDE
LON         .                                          -92.047667 :LONGITUDE
ELEV        .M                                            27.4000 :SURFACE ELEV
ELEV_TYPE   .                                                  KB :ELEV TYPE
~CURVE INFORMATION
#MNEMONIC.UNIT        API CODE       : CURVE DESCRIPTION
#------------------------------------------------------------------------------
DEPTH    .M                          : Measured Depth
CALI     .inches      UNKNOWN        : CALI:registros:rC:NONE:v0 (auto-composite)
DT       .UNKNOWN     UNKNOWN        : DT:registros:rC:NONE:v0 (auto-composite)
GR       .API         UNKNOWN        : GR:registros:rC:NONE:v0 (auto-composite)
ILD      .ohm.m       UNKNOWN        : ILD:registros:rC:NONE:v0 (auto-composite)
LLD      .ohm.m       UNKNOWN        : LLD:registros:rC:NONE:v0 (auto-composite)
LLS      .ohm.m       UNKNOWN        : LLS:registros:rC:NONE:v0 (auto-composite)
MSFL     .ohm.m       UNKNOWN        : MSFL:registros:rC:NONE:v0 (auto-composite)
NPHI     .UNKNOWN     UNKNOWN        : NPHI:registros:rC:NONE:v0 (auto-composite)
RHOB     .g/cm3       UNKNOWN        : RHOB:registros:rC:NONE:v0 (auto-composite)
~A     DEPTH         CALI           DT           GR          ILD          LLD          LLS         MSFL         NPHI         RHOB
# ...
   3178.4548       8.8900      47.4640      16.1000    -999.2500    5432.9932       5.5720       2.8600       0.0490       2.7300
   3178.6072       8.8910      46.3817      16.1040    -999.2500    4001.5305       5.0210       2.8600       0.0500       2.7400
   3178.7595       8.8920      45.3000      16.1080    -999.2500    2582.1870       4.4730       2.8600       0.0493       2.7500
   3178.9121       8.9317      45.3145      16.2865    -999.2500    1686.3541       3.4614       2.8600       0.0467       2.7495
   3179.0645       8.9710      45.3290      16.4640    -999.2500     798.0000       2.4550       2.8600       0.0442       2.7490
   3179.2168       8.9876      45.8856      17.6630    -999.2500     805.9771       1.5602       2.8595       0.0436       2.7385
   3179.3691       9.0040      46.4420      18.8560    -999.2500     813.8760       0.6700       2.8590       0.0469       2.7280
   3179.5217       9.1124      47.2390      19.8956    -999.2500    1234.3676       0.6825       2.8444       0.0588       2.6788
   3179.6741       9.2200      48.0360      20.9300    -999.2500    1650.7889       0.6950       2.8300       0.0706       2.6300
   3179.8264       9.2180      50.3805      23.8242    -999.2500    2755.9919       2.9830       2.8752       0.0738       2.6315
   3179.9788       9.2160      52.7250      26.7000    -999.2500    3850.6260       5.2600       2.9200       0.0737       2.6330
   3180.1311       9.1487      54.8140      26.6704    -999.2500    4231.0796       5.0645       2.9190       0.0732       2.7620
   3180.2837       9.0820      56.9000      26.6410    -999.2500    4607.9448       4.8700       2.9180       0.0678       2.8900
   3180.4360       8.9304      58.5616      25.5171    -999.2500    5387.6035       5.2308       2.7584       0.0497       2.8900
   3180.5884       8.7800      60.2210      24.4000    -999.2500    6160.0000       5.5900       2.6000       0.0319       2.8900
   3180.7407       8.7800      70.0665      24.4000    -999.2500    6158.6367       5.5895       2.6452       0.0271       2.8840
   3180.8933       8.7800      79.9000      24.4000    -999.2500    6157.2861       5.5890       2.6900       0.0280       2.8780
   3181.0457       8.7800      78.6993      24.3829    -999.2500    6107.1621       4.6016       2.4541       0.0309       2.8439
   3181.1980       8.7800      77.5000      24.3660    -999.2500    6057.4922       3.6200       2.2200       0.0347       2.8100
   3181.3503       8.7800      77.8001      23.2799    -999.2500    5723.0483       3.6345       2.2215       0.0390       2.8100
   3181.5029       8.7800      78.1000      22.2000    -999.2500    5391.5918       3.6490       2.2230       0.0435       2.8100
   3181.6553       8.7800      77.7033      22.2386    -999.2500    4581.2905       4.3364       2.5878       0.0481       2.7949
   3181.8076       8.7800      77.3070      22.2770    -999.2500    3778.1331       5.0200       2.9500       0.0543       2.7800
   3181.9600       8.7800      66.7417      23.2973    -999.2500    3012.3477       4.4384       2.7292       0.0645       2.7800
   3182.1123       8.7800      56.1840      24.3120    -999.2500    2253.2129       3.8600       2.5100       0.0736       2.7800
   3182.2649       8.7800      50.2903      24.4900    -999.2500    1523.4806       3.8851       2.5165       0.0761       2.7850
   3182.4172       8.7800      44.4000      24.6670    -999.2500     800.0000       3.9100       2.5230       0.0738       2.7900
   3182.5696       8.7800      44.4410      26.5384    -999.2500     803.0408       3.9070       2.6941       0.0660       2.7900
   3182.7219       8.7800      44.4820      28.4000    -999.2500     806.0560       3.9040       2.8640       0.0584       2.7900
   3182.8745       8.7800      45.4852      28.3559    -999.2500     910.8965       3.1801       2.9372       0.0564       2.7699
   3183.0269       8.7800      46.4880      28.3120    -999.2500    1014.8650       2.4600       3.0100       0.0576       2.7500
   3183.1792       8.7248      47.5571      26.3511    -999.2500    2308.3667       2.4931       2.9348       0.0616       2.7500
   3183.3315       8.6700      48.6260      24.4000    -999.2500    3589.2161       2.5260       2.8600       0.0652       2.7500
   3183.4841       8.6700      50.0261      24.4000    -999.2500    6860.3926       3.5771       2.8600       0.0650       2.7550
   3183.6365       8.6700      51.4260      24.4000    -999.2500   10100.0049       4.6230       2.8600       0.0637       2.7600
   3183.7888       8.6710      54.3129      24.3799    -999.2500   10061.6504       6.0133       2.8545       0.0633       2.7600
   3183.9412       8.6720      57.2000      24.3600    -999.2500   10023.6611       7.3970       2.8490       0.0633       2.7600
   3184.0935       8.6976      57.0604      23.8820    -999.2500    9223.9668      49.8970       2.7190       0.0633       2.7550
   3184.2461       8.7230      56.9210      23.4070    -999.2500    8431.7900      92.2000       2.5900       0.0633       2.7500
   3184.3984       8.7516      54.0111      21.7484    -999.2500    7497.1855      91.6833       2.7155       0.0633       2.7299
   3184.5508       8.7800      51.1050      20.1000    -999.2500    6571.2578      91.1690       2.8400       0.0633       2.7100
   3184.7031       8.7800      50.1444      20.1000    -999.2500    5836.2666      81.0343       2.8395       0.0633       2.7120
   3184.8557       8.7800      49.1850      20.1000    -999.2500    5108.0020      70.9440       2.8390       0.0632       2.7140
   3185.0081       8.7800      49.0299      20.1496    -999.2500    4466.1006      56.9455       2.7090       0.0630       2.7572
   3185.1604       8.7800      48.8750      20.1990    -999.2500    3829.9990      43.0290       2.5800       0.0616       2.8000
   3185.3127       8.7800      47.8370      21.2269    -999.2500    3864.0283      34.3361       2.5870       0.0572       2.7990
   3185.4653       8.7800      46.8000      22.2490    -999.2500    3897.7549      25.6930       2.5940       0.0531       2.7980
   3185.6177       8.7800      46.8445      23.6650    -999.2500    5033.8682      18.0466       2.7275       0.0520       2.7779
   3185.7700       8.7800      46.8890      25.0730    -999.2500    6160.0000      10.4430       2.8600       0.0532       2.7580
   3185.9224       8.7800      47.7138      25.8030    -999.2500    6127.8032       7.2377       2.8600       0.0566       2.7239
   3186.0747       8.7800      48.5380      26.5290    -999.2500    6095.8848       4.0500       2.8600       0.0603       2.6900
   3186.2273       8.7800      48.8991      27.7056    -999.2500    5502.0186       3.9091       2.8600       0.0622       2.6920
   3186.3796       8.7800      49.2600      28.8760    -999.2500    4913.2222       3.7690       2.8600       0.0637       2.6940
   3186.5320       8.7800      49.7886      29.5904    -999.2500    3811.3237       3.0311       2.8615       0.0655       2.7371
   3186.6843       8.7800      50.3170      30.3010    -999.2500    2718.6870       2.2970       2.8630       0.0675       2.7800
   3186.8369       8.7800      50.9086      31.2695    -999.2500    1955.2606       1.7566       2.9367       0.0695       2.7499
   3186.9893       8.7800      51.5000      32.2330    -999.2500    1198.1610       1.2190       3.0100       0.0715       2.7200
   3187.1416       8.7800      51.2500      35.4746    -999.2500     981.0299       0.9533       3.0065       0.0736       2.7205
   3187.2939       8.7800      51.0000      38.7000    -999.2500     766.0160       0.6890       3.0030       0.0756       2.7210
   3187.4465       8.7800      51.0801      38.2489    -999.2500     646.9353       0.5943       2.7354       0.0777       2.7315
   3187.5989       8.7800      51.1600      37.8000    -999.2500     529.0000       0.5000       2.4700       0.0793       2.7420
   3187.7512       8.7800      52.5966      37.9003    -999.2500     531.9354       0.5000       2.6658       0.0797       2.7711
