#------------------------------------------------------------------------------
#
#   Created by  : [OpenWorks] Log Export Utility (LEXP)
#   Created on  : 2016-05-18 16:36:11
#   Project     : CANT971
#   User        : R5K
#   Interpreter : PEP
#
#------------------------------------------------------------------------------
~VERSION INFORMATION
VERS. 2.0 : CWLS Log ASCII Standard - version 2.0
WRAP.  NO : One line per depth step
~WELL INFORMATION
#MNEMONIC   .UNIT                                           VALUE :DESCRIPTION
#------------------------------------------------------------------------------
STRT        .M                                           551.6884 :START DEPTH
STOP        .M                                          3669.7925 :STOP DEPTH
STEP        .M                                             0.1524 :STEP
NULL        .                                           -999.2500 :NULL VALUE
COMP        .                                   PEMEX EXPL & PROD :COMPANY
WELL        .                                                2279 :WELL
FLD         .                                           CANTARELL :FIELD
LOC         .                                             UNKNOWN :LOCATION
CNTY        .                                      CD. DEL CARMEN :COUNTY
STAT        .                                            CAMPECHE :STATE
CTRY        .                                              MEXICO :COUNTRY
SRVC        .                                             UNKNOWN :SERVICE COMPANY
DATE        .                                             UNKNOWN :LOG DATE
UWI         .                                          3060000233 :UNIQUE WELL ID
XCOORD      .                                       600028.030000 :SURFACE X
YCOORD      .                                      2139445.390000 :SURFACE Y
LAT         .                                           19.347676 :LATITUDE
LON         .                                          -92.047667 :LONGITUDE
ELEV        .M                                            27.4000 :SURFACE ELEV
ELEV_TYPE   .                                                  KB :ELEV TYPE
~CURVE INFORMATION
#MNEMONIC.UNIT        API CODE       : CURVE DESCRIPTION
#------------------------------------------------------------------------------
DEPTH    .M                          : Measured Depth
CALI     .inches      UNKNOWN        : CALI:registros:rC:NONE:v0 (auto-composite)
DT       .UNKNOWN     UNKNOWN        : DT:registros:rC:NONE:v0 (auto-composite)
GR       .API         UNKNOWN        : GR:registros:rC:NONE:v0 (auto-composite)
ILD      .ohm.m       UNKNOWN        : ILD:registros:rC:NONE:v0 (auto-composite)
LLD      .ohm.m       UNKNOWN        : LLD:registros:rC:NONE:v0 (auto-composite)
LLS      .ohm.m       UNKNOWN        : LLS:registros:rC:NONE:v0 (auto-composite)
MSFL     .ohm.m       UNKNOWN        : MSFL:registros:rC:NONE:v0 (auto-composite)
NPHI     .UNKNOWN     UNKNOWN        : NPHI:registros:rC:NONE:v0 (auto-composite)
RHOB     .g/cm3       UNKNOWN        : RHOB:registros:rC:NONE:v0 (auto-composite)
~A     DEPTH         CALI           DT           GR          ILD          LLD          LLS         MSFL         NPHI         RHOB
# ...
   3339.0845       8.6900      86.9240      88.1840    -999.2500     119.1820     120.4970       2.8280       0.0376       2.7040
   3339.2368       8.6257      79.3200      79.9879    -999.2500      83.5592      87.6821       2.7738       0.0464       2.6925
   3339.3892       8.5620      71.7280      71.8440    -999.2500      48.2200      55.0240       2.7200       0.0552       2.6810
   3339.5415       8.4556      65.8647      65.1952    -999.2500      34.2728      38.1597       2.7200       0.0664       2.6690
   3339.6941       8.3500      60.0100      58.5880    -999.2500      20.4350      21.3740       2.7200       0.0776       2.6570
   3339.8464       8.3821      57.5534      53.8796    -999.2500      16.0004      17.7760       2.7200       0.0821       2.6384
   3339.9988       8.4140      55.1000      49.2000    -999.2500      11.6000      14.2000       2.7200       0.0866       2.6200
   3340.1511       8.4742      55.6819      53.7707    -999.2500      13.2031      15.7622       2.7652       0.0850       2.6230
   3340.3037       8.5340      56.2630      58.3140    -999.2500      14.7940      17.3150       2.8100       0.0834       2.6260
   3340.4561       8.5862      56.8728      66.1044    -999.2500      16.2043      18.9167       2.8351       0.0801       2.6410
   3340.6084       8.6380      57.4820      73.8490    -999.2500      17.6040      20.5090       2.8600       0.0767       2.6560
   3340.7607       8.6541      58.2254      83.3017    -999.2500      20.3621      24.6665       2.8600       0.0774       2.6630
   3340.9133       8.6700      58.9680      92.7000    -999.2500      23.1000      28.8000       2.8600       0.0781       2.6700
   3341.0657       8.6048      59.4842      91.3321    -999.2500      21.8912      23.5853       2.8600       0.0818       2.6750
   3341.2180       8.5400      60.0000      89.9720    -999.2500      20.6930      18.4000       2.8600       0.0855       2.6800
   3341.3704       8.4898      59.6094      83.7820    -999.2500      18.6878      19.1355       2.8600       0.0876       2.6765
   3341.5227       8.4400      59.2190      77.6260    -999.2500      16.7000      19.8670       2.8600       0.0897       2.6730
   3341.6753       8.4531      58.5093      73.7571    -999.2500      18.3571      22.2399       2.8600       0.0902       2.6665
   3341.8276       8.4660      57.8000      69.9090    -999.2500      20.0000      24.6000       2.8600       0.0907       2.6600
   3341.9800       8.5187      57.8000      68.7805    -999.2500      18.8838      22.0282       2.8600       0.0923       2.6635
   3342.1323       8.5710      57.8000      67.6580    -999.2500      17.7770      19.4700       2.8600       0.0938       2.6670
   3342.2849       8.6122      58.2259      66.1752    -999.2500      14.3402      15.4271       2.7220       0.0965       2.6836
   3342.4373       8.6530      58.6510      64.7000    -999.2500      10.9320      11.4050       2.5850       0.0992       2.7000
   3342.5896       8.6615      60.2214      66.0479    -999.2500       9.1763       7.1519       2.4571       0.0973       2.6950
   3342.7419       8.6700      61.7890      67.3890    -999.2500       7.4350       2.9200       2.3300       0.0953       2.6900
   3342.8945       8.6700      63.6125      68.7874    -999.2500       6.2176       3.3465       2.4985       0.0890       2.6900
   3343.0469       8.6700      65.4330      70.1790    -999.2500       5.0100       3.7710       2.6660       0.0827       2.6900
   3343.1992       8.6700      68.2687      70.8707    -999.2500       9.4049       7.0613       2.7633       0.0745       2.6935
   3343.3516       8.6700      71.1000      71.5580    -999.2500      13.7650      10.3360       2.8600       0.0665       2.6970
   3343.5039       8.6700      69.7145      74.4380    -999.2500      46.6108      24.5053       2.8600       0.0605       2.7035
   3343.6565       8.6700      68.3310      77.3000    -999.2500      79.2000      38.6090       2.8600       0.0544       2.7100
   3343.8088       8.6369      65.1054      75.3139    -999.2500      78.1997      57.4620       2.8600       0.0464       2.7035
   3343.9612       8.6040      61.8840      73.3400    -999.2500      77.2070      76.2000       2.8600       0.0386       2.6970
   3344.1135       8.4665      58.9363      69.8285    -999.2500      69.2444      65.1149       2.8600       0.0424       2.6835
   3344.2661       8.3300      55.9920      66.3380    -999.2500      61.3420      54.0960       2.8600       0.0463       2.6700
   3344.4185       8.3430      53.6948      62.1422    -999.2500      53.9560      49.0994       2.8600       0.0494       2.6750
   3344.5708       8.3560      51.4000      57.9710    -999.2500      46.6250      44.1320       2.8600       0.0523       2.6800
   3344.7231       8.3861      52.1003      54.0508    -999.2500      41.7948      41.5085       2.8600       0.0512       2.6665
   3344.8757       8.4160      52.8000      50.1530    -999.2500      37.0000      38.9000       2.8600       0.0500       2.6530
   3345.0281       8.4280      52.5674      47.2900    -999.2500      43.9862      50.9337       2.8600       0.0500       2.6364
   3345.1804       8.4400      52.3350      44.4430    -999.2500      50.9110      62.9000       2.8600       0.0500       2.6200
   3345.3328       8.4400      47.0842      42.2655    -999.2500      65.0165      61.6852       2.8600       0.0484       2.6200
   3345.4851       8.4400      41.8370      40.1000    -999.2500      79.0000      60.4770       2.8600       0.0468       2.6200
   3345.6377       8.4400      37.1672      41.3709    -999.2500      66.1763      52.2495       2.7998       0.0469       2.6165
   3345.7900       8.4400      32.5000      42.6350    -999.2500      53.4620      44.0660       2.7400       0.0471       2.6130
   3345.9424       8.4400      38.3198      44.2216    -999.2500      47.1033      39.7718       2.8002       0.0481       2.5949
   3346.0947       8.4400      44.1370      45.8000    -999.2500      40.7980      35.5000       2.8600       0.0491       2.5770
   3346.2473       8.4400      48.1273      44.7974    -999.2500      37.7604      37.2043       2.8329       0.0522       2.5384
   3346.3997       8.4400      52.1100      43.8000    -999.2500      34.7480      38.9000       2.8060       0.0556       2.5000
   3346.5520       8.4400      53.0248      44.8767    -999.2500      26.0044      30.3217       2.3119       0.0667       2.4513
   3346.7043       8.4400      53.9380      45.9480    -999.2500      17.3320      21.7860       1.8210       0.0785       2.4030
   3346.8569       8.4807      56.9440      49.4059    -999.2500      12.2466      14.9259       1.1834       0.1080       2.3428
   3347.0093       8.5210      59.9450      52.8470    -999.2500       7.2020       8.0990       0.5500       0.1379       2.2830
   3347.1616       8.6249      65.1280      56.2016    -999.2500       5.1052       5.5490       0.5500       0.1742       2.2308
   3347.3140       8.7280      70.3030      59.5350    -999.2500       3.0250       3.0110       0.5500       0.2107       2.1790
   3347.4663       8.8505      74.2448      61.1806    -999.2500       2.3449       2.4362       0.5189       0.2541       2.1544
   3347.6189       8.9720      78.1810      62.8160    -999.2500       1.6700       1.8640       0.4880       0.2969       2.1300
   3347.7712       9.0960      80.4750      64.4118    -999.2500       1.4958       1.6544       0.4288       0.3226       2.1435
   3347.9236       9.2190      82.7660      65.9980    -999.2500       1.3230       1.4460       0.3700       0.3472       2.1570
   3348.0759       9.3249      84.3314      68.5064    -999.2500       1.1207       1.1571       0.7158       0.3583       2.1685
   3348.2285       9.4300      85.8950      71.0000    -999.2500       0.9200       0.8700       1.0590       0.3687       2.1800
   3348.3809       9.3452      88.1441      70.4223    -999.2500       1.3621       1.4181       1.9528       0.3687       2.1349
