#------------------------------------------------------------------------------
#
#   Created by  : [OpenWorks] Log Export Utility (LEXP)
#   Created on  : 2016-05-18 16:36:11
#   Project     : CANT971
#   User        : R5K
#   Interpreter : PEP
#
#------------------------------------------------------------------------------
~VERSION INFORMATION
VERS. 2.0 : CWLS Log ASCII Standard - version 2.0
WRAP.  NO : One line per depth step
~WELL INFORMATION
#MNEMONIC   .UNIT                                           VALUE :DESCRIPTION
#------------------------------------------------------------------------------
STRT        .M                                           551.6884 :START DEPTH
STOP        .M                                          3669.7925 :STOP DEPTH
STEP        .M                                             0.1524 :STEP
NULL        .                                           -999.2500 :NULL VALUE
COMP        .                                   PEMEX EXPL & PROD :COMPANY
WELL        .                                                2279 :WELL
FLD         .                                           CANTARELL :FIELD
LOC         .                                             UNKNOWN :LOCATION
CNTY        .                                      CD. DEL CARMEN :COUNTY
STAT        .                                            CAMPECHE :STATE
CTRY        .                                              MEXICO :COUNTRY
SRVC        .                                             UNKNOWN :SERVICE COMPANY
DATE        .                                             UNKNOWN :LOG DATE
UWI         .                                          3060000233 :UNIQUE WELL ID
XCOORD      .                                       600028.030000 :SURFACE X
YCOORD      .                                      2139445.390000 :SURFACE Y
LAT         .                                           19.347676 :LATITUDE
LON         .                                          -92.047667 :LONGITUDE
ELEV        .M                                            27.4000 :SURFACE ELEV
ELEV_TYPE   .                                                  KB :ELEV TYPE
~CURVE INFORMATION
#MNEMONIC.UNIT        API CODE       : CURVE DESCRIPTION
#------------------------------------------------------------------------------
DEPTH    .M                          : Measured Depth
CALI     .inches      UNKNOWN        : CALI:registros:rC:NONE:v0 (auto-composite)
DT       .UNKNOWN     UNKNOWN        : DT:registros:rC:NONE:v0 (auto-composite)
GR       .API         UNKNOWN        : GR:registros:rC:NONE:v0 (auto-composite)
ILD      .ohm.m       UNKNOWN        : ILD:registros:rC:NONE:v0 (auto-composite)
LLD      .ohm.m       UNKNOWN        : LLD:registros:rC:NONE:v0 (auto-composite)
LLS      .ohm.m       UNKNOWN        : LLS:registros:rC:NONE:v0 (auto-composite)
MSFL     .ohm.m       UNKNOWN        : MSFL:registros:rC:NONE:v0 (auto-composite)
NPHI     .UNKNOWN     UNKNOWN        : NPHI:registros:rC:NONE:v0 (auto-composite)
RHOB     .g/cm3       UNKNOWN        : RHOB:registros:rC:NONE:v0 (auto-composite)
~A     DEPTH         CALI           DT           GR          ILD          LLD          LLS         MSFL         NPHI         RHOB
# ...
   3603.6509       6.7190    -999.2500      26.7100    -999.2500      98.5740     190.0230      70.3490       0.0332       2.6660
   3603.8032       6.7516    -999.2500      26.7712    -999.2500      87.6677     158.1421      57.3862       0.0397       2.6540
   3603.9556       6.7840    -999.2500      26.8320    -999.2500      76.8300     126.4620      44.5050       0.0465       2.6420
   3604.1079       6.8262    -999.2500      28.5217    -999.2500      78.5232     129.8685      45.5176       0.0531       2.6355
   3604.2605       6.8680    -999.2500      30.2010    -999.2500      80.2060     133.2540      46.5240       0.0586       2.6290
   3604.4128       6.8620    -999.2500      34.9669    -999.2500      97.7064     157.5179      56.5067       0.0570       2.6300
   3604.5652       6.8560    -999.2500      39.7040    -999.2500     115.1010     181.6350      66.4290       0.0538       2.6310
   3604.7175       6.8445    -999.2500      39.2361    -999.2500     136.8188     220.7347      85.3716       0.0477       2.6415
   3604.8701       6.8330    -999.2500      38.7710    -999.2500     158.4080     259.6030     104.2020       0.0413       2.6520
   3605.0225       6.8164    -999.2500      37.7044    -999.2500     156.0401     233.0119     130.5825       0.0363       2.6796
   3605.1748       6.8000    -999.2500      36.6440    -999.2500     153.6860     206.5750     156.8100       0.0323       2.7070
   3605.3271       6.7859    -999.2500      35.7384    -999.2500     130.0325     173.4396     135.1105       0.0331       2.7416
   3605.4797       6.7720    -999.2500      34.8380    -999.2500     106.5130     140.4920     113.5340       0.0338       2.7760
   3605.6321       6.7660    -999.2500      34.5597    -999.2500      93.6388     163.2902      98.8137       0.0297       2.7534
   3605.7844       6.7600    -999.2500      34.2830    -999.2500      80.8360     185.9620      84.1750       0.0258       2.7310
   3605.9368       6.7720    -999.2500      34.8716    -999.2500     115.2532     277.0428      94.4067       0.0278       2.7175
   3606.0891       6.7840    -999.2500      35.4570    -999.2500     149.4840     367.6300     104.5830       0.0308       2.7040
   3606.2417       6.8066    -999.2500      36.5649    -999.2500     215.7981     467.2519     103.6159       0.0339       2.6985
   3606.3940       6.8290    -999.2500      37.6670    -999.2500     281.7610     566.3460     102.6540       0.0369       2.6930
   3606.5464       6.8556    -999.2500      39.0075    -999.2500     318.3673     610.2073     109.4912       0.0390       2.6940
   3606.6987       6.8820    -999.2500      40.3410    -999.2500     354.7260     653.8420     116.2930       0.0406       2.6950
   3606.8513       6.9091    -999.2500      41.9375    -999.2500     375.4387     817.8760     122.0831       0.0401       2.7000
   3607.0037       6.9360    -999.2500      43.5260    -999.2500     396.0140     981.0820     127.8440       0.0390       2.7050
   3607.1560       6.9646    -999.2500      45.6973    -999.2500     656.1435    1242.6277     113.2876       0.0360       2.7200
   3607.3083       6.9930    -999.2500      47.8580    -999.2500     914.5780    1502.8870      98.8260       0.0330       2.7350
   3607.4609       6.9870    -999.2500      46.2201    -999.2500     852.8118    1421.7399     120.5604       0.0309       2.7420
   3607.6133       6.9810    -999.2500      44.5900    -999.2500     791.4400    1340.9821     142.1560       0.0291       2.7490
   3607.7656       6.9599    -999.2500      42.1815    -999.2500     808.7061    1201.8406     139.4525       0.0281       2.7410
   3607.9180       6.9390    -999.2500      39.7880    -999.2500     825.8640    1063.5710     136.7660       0.0279       2.7330
   3608.0703       6.8988    -999.2500      38.6510    -999.2500     807.0182    1002.4164     117.5847       0.0314       2.7235
   3608.2229       6.8590    -999.2500      37.5210    -999.2500     788.2880     941.6370      98.5210       0.0354       2.7140
   3608.3752       6.8399    -999.2500      36.9433    -999.2500     650.5311     817.6274     100.2587       0.0387       2.7080
   3608.5276       6.8210    -999.2500      36.3690    -999.2500     513.6030     694.3640     101.9860       0.0413       2.7020
   3608.6799       6.8270    -999.2500      35.2572    -999.2500     380.8864     463.9698     137.2072       0.0413       2.7045
   3608.8325       6.8330    -999.2500      34.1520    -999.2500     248.9510     234.9320     172.2210       0.0405       2.7070
   3608.9849       6.8425    -999.2500      33.5934    -999.2500     214.8442     244.6656     171.3821       0.0382       2.7120
   3609.1372       6.8520    -999.2500      33.0380    -999.2500     180.9340     254.3430     170.5480       0.0355       2.7170
   3609.2896       6.8590    -999.2500      32.5952    -999.2500     184.6269     275.0559     134.8238       0.0320       2.7205
   3609.4419       6.8660    -999.2500      32.1550    -999.2500     188.2990     295.6520      99.3010       0.0286       2.7240
   3609.5945       6.8595    -999.2500      31.6010    -999.2500     175.2500     265.0591      99.4670       0.0270       2.7370
   3609.7468       6.8530    -999.2500      31.0500    -999.2500     162.2730     234.6350      99.6320       0.0260       2.7500
   3609.8992       6.8405    -999.2500      30.3260    -999.2500     139.5443     206.7168     107.8807       0.0265       2.7495
   3610.0515       6.8280    -999.2500      29.6060    -999.2500     116.9380     178.9490     116.0850       0.0268       2.7490
   3610.2041       6.8054    -999.2500      28.3126    -999.2500     101.1514     153.0152     130.3651       0.0253       2.7460
   3610.3564       6.7830    -999.2500      27.0260    -999.2500      85.4480     127.2180     144.5700       0.0234       2.7430
   3610.5088       6.7905    -999.2500      26.0435    -999.2500      79.1684     113.5940     144.0617       0.0209       2.7445
   3610.6611       6.7980    -999.2500      25.0660    -999.2500      72.9310     100.0400     143.5560       0.0187       2.7460
   3610.8137       6.8136    -999.2500      24.3612    -999.2500      67.5758      92.6324     138.5033       0.0187       2.7340
   3610.9661       6.8290    -999.2500      23.6600    -999.2500      62.2560      85.2620     133.4760       0.0191       2.7220
   3611.1184       6.8410    -999.2500      23.7552    -999.2500      59.7674      81.4838     135.6601       0.0195       2.6949
   3611.2708       6.8530    -999.2500      23.8500    -999.2500      57.2950      77.7240     137.8300       0.0199       2.6680
   3611.4231       6.8590    -999.2500      23.8490    -999.2500      56.7949      76.8885     143.8250       0.0202       2.6494
   3611.5757       6.8650    -999.2500      23.8480    -999.2500      56.2980      76.0570     149.7820       0.0215       2.6310
   3611.7280       6.8585    -999.2500      23.6780    -999.2500      57.7636      75.9652     147.1909       0.0275       2.6315
   3611.8804       6.8520    -999.2500      23.5090    -999.2500      59.2200      75.8740     144.6160       0.0344       2.6320
   3612.0327       6.8390    -999.2500      23.0561    -999.2500      60.4417      75.7546     134.9851       0.0411       2.6365
   3612.1853       6.8260    -999.2500      22.6060    -999.2500      61.6560      75.6360     125.4130       0.0469       2.6410
   3612.3376       6.8089    -999.2500      23.6902    -999.2500      60.7809      77.4946     112.1428       0.0492       2.6510
   3612.4900       6.7920    -999.2500      24.7680    -999.2500      59.9110      79.3420      98.9520       0.0507       2.6610
   3612.6423       6.7840    -999.2500      27.0366    -999.2500      60.2976      83.3813     104.9546       0.0522       2.6590
   3612.7949       6.7760    -999.2500      29.2920    -999.2500      60.6820      87.3970     110.9220       0.0541       2.6570
   3612.9473       6.7795    -999.2500      32.8091    -999.2500      61.6167      95.3122     123.9519       0.0583       2.6540
