#------------------------------------------------------------------------------
#
#   Created by  : [OpenWorks] Log Export Utility (LEXP)
#   Created on  : 2016-05-18 16:36:11
#   Project     : CANT971
#   User        : R5K
#   Interpreter : PEP
#
#------------------------------------------------------------------------------
~VERSION INFORMATION
VERS. 2.0 : CWLS Log ASCII Standard - version 2.0
WRAP.  NO : One line per depth step
~WELL INFORMATION
#MNEMONIC   .UNIT                                           VALUE :DESCRIPTION
#------------------------------------------------------------------------------
STRT        .M                                           551.6884 :START DEPTH
STOP        .M                                          3669.7925 :STOP DEPTH
STEP        .M                                             0.1524 :STEP
NULL        .                                           -999.2500 :NULL VALUE
COMP        .                                   PEMEX EXPL & PROD :COMPANY
WELL        .                                                2279 :WELL
FLD         .                                           CANTARELL :FIELD
LOC         .                                             UNKNOWN :LOCATION
CNTY        .                                      CD. DEL CARMEN :COUNTY
STAT        .                                            CAMPECHE :STATE
CTRY        .                                              MEXICO :COUNTRY
SRVC        .                                             UNKNOWN :SERVICE COMPANY
DATE        .                                             UNKNOWN :LOG DATE
UWI         .                                          3060000233 :UNIQUE WELL ID
XCOORD      .                                       600028.030000 :SURFACE X
YCOORD      .                                      2139445.390000 :SURFACE Y
LAT         .                                           19.347676 :LATITUDE
LON         .                                          -92.047667 :LONGITUDE
ELEV        .M                                            27.4000 :SURFACE ELEV
ELEV_TYPE   .                                                  KB :ELEV TYPE
~CURVE INFORMATION
#MNEMONIC.UNIT        API CODE       : CURVE DESCRIPTION
#------------------------------------------------------------------------------
DEPTH    .M                          : Measured Depth
CALI     .inches      UNKNOWN        : CALI:registros:rC:NONE:v0 (auto-composite)
DT       .UNKNOWN     UNKNOWN        : DT:registros:rC:NONE:v0 (auto-composite)
GR       .API         UNKNOWN        : GR:registros:rC:NONE:v0 (auto-composite)
ILD      .ohm.m       UNKNOWN        : ILD:registros:rC:NONE:v0 (auto-composite)
LLD      .ohm.m       UNKNOWN        : LLD:registros:rC:NONE:v0 (auto-composite)
LLS      .ohm.m       UNKNOWN        : LLS:registros:rC:NONE:v0 (auto-composite)
MSFL     .ohm.m       UNKNOWN        : MSFL:registros:rC:NONE:v0 (auto-composite)
NPHI     .UNKNOWN     UNKNOWN        : NPHI:registros:rC:NONE:v0 (auto-composite)
RHOB     .g/cm3       UNKNOWN        : RHOB:registros:rC:NONE:v0 (auto-composite)
~A     DEPTH         CALI           DT           GR          ILD          LLD          LLS         MSFL         NPHI         RHOB
# ...
   3556.4067       6.8310    -999.2500      39.7580    -999.2500     962.4690    1315.7560     123.8230       0.0469       2.6980
   3556.5593       6.8682    -999.2500      38.0608    -999.2500    1065.0776    1406.9199     120.7264       0.0564       2.6819
   3556.7117       6.9050    -999.2500      36.3720    -999.2500    1167.0160    1497.6331     117.6500       0.0656       2.6660
   3556.8640       6.8874    -999.2500      36.5960    -999.2500    1510.1575    1433.9893     114.3339       0.0695       2.6449
   3557.0164       6.8700    -999.2500      36.8190    -999.2500    1851.0980    1370.6520     111.0390       0.0726       2.6240
   3557.1687       6.8419    -999.2500      37.7216    -999.2500    1529.7067    1083.9976     103.7526       0.0721       2.6130
   3557.3213       6.8140    -999.2500      38.6200    -999.2500    1210.3350     798.6890      96.5120       0.0711       2.6020
   3557.4736       6.7954    -999.2500      39.9215    -999.2500     906.6219     591.4758      85.0462       0.0667       2.6085
   3557.6260       6.7770    -999.2500      41.2150    -999.2500     604.7810     385.5400      73.6510       0.0621       2.6150
   3557.7783       6.7850    -999.2500      42.3394    -999.2500     493.6667     391.0030     102.5642       0.0575       2.6285
   3557.9309       6.7930    -999.2500      43.4570    -999.2500     383.2230     396.4330     131.3030       0.0535       2.6420
   3558.0833       6.8126    -999.2500      44.5166    -999.2500     440.1072     706.8088     120.7227       0.0578       2.6555
   3558.2356       6.8320    -999.2500      45.5700    -999.2500     496.6550    1015.3490     110.2050       0.0621       2.6690
   3558.3879       6.8235    -999.2500      44.2276    -999.2500     624.0901     969.0556      87.1388       0.0579       2.6800
   3558.5405       6.8150    -999.2500      42.8930    -999.2500     750.7880     923.0300      64.2060       0.0526       2.6910
   3558.6929       6.7984    -999.2500      40.3458    -999.2500     829.6373     993.5016      76.0495       0.0408       2.7101
   3558.8452       6.7820    -999.2500      37.8130    -999.2500     908.0400    1063.5740      87.8260       0.0295       2.7290
   3558.9976       6.7654    -999.2500      40.0437    -999.2500     953.5764    1343.2053     111.4519       0.0326       2.7265
   3559.1499       6.7490    -999.2500      42.2620    -999.2500     998.7880    1621.2889     134.9470       0.0364       2.7240
   3559.3025       6.7641    -999.2500      46.9858    -999.2500    1065.4424    1613.4337     145.7317       0.0363       2.7105
   3559.4548       6.7790    -999.2500      51.6840    -999.2500    1131.6300    1605.6210     156.4580       0.0361       2.6970
   3559.6072       6.8171    -999.2500      56.8236    -999.2500    1121.7229    1565.2789     163.5101       0.0368       2.6830
   3559.7595       6.8550    -999.2500      61.9360    -999.2500    1111.8840    1525.1500     170.5250       0.0376       2.6690
   3559.9121       6.8916    -999.2500      68.1551    -999.2500    1101.2902    1465.8704     164.2192       0.0390       2.6770
   3560.0645       6.9280    -999.2500      74.3420    -999.2500    1090.7679    1406.8970     157.9460       0.0403       2.6850
   3560.2168       6.9511    -999.2500      81.6674    -999.2500    1087.9872    1329.5542     148.7886       0.0383       2.6985
   3560.3691       6.9740    -999.2500      88.9560    -999.2500    1085.2250    1252.6010     139.6920       0.0363       2.7120
   3560.5217       6.9514    -999.2500      84.0414    -999.2500    1068.3461    1270.6088     145.4176       0.0364       2.7070
   3560.6741       6.9290    -999.2500      79.1510    -999.2500    1051.5770    1288.5280     151.1060       0.0367       2.7020
   3560.8264       6.9029    -999.2500      71.5327    -999.2500    1051.6348    1399.7316     149.5751       0.0395       2.6865
   3560.9788       6.8770    -999.2500      63.9630    -999.2500    1051.6920    1510.4030     148.0540       0.0422       2.6710
   3561.1311       6.8951    -999.2500      58.9127    -999.2500    1064.3817    1495.6169     136.1026       0.0410       2.6815
   3561.2837       6.9130    -999.2500      53.8940    -999.2500    1076.9919    1480.9000     124.2260       0.0394       2.6920
   3561.4360       6.9386    -999.2500      46.0294    -999.2500    1047.0621    1359.3000     112.1450       0.0336       2.7080
   3561.5884       6.9640    -999.2500      38.2130    -999.2500    1017.3160    1238.4460     100.1380       0.0280       2.7240
   3561.7407       6.9801    -999.2500      38.8810    -999.2500     907.6974     995.7158     100.7794       0.0278       2.7225
   3561.8933       6.9960    -999.2500      39.5450    -999.2500     798.7370     754.4430     101.4170       0.0280       2.7210
   3562.0457       6.9915    -999.2500      42.7785    -999.2500     648.2999     566.5632     107.0235       0.0295       2.7165
   3562.1980       6.9870    -999.2500      45.9930    -999.2500     498.7480     379.7890     112.5970       0.0311       2.7120
   3562.3503       6.9765    -999.2500      50.8776    -999.2500     394.6585     311.0593     122.8525       0.0344       2.7080
   3562.5029       6.9660    -999.2500      55.7340    -999.2500     291.1680     242.7250     133.0490       0.0378       2.7040
   3562.6553       6.9509    -999.2500      52.8434    -999.2500     253.7817     225.5642     119.0445       0.0411       2.6895
   3562.8076       6.9360    -999.2500      49.9690    -999.2500     216.6060     208.5000     105.1190       0.0442       2.6750
   3562.9600       6.9204    -999.2500      54.9637    -999.2500     204.3615     191.4180      76.7504       0.0462       2.6605
   3563.1123       6.9050    -999.2500      59.9310    -999.2500     192.2040     174.4300      48.5380       0.0478       2.6460
   3563.2649       6.8940    -999.2500      65.5642    -999.2500     169.8165     161.7353      49.6014       0.0450       2.6435
   3563.4172       6.8830    -999.2500      71.1670    -999.2500     147.5850     149.1090      50.6590       0.0420       2.6410
   3563.5696       6.8388    -999.2500      75.1901    -999.2500     171.9996     163.0692      62.1512       0.0379       2.6390
   3563.7219       6.7950    -999.2500      79.1920    -999.2500     196.2470     176.9560      73.5830       0.0343       2.6370
   3563.8745       6.7092    -999.2500      71.4937    -999.2500     254.6598     222.6348      96.4387       0.0442       2.6310
   3564.0269       6.6240    -999.2500      63.8350    -999.2500     312.6800     268.0790     119.1770       0.0548       2.6250
   3564.1792       6.6380    -999.2500      52.2300    -999.2500     371.4967     344.6251     131.2674       0.0688       2.6175
   3564.3315       6.6520    -999.2500      40.6830    -999.2500     429.9250     420.7880     143.2780       0.0830       2.6100
   3564.4841       6.6987    -999.2500      41.5075    -999.2500     469.4830     473.1484     140.6269       0.1015       2.6045
   3564.6365       6.7450    -999.2500      42.3280    -999.2500     508.7850     525.2530     137.9930       0.1192       2.5990
   3564.7888       6.8067    -999.2500      44.4603    -999.2500     533.3811     541.7141     132.9645       0.1180       2.5508
   3564.9412       6.8680    -999.2500      46.5790    -999.2500     557.8210     558.0970     127.9680       0.1159       2.5030
   3565.0935       6.9328    -999.2500      49.3396    -999.2500     501.9446     576.0055     112.4678       0.1066       2.4343
   3565.2461       6.9970    -999.2500      52.0830    -999.2500     446.4160     593.8310      97.0640       0.0972       2.3660
   3565.3984       6.9840    -999.2500      55.2557    -999.2500     382.2372     512.0294      78.9136       0.0865       2.3981
   3565.5508       6.9710    -999.2500      58.4090    -999.2500     318.4500     430.7270      60.8740       0.0760       2.4300
   3565.7031       6.8947    -999.2500      62.7745    -999.2500     276.1983     345.8690      53.7427       0.0713       2.4862
