#------------------------------------------------------------------------------
#
#   Created by  : [OpenWorks] Log Export Utility (LEXP)
#   Created on  : 2016-05-18 16:36:11
#   Project     : CANT971
#   User        : R5K
#   Interpreter : PEP
#
#------------------------------------------------------------------------------
~VERSION INFORMATION
VERS. 2.0 : CWLS Log ASCII Standard - version 2.0
WRAP.  NO : One line per depth step
~WELL INFORMATION
#MNEMONIC   .UNIT                                           VALUE :DESCRIPTION
#------------------------------------------------------------------------------
STRT        .M                                           551.6884 :START DEPTH
STOP        .M                                          3669.7925 :STOP DEPTH
STEP        .M                                             0.1524 :STEP
NULL        .                                           -999.2500 :NULL VALUE
COMP        .                                   PEMEX EXPL & PROD :COMPANY
WELL        .                                                2279 :WELL
FLD         .                                           CANTARELL :FIELD
LOC         .                                             UNKNOWN :LOCATION
CNTY        .                                      CD. DEL CARMEN :COUNTY
STAT        .                                            CAMPECHE :STATE
CTRY        .                                              MEXICO :COUNTRY
SRVC        .                                             UNKNOWN :SERVICE COMPANY
DATE        .                                             UNKNOWN :LOG DATE
UWI         .                                          3060000233 :UNIQUE WELL ID
XCOORD      .                                       600028.030000 :SURFACE X
YCOORD      .                                      2139445.390000 :SURFACE Y
LAT         .                                           19.347676 :LATITUDE
LON         .                                          -92.047667 :LONGITUDE
ELEV        .M                                            27.4000 :SURFACE ELEV
ELEV_TYPE   .                                                  KB :ELEV TYPE
~CURVE INFORMATION
#MNEMONIC.UNIT        API CODE       : CURVE DESCRIPTION
#------------------------------------------------------------------------------
DEPTH    .M                          : Measured Depth
CALI     .inches      UNKNOWN        : CALI:registros:rC:NONE:v0 (auto-composite)
DT       .UNKNOWN     UNKNOWN        : DT:registros:rC:NONE:v0 (auto-composite)
GR       .API         UNKNOWN        : GR:registros:rC:NONE:v0 (auto-composite)
ILD      .ohm.m       UNKNOWN        : ILD:registros:rC:NONE:v0 (auto-composite)
LLD      .ohm.m       UNKNOWN        : LLD:registros:rC:NONE:v0 (auto-composite)
LLS      .ohm.m       UNKNOWN        : LLS:registros:rC:NONE:v0 (auto-composite)
MSFL     .ohm.m       UNKNOWN        : MSFL:registros:rC:NONE:v0 (auto-composite)
NPHI     .UNKNOWN     UNKNOWN        : NPHI:registros:rC:NONE:v0 (auto-composite)
RHOB     .g/cm3       UNKNOWN        : RHOB:registros:rC:NONE:v0 (auto-composite)
~A     DEPTH         CALI           DT           GR          ILD          LLD          LLS         MSFL         NPHI         RHOB
# ...
   3395.7771       8.4400      55.0000      28.3650    -999.2500     725.5930     281.2290       3.0020       0.0572       2.7590
   3395.9297       8.4400      55.1502      26.3771    -999.2500     599.6142     374.3683       3.0863       0.0542       2.7766
   3396.0820       8.4400      55.3000      24.4000    -999.2500     474.5220     467.0000       3.1700       0.0510       2.7940
   3396.2344       8.4400      55.2139      24.4000    -999.2500     374.5507     375.5948       3.1524       0.0482       2.7970
   3396.3867       8.4400      55.1280      24.4000    -999.2500     275.2710     284.6760       3.1350       0.0455       2.8000
   3396.5393       8.4400      54.2131      23.9674    -999.2500     213.3750     218.0157       3.0803       0.0427       2.7824
   3396.6917       8.4400      53.3000      23.5370    -999.2500     151.9980     151.7020       3.0260       0.0411       2.7650
   3396.8440       8.4400      53.3000      22.6016    -999.2500     127.8996     127.6194       2.7370       0.0431       2.7540
   3396.9963       8.4400      53.3000      21.6710    -999.2500     104.0000     103.6590       2.4500       0.0469       2.7430
   3397.1489       8.4400      53.2134      20.8836    -999.2500     137.3291      98.2160       2.5493       0.0533       2.7365
   3397.3013       8.4400      53.1270      20.1000    -999.2500     170.3870      92.8000       2.6480       0.0594       2.7300
   3397.4536       8.4355      52.2898      20.7511    -999.2500     296.0122     146.8323       2.8196       0.0625       2.7516
   3397.6060       8.4310      51.4540      21.3990    -999.2500     420.6320     200.6040       2.9900       0.0627       2.7730
   3397.7583       8.3803      51.2834      22.8915    -999.2500     569.9045     261.9462       2.9549       0.0561       2.7850
   3397.9109       8.3300      51.1130      24.3770    -999.2500     718.0000     323.0000       2.9200       0.0473       2.7970
   3398.0632       8.3300      51.0064      25.7653    -999.2500     656.5708     319.5097       2.9591       0.0378       2.8115
   3398.2156       8.3300      50.9000      27.1450    -999.2500     595.6180     316.0410       2.9980       0.0302       2.8260
   3398.3679       8.3691      51.8141      28.3266    -999.2500     538.5988     299.2443       3.0040       0.0298       2.8330
   3398.5205       8.4080      52.7270      29.5010    -999.2500     482.0150     282.5490       3.0100       0.0316       2.8400
   3398.6729       8.4226      53.0137      30.2186    -999.2500     422.9774     245.0525       3.0100       0.0338       2.8199
   3398.8252       8.4370      53.3000      30.9320    -999.2500     364.3830     207.7780       3.0100       0.0365       2.8000
   3398.9775       8.4385      52.5146      32.1194    -999.2500     344.6185     185.3240       2.9347       0.0400       2.8085
   3399.1301       8.4400      51.7300      33.3000    -999.2500     325.0000     163.0000       2.8600       0.0436       2.8170
   3399.2825       8.4400      50.9597      32.6431    -999.2500     356.1435     170.3970       2.8600       0.0462       2.8185
   3399.4348       8.4400      50.1900      31.9900    -999.2500     387.0610     177.7520       2.8600       0.0479       2.8200
   3399.5872       8.4400      49.9449      30.7982    -999.2500     491.2207     216.0571       2.9037       0.0476       2.8049
   3399.7395       8.4400      49.7000      29.6130    -999.2500     594.6370     254.1500       2.9470       0.0471       2.7900
   3399.8921       8.4400      50.1820      29.2555    -999.2500     747.9652     294.2752       2.9756       0.0482       2.8000
   3400.0444       8.4400      50.6630      28.9000    -999.2500     900.2190     334.1830       3.0040       0.0481       2.8100
   3400.1968       8.4400      50.8632      28.9000    -999.2500    1030.5583     351.1364       3.0070       0.0433       2.8055
   3400.3491       8.4400      51.0630      28.9000    -999.2500    1160.0000     368.0000       3.0100       0.0387       2.8010
   3400.5017       8.4400      51.0815      28.5917    -999.2500     979.3455     351.1630       2.9879       0.0397       2.7875
   3400.6541       8.4400      51.1000      28.2850    -999.2500     800.2000     334.4130       2.9660       0.0427       2.7740
   3400.8064       8.4400      51.4083      28.0920    -999.2500     771.9840     323.1782       2.9540       0.0466       2.7670
   3400.9587       8.4400      51.7160      27.9000    -999.2500     744.0000     312.0000       2.9420       0.0509       2.7600
   3401.1113       8.4400      52.2585      28.3416    -999.2500     857.9618     336.5604       2.9234       0.0558       2.7645
   3401.2637       8.4400      52.8000      28.7810    -999.2500     971.0000     361.0000       2.9050       0.0599       2.7690
   3401.4160       8.4400      52.4032      28.8407    -999.2500     886.6638     356.4892       2.8824       0.0605       2.7825
   3401.5684       8.4400      52.0070      28.9000    -999.2500     803.0000     352.0000       2.8600       0.0593       2.7960
   3401.7207       8.3848      51.5532      27.7043    -999.2500     806.9861     359.9416       2.8730       0.0551       2.8025
   3401.8733       8.3300      51.1000      26.5160    -999.2500     810.9410     367.8460       2.8860       0.0503       2.8090
   3402.0256       8.3521      51.1000      25.4547    -999.2500     846.6082     372.0253       2.9412       0.0464       2.8095
   3402.1780       8.3740      51.1000      24.4000    -999.2500     882.0000     376.1790       2.9960       0.0432       2.8100
   3402.3303       8.4423      50.5687      24.4000    -999.2500     847.1585     382.6088       3.0030       0.0414       2.8190
   3402.4829       8.5100      50.0380      24.4000    -999.2500     812.5820     389.0000       3.0100       0.0403       2.8280
   3402.6353       8.4879      48.5947      24.9015    -999.2500     688.3266     381.8730       3.0100       0.0400       2.8340
   3402.7876       8.4660      47.1530      25.4000    -999.2500     565.0000     374.7880       3.0100       0.0400       2.8400
   3402.9399       8.4028      46.6262      24.9547    -999.2500     640.2769     337.7874       2.9387       0.0400       2.8250
   3403.0925       8.3400      46.1000      24.5120    -999.2500     715.0000     301.0000       2.8680       0.0402       2.8100
   3403.2449       8.3847      46.3221      24.3220    -999.2500     681.3554     303.5071       2.8138       0.0412       2.8150
   3403.3972       8.4290      46.5440      24.1330    -999.2500     647.9540     306.0000       2.7600       0.0431       2.8200
   3403.5496       8.4611      47.4178      24.0162    -999.2500     613.8578     297.9403       2.8102       0.0466       2.8065
   3403.7019       8.4930      48.2910      23.9000    -999.2500     580.0040     289.9250       2.8600       0.0501       2.7930
   3403.8545       8.5231      50.1350      24.4806    -999.2500     524.9299     256.7752       2.6693       0.0520       2.7825
   3404.0068       8.5530      51.9750      25.0580    -999.2500     470.2400     223.8040       2.4800       0.0528       2.7720
   3404.1592       8.5565      52.2378      25.7558    -999.2500     440.5181     198.8363       2.6310       0.0519       2.7665
   3404.3115       8.5600      52.5000      26.4500    -999.2500     411.0000     174.0000       2.7810       0.0498       2.7610
   3404.4641       8.5510      50.5481      27.5553    -999.2500     426.1852     174.0000       2.8277       0.0455       2.7505
   3404.6165       8.5420      48.6000      28.6550    -999.2500     441.2440     174.0000       2.8740       0.0420       2.7400
   3404.7688       8.4908      48.9583      28.7778    -999.2500     516.8577     184.2492       2.9422       0.0429       2.7581
   3404.9211       8.4400      49.3160      28.9000    -999.2500     591.8520     194.4470       3.0100       0.0452       2.7760
   3405.0737       8.4400      49.9585      28.5857    -999.2500     653.1735     221.4049       2.9649       0.0476       2.7931
