#------------------------------------------------------------------------------
#
#   Created by  : [OpenWorks] Log Export Utility (LEXP)
#   Created on  : 2016-05-18 16:36:11
#   Project     : CANT971
#   User        : R5K
#   Interpreter : PEP
#
#------------------------------------------------------------------------------
~VERSION INFORMATION
VERS. 2.0 : CWLS Log ASCII Standard - version 2.0
WRAP.  NO : One line per depth step
~WELL INFORMATION
#MNEMONIC   .UNIT                                           VALUE :DESCRIPTION
#------------------------------------------------------------------------------
STRT        .M                                           551.6884 :START DEPTH
STOP        .M                                          3669.7925 :STOP DEPTH
STEP        .M                                             0.1524 :STEP
NULL        .                                           -999.2500 :NULL VALUE
COMP        .                                   PEMEX EXPL & PROD :COMPANY
WELL        .                                                2279 :WELL
FLD         .                                           CANTARELL :FIELD
LOC         .                                             UNKNOWN :LOCATION
CNTY        .                                      CD. DEL CARMEN :COUNTY
STAT        .                                            CAMPECHE :STATE
CTRY        .                                              MEXICO :COUNTRY
SRVC        .                                             UNKNOWN :SERVICE COMPANY
DATE        .                                             UNKNOWN :LOG DATE
UWI         .                                          3060000233 :UNIQUE WELL ID
XCOORD      .                                       600028.030000 :SURFACE X
YCOORD      .                                      2139445.390000 :SURFACE Y
LAT         .                                           19.347676 :LATITUDE
LON         .                                          -92.047667 :LONGITUDE
ELEV        .M                                            27.4000 :SURFACE ELEV
ELEV_TYPE   .                                                  KB :ELEV TYPE
~CURVE INFORMATION
#MNEMONIC.UNIT        API CODE       : CURVE DESCRIPTION
#------------------------------------------------------------------------------
DEPTH    .M                          : Measured Depth
CALI     .inches      UNKNOWN        : CALI:registros:rC:NONE:v0 (auto-composite)
DT       .UNKNOWN     UNKNOWN        : DT:registros:rC:NONE:v0 (auto-composite)
GR       .API         UNKNOWN        : GR:registros:rC:NONE:v0 (auto-composite)
ILD      .ohm.m       UNKNOWN        : ILD:registros:rC:NONE:v0 (auto-composite)
LLD      .ohm.m       UNKNOWN        : LLD:registros:rC:NONE:v0 (auto-composite)
LLS      .ohm.m       UNKNOWN        : LLS:registros:rC:NONE:v0 (auto-composite)
MSFL     .ohm.m       UNKNOWN        : MSFL:registros:rC:NONE:v0 (auto-composite)
NPHI     .UNKNOWN     UNKNOWN        : NPHI:registros:rC:NONE:v0 (auto-composite)
RHOB     .g/cm3       UNKNOWN        : RHOB:registros:rC:NONE:v0 (auto-composite)
~A     DEPTH         CALI           DT           GR          ILD          LLD          LLS         MSFL         NPHI         RHOB
# ...
   3499.7141      15.2300      63.6190      24.4000    -999.2500    -999.2500    -999.2500       2.5500       0.1649       2.6000
   3499.8665      15.4418      63.1643      24.4000    -999.2500    -999.2500    -999.2500       2.4748       0.1660       2.6015
   3500.0188      15.6520      62.7100      24.4000    -999.2500    -999.2500    -999.2500       2.4000       0.1612       2.6030
   3500.1711      15.7524      61.3544      24.4000    -999.2500    -999.2500    -999.2500       2.4501       0.1516       2.6130
   3500.3237      15.8520      60.0000      24.4000    -999.2500    -999.2500    -999.2500       2.5000       0.1404       2.6230
   3500.4761      15.9263      60.0000      24.2817    -999.2500    -999.2500    -999.2500       2.4960       0.1296       2.6441
   3500.6284      16.0000      60.0000      24.1640    -999.2500    -999.2500    -999.2500       2.4920       0.1197       2.6650
   3500.7808      16.0000      59.9469      23.7809    -999.2500    -999.2500    -999.2500       2.4709       0.1116       2.6740
   3500.9331      16.0000      59.8940      23.4000    -999.2500    -999.2500    -999.2500       2.4500       0.1050       2.6830
   3501.0857      16.0000      59.7203      23.5329    -999.2500    -999.2500    -999.2500       2.4500       0.1003       2.6905
   3501.2380      16.0000      59.5470      23.6650    -999.2500    -999.2500    -999.2500       2.4500       0.0975       2.6980
   3501.3904      16.0000      57.2712      24.0335    -999.2500    -999.2500    -999.2500       2.4500       0.0974       2.7090
   3501.5427      16.0000      55.0000      24.4000    -999.2500    -999.2500    -999.2500       2.4500       0.0986       2.7200
   3501.6953      16.0000      55.0265      24.5203    -999.2500    -999.2500    -999.2500       2.4500       0.1006       2.7135
   3501.8477      16.0000      55.0530      24.6400    -999.2500    -999.2500    -999.2500       2.4500       0.1025       2.7070
   3502.0000      16.0000      55.3012      25.0114    -999.2500    -999.2500    -999.2500       2.4500       0.1030       2.6819
   3502.1523      16.0000      55.5490      25.3810    -999.2500    -999.2500    -999.2500       2.4500       0.1032       2.6570
   3502.3049      16.0000      56.3487      25.6391    -999.2500    -999.2500    -999.2500       2.4500       0.1041       2.6284
   3502.4573      16.0000      57.1470      25.8960    -999.2500    -999.2500    -999.2500       2.4500       0.1062       2.6000
   3502.6096      16.0000      58.1728      26.2993    -999.2500    -999.2500    -999.2500       2.4500       0.1113       2.6055
   3502.7620      16.0000      59.1970      26.7000    -999.2500    -999.2500    -999.2500       2.4500       0.1189       2.6110
   3502.9143      16.0000      59.8300      26.7000    -999.2500    -999.2500    -999.2500       2.4500       0.1303       2.6351
   3503.0669      16.0000      60.4620      26.7000    -999.2500    -999.2500    -999.2500       2.4500       0.1401       2.6590
   3503.2192      16.0000      61.0814      26.7000    -999.2500    -999.2500    -999.2500       2.4500       0.1419       2.7046
   3503.3716      16.0000      61.7000      26.7000    -999.2500    -999.2500    -999.2500       2.4500       0.1385       2.7500
   3503.5239      16.0000      61.7000      26.7000    -999.2500    -999.2500    -999.2500       2.4515       0.1289       2.7475
   3503.6765      16.0000      61.7000      26.7000    -999.2500    -999.2500    -999.2500       2.4530       0.1195       2.7450
   3503.8289      16.0000      61.4934      26.7000    -999.2500    -999.2500    -999.2500       2.4726       0.1170       2.7335
   3503.9812      16.0000      61.2870      26.7000    -999.2500    -999.2500    -999.2500       2.4920       0.1172       2.7220
   3504.1335      16.0000      60.3931      26.7000    -999.2500    -999.2500    -999.2500       2.5361       0.1178       2.7060
   3504.2861      16.0000      59.5000      26.7000    -999.2500    -999.2500    -999.2500       2.5800       0.1195       2.6900
   3504.4385      16.0000      59.8054      26.7000    -999.2500    -999.2500    -999.2500       2.5800       0.1235       2.6900
   3504.5908      16.0000      60.1100      26.7000    -999.2500    -999.2500    -999.2500       2.5800       0.1289       2.6900
   3504.7432      16.0000      61.9115      26.7000    -999.2500    -999.2500    -999.2500       2.5630       0.1361       2.6900
   3504.8955      16.0000      63.7090      26.7000    -999.2500    -999.2500    -999.2500       2.5460       0.1410       2.6900
   3505.0481      16.0000      69.1103      27.1773    -999.2500    -999.2500    -999.2500       2.4377       0.1375       2.6900
   3505.2004      16.0000      74.5000      27.6520    -999.2500    -999.2500    -999.2500       2.3300       0.1326       2.6900
   3505.3528      16.0000      73.6972      30.3185    -999.2500    -999.2500    -999.2500       2.3425       0.1321       2.6860
   3505.5051      16.0000      72.8960      32.9710    -999.2500    -999.2500    -999.2500       2.3550       0.1338       2.6820
   3505.6577      16.0000      70.5958      38.9232    -999.2500    -999.2500    -999.2500       2.4002       0.1370       2.6559
   3505.8101      16.0000      68.3000      44.8450    -999.2500    -999.2500    -999.2500       2.4450       0.1407       2.6300
   3505.9624      16.0000      70.7021      52.3872    -999.2500    -999.2500    -999.2500       2.4846       0.1443       2.6345
   3506.1147      16.0000      73.1000      59.8920    -999.2500    -999.2500    -999.2500       2.5240       0.1479       2.6390
   3506.2673      16.0000      68.5963      65.6194    -999.2500    -999.2500    -999.2500       2.5466       0.1517       2.6796
   3506.4197      16.0000      64.1000      71.3190    -999.2500    -999.2500    -999.2500       2.5690       0.1550       2.7200
   3506.5720      16.0000      64.1000      75.6221    -999.2500    -999.2500    -999.2500       2.6447       0.1569       2.7130
   3506.7244      16.0000      64.1000      79.8980    -999.2500    -999.2500    -999.2500       2.7200       0.1586       2.7060
   3506.8767      16.0000      63.5826      83.2850    -999.2500    -999.2500    -999.2500       2.7115       0.1616       2.6729
   3507.0293      16.0000      63.0660      86.6510    -999.2500    -999.2500    -999.2500       2.7030       0.1643       2.6400
   3507.1816      16.0000      61.3359      89.3376    -999.2500    -999.2500    -999.2500       2.6413       0.1649       2.6415
   3507.3340      16.0000      59.6080      92.0080    -999.2500    -999.2500    -999.2500       2.5800       0.1643       2.6430
   3507.4863      16.0000      58.3153      93.6930    -999.2500    -999.2500    -999.2500       2.5800       0.1623       2.6465
   3507.6389      16.0000      57.0240      95.3680    -999.2500    -999.2500    -999.2500       2.5800       0.1605       2.6500
   3507.7913      16.0000      56.5037      96.6407    -999.2500    -999.2500    -999.2500       2.6001       0.1600       2.6500
   3507.9436      16.0000      55.9840      97.9060    -999.2500    -999.2500    -999.2500       2.6200       0.1600       2.6500
   3508.0959      16.0000      55.7919      98.4044    -999.2500    -999.2500    -999.2500       2.6701       0.1599       2.6575
   3508.2485      16.0000      55.6000      98.9000    -999.2500    -999.2500    -999.2500       2.7200       0.1595       2.6650
   3508.4009      16.0000      56.1006      98.9000    -999.2500    -999.2500    -999.2500       2.7200       0.1584       2.6856
   3508.5532      16.0000      56.6000      98.9000    -999.2500    -999.2500    -999.2500       2.7200       0.1573       2.7060
   3508.7056      16.0000      56.4969      99.3011    -999.2500    -999.2500    -999.2500       2.7200       0.1570       2.7180
   3508.8579      16.0000      56.3940      99.7000    -999.2500    -999.2500    -999.2500       2.7200       0.1570       2.7300
   3509.0105      16.0000      55.9966    -999.2500    -999.2500    -999.2500    -999.2500       2.7200       0.1570       2.7270
