#------------------------------------------------------------------------------
#
#   Created by  : [OpenWorks] Log Export Utility (LEXP)
#   Created on  : 2016-05-18 16:36:11
#   Project     : CANT971
#   User        : R5K
#   Interpreter : PEP
#
#------------------------------------------------------------------------------
~VERSION INFORMATION
VERS. 2.0 : CWLS Log ASCII Standard - version 2.0
WRAP.  NO : One line per depth step
~WELL INFORMATION
#MNEMONIC   .UNIT                                           VALUE :DESCRIPTION
#------------------------------------------------------------------------------
STRT        .M                                           551.6884 :START DEPTH
STOP        .M                                          3669.7925 :STOP DEPTH
STEP        .M                                             0.1524 :STEP
NULL        .                                           -999.2500 :NULL VALUE
COMP        .                                   PEMEX EXPL & PROD :COMPANY
WELL        .                                                2279 :WELL
FLD         .                                           CANTARELL :FIELD
LOC         .                                             UNKNOWN :LOCATION
CNTY        .                                      CD. DEL CARMEN :COUNTY
STAT        .                                            CAMPECHE :STATE
CTRY        .                                              MEXICO :COUNTRY
SRVC        .                                             UNKNOWN :SERVICE COMPANY
DATE        .                                             UNKNOWN :LOG DATE
UWI         .                                          3060000233 :UNIQUE WELL ID
XCOORD      .                                       600028.030000 :SURFACE X
YCOORD      .                                      2139445.390000 :SURFACE Y
LAT         .                                           19.347676 :LATITUDE
LON         .                                          -92.047667 :LONGITUDE
ELEV        .M                                            27.4000 :SURFACE ELEV
ELEV_TYPE   .                                                  KB :ELEV TYPE
~CURVE INFORMATION
#MNEMONIC.UNIT        API CODE       : CURVE DESCRIPTION
#------------------------------------------------------------------------------
DEPTH    .M                          : Measured Depth
CALI     .inches      UNKNOWN        : CALI:registros:rC:NONE:v0 (auto-composite)
DT       .UNKNOWN     UNKNOWN        : DT:registros:rC:NONE:v0 (auto-composite)
GR       .API         UNKNOWN        : GR:registros:rC:NONE:v0 (auto-composite)
ILD      .ohm.m       UNKNOWN        : ILD:registros:rC:NONE:v0 (auto-composite)
LLD      .ohm.m       UNKNOWN        : LLD:registros:rC:NONE:v0 (auto-composite)
LLS      .ohm.m       UNKNOWN        : LLS:registros:rC:NONE:v0 (auto-composite)
MSFL     .ohm.m       UNKNOWN        : MSFL:registros:rC:NONE:v0 (auto-composite)
NPHI     .UNKNOWN     UNKNOWN        : NPHI:registros:rC:NONE:v0 (auto-composite)
RHOB     .g/cm3       UNKNOWN        : RHOB:registros:rC:NONE:v0 (auto-composite)
~A     DEPTH         CALI           DT           GR          ILD          LLD          LLS         MSFL         NPHI         RHOB
# ...
   3443.0212       8.0000      47.9570      27.4610    -999.2500     806.0000     233.5890       2.8600       0.0469       2.7690
   3443.1736       8.0025      48.6792      28.2526    -999.2500     798.8908     627.8203       2.8600       0.0526       2.7444
   3443.3259       8.0050      49.4000      29.0400    -999.2500     791.8300    1020.0000       2.8600       0.0581       2.7200
   3443.4785       8.0582      49.3805      30.8245    -999.2500     659.8879    1007.6521       2.8600       0.0599       2.7210
   3443.6309       8.1110      49.3610      32.6000    -999.2500     528.8260     995.3670       2.8600       0.0597       2.7220
   3443.7832       8.1908      48.8300      31.2968    -999.2500     503.9023     786.6400       2.8600       0.0592       2.7561
   3443.9355       8.2700      48.3000      30.0000    -999.2500     479.1420     578.9470       2.8600       0.0568       2.7900
   3444.0881       8.2700      48.3000      30.0000    -999.2500     352.0616     565.2098       2.8600       0.0508       2.7850
   3444.2405       8.2700      48.3000      30.0000    -999.2500     226.0000     551.5390       2.8600       0.0447       2.7800
   3444.3928       8.2640      48.2905      30.0000    -999.2500     227.0210     496.4038       2.8600       0.0416       2.7805
   3444.5452       8.2580      48.2810      30.0000    -999.2500     228.0340     441.5280       2.8600       0.0404       2.7810
   3444.6975       8.2389      48.0663      30.1159    -999.2500     251.4138     367.0934       2.8600       0.0401       2.7905
   3444.8501       8.2200      47.8520      30.2310    -999.2500     274.6120     293.0000       2.8600       0.0414       2.8000
   3445.0024       8.1648      47.0255      32.6473    -999.2500     287.8566     294.6866       2.8600       0.0451       2.8100
   3445.1548       8.1100      46.2000      35.0490    -999.2500     301.0000     296.3630       2.8600       0.0488       2.8200
   3445.3071       8.1100      46.3541      37.5705    -999.2500     300.2567     333.2909       2.8600       0.0499       2.8100
   3445.4597       8.1100      46.5080      40.0770    -999.2500     299.5190     370.0000       2.8600       0.0494       2.8000
   3445.6121       8.1100      51.8567      43.0973    -999.2500     284.7008     367.9506       2.8575       0.0479       2.8005
   3445.7644       8.1100      57.2000      46.1000    -999.2500     269.9920     365.9130       2.8550       0.0452       2.8010
   3445.9167       8.1100      55.8494      45.9195    -999.2500     209.7771     300.2703       2.7873       0.0408       2.8306
   3446.0693       8.1100      54.5000      45.7400    -999.2500     150.0000     235.0000       2.7200       0.0353       2.8600
   3446.2217       8.1100      54.9140      42.2418    -999.2500     150.2865     235.0000       2.7235       0.0294       2.8595
   3446.3740       8.1100      55.3270      38.7630    -999.2500     150.5710     235.0000       2.7270       0.0248       2.8590
   3446.5264       8.1100      63.8230      33.9023    -999.2500     172.3620     238.0082       2.7937       0.0234       2.8485
   3446.6787       8.1100      72.3000      29.0680    -999.2500     194.0000     241.0000       2.8600       0.0238       2.8380
   3446.8313       8.1100      59.9370      27.0226    -999.2500     192.8159     240.1653       2.8600       0.0248       2.8189
   3446.9836       8.1100      47.6000      24.9880    -999.2500     191.6400     239.3350       2.8600       0.0266       2.8000
   3447.1360       8.1100      47.6175      23.9894    -999.2500     171.0528     223.7888       2.7998       0.0292       2.8005
   3447.2883       8.1100      47.6350      22.9960    -999.2500     150.6050     208.3230       2.7400       0.0320       2.8010
   3447.4409       8.0548      52.3219      21.4942    -999.2500     116.1787     174.4685       2.8002       0.0342       2.8055
   3447.5933       8.0000      57.0000      20.0000    -999.2500      81.9810     140.7850       2.8600       0.0357       2.8100
   3447.7456       8.0552      56.7082      20.0090    -999.2500      64.0821     113.5124       2.8098       0.0364       2.8095
   3447.8979       8.1100      56.4170      20.0180    -999.2500      46.3000      86.3740       2.7600       0.0368       2.8090
   3448.0505       8.1085      50.4037      20.5603    -999.2500      51.6715      76.4131       2.8102       0.0373       2.7995
   3448.2029       8.1070      44.4000      21.1000    -999.2500      57.0000      66.5000       2.8600       0.0384       2.7900
   3448.3552       8.0533      44.4000      21.0754    -999.2500      56.5854      67.9534       2.8570       0.0407       2.8000
   3448.5076       8.0000      44.4000      21.0510    -999.2500      56.1740      69.4000       2.8540       0.0435       2.8100
   3448.6599       8.0000      44.4600      20.6648    -999.2500      49.3210      68.5746       2.6113       0.0463       2.8095
   3448.8125       8.0000      44.5200      20.2810    -999.2500      42.5210      67.7530       2.3700       0.0485       2.8090
   3448.9648       8.0005      45.5131      20.0628    -999.2500      27.5034      56.6350       2.3775       0.0496       2.8030
   3449.1172       8.0010      46.5050      19.8460    -999.2500      12.6000      45.5840       2.3850       0.0503       2.7970
   3449.2695       8.0356      48.0198      18.2684    -999.2500      12.7184      34.9848       2.5104       0.0513       2.7684
   3449.4221       8.0700      49.5330      16.7000    -999.2500      12.8360      24.4480       2.6350       0.0538       2.7400
   3449.5745       8.0349      55.3694      16.7602    -999.2500      15.2825      20.9639       2.7478       0.0586       2.7410
   3449.7268       8.0000      61.2000      16.8200    -999.2500      17.7110      17.5000       2.8600       0.0634       2.7420
   3449.8792       8.0000      61.1420      18.4145    -999.2500      29.7626      17.9157       2.8600       0.0657       2.7570
   3450.0315       8.0000      61.0840      20.0000    -999.2500      41.7270      18.3290       2.8600       0.0663       2.7720
   3450.1841       8.0000      60.0358      19.9619    -999.2500      54.0483      27.2677       2.8600       0.0662       2.7860
   3450.3364       8.0000      58.9900      19.9240    -999.2500      66.2820      36.1570       2.8600       0.0639       2.8000
   3450.4888       8.0005      53.7893      19.3610    -999.2500      79.8620      53.8607       2.8600       0.0579       2.7849
   3450.6411       8.0010      48.6000      18.8010    -999.2500      93.3470      71.4690       2.8600       0.0520       2.7700
   3450.7937       8.0136      48.6285      18.1202    -999.2500     155.8880     142.9229       2.8600       0.0500       2.7700
   3450.9460       8.0260      48.6570      17.4430    -999.2500     218.0000     214.0000       2.8600       0.0500       2.7700
   3451.0984       8.0682      52.4322      17.0415    -999.2500     213.2094     213.3934       2.8600       0.0500       2.7800
   3451.2507       8.1100      56.2000      16.6420    -999.2500     208.4510     212.7900       2.8600       0.0499       2.7900
   3451.4033       8.1100      51.2955      16.1197    -999.2500     145.4172     201.5979       2.8600       0.0498       2.7850
   3451.5557       8.1100      46.4000      15.6000    -999.2500      82.8000     190.4620       2.8600       0.0480       2.7800
   3451.7080       8.1095      46.6752      15.6000    -999.2500      82.9660     139.2056       2.8600       0.0432       2.7800
   3451.8604       8.1090      46.9500      15.6000    -999.2500      83.1310      88.2000       2.8600       0.0385       2.7800
   3452.0127       8.0543      56.9829      15.6000    -999.2500     104.6511      88.5458       2.8600       0.0371       2.7805
   3452.1653       8.0000      67.0000      15.6000    -999.2500     126.0000      88.8900       2.8600       0.0377       2.7810
   3452.3176       8.0025      65.6991      15.6191    -999.2500     124.6146     101.4742       2.8575       0.0393       2.7855
