#------------------------------------------------------------------------------
#
#   Created by  : [OpenWorks] Log Export Utility (LEXP)
#   Created on  : 2016-05-18 16:36:11
#   Project     : CANT971
#   User        : R5K
#   Interpreter : PEP
#
#------------------------------------------------------------------------------
~VERSION INFORMATION
VERS. 2.0 : CWLS Log ASCII Standard - version 2.0
WRAP.  NO : One line per depth step
~WELL INFORMATION
#MNEMONIC   .UNIT                                           VALUE :DESCRIPTION
#------------------------------------------------------------------------------
STRT        .M                                           551.6884 :START DEPTH
STOP        .M                                          3669.7925 :STOP DEPTH
STEP        .M                                             0.1524 :STEP
NULL        .                                           -999.2500 :NULL VALUE
COMP        .                                   PEMEX EXPL & PROD :COMPANY
WELL        .                                                2279 :WELL
FLD         .                                           CANTARELL :FIELD
LOC         .                                             UNKNOWN :LOCATION
CNTY        .                                      CD. DEL CARMEN :COUNTY
STAT        .                                            CAMPECHE :STATE
CTRY        .                                              MEXICO :COUNTRY
SRVC        .                                             UNKNOWN :SERVICE COMPANY
DATE        .                                             UNKNOWN :LOG DATE
UWI         .                                          3060000233 :UNIQUE WELL ID
XCOORD      .                                       600028.030000 :SURFACE X
YCOORD      .                                      2139445.390000 :SURFACE Y
LAT         .                                           19.347676 :LATITUDE
LON         .                                          -92.047667 :LONGITUDE
ELEV        .M                                            27.4000 :SURFACE ELEV
ELEV_TYPE   .                                                  KB :ELEV TYPE
~CURVE INFORMATION
#MNEMONIC.UNIT        API CODE       : CURVE DESCRIPTION
#------------------------------------------------------------------------------
DEPTH    .M                          : Measured Depth
CALI     .inches      UNKNOWN        : CALI:registros:rC:NONE:v0 (auto-composite)
DT       .UNKNOWN     UNKNOWN        : DT:registros:rC:NONE:v0 (auto-composite)
GR       .API         UNKNOWN        : GR:registros:rC:NONE:v0 (auto-composite)
ILD      .ohm.m       UNKNOWN        : ILD:registros:rC:NONE:v0 (auto-composite)
LLD      .ohm.m       UNKNOWN        : LLD:registros:rC:NONE:v0 (auto-composite)
LLS      .ohm.m       UNKNOWN        : LLS:registros:rC:NONE:v0 (auto-composite)
MSFL     .ohm.m       UNKNOWN        : MSFL:registros:rC:NONE:v0 (auto-composite)
NPHI     .UNKNOWN     UNKNOWN        : NPHI:registros:rC:NONE:v0 (auto-composite)
RHOB     .g/cm3       UNKNOWN        : RHOB:registros:rC:NONE:v0 (auto-composite)
~A     DEPTH         CALI           DT           GR          ILD          LLD          LLS         MSFL         NPHI         RHOB
# ...
   2913.8884       9.9700      99.8440      35.8230    -999.2500       3.9000       4.0900       3.8980       0.2156       2.5890
   2914.0408       9.9901      99.8490      35.8235    -999.2500       3.8955       3.5069       3.8940       0.2078       2.5890
   2914.1931      10.0100      99.8540      35.8240    -999.2500       3.8910       2.9270       3.8900       0.2013       2.5890
   2914.3457      10.0291      99.8380      35.8997    -999.2500       2.8987       2.5224       3.4838       0.2004       2.5604
   2914.4980      10.0480      99.8220      35.9750    -999.2500       1.9180       2.1200       3.0810       0.2024       2.5320
   2914.6504      10.0816      98.1542      35.9900    -999.2500       1.9180       2.1240       2.4795       0.2142       2.5320
   2914.8027      10.1150      96.4870      36.0050    -999.2500       1.9180       2.1280       1.8830       0.2289       2.5320
   2914.9553      10.1150      93.9482      37.4100    -999.2500       1.9260       2.5305       1.8976       0.2493       2.5466
   2915.1077      10.1150      91.4100      38.8080    -999.2500       1.9340       2.9310       1.9120       0.2677       2.5610
   2915.2600      10.0959      90.2220      38.8030    -999.2500       2.4760       3.4122       1.7714       0.2706       2.5881
   2915.4124      10.0770      89.0340      38.7980    -999.2500       3.0120       3.8910       1.6320       0.2694       2.6150
   2915.5647      10.0409      89.0400      38.4146    -999.2500       3.2921       4.2323       1.6345       0.2623       2.6296
   2915.7173      10.0050      89.0460      38.0330    -999.2500       3.5690       4.5720       1.6370       0.2522       2.6440
   2915.8696       9.8302      89.4575      37.4878    -999.2500       3.6499       4.8702       1.8308       0.2332       2.6440
   2916.0220       9.6570      89.8690      36.9460    -999.2500       3.7300       5.1670       2.0230       0.2131       2.6440
   2916.1743       9.6570      90.4204      36.5628    -999.2500       4.1065       5.9919       2.2624       0.1964       2.6375
   2916.3269       9.6570      90.9720      36.1820    -999.2500       4.4790       6.8130       2.5000       0.1802       2.6310
   2916.4792       9.6625      91.5684      35.6329    -999.2500       4.9118       6.7950       3.2203       0.1624       2.6039
   2916.6316       9.6680      92.1650      35.0870    -999.2500       5.3400       6.7770       3.9340       0.1447       2.5770
   2916.7839       9.7127      95.3176      33.1363    -999.2500       5.3234       4.8213       3.9290       0.1283       2.5629
   2916.9365       9.7570      98.4720      31.1970    -999.2500       5.3070       2.8740       3.9240       0.1146       2.5490
   2917.0889       9.7294      98.4645      31.2030    -999.2500       4.5716       2.8745       3.1335       0.1126       2.5490
   2917.2412       9.7020      98.4570      31.2090    -999.2500       3.8440       2.8750       2.3500       0.1193       2.5490
   2917.3936       9.7030      98.0759      31.5379    -999.2500       3.2409       2.9016       2.3585       0.1560       2.5857
   2917.5459       9.7040      97.6950      31.8650    -999.2500       2.6440       2.9280       2.3670       0.1923       2.6220
   2917.6985       9.7432      97.1398      33.4839    -999.2500       2.6490       3.7016       2.3625       0.1985       2.6215
   2917.8508       9.7820      96.5850      35.0940    -999.2500       2.6540       4.4710       2.3580       0.1972       2.6210
   2918.0032       9.8844      94.1303      34.9085    -999.2500       3.0478       4.4695       2.1677       0.1894       2.6069
   2918.1555       9.9860      91.6770      34.7240    -999.2500       3.4370       4.4680       1.9790       0.1816       2.5930
   2918.3081      10.1050      82.2120      34.7295    -999.2500       3.4295       4.4048       1.5577       0.1804       2.5890
   2918.4604      10.2230      72.7510      34.7350    -999.2500       3.4220       4.3420       1.1400       0.1813       2.5850
   2918.6128      10.2225      72.7885      34.9731    -999.2500       2.9473       4.0407       0.9834       0.1859       2.5654
   2918.7651      10.2220      72.8260      35.2100    -999.2500       2.4780       3.7410       0.8280       0.1910       2.5460
   2918.9177      10.1909      75.5862      35.7955    -999.2500       2.4810       3.3475       0.6673       0.1948       2.5229
   2919.0701      10.1600      78.3460      36.3780    -999.2500       2.4840       2.9560       0.5080       0.1978       2.5000
   2919.2224      10.1615      78.2575      36.6692    -999.2500       2.7424       3.4442       0.5145       0.1988       2.5161
   2919.3748      10.1630      78.1690      36.9590    -999.2500       2.9980       3.9300       0.5210       0.2019       2.5320
   2919.5271      10.2142      78.1880      37.6847    -999.2500       2.9975       3.9280       0.8739       0.2170       2.5320
   2919.6797      10.2650      78.2070      38.4070    -999.2500       2.9970       3.9260       1.2240       0.2319       2.5320
   2919.8320      10.2786      78.9389      38.9953    -999.2500       2.9799       3.8563       1.6481       0.2346       2.5270
   2919.9844      10.2920      79.6710      39.5800    -999.2500       2.9630       3.7870       2.0690       0.2344       2.5220
   2920.1367      10.2905      83.3049      39.0053    -999.2500       2.7252       3.5926       2.0680       0.2336       2.5185
   2920.2893      10.2890      86.9400      38.4340    -999.2500       2.4900       3.3990       2.0670       0.2314       2.5150
   2920.4417      10.2498      89.5304      38.4355    -999.2500       2.4925       3.4015       2.3794       0.2234       2.4839
   2920.5940      10.2110      92.1220      38.4370    -999.2500       2.4950       3.4040       2.6890       0.2157       2.4530
   2920.7463      10.1698      92.0955      38.8828    -999.2500       2.7323       3.5663       2.6739       0.2145       2.4535
   2920.8989      10.1290      92.0690      39.3260    -999.2500       2.9670       3.7280       2.6590       0.2156       2.4540
   2921.0513      10.1185      91.2168      39.3054    -999.2500       2.9610       3.7125       2.2843       0.2207       2.4721
   2921.2036      10.1080      90.3640      39.2850    -999.2500       2.9550       3.6970       1.9130       0.2270       2.4900
   2921.3560      10.0452      90.4270      38.2391    -999.2500       2.6680       3.3039       1.3480       0.2347       2.4885
   2921.5083       9.9830      90.4900      37.1990    -999.2500       2.3840       2.9130       0.7880       0.2417       2.4870
   2921.6609       9.9850      92.1655      37.2105    -999.2500       2.6284       2.5054       0.7935       0.2441       2.4483
   2921.8132       9.9870      93.8400      37.2220    -999.2500       2.8700       2.1000       0.7990       0.2473       2.4100
   2921.9656      10.1050      95.3759      37.5464    -999.2500       2.8685       2.1010       1.1319       0.2576       2.3648
   2922.1179      10.2220      96.9110      37.8690    -999.2500       2.8670       2.1020       1.4620       0.2777       2.3200
   2922.2705      10.2220      96.8855      40.1108    -999.2500       2.7976       2.1341       1.3827       0.3322       2.2904
   2922.4229      10.2220      96.8600      42.3410    -999.2500       2.7290       2.1660       1.3040       0.3845       2.2610
   2922.5752      10.2180      95.2858      42.3395    -999.2500       2.0547       2.2898       1.8497       0.3942       2.2354
   2922.7275      10.2140      93.7120      42.3380    -999.2500       1.3880       2.4130       2.3910       0.3931       2.2100
   2922.8801      10.1743      93.7120      42.2834    -999.2500       1.4011       3.1844       2.3870       0.3876       2.1387
   2923.0325      10.1350      93.7120      42.2290    -999.2500       1.4140       3.9520       2.3830       0.3714       2.0680
   2923.1848      10.1355      93.7350      41.8277    -999.2500       1.8012       3.9490       2.2826       0.3146       2.0725
