#------------------------------------------------------------------------------
#
#   Created by  : [OpenWorks] Log Export Utility (LEXP)
#   Created on  : 2016-05-18 16:36:11
#   Project     : CANT971
#   User        : R5K
#   Interpreter : PEP
#
#------------------------------------------------------------------------------
~VERSION INFORMATION
VERS. 2.0 : CWLS Log ASCII Standard - version 2.0
WRAP.  NO : One line per depth step
~WELL INFORMATION
#MNEMONIC   .UNIT                                           VALUE :DESCRIPTION
#------------------------------------------------------------------------------
STRT        .M                                           551.6884 :START DEPTH
STOP        .M                                          3669.7925 :STOP DEPTH
STEP        .M                                             0.1524 :STEP
NULL        .                                           -999.2500 :NULL VALUE
COMP        .                                   PEMEX EXPL & PROD :COMPANY
WELL        .                                                2279 :WELL
FLD         .                                           CANTARELL :FIELD
LOC         .                                             UNKNOWN :LOCATION
CNTY        .                                      CD. DEL CARMEN :COUNTY
STAT        .                                            CAMPECHE :STATE
CTRY        .                                              MEXICO :COUNTRY
SRVC        .                                             UNKNOWN :SERVICE COMPANY
DATE        .                                             UNKNOWN :LOG DATE
UWI         .                                          3060000233 :UNIQUE WELL ID
XCOORD      .                                       600028.030000 :SURFACE X
YCOORD      .                                      2139445.390000 :SURFACE Y
LAT         .                                           19.347676 :LATITUDE
LON         .                                          -92.047667 :LONGITUDE
ELEV        .M                                            27.4000 :SURFACE ELEV
ELEV_TYPE   .                                                  KB :ELEV TYPE
~CURVE INFORMATION
#MNEMONIC.UNIT        API CODE       : CURVE DESCRIPTION
#------------------------------------------------------------------------------
DEPTH    .M                          : Measured Depth
CALI     .inches      UNKNOWN        : CALI:registros:rC:NONE:v0 (auto-composite)
DT       .UNKNOWN     UNKNOWN        : DT:registros:rC:NONE:v0 (auto-composite)
GR       .API         UNKNOWN        : GR:registros:rC:NONE:v0 (auto-composite)
ILD      .ohm.m       UNKNOWN        : ILD:registros:rC:NONE:v0 (auto-composite)
LLD      .ohm.m       UNKNOWN        : LLD:registros:rC:NONE:v0 (auto-composite)
LLS      .ohm.m       UNKNOWN        : LLS:registros:rC:NONE:v0 (auto-composite)
MSFL     .ohm.m       UNKNOWN        : MSFL:registros:rC:NONE:v0 (auto-composite)
NPHI     .UNKNOWN     UNKNOWN        : NPHI:registros:rC:NONE:v0 (auto-composite)
RHOB     .g/cm3       UNKNOWN        : RHOB:registros:rC:NONE:v0 (auto-composite)
~A     DEPTH         CALI           DT           GR          ILD          LLD          LLS         MSFL         NPHI         RHOB
# ...
   3074.5181       9.2140      74.1340      25.4000    -999.2500     580.6150     395.7060       2.8410       0.0633       2.6800
   3074.6704       9.1618      61.6166      26.7367    -999.2500     614.9731     413.3960       2.7296       0.0637       2.6800
   3074.8228       9.1100      49.1000      28.0670    -999.2500     649.0000     431.0000       2.6190       0.0641       2.6800
   3074.9751       9.1291      49.5705      28.9050    -999.2500     627.1366     427.2085       2.4438       0.0650       2.6649
   3075.1277       9.1480      50.0410      29.7390    -999.2500     605.4810     423.4350       2.2700       0.0661       2.6500
   3075.2800       9.1841      50.4705      30.7226    -999.2500     545.0352     408.0645       2.2825       0.0689       2.6565
   3075.4324       9.2200      50.9000      31.7000    -999.2500     485.1570     392.7650       2.2950       0.0715       2.6630
   3075.5847       9.1648      50.7499      31.1634    -999.2500     392.6503     360.0616       2.5786       0.0713       2.6791
   3075.7373       9.1100      50.6000      30.6300    -999.2500     301.0000     327.5050       2.8600       0.0700       2.6950
   3075.8896       9.1100      50.7261      29.4605    -999.2500     306.0169     286.1623       2.8153       0.0639       2.7055
   3076.0420       9.1100      50.8520      28.2980    -999.2500     310.9880     245.0000       2.7710       0.0568       2.7160
   3076.1943       9.1100      51.1472      26.9451    -999.2500     350.2019     250.6249       2.5447       0.0469       2.7180
   3076.3469       9.1100      51.4420      25.6000    -999.2500     389.0000     256.2260       2.3200       0.0382       2.7200
   3076.4993       9.1100      51.9507      25.8221    -999.2500     342.4086     286.7000       2.3451       0.0394       2.7351
   3076.6516       9.1100      52.4590      26.0430    -999.2500     296.3050     317.0000       2.3700       0.0427       2.7500
   3076.8040       9.1100      52.7796      26.9034    -999.2500     232.3212     281.4007       2.0438       0.0498       2.7470
   3076.9563       9.1100      53.1000      27.7590    -999.2500     169.0000     246.0000       1.7200       0.0575       2.7440
   3077.1089       9.1100      52.6553      28.1807    -999.2500     213.2316     247.2700       1.7607       0.0651       2.7294
   3077.2612       9.1100      52.2110      28.6000    -999.2500     257.0110     248.5330       1.8010       0.0722       2.7150
   3077.4136       9.1100      51.6053      27.5146    -999.2500     334.8991     272.8313       2.0074       0.0772       2.7045
   3077.5659       9.1100      51.0000      26.4350    -999.2500     412.0000     297.0000       2.2120       0.0814       2.6940
   3077.7185       9.1100      50.7680      25.4148    -999.2500     394.9364     293.4603       2.5424       0.0838       2.6825
   3077.8708       9.1100      50.5360      24.4000    -999.2500     378.0430     289.9390       2.8700       0.0857       2.6710
   3078.0232       9.1356      49.9679      25.4572    -999.2500     364.4545     284.7403       2.7515       0.0870       2.6559
   3078.1755       9.1610      49.4000      26.5090    -999.2500     351.0000     279.5680       2.6340       0.0882       2.6410
   3078.3281       9.1906      49.6880      27.8438    -999.2500     351.0000     272.2644       2.2755       0.0890       2.6305
   3078.4805       9.2200      49.9760      29.1720    -999.2500     351.0000     264.9970       1.9200       0.0896       2.6200
   3078.6328       9.2135      50.9390      30.7112    -999.2500     343.5060     254.9743       2.0470       0.0898       2.6451
   3078.7852       9.2070      51.9020      32.2430    -999.2500     336.0840     245.0000       2.1730       0.0899       2.6700
   3078.9375       9.1784      52.7045      33.3240    -999.2500     321.4728     245.0000       2.2839       0.0896       2.6650
   3079.0901       9.1500      53.5070      34.4000    -999.2500     307.0000     245.0000       2.3940       0.0889       2.6600
   3079.2424       9.1726      54.2499      34.2064    -999.2500     316.8430     245.0000       2.5727       0.0863       2.6801
   3079.3948       9.1950      54.9930      34.0140    -999.2500     326.5940     245.0000       2.7500       0.0834       2.7000
   3079.5471       9.2075      55.2967      32.8720    -999.2500     338.8536     245.0000       2.6742       0.0799       2.6970
   3079.6997       9.2200      55.6000      31.7370    -999.2500     351.0000     245.0000       2.5990       0.0762       2.6940
   3079.8521       9.2200      55.6000      30.9727    -999.2500     342.4611     245.3232       2.5343       0.0715       2.6820
   3080.0044       9.2200      55.6000      30.2130    -999.2500     334.0000     245.6450       2.4700       0.0674       2.6700
   3080.1567       9.2200      55.6000      29.7050    -999.2500     340.5345     250.3324       2.5935       0.0680       2.6700
   3080.3093       9.2200      55.6000      29.2000    -999.2500     347.0000     255.0000       2.7160       0.0689       2.6700
   3080.4617       9.2200      55.5675      29.9797    -999.2500     332.6722     250.0745       2.7883       0.0687       2.6700
   3080.6140       9.2200      55.5350      30.7550    -999.2500     318.4940     245.1770       2.8600       0.0686       2.6700
   3080.7664       9.2200      54.9003      32.4322    -999.2500     300.1523     231.0493       2.8600       0.0704       2.6700
   3080.9187       9.2200      54.2660      34.1000    -999.2500     282.0000     217.0000       2.8600       0.0725       2.6700
   3081.0713       9.2200      53.5753      33.8719    -999.2500     291.0461     221.5148       2.6190       0.0752       2.6765
   3081.2236       9.2200      52.8850      33.6450    -999.2500     300.0000     226.0050       2.3800       0.0779       2.6830
   3081.3760       9.2200      52.3424      32.7702    -999.2500     293.9696     229.0105       2.4508       0.0804       2.6865
   3081.5283       9.2200      51.8000      31.9000    -999.2500     288.0000     232.0000       2.5210       0.0825       2.6900
   3081.6809       9.2200      52.0936      31.3681    -999.2500     292.2315     224.9818       2.7013       0.0816       2.6835
   3081.8333       9.2200      52.3870      30.8390    -999.2500     296.4210     218.0000       2.8800       0.0801       2.6770
   3081.9856       9.2200      52.8436      30.7367    -999.2500     298.7218     219.6336       2.8203       0.0782       2.6670
   3082.1379       9.2200      53.3000      30.6350    -999.2500     301.0000     221.2590       2.7610       0.0762       2.6570
   3082.2905       9.1643      53.2345      30.4861    -999.2500     309.4359     228.6021       2.7108       0.0747       2.6500
   3082.4429       9.1090      53.1690      30.3380    -999.2500     317.7900     235.9090       2.6610       0.0737       2.6430
   3082.5952       9.0628      52.9845      29.6167    -999.2500     324.7157     261.0148       2.4657       0.0755       2.6350
   3082.7476       9.0170      52.8000      28.9000    -999.2500     331.5750     286.0000       2.2720       0.0779       2.6270
   3082.8999       8.9532      52.8000      28.9000    -999.2500     333.7829     265.4519       2.0978       0.0822       2.6134
   3083.0525       8.8900      52.8000      28.9000    -999.2500     335.9700     245.0000       1.9250       0.0863       2.6000
   3083.2048       8.9066      53.3499      29.1508    -999.2500     343.6845     250.8669       1.7769       0.0883       2.6035
   3083.3572       8.9230      53.9000      29.4000    -999.2500     351.3270     256.7070       1.6300       0.0897       2.6070
   3083.5095       9.0013      53.8670      29.3498    -999.2500     371.7042     270.5536       1.6887       0.0885       2.6185
   3083.6621       9.0790      53.8340      29.3000    -999.2500     391.8940     284.3390       1.7470       0.0869       2.6300
   3083.8145       9.1498      53.4668      29.6009    -999.2500     420.7545     314.7592       1.8373       0.0837       2.6415
