#------------------------------------------------------------------------------
#
#   Created by  : [OpenWorks] Log Export Utility (LEXP)
#   Created on  : 2016-05-18 16:36:11
#   Project     : CANT971
#   User        : R5K
#   Interpreter : PEP
#
#------------------------------------------------------------------------------
~VERSION INFORMATION
VERS. 2.0 : CWLS Log ASCII Standard - version 2.0
WRAP.  NO : One line per depth step
~WELL INFORMATION
#MNEMONIC   .UNIT                                           VALUE :DESCRIPTION
#------------------------------------------------------------------------------
STRT        .M                                           551.6884 :START DEPTH
STOP        .M                                          3669.7925 :STOP DEPTH
STEP        .M                                             0.1524 :STEP
NULL        .                                           -999.2500 :NULL VALUE
COMP        .                                   PEMEX EXPL & PROD :COMPANY
WELL        .                                                2279 :WELL
FLD         .                                           CANTARELL :FIELD
LOC         .                                             UNKNOWN :LOCATION
CNTY        .                                      CD. DEL CARMEN :COUNTY
STAT        .                                            CAMPECHE :STATE
CTRY        .                                              MEXICO :COUNTRY
SRVC        .                                             UNKNOWN :SERVICE COMPANY
DATE        .                                             UNKNOWN :LOG DATE
UWI         .                                          3060000233 :UNIQUE WELL ID
XCOORD      .                                       600028.030000 :SURFACE X
YCOORD      .                                      2139445.390000 :SURFACE Y
LAT         .                                           19.347676 :LATITUDE
LON         .                                          -92.047667 :LONGITUDE
ELEV        .M                                            27.4000 :SURFACE ELEV
ELEV_TYPE   .                                                  KB :ELEV TYPE
~CURVE INFORMATION
#MNEMONIC.UNIT        API CODE       : CURVE DESCRIPTION
#------------------------------------------------------------------------------
DEPTH    .M                          : Measured Depth
CALI     .inches      UNKNOWN        : CALI:registros:rC:NONE:v0 (auto-composite)
DT       .UNKNOWN     UNKNOWN        : DT:registros:rC:NONE:v0 (auto-composite)
GR       .API         UNKNOWN        : GR:registros:rC:NONE:v0 (auto-composite)
ILD      .ohm.m       UNKNOWN        : ILD:registros:rC:NONE:v0 (auto-composite)
LLD      .ohm.m       UNKNOWN        : LLD:registros:rC:NONE:v0 (auto-composite)
LLS      .ohm.m       UNKNOWN        : LLS:registros:rC:NONE:v0 (auto-composite)
MSFL     .ohm.m       UNKNOWN        : MSFL:registros:rC:NONE:v0 (auto-composite)
NPHI     .UNKNOWN     UNKNOWN        : NPHI:registros:rC:NONE:v0 (auto-composite)
RHOB     .g/cm3       UNKNOWN        : RHOB:registros:rC:NONE:v0 (auto-composite)
~A     DEPTH         CALI           DT           GR          ILD          LLD          LLS         MSFL         NPHI         RHOB
# ...
   2857.1956      16.0000    -999.2500      22.2000    -999.2500    -999.2500    -999.2500       0.5180    -999.2500    -999.2500
   2857.3479      16.0000    -999.2500      22.2000    -999.2500    -999.2500    -999.2500       0.5090    -999.2500    -999.2500
   2857.5005      16.0000    -999.2500      22.2000    -999.2500    -999.2500    -999.2500       0.5000    -999.2500    -999.2500
   2857.6528      16.0000    -999.2500      21.6443    -999.2500    -999.2500    -999.2500       0.5121    -999.2500    -206.7210
   2857.8052      16.0000    -999.2500      21.0920    -999.2500    -999.2500    -999.2500       0.5240    -999.2500    -206.7210
   2857.9575      15.9603    -999.2500      20.5443    -999.2500    -999.2500    -999.2500       0.5471    -999.2500    -101.8398
   2858.1101      15.9210    -999.2500      20.0000    -999.2500    -999.2500    -999.2500       0.5700    -999.2500       2.2400
   2858.2625      15.8306    -999.2500      20.3184    -999.2500    -999.2500    -999.2500       0.5660    -999.2500       2.3686
   2858.4148      15.7410    -999.2500      20.6350    -999.2500    -999.2500    -999.2500       0.5620    -999.2500       2.4960
   2858.5671      15.6405    -999.2500      20.8376    -999.2500    -999.2500    -999.2500       0.5459    -999.2500       2.5909
   2858.7197      15.5410    -999.2500      21.0390    -999.2500    -999.2500    -999.2500       0.5300    -999.2500       2.6850
   2858.8721      15.2803    -999.2500      21.0696    -999.2500    -999.2500    -999.2500       0.5421    -999.2500       2.7277
   2859.0244      15.0220    -999.2500      21.1000    -999.2500    -999.2500    -999.2500       0.5540       0.4500       2.7700
   2859.1768      14.6403    -999.2500      21.2599    -999.2500    -999.2500    -999.2500       0.5620       0.4496       2.7579
   2859.3291      14.2620    -999.2500      21.4190    -999.2500    -999.2500    -999.2500       0.5700       0.4480       2.7460
   2859.4817      13.9401    -999.2500      21.8106    -999.2500    -999.2500    -999.2500       0.5600       0.4311       2.7329
   2859.6340      13.6210    -999.2500      22.2000    -999.2500    -999.2500    -999.2500       0.5500       0.4122       2.7200
   2859.7864      13.3192    -999.2500      21.8792    -999.2500    -999.2500    -999.2500       0.5500       0.3824       2.7280
   2859.9387      13.0200    -999.2500      21.5600    -999.2500    -999.2500    -999.2500       0.5500       0.3533       2.7360
   2860.0913      12.7584    -999.2500      20.9173    -999.2500    -999.2500    -999.2500       0.5379       0.3425       2.7531
   2860.2437      12.4990    -999.2500      20.2780    -999.2500    -999.2500    -999.2500       0.5260       0.3341       2.7700
   2860.3960      12.4091    -999.2500      19.6153    -999.2500    -999.2500    -999.2500       0.5190       0.3403       2.7549
   2860.5483      12.3200    -999.2500      18.9560    -999.2500    -999.2500    -999.2500       0.5120       0.3475       2.7400
   2860.7009      12.1488    -999.2500      18.5771    -999.2500    -999.2500    -999.2500       0.4859       0.3548       2.7440
   2860.8533      11.9790    -999.2500      18.2000    -999.2500    -999.2500    -999.2500       0.4600       0.3608       2.7480
   2861.0056      11.7375    -999.2500      18.7648    -999.2500    -999.2500    -999.2500       0.4600       0.3503       2.7490
   2861.1580      11.4980    -999.2500      19.3260    -999.2500    -999.2500    -999.2500       0.4600       0.3383       2.7500
   2861.3103      11.2465    -999.2500      20.0292    -999.2500    -999.2500    -999.2500       0.4841       0.3213       2.7299
   2861.4629      10.9970    -999.2500      20.7280    -999.2500    -999.2500    -999.2500       0.5080       0.3044       2.7100
   2861.6152      10.7860    -999.2500      21.4663    -999.2500    -999.2500    -999.2500       0.5140       0.2940       2.7000
   2861.7676      10.5770    -999.2500      22.2000    -999.2500    -999.2500    -999.2500       0.5200       0.2848       2.6900
   2861.9199      10.4569    -999.2500      22.0781    -999.2500    -999.2500    -999.2500       0.5150       0.2877       2.7020
   2862.0725      10.3380    -999.2500      21.9570    -999.2500    -999.2500    -999.2500       0.5100       0.2915       2.7140
   2862.2249      10.1969    -999.2500      21.3602    -999.2500    -999.2500    -999.2500       0.5261       0.2986       2.7291
   2862.3772      10.0570    -999.2500      20.7670    -999.2500    -999.2500    -999.2500       0.5420       0.3059       2.7440
   2862.5295       9.9510    -999.2500      20.3824    -999.2500    -999.2500    -999.2500       0.5460       0.3125       2.7470
   2862.6821       9.8460    -999.2500      20.0000    -999.2500    -999.2500    -999.2500       0.5500       0.3183       2.7500
   2862.8345       9.7707    -999.2500      20.0000    -999.2500    -999.2500    -999.2500       0.5500       0.3129       2.7580
   2862.9868       9.6960    -999.2500      20.0000    -999.2500    -999.2500    -999.2500       0.5500       0.3070       2.7660
   2863.1392       9.6217    -999.2500      20.0817    -999.2500    -999.2500    -999.2500       0.5349       0.3039       2.7730
   2863.2915       9.5480    -999.2500      20.1630    -999.2500    -999.2500    -999.2500       0.5200       0.3012       2.7800
   2863.4441       9.4074    -999.2500      20.5490    -999.2500    -999.2500    -999.2500       0.5200       0.3020       2.7750
   2863.5964       9.2680    -999.2500      20.9330    -999.2500    -999.2500    -999.2500       0.5200       0.3028       2.7700
   2863.7488       9.1244    -999.2500      21.0167    -999.2500    -999.2500    -999.2500       0.5280       0.3005       2.7780
   2863.9011       8.9820    -999.2500      21.1000    -999.2500    -999.2500    -999.2500       0.5360       0.2981       2.7860
   2864.0537       8.8289    -999.2500      21.1000    -999.2500    -999.2500    -999.2500       0.5420       0.2951       2.7920
   2864.2061       8.6770    -999.2500      21.1000    -999.2500    -999.2500    -999.2500       0.5480       0.2919       2.7980
   2864.3584       8.5580    -999.2500      20.5486    -999.2500    -999.2500    -999.2500       0.5490       0.2845       2.7990
   2864.5107       8.4400    -999.2500      20.0000    -999.2500    -999.2500    -999.2500       0.5500       0.2774       2.8000
   2864.6633       8.4892    -999.2500      20.0000    -999.2500    -999.2500    -999.2500       0.5500       0.2774       2.7960
   2864.8157       8.5380    -999.2500      20.0000    -999.2500    -999.2500    -999.2500       0.5500       0.2780       2.7920
   2864.9680       8.7052    -999.2500      20.0000    -999.2500    -999.2500    -999.2500       0.5500       0.2820       2.7830
   2865.1204       8.8710    -999.2500      20.0000    -999.2500    -999.2500    -999.2500       0.5500       0.2861       2.7740
   2865.2727       8.9358    -999.2500      20.0000    -999.2500    -999.2500    -999.2500       0.5420       0.2875       2.7554
   2865.4253       9.0000    -999.2500      20.0000    -999.2500    -999.2500    -999.2500       0.5340       0.2889       2.7370
   2865.5776       8.9588    -999.2500      20.0000    -999.2500    -999.2500    -999.2500       0.5270       0.2918       2.7184
   2865.7300       8.9180    -999.2500      20.0000    -999.2500    -999.2500    -999.2500       0.5200       0.2948       2.7000
   2865.8823       8.9009    -999.2500      20.0000    -999.2500    -999.2500    -999.2500       0.5200       0.2991       2.7000
   2866.0349       8.8840    -999.2500      20.0000    -999.2500       0.1770    -999.2500       0.5200       0.3035       2.7000
   2866.1873       8.8318    -999.2500      20.0000    -999.2500       0.2399    -999.2500       0.4748       0.3096       2.6950
   2866.3396       8.7800    -999.2500      20.0000    -999.2500       0.3020    -999.2500       0.4300       0.3156       2.6900
   2866.4919       8.7800    -999.2500      20.0000    -999.2500       1.4182    -999.2500       0.5099       0.3189       2.7106
