#------------------------------------------------------------------------------
#
#   Created by  : [OpenWorks] Log Export Utility (LEXP)
#   Created on  : 2016-05-18 16:36:11
#   Project     : CANT971
#   User        : R5K
#   Interpreter : PEP
#
#------------------------------------------------------------------------------
~VERSION INFORMATION
VERS. 2.0 : CWLS Log ASCII Standard - version 2.0
WRAP.  NO : One line per depth step
~WELL INFORMATION
#MNEMONIC   .UNIT                                           VALUE :DESCRIPTION
#------------------------------------------------------------------------------
STRT        .M                                           551.6884 :START DEPTH
STOP        .M                                          3669.7925 :STOP DEPTH
STEP        .M                                             0.1524 :STEP
NULL        .                                           -999.2500 :NULL VALUE
COMP        .                                   PEMEX EXPL & PROD :COMPANY
WELL        .                                                2279 :WELL
FLD         .                                           CANTARELL :FIELD
LOC         .                                             UNKNOWN :LOCATION
CNTY        .                                      CD. DEL CARMEN :COUNTY
STAT        .                                            CAMPECHE :STATE
CTRY        .                                              MEXICO :COUNTRY
SRVC        .                                             UNKNOWN :SERVICE COMPANY
DATE        .                                             UNKNOWN :LOG DATE
UWI         .                                          3060000233 :UNIQUE WELL ID
XCOORD      .                                       600028.030000 :SURFACE X
YCOORD      .                                      2139445.390000 :SURFACE Y
LAT         .                                           19.347676 :LATITUDE
LON         .                                          -92.047667 :LONGITUDE
ELEV        .M                                            27.4000 :SURFACE ELEV
ELEV_TYPE   .                                                  KB :ELEV TYPE
~CURVE INFORMATION
#MNEMONIC.UNIT        API CODE       : CURVE DESCRIPTION
#------------------------------------------------------------------------------
DEPTH    .M                          : Measured Depth
CALI     .inches      UNKNOWN        : CALI:registros:rC:NONE:v0 (auto-composite)
DT       .UNKNOWN     UNKNOWN        : DT:registros:rC:NONE:v0 (auto-composite)
GR       .API         UNKNOWN        : GR:registros:rC:NONE:v0 (auto-composite)
ILD      .ohm.m       UNKNOWN        : ILD:registros:rC:NONE:v0 (auto-composite)
LLD      .ohm.m       UNKNOWN        : LLD:registros:rC:NONE:v0 (auto-composite)
LLS      .ohm.m       UNKNOWN        : LLS:registros:rC:NONE:v0 (auto-composite)
MSFL     .ohm.m       UNKNOWN        : MSFL:registros:rC:NONE:v0 (auto-composite)
NPHI     .UNKNOWN     UNKNOWN        : NPHI:registros:rC:NONE:v0 (auto-composite)
RHOB     .g/cm3       UNKNOWN        : RHOB:registros:rC:NONE:v0 (auto-composite)
~A     DEPTH         CALI           DT           GR          ILD          LLD          LLS         MSFL         NPHI         RHOB
# ...
   3660.3435       6.9280    -999.2500      42.0790    -999.2500    1007.4930     681.4240      75.2380       0.0258       2.6980
   3660.4961       6.9451    -999.2500      46.1600    -999.2500     889.4266     463.4213      51.4812       0.0243       2.7140
   3660.6484       6.9620    -999.2500      50.2190    -999.2500     771.9940     246.5890      27.8520       0.0245       2.7300
   3660.8008       6.9635    -999.2500      52.9441    -999.2500     653.6058     149.7132      25.0572       0.0280       2.7280
   3660.9531       6.9650    -999.2500      55.6550    -999.2500     535.8380      53.3450      22.2770       0.0326       2.7260
   3661.1057       6.9414    -999.2500      54.1612    -999.2500     416.8655     202.0742      27.3169       0.0360       2.7225
   3661.2581       6.9180    -999.2500      52.6750    -999.2500     298.5020     350.0420      32.3310       0.0377       2.7190
   3661.4104       6.8964    -999.2500      49.5557    -999.2500     170.2560     495.4152      69.9153       0.0369       2.7245
   3661.5627       6.8750    -999.2500      46.4520    -999.2500      42.6500     640.0630     107.3120       0.0349       2.7300
   3661.7153       6.8830    -999.2500      46.9126    -999.2500     485.8545     451.8393     118.7032       0.0329       2.7375
   3661.8677       6.8910    -999.2500      47.3710    -999.2500     926.9010     264.5320     130.0390       0.0313       2.7450
   3662.0200       6.8960    -999.2500      50.3575    -999.2500     707.6116     209.8568     123.0273       0.0308       2.7570
   3662.1724       6.9010    -999.2500      53.3250    -999.2500     489.7120     155.5280     116.0600       0.0307       2.7690
   3662.3247       6.9015    -999.2500      54.6225    -999.2500     331.1709     163.0764     117.5657       0.0304       2.7615
   3662.4773       6.9020    -999.2500      55.9120    -999.2500     173.6140     170.5780     119.0620       0.0299       2.7540
   3662.6296       6.8960    -999.2500      53.1611    -999.2500     179.0646     186.5481     118.3368       0.0293       2.7525
   3662.7820       6.8900    -999.2500      50.4270    -999.2500     184.4820     202.4210     117.6160       0.0282       2.7510
   3662.9343       6.8805    -999.2500      47.6342    -999.2500     210.7021     201.2134     109.8609       0.0261       2.7460
   3663.0869       6.8710    -999.2500      44.8580    -999.2500     236.7660     200.0130     102.1520       0.0241       2.7410
   3663.2393       6.8710    -999.2500      45.3198    -999.2500     199.1953     160.4365      97.7391       0.0232       2.7330
   3663.3916       6.8710    -999.2500      45.7790    -999.2500     161.8440     121.0910      93.3520       0.0231       2.7250
   3663.5439       6.8685    -999.2500      46.7648    -999.2500     117.8399      87.1200      90.1835       0.0241       2.6979
   3663.6965       6.8660    -999.2500      47.7450    -999.2500      74.0870      53.3430      87.0330       0.0276       2.6710
   3663.8489       6.8565    -999.2500      50.8737    -999.2500      63.0812      44.6051      92.9596       0.0354       2.5903
   3664.0012       6.8470    -999.2500      53.9850    -999.2500      52.1370      35.9160      98.8530       0.0454       2.5100
   3664.1536       6.8480    -999.2500      55.2204    -999.2500      46.3116      41.3197     106.0155       0.0556       2.4223
   3664.3059       6.8490    -999.2500      56.4490    -999.2500      40.5180      46.6940     113.1390       0.0625       2.3350
   3664.4585       6.8575    -999.2500      60.1238    -999.2500      41.3267      75.1003     119.1510       0.0620       2.2407
   3664.6108       6.8660    -999.2500      63.7790    -999.2500      42.1310     103.3550     125.1310       0.0574       2.1470
   3664.7632       6.8685    -999.2500      64.3415    -999.2500      49.8331     132.9245     129.4006       0.0514       2.2367
   3664.9155       6.8710    -999.2500      64.9010    -999.2500      57.4950     162.3400     133.6480       0.0448       2.3260
   3665.0681       6.8710    -999.2500      63.1395    -999.2500      77.0252     182.5920     137.6211       0.0382       2.4258
   3665.2205       6.8710    -999.2500      61.3870    -999.2500      96.4560     202.7410     141.5740       0.0337       2.5250
   3665.3728       6.8710    -999.2500      62.1454    -999.2500     123.0073     214.2876     141.5635       0.0341       2.6067
   3665.5251       6.8710    -999.2500      62.9000    -999.2500     149.4270     225.7770     141.5530       0.0378       2.6880
   3665.6777       6.8735    -999.2500      69.2403    -999.2500     180.1854     219.9138     139.3647       0.0438       2.6639
   3665.8301       6.8760    -999.2500      75.5500    -999.2500     210.7950     214.0790     137.1870       0.0491       2.6400
   3665.9824       6.8845    -999.2500      73.7202    -999.2500     226.1509     200.1029     116.2751       0.0504       2.6540
   3666.1348       6.8930    -999.2500      71.9020    -999.2500     241.4100     186.2150      95.4950       0.0493       2.6680
   3666.2871       6.8970    -999.2500      56.2231    -999.2500     245.6877     214.1192      74.9425       0.0473       2.6745
   3666.4397       6.9010    -999.2500      40.6410    -999.2500     249.9390     241.8510      54.5170       0.0432       2.6810
   3666.5920       6.9015    -999.2500      38.3210    -999.2500     252.1226     277.7031      43.2088       0.0355       2.7016
   3666.7444       6.9020    -999.2500      36.0150    -999.2500     254.2930     313.3380      31.9690       0.0276       2.7220
   3666.8967       6.9020    -999.2500      37.3098    -999.2500     255.6194     320.2074      30.1436       0.0225       2.7295
   3667.0493       6.9020    -999.2500      38.5970    -999.2500     256.9380     327.0360      28.3290       0.0204       2.7370
   3667.2017       6.8809    -999.2500      39.7383    -999.2500     254.3239     346.6911      19.2436       0.0220       2.7220
   3667.3540       6.8600    -999.2500      40.8730    -999.2500     251.7250     366.2320      10.2110       0.0243       2.7070
   3667.5063       6.8244    -999.2500      42.2354    -999.2500     258.9580     397.4250      19.7065       0.0248       2.7180
   3667.6589       6.7890    -999.2500      43.5900    -999.2500     266.1500     428.4410      29.1480       0.0245       2.7290
   3667.8113       6.7524    -999.2500      47.5279    -999.2500     318.3430     406.0603      52.9501       0.0246       2.7275
   3667.9636       6.7160    -999.2500      51.4440    -999.2500     370.2460     383.8040      76.6200       0.0255       2.7260
   3668.1160       6.6894    -999.2500      53.0002    -999.2500     379.2640     313.8020      65.7711       0.0277       2.7270
   3668.2683       6.6630    -999.2500      54.5480    -999.2500     388.2330     244.1800      54.9810       0.0302       2.7280
   3668.4209       6.6961    -999.2500      53.3884    -999.2500     286.9668     258.4378      36.7571       0.0320       2.7155
   3668.5732       6.7290    -999.2500      52.2350    -999.2500     186.2380     272.6200      18.6300       0.0332       2.7030
   3668.7256       6.7656    -999.2500      51.9357    -999.2500     229.4434     313.3119      52.8486       0.0337       2.6970
   3668.8779       6.8020    -999.2500      51.6380    -999.2500     272.4250     353.7930      86.8900       0.0346       2.6910
   3669.0305       6.8416    -999.2500      51.5518    -999.2500     239.3303     316.8852     102.5892       0.0371       2.7025
   3669.1829       6.8810    -999.2500      51.4660    -999.2500     206.4030     280.1640     118.2090       0.0401       2.7140
   3669.3352    -453.3096    -999.2500      50.8375    -999.2500     134.7605     209.7720     104.5804       0.0422       2.7215
   3669.4875    -910.4970    -999.2500      50.2120    -999.2500      63.4710     139.7270      91.0190       0.0436       2.7290
   3669.6401    -999.2500    -999.2500      50.1519    -999.2500      60.1164     139.7270      89.8798       0.0441       2.7295
