#------------------------------------------------------------------------------
#
#   Created by  : [OpenWorks] Log Export Utility (LEXP)
#   Created on  : 2016-05-18 16:36:11
#   Project     : CANT971
#   User        : R5K
#   Interpreter : PEP
#
#------------------------------------------------------------------------------
~VERSION INFORMATION
VERS. 2.0 : CWLS Log ASCII Standard - version 2.0
WRAP.  NO : One line per depth step
~WELL INFORMATION
#MNEMONIC   .UNIT                                           VALUE :DESCRIPTION
#------------------------------------------------------------------------------
STRT        .M                                           551.6884 :START DEPTH
STOP        .M                                          3669.7925 :STOP DEPTH
STEP        .M                                             0.1524 :STEP
NULL        .                                           -999.2500 :NULL VALUE
COMP        .                                   PEMEX EXPL & PROD :COMPANY
WELL        .                                                2279 :WELL
FLD         .                                           CANTARELL :FIELD
LOC         .                                             UNKNOWN :LOCATION
CNTY        .                                      CD. DEL CARMEN :COUNTY
STAT        .                                            CAMPECHE :STATE
CTRY        .                                              MEXICO :COUNTRY
SRVC        .                                             UNKNOWN :SERVICE COMPANY
DATE        .                                             UNKNOWN :LOG DATE
UWI         .                                          3060000233 :UNIQUE WELL ID
XCOORD      .                                       600028.030000 :SURFACE X
YCOORD      .                                      2139445.390000 :SURFACE Y
LAT         .                                           19.347676 :LATITUDE
LON         .                                          -92.047667 :LONGITUDE
ELEV        .M                                            27.4000 :SURFACE ELEV
ELEV_TYPE   .                                                  KB :ELEV TYPE
~CURVE INFORMATION
#MNEMONIC.UNIT        API CODE       : CURVE DESCRIPTION
#------------------------------------------------------------------------------
DEPTH    .M                          : Measured Depth
CALI     .inches      UNKNOWN        : CALI:registros:rC:NONE:v0 (auto-composite)
DT       .UNKNOWN     UNKNOWN        : DT:registros:rC:NONE:v0 (auto-composite)
GR       .API         UNKNOWN        : GR:registros:rC:NONE:v0 (auto-composite)
ILD      .ohm.m       UNKNOWN        : ILD:registros:rC:NONE:v0 (auto-composite)
LLD      .ohm.m       UNKNOWN        : LLD:registros:rC:NONE:v0 (auto-composite)
LLS      .ohm.m       UNKNOWN        : LLS:registros:rC:NONE:v0 (auto-composite)
MSFL     .ohm.m       UNKNOWN        : MSFL:registros:rC:NONE:v0 (auto-composite)
NPHI     .UNKNOWN     UNKNOWN        : NPHI:registros:rC:NONE:v0 (auto-composite)
RHOB     .g/cm3       UNKNOWN        : RHOB:registros:rC:NONE:v0 (auto-composite)
~A     DEPTH         CALI           DT           GR          ILD          LLD          LLS         MSFL         NPHI         RHOB
# ...
   3282.3916       9.6700      65.1080      18.6470    -999.2500      25.0000      31.1780       2.7740       0.0693       2.5600
   3282.5439       9.6700      65.4542      19.2251    -999.2500      25.0000      31.4397       2.8121       0.0675       2.5600
   3282.6965       9.6700      65.8000      19.8000    -999.2500      25.0000      31.7000       2.8500       0.0682       2.5600
   3282.8489       9.6208      64.6495      22.5076    -999.2500      24.5395      29.9491       2.7848       0.0712       2.5580
   3283.0012       9.5720      63.5000      25.2000    -999.2500      24.0830      28.2080       2.7200       0.0762       2.5560
   3283.1536       9.4927      63.6070      24.4926    -999.2500      23.3383      24.5941       2.7601       0.0860       2.5485
   3283.3059       9.4140      63.7140      23.7890    -999.2500      22.6000      21.0000       2.8000       0.0946       2.5410
   3283.4585       9.3718      63.9571      21.8894    -999.2500      24.1064      21.7771       2.7890       0.0949       2.5254
   3283.6108       9.3300      64.2000      20.0000    -999.2500      25.6000      22.5500       2.7780       0.0913       2.5100
   3283.7632       9.3300      63.9204      20.0000    -999.2500      25.3595      24.1792       2.6185       0.0830       2.5100
   3283.9155       9.3300      63.6410      20.0000    -999.2500      25.1210      25.8000       2.4600       0.0752       2.5100
   3284.0681       9.3300      62.9253      20.5399    -999.2500      24.1364      25.4035       2.6607       0.0739       2.5055
   3284.2205       9.3300      62.2110      21.0770    -999.2500      23.1600      25.0090       2.8600       0.0757       2.5010
   3284.3728       9.3410      61.3442      21.9406    -999.2500      21.4807      23.8752       2.7973       0.0814       2.4905
   3284.5251       9.3520      60.4790      22.8000    -999.2500      19.8150      22.7470       2.7350       0.0869       2.4800
   3284.6777       9.3791      59.9175      22.5178    -999.2500      18.1172      21.2684       2.4365       0.0880       2.4800
   3284.8301       9.4060      59.3570      22.2370    -999.2500      16.4330      19.7970       2.1400       0.0879       2.4800
   3284.9824       9.4733      59.1333      21.5629    -999.2500      14.9105      18.7480       2.2423       0.0873       2.4900
   3285.1348       9.5400      58.9100      20.8930    -999.2500      13.4000      17.7040       2.3440       0.0870       2.5000
   3285.2871       9.4898      57.8042      20.4451    -999.2500      13.5295      17.0505       2.5980       0.0880       2.4980
   3285.4397       9.4400      56.7000      20.0000    -999.2500      13.6580      16.4000       2.8500       0.0906       2.4960
   3285.5920       9.4485      56.7876      20.0000    -999.2500      14.0865      16.5725       2.7938       0.0982       2.4865
   3285.7444       9.4570      56.8750      20.0000    -999.2500      14.5110      16.7440       2.7380       0.1087       2.4770
   3285.8967       9.4861      57.2942      20.0000    -999.2500      15.0942      16.9727       2.5332       0.1247       2.4594
   3286.0493       9.5150      57.7130      20.0000    -999.2500      15.6720      17.2000       2.3300       0.1433       2.4420
   3286.2017       9.5376      58.5454      20.3741    -999.2500      16.5771      17.3309       2.3300       0.1657       2.4159
   3286.3540       9.5600      59.3770      20.7460    -999.2500      17.4740      17.4610       2.3300       0.1838       2.3900
   3286.5063       9.5359      60.4675      21.8206    -999.2500      18.9269      18.0803       2.3817       0.1835       2.4051
   3286.6589       9.5120      61.5570      22.8890    -999.2500      20.3670      18.6960       2.4330       0.1774       2.4200
   3286.8113       9.4743      63.1291      23.9118    -999.2500      22.1413      20.8039       2.5770       0.1695       2.4100
   3286.9636       9.4370      64.7000      24.9290    -999.2500      23.9000      22.9000       2.7200       0.1628       2.4000
   3287.1160       9.3833      61.0988      25.2654    -999.2500      22.8666      22.2081       2.6839       0.1625       2.4065
   3287.2683       9.3300      57.5000      25.6000    -999.2500      21.8420      21.5200       2.6480       0.1635       2.4130
   3287.4209       9.3300      59.0969      25.2887    -999.2500      19.2098      19.8055       2.4884       0.1627       2.4235
   3287.5732       9.3300      60.6930      24.9790    -999.2500      16.6000      18.1000       2.3300       0.1604       2.4340
   3287.7256       9.3300      64.0101      24.1869    -999.2500      19.4118      18.2544       2.3757       0.1550       2.4415
   3287.8779       9.3300      67.3260      23.3990    -999.2500      22.2000      18.4080       2.4210       0.1479       2.4490
   3288.0305       9.3300      70.6161      22.6075    -999.2500      21.0954      20.2086       2.5499       0.1383       2.4646
   3288.1829       9.3300      73.9000      21.8200    -999.2500      20.0000      22.0000       2.6780       0.1289       2.4800
   3288.3352       9.3235      73.6983      21.3248    -999.2500      20.1998      20.9975       2.7693       0.1223       2.4650
   3288.4875       9.3170      73.4970      20.8320    -999.2500      20.3980      20.0000       2.8600       0.1172       2.4500
   3288.6401       9.2683      72.9340      20.1143    -999.2500      21.3001      20.2215       2.7883       0.1145       2.4600
   3288.7925       9.2200      72.3720      19.4000    -999.2500      22.1950      20.4420       2.7170       0.1122       2.4700
   3288.9448       9.2200      71.6935      19.5349    -999.2500      23.3520      21.5175       2.0665       0.1091       2.4600
   3289.0972       9.2200      71.0160      19.6690    -999.2500      24.5000      22.5880       1.4200       0.1057       2.4500
   3289.2495       9.2200      69.8462      20.0612    -999.2500      24.2480      24.1977       1.4903       0.1024       2.4570
   3289.4021       9.2200      68.6780      20.4510    -999.2500      23.9980      25.8000       1.5600       0.0985       2.4640
   3289.5544       9.2200      67.1235      20.8622    -999.2500      22.8683      25.4078       1.7015       0.0930       2.4790
   3289.7068       9.2200      65.5710      21.2710    -999.2500      21.7490      25.0180       1.8420       0.0884       2.4940
   3289.8591       9.2200      64.4544      22.2885    -999.2500      20.6128      23.7528       2.0869       0.0886       2.5065
   3290.0117       9.2200      63.3390      23.3000    -999.2500      19.4870      22.4950       2.3300       0.0893       2.5190
   3290.1641       9.2200      62.7692      22.3668    -999.2500      18.8687      21.0543       2.3165       0.0871       2.5290
   3290.3164       9.2200      62.2000      21.4390    -999.2500      18.2560      19.6220       2.3030       0.0848       2.5390
   3290.4688       9.2406      62.2000      19.7908    -999.2500      16.3697      18.0566       2.0641       0.0845       2.5546
   3290.6211       9.2610      62.2000      18.1520    -999.2500      14.5000      16.5000       1.8270       0.0851       2.5700
   3290.7737       9.2901      61.9944      16.8725    -999.2500      15.4039      16.8008       1.2063       0.0869       2.5610
   3290.9260       9.3190      61.7890      15.6000    -999.2500      16.3000      17.1000       0.5900       0.0895       2.5520
   3291.0784       9.3316      61.1943      15.6000    -999.2500      15.5970      16.8192       0.8068       0.0941       2.5309
   3291.2307       9.3440      60.6000      15.6000    -999.2500      14.9000      16.5400       1.0220       0.0993       2.5100
   3291.3833       9.4424      60.8526      15.6917    -999.2500      15.1927      15.9685       1.8609       0.1051       2.5170
   3291.5356       9.5400      61.1050      15.7830    -999.2500      15.4830      15.4000       2.6940       0.1090       2.5240
   3291.6880       9.5194      61.6526      16.0532    -999.2500      17.2478      16.2657       3.9823       0.1052       2.5391
