#------------------------------------------------------------------------------
#
#   Created by  : [OpenWorks] Log Export Utility (LEXP)
#   Created on  : 2016-05-18 16:36:11
#   Project     : CANT971
#   User        : R5K
#   Interpreter : PEP
#
#------------------------------------------------------------------------------
~VERSION INFORMATION
VERS. 2.0 : CWLS Log ASCII Standard - version 2.0
WRAP.  NO : One line per depth step
~WELL INFORMATION
#MNEMONIC   .UNIT                                           VALUE :DESCRIPTION
#------------------------------------------------------------------------------
STRT        .M                                           551.6884 :START DEPTH
STOP        .M                                          3669.7925 :STOP DEPTH
STEP        .M                                             0.1524 :STEP
NULL        .                                           -999.2500 :NULL VALUE
COMP        .                                   PEMEX EXPL & PROD :COMPANY
WELL        .                                                2279 :WELL
FLD         .                                           CANTARELL :FIELD
LOC         .                                             UNKNOWN :LOCATION
CNTY        .                                      CD. DEL CARMEN :COUNTY
STAT        .                                            CAMPECHE :STATE
CTRY        .                                              MEXICO :COUNTRY
SRVC        .                                             UNKNOWN :SERVICE COMPANY
DATE        .                                             UNKNOWN :LOG DATE
UWI         .                                          3060000233 :UNIQUE WELL ID
XCOORD      .                                       600028.030000 :SURFACE X
YCOORD      .                                      2139445.390000 :SURFACE Y
LAT         .                                           19.347676 :LATITUDE
LON         .                                          -92.047667 :LONGITUDE
ELEV        .M                                            27.4000 :SURFACE ELEV
ELEV_TYPE   .                                                  KB :ELEV TYPE
~CURVE INFORMATION
#MNEMONIC.UNIT        API CODE       : CURVE DESCRIPTION
#------------------------------------------------------------------------------
DEPTH    .M                          : Measured Depth
CALI     .inches      UNKNOWN        : CALI:registros:rC:NONE:v0 (auto-composite)
DT       .UNKNOWN     UNKNOWN        : DT:registros:rC:NONE:v0 (auto-composite)
GR       .API         UNKNOWN        : GR:registros:rC:NONE:v0 (auto-composite)
ILD      .ohm.m       UNKNOWN        : ILD:registros:rC:NONE:v0 (auto-composite)
LLD      .ohm.m       UNKNOWN        : LLD:registros:rC:NONE:v0 (auto-composite)
LLS      .ohm.m       UNKNOWN        : LLS:registros:rC:NONE:v0 (auto-composite)
MSFL     .ohm.m       UNKNOWN        : MSFL:registros:rC:NONE:v0 (auto-composite)
NPHI     .UNKNOWN     UNKNOWN        : NPHI:registros:rC:NONE:v0 (auto-composite)
RHOB     .g/cm3       UNKNOWN        : RHOB:registros:rC:NONE:v0 (auto-composite)
~A     DEPTH         CALI           DT           GR          ILD          LLD          LLS         MSFL         NPHI         RHOB
# ...
   2961.1323       9.3300      66.3510      36.4440    -999.2500      16.4960       4.2300       2.0420       0.1920       2.5560
   2961.2849       9.3300      64.7952      45.5453    -999.2500      10.1566       4.5248       1.3833       0.2203       2.5691
   2961.4373       9.3300      63.2400      54.6000    -999.2500       3.8900       4.8180       0.7300       0.2411       2.5820
   2961.5896       9.3300      60.2197      54.3599    -999.2500       3.9136      14.4832       0.8093       0.2414       2.5915
   2961.7419       9.3300      57.2000      54.1210    -999.2500       3.9370      24.1000       0.8880       0.2244       2.6010
   2961.8945       9.3300      57.2675      52.2494    -999.2500       4.5635      23.2108       1.4965       0.1886       2.6457
   2962.0469       9.3300      57.3350      50.3870    -999.2500       5.1830      22.3260       2.1000       0.1472       2.6900
   2962.1992       9.3300      58.2265      46.2393    -999.2500      10.4709      17.3512       1.7988       0.1119       2.6549
   2962.3516       9.3300      59.1180      42.1180    -999.2500      15.7000      12.4000       1.5000       0.0848       2.6200
   2962.5039       9.3300      62.0288      39.6172    -999.2500      13.2867      13.7757       1.5457       0.0702       2.6351
   2962.6565       9.3300      64.9400      37.1320    -999.2500      10.9000      15.1450       1.5910       0.0634       2.6500
   2962.8088       9.3300      66.9687      36.0357    -999.2500      12.3916      36.1698       1.9920       0.0622       2.6450
   2962.9612       9.3300      68.9980      34.9460    -999.2500      13.8670      57.1000       2.3900       0.0675       2.6400
   2963.1135       9.3300      72.0484      34.2830    -999.2500      30.2716      54.7529       2.3790       0.0818       2.6551
   2963.2661       9.3300      75.1000      33.6240    -999.2500      46.5000      52.4160       2.3680       0.0954       2.6700
   2963.4185       9.3300      73.9503      33.0308    -999.2500      41.7578      42.0450       2.2751       0.0985       2.6690
   2963.5708       9.3300      72.8000      32.4410    -999.2500      37.0660      31.7180       2.1830       0.0951       2.6680
   2963.7231       9.3300      72.9596      31.1167    -999.2500      24.2659      23.8928       1.9399       0.0875       2.6590
   2963.8757       9.3300      73.1190      29.8000    -999.2500      11.6000      16.1000       1.6990       0.0770       2.6500
   2964.0281       9.3300      74.3100      31.0535    -999.2500      12.1368      16.9073       1.4765       0.0642       2.6530
   2964.1804       9.3300      75.5000      32.3000    -999.2500      12.6680      17.7100       1.2560       0.0520       2.6560
   2964.3328       9.3300      74.1455      31.7530    -999.2500      16.1126      22.6625       1.1777       0.0435       2.6700
   2964.4851       9.3300      72.7920      31.2090    -999.2500      19.5220      27.5880       1.1000       0.0383       2.6840
   2964.6377       9.3300      64.7938      28.7234    -999.2500      24.8238      32.8155       1.1115       0.0367       2.7121
   2964.7900       9.3300      56.8000      26.2510    -999.2500      30.0720      38.0150       1.1230       0.0375       2.7400
   2964.9424       9.3300      57.9502      24.5826    -999.2500      54.3574      62.6217       1.1838       0.0400       2.7390
   2965.0947       9.3300      59.1000      22.9230    -999.2500      78.4000      87.1000       1.2440       0.0425       2.7380
   2965.2473       9.3300      57.9498      20.5053    -999.2500      73.6412      82.6196       1.4278       0.0432       2.7320
   2965.3997       9.3300      56.8000      18.1000    -999.2500      68.9370      78.1620       1.6100       0.0429       2.7260
   2965.5520       9.3300      57.3000      18.2348    -999.2500      50.2125      63.8454       1.5879       0.0421       2.7160
   2965.7043       9.3300      57.8000      18.3690    -999.2500      31.7000      49.6000       1.5660       0.0397       2.7060
   2965.8569       9.3300      57.7375      19.0316    -999.2500      34.4092      53.8478       1.2517       0.0343       2.6879
   2966.0093       9.3300      57.6750      19.6910    -999.2500      37.0880      58.0750       0.9400       0.0293       2.6700
   2966.1616       9.3300      57.2395      20.2789    -999.2500      56.4346      86.6048       1.0504       0.0279       2.6710
   2966.3140       9.3300      56.8040      20.8630    -999.2500      75.5670     115.0000       1.1600       0.0285       2.6720
   2966.4663       9.3300      55.8946      20.9819    -999.2500      97.9059     111.6132       1.0596       0.0298       2.6780
   2966.6189       9.3300      54.9850      21.1000    -999.2500     120.0000     108.2420       0.9600       0.0323       2.6840
   2966.7712       9.3300      53.8927      21.1421    -999.2500     113.1896      94.6336       1.0032       0.0365       2.6970
   2966.9236       9.3300      52.8000      21.1840    -999.2500     106.4530      81.0860       1.0460       0.0420       2.7100
   2967.0759       9.3300      52.8000      21.5556    -999.2500      83.2643      70.2374       1.2543       0.0488       2.7050
   2967.2285       9.3300      52.8000      21.9250    -999.2500      60.3240      59.4360       1.4610       0.0557       2.7000
   2967.3809       9.3300      52.8000      22.8111    -999.2500      47.4107      49.6009       1.5228       0.0618       2.7050
   2967.5332       9.3300      52.8000      23.6920    -999.2500      34.6340      39.8230       1.5840       0.0673       2.7100
   2967.6855       9.3300      52.6925      24.5986    -999.2500      28.0868      32.9921       1.8984       0.0720       2.7050
   2967.8381       9.3300      52.5850      25.5000    -999.2500      21.6080      26.2000       2.2100       0.0757       2.7000
   2967.9905       9.3300      51.6421      25.4784    -999.2500      18.6387      23.1916       1.8836       0.0781       2.7010
   2968.1428       9.3300      50.7000      25.4570    -999.2500      15.7000      20.2000       1.5600       0.0796       2.7020
   2968.2952       9.3300      50.7435      25.1823    -999.2500      16.2026      20.4005       1.6072       0.0800       2.7060
   2968.4475       9.3300      50.7870      24.9090    -999.2500      16.7000      20.6000       1.6540       0.0799       2.7100
   2968.6001       9.3300      51.2816      23.9840    -999.2500      16.6889      19.3968       1.9151       0.0798       2.7000
   2968.7524       9.3300      51.7760      23.0640    -999.2500      16.6780      18.2000       2.1740       0.0793       2.6900
   2968.9048       9.3300      54.2385      22.1366    -999.2500      16.1363      18.8246       2.5938       0.0781       2.6900
   2969.0571       9.3300      56.7000      21.2140    -999.2500      15.6000      19.4460       3.0100       0.0770       2.6900
   2969.2097       9.3300      56.4000      20.6055    -999.2500      15.9580      22.5308       2.9814       0.0767       2.6900
   2969.3621       9.3300      56.1000      20.0000    -999.2500      16.3120      25.6000       2.9530       0.0766       2.6900
   2969.5144       9.3300      56.2665      20.0000    -999.2500      18.0156      25.2496       2.6699       0.0764       2.6900
   2969.6667       9.3300      56.4330      20.0000    -999.2500      19.7000      24.9010       2.3890       0.0748       2.6900
   2969.8193       9.3300      57.2285      20.0000    -999.2500      19.4541      22.9458       1.7771       0.0704       2.6900
   2969.9717       9.3300      58.0240      20.0000    -999.2500      19.2110      21.0000       1.1700       0.0663       2.6900
   2970.1240       9.3300      58.9120      20.0000    -999.2500      18.0491      21.3794       1.1710       0.0650       2.6890
   2970.2764       9.3300      59.8000      20.0000    -999.2500      16.9000      21.7570       1.1720       0.0664       2.6880
   2970.4287       9.3300      59.6000      20.1244    -999.2500      17.4108      26.5895       1.3517       0.0707       2.6689
