#------------------------------------------------------------------------------
#
#   Created by  : [OpenWorks] Log Export Utility (LEXP)
#   Created on  : 2016-05-18 13:39:54
#   Project     : CANT971
#   User        : R5K
#   Interpreter : PEP
#
#------------------------------------------------------------------------------
~VERSION INFORMATION
VERS. 2.0 : CWLS Log ASCII Standard - version 2.0
WRAP.  NO : One line per depth step
~WELL INFORMATION
#MNEMONIC   .UNIT                                           VALUE :DESCRIPTION
#------------------------------------------------------------------------------
STRT        .M                                          1895.0742 :START DEPTH
STOP        .M                                          3665.6575 :STOP DEPTH
STEP        .M                                             0.1524 :STEP
NULL        .                                           -999.2500 :NULL VALUE
COMP        .                                             UNKNOWN :COMPANY
WELL        .                                              227D-V :WELL
FLD         .                                             UNKNOWN :FIELD
LOC         .                                             UNKNOWN :LOCATION
CNTY        .                                             UNKNOWN :COUNTY
STAT        .                                             UNKNOWN :STATE
CTRY        .                                             UNKNOWN :COUNTRY
SRVC        .                                             UNKNOWN :SERVICE COMPANY
DATE        .                                             UNKNOWN :LOG DATE
UWI         .                                              227D-V :UNIQUE WELL ID
XCOORD      .                                            0.000000 :SURFACE X
YCOORD      .                                            0.000000 :SURFACE Y
LAT         .                                            0.000000 :LATITUDE
LON         .                                            0.000000 :LONGITUDE
ELEV        .M                                             0.0000 :SURFACE ELEV
ELEV_TYPE   .                                                  KB :ELEV TYPE
~CURVE INFORMATION
#MNEMONIC.UNIT        API CODE       : CURVE DESCRIPTION
#------------------------------------------------------------------------------
DEPTH    .M                          : Measured Depth
CGR      .API         UNKNOWN        : CGR:Espectrometria:rC:NONE:v0 (auto-composite)
DRHO-LWD .g/cm3       UNKNOWN        : DRHO-LWD:registros-LWD:rC:NONE:v0 (auto-composite)
DT       .us/ft       UNKNOWN        : DT:litodensidad_247:rC:NONE:v0 (auto-composite)
GR       .API         UNKNOWN        : GR:GR-Load:rC:NONE:v0 (auto-composite)
GR-LWD   .API         UNKNOWN        : GR-LWD:PETROWORKS:rC:NONE:v2 
ILD-LWD  .UNKNOWN     UNKNOWN        : ILD-LWD:PETROWORKS:rC:NONE:v3 
ILM-LWD  .UNKNOWN     UNKNOWN        : ILM-LWD:PETROWORKS:rC:NONE:v3 
LLD      .ohm.m       UNKNOWN        : LLD:resistivos:rC:NONE:v0 (auto-composite)
LLS      .ohm.m       UNKNOWN        : LLS:resistivos:rC:NONE:v0 (auto-composite)
MSFL     .ohm.m       UNKNOWN        : MSFL:resistivos:rC:NONE:v0 (auto-composite)
NPHI     .v/v_decimal UNKNOWN        : NPHI:litodensidad_247:rC:NONE:v0 (auto-composite)
POTA     .UNKNOWN     UNKNOWN        : POTA:Espectrometria:rC:NONE:v0 (auto-composite)
RHOB     .UNKNOWN     UNKNOWN        : RHOB:litodensidad_247:rC:NONE:v0 (auto-composite)
SP       .mV          UNKNOWN        : SP:resistivos:rC:NONE:v0 (auto-composite)
THOR     .ppm         UNKNOWN        : THOR:Espectrometria:rC:NONE:v0 (auto-composite)
URAN     .ppm         UNKNOWN        : URAN:Espectrometria:rC:NONE:v0 (auto-composite)
~A     DEPTH          CGR     DRHO-LWD           DT           GR       GR-LWD      ILD-LWD      ILM-LWD          LLD          LLS         MSFL         NPHI         POTA         RHOB           SP         THOR         URAN
# ...
   3135.6101       3.3777    -999.2500      51.3523      15.5025      31.3768      83.1460      86.6939   13051.1221   13051.7539       9.9156       0.0301       0.0010       2.7424     108.6931       0.5189       1.5599
   3135.7627       3.4614    -999.2500      50.8513      15.7192      31.9705      84.1246      87.9573   86969.5859   86969.6797   86970.4219       0.0306       0.0010       2.7481     108.3261       0.5250       1.5748
   3135.9150       3.4937    -999.2500      49.9189      16.2927      32.5086      86.5260      90.4715   12994.6250   12994.9756   12998.5488       0.0317       0.0010       2.7565     109.6257       0.5545       1.6334
   3136.0674       3.6104    -999.2500      49.1833      16.3398      32.5386      87.7572      92.6792       3.4690       3.8177       6.9628       0.0323       0.0010       2.7663     114.4911       0.5804       1.6250
   3136.2197       3.5349    -999.2500      48.9341      16.4769      32.4105      89.0907      94.4961   87080.2500   87080.2891   87080.6797       0.0315       0.0009       2.7746     113.9902       0.5873       1.6505
   3136.3723       3.2154    -999.2500      48.9509      16.1430      32.5311      90.7704      96.6317  100000.0000  100000.0000  100000.0000       0.0304       0.0008       2.7791     115.0628       0.5401       1.6622
   3136.5247       3.1171    -999.2500      49.0266      16.3414      32.7135      91.2514      97.9061  100000.0000  100000.0000  100000.0000       0.0300       0.0008       2.7791     109.4323       0.5326       1.7030
   3136.6770       3.0724    -999.2500      49.0449      16.5539      32.5213      91.5982      98.9328   12974.6436  100000.0000   13108.1152       0.0300       0.0007       2.7741     113.1860       0.5583       1.7304
   3136.8293       3.1247    -999.2500      48.9832      16.4483      32.2364      92.6993      99.9947     152.6613   12936.9932    2459.5654       0.0298       0.0007       2.7648     121.8743       0.5962       1.7094
   3136.9819       3.3079    -999.2500      48.9175      16.4911      31.3841      93.7697     100.4406   86987.4844       5.3056     365.5642       0.0288       0.0007       2.7520     115.5074       0.6303       1.6768
   3137.1343       3.4400    -999.2500      48.8928      16.1546      30.2050      93.9331     100.5308  100000.0000   86981.4688   86980.8281       0.0263       0.0008       2.7427     113.8314       0.6576       1.6160
   3137.2866       3.3972    -999.2500      48.8915      16.1137      29.3067      93.5252     100.2645   13155.7041   13014.3760   12983.5352       0.0240       0.0007       2.7417     118.2097       0.6506       1.6206
   3137.4390       3.3706    -999.2500      48.9675      16.2195      29.2900      94.6710     100.6848   87080.4141   87059.3828   87054.7969       0.0234       0.0007       2.7459     114.1414       0.6474       1.6217
   3137.5913       3.2683    -999.2500      49.3089      16.0821      29.9787      95.7695     101.2084  100000.0000   13112.6582   15284.8652       0.0240       0.0007       2.7524     108.4378       0.6366       1.6199
   3137.7439       3.2501    -999.2500      49.8973      15.9614      30.2752      96.6432     101.3573  100000.0000      51.8075     335.3617       0.0254       0.0007       2.7634     112.1446       0.6133       1.6059
   3137.8962       3.3455    -999.2500      50.3649      15.6254      30.4399      95.0513      98.7317  100000.0000   87011.4141   87005.1406       0.0271       0.0008       2.7805     107.8641       0.6060       1.5419
   3138.0486       3.7037    -999.2500      50.4833      15.5562      30.0108      94.1132      96.9248   12958.5049   12957.9961   12958.0361       0.0287       0.0009       2.7956     103.4257       0.6534       1.4717
   3138.2009       3.8905    -999.2500      50.2822      15.6908      29.1881      96.7955      99.3063   87079.0547   87078.9844   87078.9844       0.0297       0.0009       2.8026      99.8272       0.7298       1.4701
   3138.3535       4.0842    -999.2500      49.8456      15.5586      27.9956      97.5947     100.3522   13023.9961   13023.5312   13023.5752       0.0300       0.0009       2.7994      99.8099       0.7651       1.4148
   3138.5059       4.1891    -999.2500      49.3070      15.1662      26.0469      96.3051      99.2497       0.4371       0.0347      85.2197       0.0305       0.0009       2.7865      97.9720       0.8079       1.3586
   3138.6582       3.9777    -999.2500      48.7918      14.9111      24.7401      94.9131      98.3133   87029.5391   87029.4922   87042.1953       0.0318       0.0008       2.7789      88.2774       0.7982       1.3702
   3138.8105       3.8050    -999.2500      48.4537      14.4005      23.3122      90.8981      94.2244   12933.6543   12933.5967   12933.6611       0.0325       0.0008       2.7879      85.8955       0.7479       1.3299
   3138.9631       3.9874    -999.2500      48.3530      14.2314      23.2538      91.0341      93.7367       0.7391       0.0264       7.1645       0.0314       0.0008       2.8011      81.5649       0.7811       1.2858
   3139.1155       3.7920    -999.2500      48.3770      13.6935      23.7506      92.6634      94.5575       0.9033       0.4559       1.4159       0.0302       0.0008       2.8077      76.1536       0.7326       1.2448
   3139.2678       3.5735    -999.2500      48.4791      12.9938      24.6638      91.1335      95.0264       0.2196   87016.9922       0.1642       0.0300       0.0008       2.8045     103.8268       0.6946       1.1752
   3139.4202       3.3322    -999.2500      48.7215      11.9526      25.1106      92.2152      95.0434      29.2313   12952.0713       2.7706       0.0300       0.0006       2.7889     159.5875       0.6766       1.0616
   3139.5725       3.1942    -999.2500      49.1388      11.3630      24.5571      90.3734      92.8112   86955.8047   86952.3125   86951.8359       0.0300       0.0006       2.7730     176.7603       0.6581       1.0176
   3139.7251       3.3609    -999.2500      49.6377      11.8939      24.1415      90.8805      91.8039   13055.0928  100000.0000  100000.0000       0.0294       0.0006       2.7672     120.3542       0.7240       1.0690
   3139.8774       3.7488    -999.2500      50.1286      12.8947      24.7930      86.1941      87.3189       3.7573   12995.6992   12995.7285       0.0276       0.0007       2.7705      73.2968       0.7776       1.1426
   3140.0298       3.9902    -999.2500      50.4595      13.3770      26.4400      82.8975      85.2424       0.6022       0.0569       6.7191       0.0253       0.0007       2.7839      70.8810       0.8589       1.1813
   3140.1821       4.1075    -999.2500      50.5196      13.5637      27.3450      80.8340      81.2362   87078.2891   87078.2109   87079.2031       0.0226       0.0009       2.7977      68.7627       0.8232       1.1816
   3140.3347       4.3263    -999.2500      50.3599      13.9039      26.9024      78.8487      78.7305  100000.0000  100000.0000  100000.0000       0.0206       0.0010       2.8032      72.7781       0.8272       1.1925
   3140.4871       4.3088    -999.2500      49.9570      14.1973      26.4476      70.1502      71.9230  100000.0000  100000.0000  100000.0000       0.0203       0.0009       2.8028      70.4472       0.8298       1.2266
   3140.6394       4.0399    -999.2500      49.2991      14.1170      26.3918      62.7429      64.2194   12973.6943  100000.0000   13358.4111       0.0210       0.0009       2.7954      84.7949       0.7767       1.2460
   3140.7917       4.0914    -999.2500      48.3903      14.0177      27.3948      56.0901      57.6195   87066.0000  100000.0000   87123.1797       0.0231       0.0008       2.7859      86.1838       0.8079       1.2344
   3140.9443       4.2236    -999.2500      47.7143      14.0740      28.4970      49.6361      50.4196   13579.6426   13079.0225   13037.1221       0.0258       0.0009       2.7778      97.3134       0.8152       1.2355
   3141.0967       4.3009    -999.2500      47.6268      14.2814      29.9346      43.2899      42.4907     115.2552      12.9004       0.1353       0.0289       0.0010       2.7740      97.5322       0.8150       1.2584
