#------------------------------------------------------------------------------
#
#   Created by  : [OpenWorks] Log Export Utility (LEXP)
#   Created on  : 2016-05-18 13:39:54
#   Project     : CANT971
#   User        : R5K
#   Interpreter : PEP
#
#------------------------------------------------------------------------------
~VERSION INFORMATION
VERS. 2.0 : CWLS Log ASCII Standard - version 2.0
WRAP.  NO : One line per depth step
~WELL INFORMATION
#MNEMONIC   .UNIT                                           VALUE :DESCRIPTION
#------------------------------------------------------------------------------
STRT        .M                                          1895.0742 :START DEPTH
STOP        .M                                          3665.6575 :STOP DEPTH
STEP        .M                                             0.1524 :STEP
NULL        .                                           -999.2500 :NULL VALUE
COMP        .                                             UNKNOWN :COMPANY
WELL        .                                              227D-V :WELL
FLD         .                                             UNKNOWN :FIELD
LOC         .                                             UNKNOWN :LOCATION
CNTY        .                                             UNKNOWN :COUNTY
STAT        .                                             UNKNOWN :STATE
CTRY        .                                             UNKNOWN :COUNTRY
SRVC        .                                             UNKNOWN :SERVICE COMPANY
DATE        .                                             UNKNOWN :LOG DATE
UWI         .                                              227D-V :UNIQUE WELL ID
XCOORD      .                                            0.000000 :SURFACE X
YCOORD      .                                            0.000000 :SURFACE Y
LAT         .                                            0.000000 :LATITUDE
LON         .                                            0.000000 :LONGITUDE
ELEV        .M                                             0.0000 :SURFACE ELEV
ELEV_TYPE   .                                                  KB :ELEV TYPE
~CURVE INFORMATION
#MNEMONIC.UNIT        API CODE       : CURVE DESCRIPTION
#------------------------------------------------------------------------------
DEPTH    .M                          : Measured Depth
CGR      .API         UNKNOWN        : CGR:Espectrometria:rC:NONE:v0 (auto-composite)
DRHO-LWD .g/cm3       UNKNOWN        : DRHO-LWD:registros-LWD:rC:NONE:v0 (auto-composite)
DT       .us/ft       UNKNOWN        : DT:litodensidad_247:rC:NONE:v0 (auto-composite)
GR       .API         UNKNOWN        : GR:GR-Load:rC:NONE:v0 (auto-composite)
GR-LWD   .API         UNKNOWN        : GR-LWD:PETROWORKS:rC:NONE:v2 
ILD-LWD  .UNKNOWN     UNKNOWN        : ILD-LWD:PETROWORKS:rC:NONE:v3 
ILM-LWD  .UNKNOWN     UNKNOWN        : ILM-LWD:PETROWORKS:rC:NONE:v3 
LLD      .ohm.m       UNKNOWN        : LLD:resistivos:rC:NONE:v0 (auto-composite)
LLS      .ohm.m       UNKNOWN        : LLS:resistivos:rC:NONE:v0 (auto-composite)
MSFL     .ohm.m       UNKNOWN        : MSFL:resistivos:rC:NONE:v0 (auto-composite)
NPHI     .v/v_decimal UNKNOWN        : NPHI:litodensidad_247:rC:NONE:v0 (auto-composite)
POTA     .UNKNOWN     UNKNOWN        : POTA:Espectrometria:rC:NONE:v0 (auto-composite)
RHOB     .UNKNOWN     UNKNOWN        : RHOB:litodensidad_247:rC:NONE:v0 (auto-composite)
SP       .mV          UNKNOWN        : SP:resistivos:rC:NONE:v0 (auto-composite)
THOR     .ppm         UNKNOWN        : THOR:Espectrometria:rC:NONE:v0 (auto-composite)
URAN     .ppm         UNKNOWN        : URAN:Espectrometria:rC:NONE:v0 (auto-composite)
~A     DEPTH          CGR     DRHO-LWD           DT           GR       GR-LWD      ILD-LWD      ILM-LWD          LLD          LLS         MSFL         NPHI         POTA         RHOB           SP         THOR         URAN
# ...
   3242.7473       1.8041       0.0237    -999.2500      32.4095      31.6191      24.2924      24.8186     332.9395     382.6165     548.9337    -999.2500       0.0004    -999.2500     389.7457       0.3379       3.7127
   3242.8999       1.8041       0.0133    -999.2500      32.4095      34.1975      26.0890      26.8530     332.9395     382.6165     548.9337    -999.2500       0.0004    -999.2500     393.1151       0.3379       3.7127
   3243.0522       1.8041       0.0200    -999.2500      32.4095      36.5563      26.8266      27.9007     332.9395     382.6165     548.9337    -999.2500       0.0004    -999.2500     397.6951       0.3379       3.7127
   3243.2046       1.8041       0.0273    -999.2500      32.4095      36.1110      27.1940      28.1484     332.9395     382.6165     548.9337    -999.2500       0.0004    -999.2500     397.2245       0.3379       3.7127
   3243.3569       1.8041       0.0400    -999.2500      32.4095      33.1592      28.5548      29.2949     332.9395     382.6165     548.9337    -999.2500       0.0004    -999.2500     400.9809       0.3379       3.7127
   3243.5095       1.8041       0.0440    -999.2500      32.4095      31.2351      29.4715      30.5574     332.9395     382.6165     548.9337    -999.2500       0.0004    -999.2500     410.0423       0.3379       3.7127
   3243.6619       1.8041       0.0418    -999.2500      32.4095      32.7594      29.8752      31.1047     332.9395     382.6165     548.9337    -999.2500       0.0004    -999.2500     413.5959       0.3379       3.7127
   3243.8142       1.8041       0.0257    -999.2500      32.4095      39.8457      31.0548      32.3433     332.9395     382.6165     548.9337    -999.2500       0.0004    -999.2500     414.1007       0.3379       3.7127
   3243.9666       1.8041       0.0244    -999.2500      32.4095      49.7065      33.0329      34.5270     332.9395     382.6165     548.9337    -999.2500       0.0004    -999.2500     409.5542       0.3379       3.7127
   3244.1191       1.8041       0.0346    -999.2500      32.4095      55.6156      33.6731      35.7319     332.9395     382.6165     548.9337    -999.2500       0.0004    -999.2500     408.8206       0.3379       3.7127
   3244.2715       1.8041       0.0448    -999.2500      32.4095      52.6435      36.5156      38.4297     332.9395     382.6165     548.9337    -999.2500       0.0004    -999.2500     410.8787       0.3379       3.7127
   3244.4238       1.8041       0.0451    -999.2500      32.4095      44.0678      37.1618      39.1652     332.9395     382.6165     548.9337    -999.2500       0.0004    -999.2500     411.4050       0.3379       3.7127
   3244.5762       1.8041       0.0400    -999.2500      32.4095      36.2238      39.5134      41.9342     332.9395     382.6165     548.9337    -999.2500       0.0004    -999.2500     411.2743       0.3379       3.7127
   3244.7285       1.8041       0.0348    -999.2500      32.4095      31.3531      40.3183      42.7739     332.9395     382.6165     548.9337    -999.2500       0.0004    -999.2500     410.5424       0.3379       3.7127
   3244.8811       1.8041       0.0246    -999.2500      32.4095      28.5641      41.3781      44.3439     332.9395     382.6165     548.9337    -999.2500       0.0004    -999.2500     409.2415       0.3379       3.7127
   3245.0334       1.8041       0.0200    -999.2500      32.4095      27.1334      41.9213      44.6322     332.9395     382.6165     548.9337    -999.2500       0.0004    -999.2500     413.5213       0.3379       3.7127
   3245.1858       1.8041       0.0257    -999.2500      32.4095      26.4983      40.6957      44.0154     332.9395     382.6165     548.9337    -999.2500       0.0004    -999.2500     421.2049       0.3379       3.7127
   3245.3381       1.8041       0.0300    -999.2500      32.4095      27.0722      41.0655      44.0659     332.9395     382.6165     548.9337    -999.2500       0.0004    -999.2500     423.0119       0.3379       3.7127
   3245.4907       1.8041       0.0240    -999.2500      32.4095      27.5477      40.4819      43.8065     332.9395     382.6165     548.9337    -999.2500       0.0004    -999.2500     420.1353       0.3379       3.7127
   3245.6431       1.8041       0.0200    -999.2500      32.4095      28.3556      38.1352      41.1641     332.9395     382.6165     548.9337    -999.2500       0.0004    -999.2500     414.3595       0.3379       3.7127
   3245.7954       1.8041       0.0327    -999.2500      32.4095      27.2361      37.9262      39.3132     332.9395     382.6165     548.9337    -999.2500       0.0004    -999.2500     409.8095       0.3379       3.7127
   3245.9478       1.8041       0.0465    -999.2500      32.4095      24.7009      39.0601      39.5934     332.9395     382.6165     548.9337    -999.2500       0.0004    -999.2500     411.9163       0.3379       3.7127
   3246.1001       1.8041       0.0433    -999.2500      32.4095      23.2874      39.3882      40.2977     332.9395     382.6165     548.9337    -999.2500       0.0004    -999.2500     412.9657       0.3379       3.7127
   3246.2527       1.8041       0.0263    -999.2500      32.4095      23.6008      37.8655      39.2213     332.9395     382.6165     548.9337    -999.2500       0.0004    -999.2500     412.6819       0.3379       3.7127
   3246.4050       1.8041       0.0060    -999.2500      32.4095      25.5416      37.0944      38.1230     332.9395     382.6165     548.9337    -999.2500       0.0004    -999.2500     412.5706       0.3379       3.7127
   3246.5574       1.8041       0.0286    -999.2500      32.4095      27.8290      37.4122      37.7402     332.9395     382.6165     548.9337    -999.2500       0.0004    -999.2500     412.3993       0.3379       3.7127
   3246.7097       1.8041       0.0546    -999.2500      32.4095      30.3723      40.9931      41.0878     332.9395     382.6165     548.9337    -999.2500       0.0004    -999.2500     418.3622       0.3379       3.7127
   3246.8623       1.8041       0.0375    -999.2500      32.4095      34.2530      51.6101      51.9762     332.9395     382.6165     548.9337    -999.2500       0.0004    -999.2500     421.1528       0.3379       3.7127
   3247.0146       1.8041       0.0071    -999.2500      32.4095      37.8777      59.9715      61.5183     332.9395     382.6165     548.9337    -999.2500       0.0004    -999.2500     423.3406       0.3379       3.7127
   3247.1670       1.8041      -0.0078    -999.2500      32.4095      39.5413      64.2365      68.9362     332.9395     382.6165     548.9337    -999.2500       0.0004    -999.2500     426.5625       0.3379       3.7127
   3247.3193       1.8041      -0.0020    -999.2500      32.4095      38.5866      60.7578      68.9320     332.9395     382.6165     548.9337    -999.2500       0.0004    -999.2500     426.0748       0.3379       3.7127
   3247.4719       1.8041       0.0081    -999.2500      32.4095      35.7059      55.2720      64.1435     332.9395     382.6165     548.9337    -999.2500       0.0004    -999.2500     425.3396       0.3379       3.7127
   3247.6243       1.8041       0.0017    -999.2500      32.4095      32.5206      53.6889      60.3575     332.9395     382.6165     548.9337    -999.2500       0.0004    -999.2500     426.5548       0.3379       3.7127
   3247.7766       1.8041       0.0000    -999.2500      32.4095      30.4428      51.5004      54.5715     332.9395     382.6165     548.9337    -999.2500       0.0004    -999.2500     430.3941       0.3379       3.7127
   3247.9290       1.8041       0.0000    -999.2500      32.4095      29.4760      49.6423      49.7926     332.9395     382.6165     548.9337    -999.2500       0.0004    -999.2500     430.5022       0.3379       3.7127
   3248.0813       1.8041       0.0000    -999.2500      32.4095      29.3684      47.8600      47.1827     332.9395     382.6165     548.9337    -999.2500       0.0004    -999.2500     431.5807       0.3379       3.7127
   3248.2339       1.8041       0.0089    -999.2500      32.4095      29.9825      44.8295      44.0155     332.9395     382.6165     548.9337    -999.2500       0.0004    -999.2500     433.6530       0.3379       3.7127
