#------------------------------------------------------------------------------
#
#   Created by  : [OpenWorks] Log Export Utility (LEXP)
#   Created on  : 2016-05-18 13:39:54
#   Project     : CANT971
#   User        : R5K
#   Interpreter : PEP
#
#------------------------------------------------------------------------------
~VERSION INFORMATION
VERS. 2.0 : CWLS Log ASCII Standard - version 2.0
WRAP.  NO : One line per depth step
~WELL INFORMATION
#MNEMONIC   .UNIT                                           VALUE :DESCRIPTION
#------------------------------------------------------------------------------
STRT        .M                                          1895.0742 :START DEPTH
STOP        .M                                          3665.6575 :STOP DEPTH
STEP        .M                                             0.1524 :STEP
NULL        .                                           -999.2500 :NULL VALUE
COMP        .                                             UNKNOWN :COMPANY
WELL        .                                              227D-V :WELL
FLD         .                                             UNKNOWN :FIELD
LOC         .                                             UNKNOWN :LOCATION
CNTY        .                                             UNKNOWN :COUNTY
STAT        .                                             UNKNOWN :STATE
CTRY        .                                             UNKNOWN :COUNTRY
SRVC        .                                             UNKNOWN :SERVICE COMPANY
DATE        .                                             UNKNOWN :LOG DATE
UWI         .                                              227D-V :UNIQUE WELL ID
XCOORD      .                                            0.000000 :SURFACE X
YCOORD      .                                            0.000000 :SURFACE Y
LAT         .                                            0.000000 :LATITUDE
LON         .                                            0.000000 :LONGITUDE
ELEV        .M                                             0.0000 :SURFACE ELEV
ELEV_TYPE   .                                                  KB :ELEV TYPE
~CURVE INFORMATION
#MNEMONIC.UNIT        API CODE       : CURVE DESCRIPTION
#------------------------------------------------------------------------------
DEPTH    .M                          : Measured Depth
CGR      .API         UNKNOWN        : CGR:Espectrometria:rC:NONE:v0 (auto-composite)
DRHO-LWD .g/cm3       UNKNOWN        : DRHO-LWD:registros-LWD:rC:NONE:v0 (auto-composite)
DT       .us/ft       UNKNOWN        : DT:litodensidad_247:rC:NONE:v0 (auto-composite)
GR       .API         UNKNOWN        : GR:GR-Load:rC:NONE:v0 (auto-composite)
GR-LWD   .API         UNKNOWN        : GR-LWD:PETROWORKS:rC:NONE:v2 
ILD-LWD  .UNKNOWN     UNKNOWN        : ILD-LWD:PETROWORKS:rC:NONE:v3 
ILM-LWD  .UNKNOWN     UNKNOWN        : ILM-LWD:PETROWORKS:rC:NONE:v3 
LLD      .ohm.m       UNKNOWN        : LLD:resistivos:rC:NONE:v0 (auto-composite)
LLS      .ohm.m       UNKNOWN        : LLS:resistivos:rC:NONE:v0 (auto-composite)
MSFL     .ohm.m       UNKNOWN        : MSFL:resistivos:rC:NONE:v0 (auto-composite)
NPHI     .v/v_decimal UNKNOWN        : NPHI:litodensidad_247:rC:NONE:v0 (auto-composite)
POTA     .UNKNOWN     UNKNOWN        : POTA:Espectrometria:rC:NONE:v0 (auto-composite)
RHOB     .UNKNOWN     UNKNOWN        : RHOB:litodensidad_247:rC:NONE:v0 (auto-composite)
SP       .mV          UNKNOWN        : SP:resistivos:rC:NONE:v0 (auto-composite)
THOR     .ppm         UNKNOWN        : THOR:Espectrometria:rC:NONE:v0 (auto-composite)
URAN     .ppm         UNKNOWN        : URAN:Espectrometria:rC:NONE:v0 (auto-composite)
~A     DEPTH          CGR     DRHO-LWD           DT           GR       GR-LWD      ILD-LWD      ILM-LWD          LLD          LLS         MSFL         NPHI         POTA         RHOB           SP         THOR         URAN
# ...
   3186.3594       2.1784       0.0140      55.3614      15.6303      21.0828      41.4910      45.6153     659.6892     639.4688     954.2263       0.0564       0.0007       2.7080     382.2523       0.3070       1.6734
   3186.5117       2.1626       0.0200      54.1834      16.5407      20.6500      41.9403      46.1246     515.6482     501.0876     641.9937       0.0564       0.0006       2.7149     382.3508       0.3188       1.7855
   3186.6643       1.8335       0.0243      52.6030      16.9277      19.5106      42.5576      46.3800     402.1797     401.5752     532.7020       0.0562       0.0004       2.7324     382.3750       0.3482       1.8711
   3186.8167       1.8618       0.0300      51.8740      18.3562      18.2352      42.2048      46.2594     331.1205     328.4437     440.9938       0.0553       0.0004       2.7441     383.9518       0.3829       2.0722
   3186.9690       2.0036       0.0254      51.2726      20.4194      17.6186      42.8316      45.9293     214.2536     217.6146     308.3810       0.0530       0.0003       2.7623     384.3507       0.4546       2.3353
   3187.1213       2.2592       0.0152      51.1197      23.3142      17.3160      44.2425      46.9904     211.1217     217.0186     298.9197       0.0502       0.0002       2.7688     383.9396       0.5813       2.7061
   3187.2739       2.5959       0.0149      51.1110      24.2539      18.0491      46.7359      49.5050     227.2739     233.9832     256.0694       0.0472       0.0004       2.7718     382.7879       0.6134       2.7960
   3187.4263       2.4834       0.0149      51.1110      25.0251      21.0256      47.6037      49.9652     346.9562     363.9878     385.8567       0.0436       0.0003       2.7740     385.6151       0.5865       2.9053
   3187.5786       2.6821       0.0048      51.1110      27.8403      24.9253      46.8949      48.8710     533.5357     575.1685     522.9461       0.0389       0.0005       2.7754     386.5520       0.5891       3.2273
   3187.7310       3.1688      -0.0054      51.1110      30.9091      27.3222      44.7764      46.3354     411.1386     447.1401     275.3579       0.0328       0.0006       2.7855     388.1486       0.6825       3.5431
   3187.8833       3.5553      -0.0044      51.1110      33.8348      27.4606      45.3381      46.8393     152.8249     169.4359     135.8139       0.0239       0.0007       2.7891     390.5489       0.7229       3.8669
   3188.0359       3.4927       0.0000      51.1126      32.1775      27.1681      44.4766      44.7944     105.7630     116.7734     127.8849       0.0148       0.0007       2.7843     391.4186       0.6798       3.6586
   3188.1882       3.6060      -0.0118      51.1749      28.5707      29.4194      44.7259      44.0730     136.3353     149.2295     158.5703       0.0061       0.0010       2.7649     388.4547       0.5961       3.1631
   3188.3406       2.9805      -0.0200      51.2308      23.7296      32.4087      45.7684      43.5250     132.3151     144.0394     146.5272      -0.0022       0.0008       2.7557     305.9580       0.4644       2.6327
   3188.4929       2.3488      -0.0138      52.7079      20.3336      37.8944      46.0507      43.3175     139.1423     152.5761     171.3878      -0.0101       0.0007       2.7357     319.4942       0.3484       2.2778
   3188.6455       2.5339      -0.0036      53.5990      20.1260      41.8301      45.5365      42.5137     141.7227     158.1125     168.4683      -0.0160       0.0009       2.7321     313.8532       0.3234       2.2227
   3188.7979       2.3729       0.0065      58.9624      21.5160      40.3555      37.6739      37.4778     141.7127     160.9476     157.3653      -0.0186       0.0008       2.7330     323.0403       0.2596       2.3859
   3188.9502       2.4162       0.0434      75.6685      24.0644      33.7446      33.5496      33.0934     178.2306     202.3278     193.1688      -0.0203       0.0010       2.7589     300.4729       0.2207       2.6863
   3189.1025       2.1165       0.0737      83.2778      26.5807      27.1272      32.7145      31.9784     218.5847     250.2793     239.9827      -0.0219       0.0008       2.7687     294.5349       0.1941       3.0306
   3189.2551       1.7998       0.0660     105.9285      27.0115      25.6784      32.8670      31.3038     251.2899     279.7058     255.0516      -0.0231       0.0007       2.7761     278.3156       0.1646       3.1392
   3189.4075       1.7821       0.0242     113.5086      25.3508      27.0862      33.3337      31.4229     255.2249     279.8917     245.9555      -0.0233       0.0006       2.7752     285.0166       0.1944       2.9536
   3189.5598       1.5947       0.0100     123.6703      21.7755      28.8422      35.0973      32.1755     178.4003     192.5650     213.0059      -0.0233       0.0006       2.7615     288.1698       0.1662       2.5378
   3189.7122       1.1034       0.0175     132.6347      18.8360      30.9561      38.2580      35.4384     268.3795     288.1862     381.5548      -0.0233       0.0004       2.7415     293.1713       0.1113       2.2482
   3189.8645       0.6800       0.0353     135.1275      18.3351      31.8860      42.9706      41.2132     218.8166     236.8894     330.8077      -0.0233       0.0002       2.7368     346.0489       0.0903       2.2500
   3190.0171       0.7419       0.0244     138.2961      18.6090      30.5802      46.5119      45.8177     181.1939     197.9305     282.7725      -0.0233       0.0002       2.7357     380.6190       0.1057       2.2842
   3190.1694       1.2812       0.0200     138.8934      18.8809      27.0900      47.7174      47.3192     262.7360     286.2814     452.9240      -0.0233       0.0005       2.7414     382.5042       0.1077       2.2521
   3190.3218       1.4185       0.0768     139.3578      18.3895      24.3425      51.1241      51.6692     476.2962     526.1121     783.4466      -0.0233       0.0005       2.7574     387.1383       0.1701       2.1796
   3190.4741       1.5204       0.0900     139.4952      17.8988      23.1669      57.9669      60.0915    1440.2086    1622.1093    2210.4592      -0.0233       0.0006       2.7787     393.2633       0.1633       2.1222
   3190.6267       1.4920       0.0731     139.5937      18.2195      22.3358      64.3359      67.4531    1652.0688    1880.3242    2696.6956      -0.0189       0.0005       2.7414     396.9981       0.1962       2.1652
   3190.7791       1.6799       0.0012     139.8705      18.7535      20.7601      69.2240      72.6736    1536.3320    1746.9686    2620.6260       0.0144       0.0006       2.5620     381.4518       0.2054       2.2225
   3190.9314       1.6180      -0.0100     139.9596      19.3928      19.9204      74.3607      77.0630     790.9092     891.1157    1265.9960       0.0911       0.0005       2.4893     376.7235       0.2151       2.3142
   3191.0837       1.3565      -0.0100     139.9986      18.9956      19.4390      82.9318      85.1471     354.7768     397.2090     573.6871       0.1608       0.0005       2.4845     391.0682       0.1632       2.2943
   3191.2363       1.4243      -0.0100     140.0000      17.3280      19.7929      92.4033      94.5673     239.3772     268.5089     447.9086       0.1820       0.0005       2.5504     396.7831       0.1629       2.0621
   3191.3887       1.5772      -0.0008     140.0000      15.1406      21.8360     101.7156     102.8060     762.4671     864.3705    1549.8956       0.1746       0.0006    -999.2500     389.4295       0.1689       1.7464
   3191.5410       1.6073       0.0094     140.0000      13.6366      23.3381     111.5044     112.2328     919.0518    1046.2670    1582.4113    -999.2500       0.0006    -999.2500     365.0262       0.1768       1.5397
   3191.6934       1.6051       0.0196     140.0000      12.8120      23.7574     117.8646     121.3427    1400.0757    1608.1990    2412.2617    -999.2500       0.0006    -999.2500     340.9406       0.1688       1.4182
   3191.8457       1.1762       0.0200     140.0000      12.2295      22.8245     122.8733     129.0904    2115.7576    2458.6921    3069.2832    -999.2500       0.0003    -999.2500     350.2662       0.1806       1.4042
