#------------------------------------------------------------------------------
#
#   Created by  : [OpenWorks] Log Export Utility (LEXP)
#   Created on  : 2016-05-18 13:39:54
#   Project     : CANT971
#   User        : R5K
#   Interpreter : PEP
#
#------------------------------------------------------------------------------
~VERSION INFORMATION
VERS. 2.0 : CWLS Log ASCII Standard - version 2.0
WRAP.  NO : One line per depth step
~WELL INFORMATION
#MNEMONIC   .UNIT                                           VALUE :DESCRIPTION
#------------------------------------------------------------------------------
STRT        .M                                          1895.0742 :START DEPTH
STOP        .M                                          3665.6575 :STOP DEPTH
STEP        .M                                             0.1524 :STEP
NULL        .                                           -999.2500 :NULL VALUE
COMP        .                                             UNKNOWN :COMPANY
WELL        .                                              227D-V :WELL
FLD         .                                             UNKNOWN :FIELD
LOC         .                                             UNKNOWN :LOCATION
CNTY        .                                             UNKNOWN :COUNTY
STAT        .                                             UNKNOWN :STATE
CTRY        .                                             UNKNOWN :COUNTRY
SRVC        .                                             UNKNOWN :SERVICE COMPANY
DATE        .                                             UNKNOWN :LOG DATE
UWI         .                                              227D-V :UNIQUE WELL ID
XCOORD      .                                            0.000000 :SURFACE X
YCOORD      .                                            0.000000 :SURFACE Y
LAT         .                                            0.000000 :LATITUDE
LON         .                                            0.000000 :LONGITUDE
ELEV        .M                                             0.0000 :SURFACE ELEV
ELEV_TYPE   .                                                  KB :ELEV TYPE
~CURVE INFORMATION
#MNEMONIC.UNIT        API CODE       : CURVE DESCRIPTION
#------------------------------------------------------------------------------
DEPTH    .M                          : Measured Depth
CGR      .API         UNKNOWN        : CGR:Espectrometria:rC:NONE:v0 (auto-composite)
DRHO-LWD .g/cm3       UNKNOWN        : DRHO-LWD:registros-LWD:rC:NONE:v0 (auto-composite)
DT       .us/ft       UNKNOWN        : DT:litodensidad_247:rC:NONE:v0 (auto-composite)
GR       .API         UNKNOWN        : GR:GR-Load:rC:NONE:v0 (auto-composite)
GR-LWD   .API         UNKNOWN        : GR-LWD:PETROWORKS:rC:NONE:v2 
ILD-LWD  .UNKNOWN     UNKNOWN        : ILD-LWD:PETROWORKS:rC:NONE:v3 
ILM-LWD  .UNKNOWN     UNKNOWN        : ILM-LWD:PETROWORKS:rC:NONE:v3 
LLD      .ohm.m       UNKNOWN        : LLD:resistivos:rC:NONE:v0 (auto-composite)
LLS      .ohm.m       UNKNOWN        : LLS:resistivos:rC:NONE:v0 (auto-composite)
MSFL     .ohm.m       UNKNOWN        : MSFL:resistivos:rC:NONE:v0 (auto-composite)
NPHI     .v/v_decimal UNKNOWN        : NPHI:litodensidad_247:rC:NONE:v0 (auto-composite)
POTA     .UNKNOWN     UNKNOWN        : POTA:Espectrometria:rC:NONE:v0 (auto-composite)
RHOB     .UNKNOWN     UNKNOWN        : RHOB:litodensidad_247:rC:NONE:v0 (auto-composite)
SP       .mV          UNKNOWN        : SP:resistivos:rC:NONE:v0 (auto-composite)
THOR     .ppm         UNKNOWN        : THOR:Espectrometria:rC:NONE:v0 (auto-composite)
URAN     .ppm         UNKNOWN        : URAN:Espectrometria:rC:NONE:v0 (auto-composite)
~A     DEPTH          CGR     DRHO-LWD           DT           GR       GR-LWD      ILD-LWD      ILM-LWD          LLD          LLS         MSFL         NPHI         POTA         RHOB           SP         THOR         URAN
# ...
   3191.9983       1.0975       0.0200     140.0000      11.8089      20.8133     129.2690     137.0791    1653.1160    1935.3406    2323.8782    -999.2500       0.0004    -999.2500     348.3743       0.1020       1.3454
   3192.1506       1.2954       0.0300     140.0000      12.4712      18.3659     134.8611     145.0991    1348.3030    1570.7797    1987.1930    -999.2500       0.0005    -999.2500     335.9576       0.1132       1.3897
   3192.3030       1.4716       0.0298     140.0000      12.9934      16.5383     136.3668     146.8611    1513.0361    1743.1040    2403.5188    -999.2500       0.0005    -999.2500     343.9257       0.1759       1.4439
   3192.4553       1.6686       0.0196     140.0000      14.0984      16.1979     138.9297     149.9107    2156.4761    2465.1904    3418.5559    -999.2500       0.0006    -999.2500     339.9868       0.2088       1.5609
   3192.6079       2.1249       0.0100     140.0000      15.4593      16.4015     144.7227     158.2111    1338.8904    1531.8536    2329.0664    -999.2500       0.0008    -999.2500     371.8594       0.2373       1.6690
   3192.7603       2.4921       0.0093     140.0000      18.0028      16.5069     149.6745     162.7552    1214.8771    1386.7870    2175.5813    -999.2500       0.0009    -999.2500     402.1964       0.2662       1.9473
   3192.9126       2.3848       0.0000    -999.2500      20.6772      16.2544     152.5219     164.3124    1123.8206    1280.2812    2082.0552    -999.2500       0.0008    -999.2500     408.3390       0.2818       2.3250
   3193.0649       2.5918       0.0010    -999.2500      21.7586      16.2009     151.8632     166.1165    1132.4290    1290.9473    2122.3406    -999.2500       0.0009    -999.2500     405.4224       0.2972       2.4398
   3193.2175       2.8562       0.0123    -999.2500      21.7420      16.9329     149.3654     166.1185    1087.5991    1238.0952    2016.0708    -999.2500       0.0011    -999.2500     405.3723       0.2663       2.3961
   3193.3699       2.8435       0.0287    -999.2500      21.6683      18.7850     149.9412     165.0727    1048.0515    1191.6409    1990.3469    -999.2500       0.0011    -999.2500     404.1871       0.2569       2.3924
   3193.5222       2.8561       0.0200    -999.2500      22.1742      21.2492     151.5519     164.4197     820.9499     934.2035    1580.9983    -999.2500       0.0012    -999.2500     402.8578       0.2356       2.4557
   3193.6746       2.5323       0.0200    -999.2500      22.9501      23.2451     148.8792     158.9544     695.1410     786.9234    1327.6268    -999.2500       0.0009    -999.2500     404.3198       0.2643       2.6081
   3193.8269       2.3235       0.0182    -999.2500      22.5644      24.0747     142.6000     152.4284     486.9233     546.0495     897.3698    -999.2500       0.0008    -999.2500     402.4973       0.2475       2.5951
   3193.9795       1.8409       0.0100    -999.2500      20.5834      24.2390     136.8328     148.6081     445.9306     497.7490     827.3922    -999.2500       0.0007    -999.2500     402.1875       0.1640       2.4079
   3194.1318       1.6534       0.0100    -999.2500      19.0505      24.6655     133.2405     140.9466     467.9352     518.1427     798.8018    -999.2500       0.0007    -999.2500     406.1028       0.1345       2.2224
   3194.2842       1.4471       0.0146    -999.2500      19.4316      25.4686     126.0209     127.7409     708.1609     773.1816    1145.8582    -999.2500       0.0005    -999.2500     407.9932       0.1412       2.2977
   3194.4365       1.8330       0.0300    -999.2500      21.2007      25.9694     119.5440     121.1661     534.7842     579.1246     793.2089    -999.2500       0.0006    -999.2500     406.5003       0.2504       2.4755
   3194.5891       2.0945       0.0248    -999.2500      21.2873      25.2843     114.1956     116.6738     404.7957     437.7500     620.1417    -999.2500       0.0007    -999.2500     407.8809       0.2627       2.4420
   3194.7415       1.6953       0.0072    -999.2500      21.0186      23.9299     105.5729     108.3703     334.8248     353.4467     402.2282    -999.2500       0.0005    -999.2500     413.5622       0.2225       2.4716
   3194.8938       1.6491       0.0029    -999.2500      23.0238      23.8227      98.5569     100.7767     306.5261     318.1324     390.9013    -999.2500       0.0004    -999.2500     411.3289       0.2678       2.7710
   3195.0461       1.6063       0.0131    -999.2500      25.9751      25.1546      96.2309      95.9460     261.2382     274.1070     256.0965    -999.2500       0.0004    -999.2500     408.9160       0.2849       3.1437
   3195.1987       1.6890       0.0168    -999.2500      27.1235      25.9375      92.5130      91.7896     206.5274     221.8430     211.8877    -999.2500       0.0004    -999.2500     409.7121       0.2904       3.2529
   3195.3511       1.6573       0.0100    -999.2500      26.8902      25.1877      84.7484      85.9781     271.7929     297.5766     268.9935    -999.2500       0.0005    -999.2500     410.9623       0.2382       3.2464
   3195.5034       1.6366       0.0136    -999.2500      27.7888      24.7736      78.7110      77.8252     235.8805     254.5655     141.8623    -999.2500       0.0004    -999.2500     414.8777       0.2717       3.3847
   3195.6558       1.5532       0.0274    -999.2500      28.0206      26.9328      70.1287      70.1347     130.3344     140.5398      82.2766    -999.2500       0.0004    -999.2500     415.3831       0.2554       3.4013
   3195.8081       1.8719       0.0361    -999.2500      26.7657      29.6630      59.8503      60.2840     129.8738     140.9348     155.2323    -999.2500       0.0006    -999.2500     412.9838       0.2646       3.1826
   3195.9607       2.0466       0.0340    -999.2500      26.6063      31.3809      53.6482      53.7263     130.2753     141.3966     149.7072    -999.2500       0.0007    -999.2500     414.0383       0.2640       3.1427
   3196.1130       2.0659       0.0400    -999.2500      29.9878      32.2718      45.0124      44.3611      66.4168      72.2854      58.6891    -999.2500       0.0009    -999.2500     418.7091       0.1728       3.5801
   3196.2654       2.8398       0.0400    -999.2500      33.6306      33.8199      40.0542      38.3461      35.8709      37.8947      43.2969    -999.2500       0.0011    -999.2500     417.4709       0.2719       3.9312
   3196.4177       3.3850       0.0445    -999.2500      34.7945      34.4845      35.3190      33.7140     110.2010     117.2918     143.2149    -999.2500       0.0013    -999.2500     412.6158       0.3359       3.9821
   3196.5703       3.3816       0.0500    -999.2500      34.2988      33.4172      31.6896      30.6464     208.5313     221.4433     177.1548    -999.2500       0.0012    -999.2500     411.2852       0.3599       3.8822
   3196.7227       3.3110       0.0548    -999.2500      33.3188      33.5701      26.3853      25.2713     104.9358     112.4762      87.6867    -999.2500       0.0012    -999.2500     414.2323       0.3541       3.7962
   3196.8750       3.2459       0.0550    -999.2500      32.4625      35.5403      24.2822      23.2770     129.2637     136.8942      65.6213    -999.2500       0.0011    -999.2500     413.9260       0.3941       3.7289
   3197.0273       3.1493       0.0242    -999.2500      32.1345      38.0460      24.4304      23.5890     287.1808     301.2857     107.8066    -999.2500       0.0010    -999.2500     418.9278       0.4159       3.6788
   3197.1799       3.0285       0.0266    -999.2500      31.3248      37.9800      24.7147      24.1920     189.6004     191.5711     104.9251    -999.2500       0.0010    -999.2500     414.7957       0.3686       3.5605
   3197.3323       2.9733       0.0555    -999.2500      28.5139      36.2670      24.1938      24.6722     645.4295     636.9424     358.2399    -999.2500       0.0010    -999.2500     411.6705       0.3729       3.2032
   3197.4846       2.2136       0.0882    -999.2500      25.3127      35.2935      24.9351      26.0559     543.2398     522.8671     309.2398    -999.2500       0.0007    -999.2500     409.9528       0.3196       2.9077
