#------------------------------------------------------------------------------
#
#   Created by  : [OpenWorks] Log Export Utility (LEXP)
#   Created on  : 2016-05-18 13:39:54
#   Project     : CANT971
#   User        : R5K
#   Interpreter : PEP
#
#------------------------------------------------------------------------------
~VERSION INFORMATION
VERS. 2.0 : CWLS Log ASCII Standard - version 2.0
WRAP.  NO : One line per depth step
~WELL INFORMATION
#MNEMONIC   .UNIT                                           VALUE :DESCRIPTION
#------------------------------------------------------------------------------
STRT        .M                                          1895.0742 :START DEPTH
STOP        .M                                          3665.6575 :STOP DEPTH
STEP        .M                                             0.1524 :STEP
NULL        .                                           -999.2500 :NULL VALUE
COMP        .                                             UNKNOWN :COMPANY
WELL        .                                              227D-V :WELL
FLD         .                                             UNKNOWN :FIELD
LOC         .                                             UNKNOWN :LOCATION
CNTY        .                                             UNKNOWN :COUNTY
STAT        .                                             UNKNOWN :STATE
CTRY        .                                             UNKNOWN :COUNTRY
SRVC        .                                             UNKNOWN :SERVICE COMPANY
DATE        .                                             UNKNOWN :LOG DATE
UWI         .                                              227D-V :UNIQUE WELL ID
XCOORD      .                                            0.000000 :SURFACE X
YCOORD      .                                            0.000000 :SURFACE Y
LAT         .                                            0.000000 :LATITUDE
LON         .                                            0.000000 :LONGITUDE
ELEV        .M                                             0.0000 :SURFACE ELEV
ELEV_TYPE   .                                                  KB :ELEV TYPE
~CURVE INFORMATION
#MNEMONIC.UNIT        API CODE       : CURVE DESCRIPTION
#------------------------------------------------------------------------------
DEPTH    .M                          : Measured Depth
CGR      .API         UNKNOWN        : CGR:Espectrometria:rC:NONE:v0 (auto-composite)
DRHO-LWD .g/cm3       UNKNOWN        : DRHO-LWD:registros-LWD:rC:NONE:v0 (auto-composite)
DT       .us/ft       UNKNOWN        : DT:litodensidad_247:rC:NONE:v0 (auto-composite)
GR       .API         UNKNOWN        : GR:GR-Load:rC:NONE:v0 (auto-composite)
GR-LWD   .API         UNKNOWN        : GR-LWD:PETROWORKS:rC:NONE:v2 
ILD-LWD  .UNKNOWN     UNKNOWN        : ILD-LWD:PETROWORKS:rC:NONE:v3 
ILM-LWD  .UNKNOWN     UNKNOWN        : ILM-LWD:PETROWORKS:rC:NONE:v3 
LLD      .ohm.m       UNKNOWN        : LLD:resistivos:rC:NONE:v0 (auto-composite)
LLS      .ohm.m       UNKNOWN        : LLS:resistivos:rC:NONE:v0 (auto-composite)
MSFL     .ohm.m       UNKNOWN        : MSFL:resistivos:rC:NONE:v0 (auto-composite)
NPHI     .v/v_decimal UNKNOWN        : NPHI:litodensidad_247:rC:NONE:v0 (auto-composite)
POTA     .UNKNOWN     UNKNOWN        : POTA:Espectrometria:rC:NONE:v0 (auto-composite)
RHOB     .UNKNOWN     UNKNOWN        : RHOB:litodensidad_247:rC:NONE:v0 (auto-composite)
SP       .mV          UNKNOWN        : SP:resistivos:rC:NONE:v0 (auto-composite)
THOR     .ppm         UNKNOWN        : THOR:Espectrometria:rC:NONE:v0 (auto-composite)
URAN     .ppm         UNKNOWN        : URAN:Espectrometria:rC:NONE:v0 (auto-composite)
~A     DEPTH          CGR     DRHO-LWD           DT           GR       GR-LWD      ILD-LWD      ILM-LWD          LLD          LLS         MSFL         NPHI         POTA         RHOB           SP         THOR         URAN
# ...
   3208.9146       1.3444       0.0171    -999.2500      32.4279      36.3743      71.1946      72.2831     359.5154     378.5928     375.1979    -999.2500      -0.0000    -999.2500     406.1128       0.4094       3.9389
   3209.0671       1.0637       0.0256    -999.2500      32.1293      36.8176      70.7702      70.8737     305.9369     323.0152     320.9843    -999.2500      -0.0001    -999.2500     405.7961       0.3997       3.9412
   3209.2195       1.2688       0.0459    -999.2500      30.0739      38.3689      68.4427      69.2253     297.5835     317.3893     323.1223    -999.2500      -0.0001    -999.2500     406.7666       0.4555       3.6531
   3209.3718       0.8301       0.0500    -999.2500      27.9843      39.7210      70.1667      71.4404     258.3055     275.6718     290.2982    -999.2500      -0.0001    -999.2500     406.6656       0.3239       3.4477
   3209.5242       0.8515       0.0334    -999.2500      26.1824      38.0738      76.2791      77.8275     227.9060     243.8130     264.4109    -999.2500      -0.0000    -999.2500     407.9308       0.2876       3.2371
   3209.6765       0.9973       0.0384    -999.2500      25.5228      33.9317      78.9141      79.9509     203.2427     218.6582     285.2143    -999.2500       0.0000    -999.2500     408.6149       0.2965       3.1317
   3209.8291       0.9658       0.0830    -999.2500      25.8843      31.3850      78.4599      79.7972     239.7857     257.6820     342.1420    -999.2500       0.0001    -999.2500     410.5359       0.2531       3.1677
   3209.9814       1.3081       0.0900    -999.2500      26.6531      30.7804      78.6263      81.6342     176.1775     188.6479     258.0117    -999.2500       0.0002    -999.2500     412.0088       0.3134       3.2184
   3210.1338       1.6418       0.0811    -999.2500      29.2733      30.6428      79.0524      82.0719     171.7904     187.0880     267.5299    -999.2500       0.0003    -999.2500     411.4803       0.3536       3.5064
   3210.2861       1.5484       0.0618    -999.2500      30.8477      31.6032      77.4962      80.7155     179.3694     197.6340     278.3899    -999.2500       0.0004    -999.2500     412.2458       0.2513       3.7236
   3210.4387       2.5050       0.0415    -999.2500      31.1542      32.4683      76.1772      79.6897     167.2472     185.6346     258.4897    -999.2500       0.0007    -999.2500     413.1360       0.3686       3.6572
   3210.5911       2.9243       0.0776    -999.2500      30.0853      33.5659      76.3284      80.1485     166.1866     184.7832     253.7784    -999.2500       0.0008    -999.2500     414.7723       0.4682       3.4562
   3210.7434       2.8717       0.0704    -999.2500      27.7476      34.6252      76.5476      80.5268     216.8482     245.0991     357.8711    -999.2500       0.0008    -999.2500     407.5484       0.4528       3.1738
   3210.8958       2.6667       0.0505    -999.2500      27.4835      35.3866      76.3498      80.1405     443.5237     505.7841     672.4910    -999.2500       0.0007    -999.2500     410.3553       0.4232       3.1878
   3211.0483       3.0647       0.0200    -999.2500      29.3645      35.9151      76.1451      79.6559     318.0303     361.1434     435.1589    -999.2500       0.0009    -999.2500     411.8615       0.4731       3.3930
   3211.2007       3.1941       0.0200    -999.2500      35.3114      35.4552      76.4435      80.3596     212.2173     239.2588     303.2162    -999.2500       0.0008    -999.2500     413.5764       0.5617       4.1309
   3211.3530       3.1412       0.0302    -999.2500      38.6565      33.3359      78.3919      82.6101     172.8202     193.2979     267.9721    -999.2500       0.0007    -999.2500     413.4862       0.6060       4.5146
   3211.5054       2.5428       0.0407    -999.2500      37.8855      32.4353      79.9197      83.9218     154.1240     172.0540     242.2446    -999.2500       0.0004    -999.2500     410.7172       0.6011       4.4817
   3211.6577       2.2213       0.0605    -999.2500      33.1050      35.1776      79.5122      84.8329     180.0592     201.9451     325.1271    -999.2500       0.0003    -999.2500     409.1151       0.5253       3.8965
   3211.8103       2.2115       0.0707    -999.2500      29.0627      39.5705      81.4729      89.3716     352.5435     395.0233     568.6315    -999.2500       0.0005    -999.2500     414.8090       0.4459       3.3685
   3211.9626       1.7513       0.0800    -999.2500      26.4586      41.1396      85.5539      93.8940     457.9142     512.9188     581.4316    -999.2500       0.0002    -999.2500     421.7776       0.4206       3.1070
   3212.1150       1.2144       0.0780    -999.2500      25.8249      38.8029      89.4245      96.3395     592.6650     665.5909     663.2500    -999.2500       0.0001    -999.2500     418.1180       0.3191       3.0606
   3212.2673       1.0396       0.0600    -999.2500      26.4611      35.5755      93.4537     100.0784     525.0733     593.4265     598.8843    -999.2500       0.0002    -999.2500     413.9545       0.2326       3.1563
   3212.4199       1.3588       0.0587    -999.2500      27.8980      33.5314      95.5628     103.7289     524.5478     595.5541     719.3042    -999.2500       0.0004    -999.2500     413.2744       0.2194       3.2776
   3212.5723       1.6021       0.0500    -999.2500      29.2264      32.5907      96.1353     105.8551     477.5449     540.9926     688.6331    -999.2500       0.0006    -999.2500     414.2286       0.1878       3.3832
   3212.7246       1.2760       0.0467    -999.2500      30.6779      32.2323      98.8008     109.3932     451.1798     506.8520     654.7361    -999.2500       0.0003    -999.2500     412.6345       0.2047       3.5762
   3212.8770       1.1835       0.0264    -999.2500      31.1551      32.5927     102.8057     113.1682     365.3804     410.2737     575.0217    -999.2500       0.0004    -999.2500     407.5866       0.1550       3.6921
   3213.0293       1.4697       0.0100    -999.2500      32.4230      33.3589     104.5038     114.4843     416.8839     467.6604     635.4536    -999.2500       0.0006    -999.2500     406.2228       0.1529       3.8560
   3213.1819       1.8289       0.0100    -999.2500      33.9741      34.3779     106.1009     114.2958     333.4448     376.6222     527.8846    -999.2500       0.0007    -999.2500     407.1578       0.1675       4.0279
   3213.3342       1.8566       0.0260    -999.2500      38.6755      36.0394     108.8960     116.1294     242.1350     272.6506     392.6989    -999.2500       0.0008    -999.2500     407.8563       0.1409       4.6158
   3213.4866       1.4796       0.0824    -999.2500      41.7102      38.5834     106.9520     115.2572     185.2267     206.0100     245.1073    -999.2500       0.0005    -999.2500     409.6241       0.1339       5.0842
   3213.6389       1.8411       0.0874    -999.2500      43.3151      41.7968     103.7932     111.4316     156.9827     174.5399     239.4226    -999.2500       0.0007    -999.2500     407.8611       0.1728       5.2356
   3213.7915       1.4326       0.0717    -999.2500      39.3158      44.8540     103.7804     111.2801     275.4299     307.9185     422.5758    -999.2500       0.0006    -999.2500     407.2907       0.1181       4.7770
   3213.9438       0.8853       0.0500    -999.2500      33.9764      47.1639     102.8749     111.3355     269.5433     302.5446     399.9572    -999.2500       0.0003    -999.2500     409.4250       0.0916       4.1835
   3214.0962       0.5325       0.0531    -999.2500      28.3771      46.2854     100.4252     108.0146     223.4613     250.2082     280.3278    -999.2500       0.0001    -999.2500     411.3820       0.1024       3.5294
   3214.2485       0.3538       0.0503    -999.2500      26.2109      41.9966     100.5997     108.7890     336.8759     377.0175     401.1925    -999.2500       0.0000    -999.2500     412.0604       0.0829       3.3045
   3214.4011       0.5289       0.0164    -999.2500      26.5372      36.5768     103.1552     111.7365     384.3498     430.7869     499.6117    -999.2500       0.0002    -999.2500     415.9844       0.0640       3.3680
