#------------------------------------------------------------------------------
#
#   Created by  : [OpenWorks] Log Export Utility (LEXP)
#   Created on  : 2016-05-18 13:39:54
#   Project     : CANT971
#   User        : R5K
#   Interpreter : PEP
#
#------------------------------------------------------------------------------
~VERSION INFORMATION
VERS. 2.0 : CWLS Log ASCII Standard - version 2.0
WRAP.  NO : One line per depth step
~WELL INFORMATION
#MNEMONIC   .UNIT                                           VALUE :DESCRIPTION
#------------------------------------------------------------------------------
STRT        .M                                          1895.0742 :START DEPTH
STOP        .M                                          3665.6575 :STOP DEPTH
STEP        .M                                             0.1524 :STEP
NULL        .                                           -999.2500 :NULL VALUE
COMP        .                                             UNKNOWN :COMPANY
WELL        .                                              227D-V :WELL
FLD         .                                             UNKNOWN :FIELD
LOC         .                                             UNKNOWN :LOCATION
CNTY        .                                             UNKNOWN :COUNTY
STAT        .                                             UNKNOWN :STATE
CTRY        .                                             UNKNOWN :COUNTRY
SRVC        .                                             UNKNOWN :SERVICE COMPANY
DATE        .                                             UNKNOWN :LOG DATE
UWI         .                                              227D-V :UNIQUE WELL ID
XCOORD      .                                            0.000000 :SURFACE X
YCOORD      .                                            0.000000 :SURFACE Y
LAT         .                                            0.000000 :LATITUDE
LON         .                                            0.000000 :LONGITUDE
ELEV        .M                                             0.0000 :SURFACE ELEV
ELEV_TYPE   .                                                  KB :ELEV TYPE
~CURVE INFORMATION
#MNEMONIC.UNIT        API CODE       : CURVE DESCRIPTION
#------------------------------------------------------------------------------
DEPTH    .M                          : Measured Depth
CGR      .API         UNKNOWN        : CGR:Espectrometria:rC:NONE:v0 (auto-composite)
DRHO-LWD .g/cm3       UNKNOWN        : DRHO-LWD:registros-LWD:rC:NONE:v0 (auto-composite)
DT       .us/ft       UNKNOWN        : DT:litodensidad_247:rC:NONE:v0 (auto-composite)
GR       .API         UNKNOWN        : GR:GR-Load:rC:NONE:v0 (auto-composite)
GR-LWD   .API         UNKNOWN        : GR-LWD:PETROWORKS:rC:NONE:v2 
ILD-LWD  .UNKNOWN     UNKNOWN        : ILD-LWD:PETROWORKS:rC:NONE:v3 
ILM-LWD  .UNKNOWN     UNKNOWN        : ILM-LWD:PETROWORKS:rC:NONE:v3 
LLD      .ohm.m       UNKNOWN        : LLD:resistivos:rC:NONE:v0 (auto-composite)
LLS      .ohm.m       UNKNOWN        : LLS:resistivos:rC:NONE:v0 (auto-composite)
MSFL     .ohm.m       UNKNOWN        : MSFL:resistivos:rC:NONE:v0 (auto-composite)
NPHI     .v/v_decimal UNKNOWN        : NPHI:litodensidad_247:rC:NONE:v0 (auto-composite)
POTA     .UNKNOWN     UNKNOWN        : POTA:Espectrometria:rC:NONE:v0 (auto-composite)
RHOB     .UNKNOWN     UNKNOWN        : RHOB:litodensidad_247:rC:NONE:v0 (auto-composite)
SP       .mV          UNKNOWN        : SP:resistivos:rC:NONE:v0 (auto-composite)
THOR     .ppm         UNKNOWN        : THOR:Espectrometria:rC:NONE:v0 (auto-composite)
URAN     .ppm         UNKNOWN        : URAN:Espectrometria:rC:NONE:v0 (auto-composite)
~A     DEPTH          CGR     DRHO-LWD           DT           GR       GR-LWD      ILD-LWD      ILM-LWD          LLD          LLS         MSFL         NPHI         POTA         RHOB           SP         THOR         URAN
# ...
   3152.5266       5.0252      -0.6169      55.8544      19.3646      21.6066    -999.2500    -999.2500   87030.9297  100000.0000   89107.5625       0.0564       0.0014       2.7651     135.9331       0.8079       1.8112
   3152.6790       5.1302      -0.6630      54.8985      19.9917      20.9993    -999.2500    -999.2500  100000.0000  100000.0000  100000.0000       0.0550       0.0013       2.7814     127.4344       0.8711       1.8923
   3152.8313       5.2705      -0.6700      53.9930      19.5529      20.6219    -999.2500    -999.2500  100000.0000   13041.4531  100000.0000       0.0534       0.0014       2.7943     128.0055       0.8819       1.8236
   3152.9839       5.0667      -0.6611      53.3767      18.4071      19.5963    -999.2500    -999.2500   13025.4043   86974.6250   13025.4062       0.0516       0.0013       2.8059     141.0788       0.8369       1.7010
   3153.1362       4.9622      -0.7327      52.7647      17.1986      18.7569    -999.2500    -999.2500       0.0672  100000.0000       0.0745       0.0497       0.0013       2.8166     145.5560       0.8395       1.5462
   3153.2886       4.9874      -0.5829      52.0494      16.3106      18.4069    -999.2500    -999.2500       0.4223   12951.5625       0.0977       0.0479       0.0012       2.8252     105.4056       0.8676       1.4321
   3153.4409       4.5542      -0.2126      51.4155      15.8788      19.4625    -999.2500    -999.2500   87085.4453   87085.3906   87085.3984       0.0460       0.0011       2.8297     128.4397       0.8119       1.4261
   3153.5935       4.4121       0.0107      51.0348      16.4282      22.0953    -999.2500    -999.2500   13054.9766  100000.0000  100000.0000       0.0436       0.0010       2.8295     112.5808       0.8376       1.4991
   3153.7458       4.6260       0.1658      50.8979      18.4596      24.7560    -999.2500    -999.2500       5.8607   13001.2881   13001.3018       0.0417       0.0010       2.8260     175.3555       0.9046       1.7263
   3153.8982       4.9386       0.1200      50.8251      20.6101      25.6061    -999.2500    -999.2500     365.7727     388.1641     401.5084       0.0412       0.0010       2.8193     224.1905       0.9996       1.9521
   3154.0505       4.8296       0.1300      50.9061      21.7191      25.0546      18.5274    -999.2500   87127.1406   87130.4688   87132.4531       0.0420       0.0009       2.8044     251.7682       1.0044       2.0901
   3154.2031       4.6035       0.1300      51.0134      21.1962      24.3085      81.4529     109.2931   13356.1533   13364.8623   13272.3008       0.0438       0.0008       2.7861     275.2206       0.9754       2.0532
   3154.3555       4.1799       0.1314      50.9913      20.1974      23.7927     141.7399     149.3997     242.8186     257.1815     292.4932       0.0457       0.0008       2.7720     289.9388       0.8623       1.9548
   3154.5078       3.7507       0.1742      50.7187      19.2278      23.1477     155.7339     142.3964     406.5686     444.8861     229.4087       0.0464       0.0007       2.7663     301.9128       0.7714       1.8780
   3154.6602       3.3344       0.2493      50.2336      18.4797      22.5122     182.4174     159.2913     252.3463     287.6635     188.9540       0.0466       0.0006       2.7686     309.6405       0.7058       1.8358
   3154.8125       3.0334       0.2224      49.8592      18.8024      22.8270     235.9607     209.8655      74.7630      82.5335      94.7975       0.0467       0.0005       2.7776     312.2473       0.6628       1.9196
   3154.9651       2.6034       0.0300      49.7642      20.0941      24.0576     258.8485     240.0863     101.6355     101.7957     108.0147       0.0467       0.0004       2.7897     317.3923       0.5981       2.1362
   3155.1174       2.5454       0.0312      49.8917      21.9913      24.9057     260.5425     248.8306     602.1346     661.0446      80.5536       0.0467       0.0004       2.7992     318.7232       0.5750       2.3837
   3155.2698       2.5412       0.0731      50.1910      23.0901      24.5322     241.6615     236.0458     910.1322    1055.5647      48.8231       0.0467       0.0004       2.7955     323.3281       0.5884       2.5092
   3155.4221       2.2047       0.2900      50.6438      22.9892      23.6839     218.1865     213.5370     916.5624    1123.8074      50.8921       0.0467       0.0002       2.7780     328.0821       0.5681       2.5449
   3155.5747       1.6822       0.2884      51.1622      21.6157      23.6761     227.2571     225.6746     597.8551     709.4644     137.3430       0.0467       0.0002       2.7591     326.9478       0.4318       2.4426
   3155.7271       1.6623       0.2800      51.5237      19.9097      24.5079     248.5987     260.8454     309.4932     367.7571     184.7947       0.0469       0.0003       2.7462     318.2596       0.3642       2.2385
   3155.8794       1.7682       0.2663      51.6399      19.1390      24.8429     265.2148     283.6057     280.3114     329.2257     149.7426       0.0478       0.0004       2.7401     301.7689       0.3392       2.1429
   3156.0317       1.8845       0.1782      51.6123      19.9152      24.5509     272.1942     286.9099     323.4409     355.5713     236.9072       0.0501       0.0004       2.7386     289.3235       0.3519       2.2376
   3156.1843       1.7623       0.0486      51.4775      21.0990      24.2824     281.1609     288.0595     517.9317     551.4811     382.9395       0.0536       0.0004       2.7372     281.7790       0.3422       2.4064
   3156.3367       1.9640       0.0100      51.1388      21.6894      24.3824     296.3624     291.6129    1264.6279    1350.6963    1333.9686       0.0579       0.0005       2.7351     270.5998       0.3314       2.4540
   3156.4890       1.9441       0.0074      50.6409      21.5855      24.5826     276.3143     279.7599    1605.4324    1709.7451    1662.2104       0.0613       0.0006       2.7366     260.0883       0.2890       2.4499
   3156.6414       2.2526       0.0055      50.2654      21.0177      24.4691     265.3775     272.2886    1202.3831    1390.1864    1484.1658       0.0622       0.0007       2.7423     252.6558       0.3009       2.3215
   3156.7937       2.1158       0.0200      50.1810      20.8120      24.7985     266.5151     278.5052    1102.2046    1301.7937    1518.2417       0.0619       0.0007       2.7482     247.8369       0.2657       2.2986
   3156.9463       1.9042       0.0231      50.3764      20.6429      25.6842     270.7292     274.4951    1579.8025    1705.8123    1657.7008       0.0610       0.0007       2.7524     242.9557       0.1871       2.3210
   3157.0986       2.2065       0.0235      50.7673      21.0544      26.5832     265.8991     268.2455    1483.3566    1574.8239    1499.9454       0.0602       0.0009       2.7549     244.4877       0.1779       2.3195
   3157.2510       2.4317       0.0100      51.1909      21.3312      27.2434     249.7256     254.0783    1155.5007    1223.3837    1378.1812       0.0600       0.0010       2.7568     247.5871       0.2053       2.3360
   3157.4033       2.2264       0.0136      51.5829      22.1841      27.7104     252.6585     251.2704    1233.1931    1308.7810    1798.9302       0.0602       0.0009       2.7602     252.4630       0.1902       2.4865
   3157.5559       1.9031       0.0163      52.0222      23.1528      28.7214     236.3795     240.5633    1372.8990    1461.5615    1943.1771       0.0607       0.0007       2.7636     259.5942       0.1616       2.6221
   3157.7083       1.9992       0.0255      52.4744      23.8232      29.3042     232.3770     239.2071     750.7899     807.4186    1125.6830       0.0620       0.0008       2.7623     266.7611       0.1679       2.6859
   3157.8606       2.3845       0.0500      52.6716      24.5657      28.4549     226.1585     225.9595     311.4929     337.1009     485.2048       0.0647       0.0010       2.7560     271.0057       0.2049       2.7250
   3158.0129       2.4966       0.0500      52.5325      24.5869      26.2363     216.3304     221.2616     605.1483     659.5131     948.3550       0.0660       0.0009       2.7511     272.3163       0.2658       2.7224
