#------------------------------------------------------------------------------
#
#   Created by  : [OpenWorks] Log Export Utility (LEXP)
#   Created on  : 2016-05-18 13:39:54
#   Project     : CANT971
#   User        : R5K
#   Interpreter : PEP
#
#------------------------------------------------------------------------------
~VERSION INFORMATION
VERS. 2.0 : CWLS Log ASCII Standard - version 2.0
WRAP.  NO : One line per depth step
~WELL INFORMATION
#MNEMONIC   .UNIT                                           VALUE :DESCRIPTION
#------------------------------------------------------------------------------
STRT        .M                                          1895.0742 :START DEPTH
STOP        .M                                          3665.6575 :STOP DEPTH
STEP        .M                                             0.1524 :STEP
NULL        .                                           -999.2500 :NULL VALUE
COMP        .                                             UNKNOWN :COMPANY
WELL        .                                              227D-V :WELL
FLD         .                                             UNKNOWN :FIELD
LOC         .                                             UNKNOWN :LOCATION
CNTY        .                                             UNKNOWN :COUNTY
STAT        .                                             UNKNOWN :STATE
CTRY        .                                             UNKNOWN :COUNTRY
SRVC        .                                             UNKNOWN :SERVICE COMPANY
DATE        .                                             UNKNOWN :LOG DATE
UWI         .                                              227D-V :UNIQUE WELL ID
XCOORD      .                                            0.000000 :SURFACE X
YCOORD      .                                            0.000000 :SURFACE Y
LAT         .                                            0.000000 :LATITUDE
LON         .                                            0.000000 :LONGITUDE
ELEV        .M                                             0.0000 :SURFACE ELEV
ELEV_TYPE   .                                                  KB :ELEV TYPE
~CURVE INFORMATION
#MNEMONIC.UNIT        API CODE       : CURVE DESCRIPTION
#------------------------------------------------------------------------------
DEPTH    .M                          : Measured Depth
CGR      .API         UNKNOWN        : CGR:Espectrometria:rC:NONE:v0 (auto-composite)
DRHO-LWD .g/cm3       UNKNOWN        : DRHO-LWD:registros-LWD:rC:NONE:v0 (auto-composite)
DT       .us/ft       UNKNOWN        : DT:litodensidad_247:rC:NONE:v0 (auto-composite)
GR       .API         UNKNOWN        : GR:GR-Load:rC:NONE:v0 (auto-composite)
GR-LWD   .API         UNKNOWN        : GR-LWD:PETROWORKS:rC:NONE:v2 
ILD-LWD  .UNKNOWN     UNKNOWN        : ILD-LWD:PETROWORKS:rC:NONE:v3 
ILM-LWD  .UNKNOWN     UNKNOWN        : ILM-LWD:PETROWORKS:rC:NONE:v3 
LLD      .ohm.m       UNKNOWN        : LLD:resistivos:rC:NONE:v0 (auto-composite)
LLS      .ohm.m       UNKNOWN        : LLS:resistivos:rC:NONE:v0 (auto-composite)
MSFL     .ohm.m       UNKNOWN        : MSFL:resistivos:rC:NONE:v0 (auto-composite)
NPHI     .v/v_decimal UNKNOWN        : NPHI:litodensidad_247:rC:NONE:v0 (auto-composite)
POTA     .UNKNOWN     UNKNOWN        : POTA:Espectrometria:rC:NONE:v0 (auto-composite)
RHOB     .UNKNOWN     UNKNOWN        : RHOB:litodensidad_247:rC:NONE:v0 (auto-composite)
SP       .mV          UNKNOWN        : SP:resistivos:rC:NONE:v0 (auto-composite)
THOR     .ppm         UNKNOWN        : THOR:Espectrometria:rC:NONE:v0 (auto-composite)
URAN     .ppm         UNKNOWN        : URAN:Espectrometria:rC:NONE:v0 (auto-composite)
~A     DEPTH          CGR     DRHO-LWD           DT           GR       GR-LWD      ILD-LWD      ILM-LWD          LLD          LLS         MSFL         NPHI         POTA         RHOB           SP         THOR         URAN
# ...
   3225.8311       2.2847       0.0100    -999.2500      22.1386      25.9183      97.0968      96.6838     177.3002     199.3581     313.9698    -999.2500       0.0007    -999.2500     422.3887       0.3469       2.5605
   3225.9834       2.1965       0.0044    -999.2500      21.4733      25.4051      92.1749      89.5284     347.4414     382.7199     606.3226    -999.2500       0.0006    -999.2500     412.8639       0.3585       2.4790
   3226.1357       2.6378       0.0114    -999.2500      20.9168      25.8205      89.4738      89.6848     439.2892     488.2825     783.0342    -999.2500       0.0007    -999.2500     408.5533       0.4514       2.3628
   3226.2883       2.9922       0.0259    -999.2500      21.9710      26.0365      86.5061      86.3154     341.8004     387.2227     610.5083    -999.2500       0.0008    -999.2500     408.8860       0.4736       2.4529
   3226.4407       3.4232       0.0119    -999.2500      23.6052      26.6673      83.9994      84.7222     287.6425     323.8694     504.2673    -999.2500       0.0011    -999.2500     408.0758       0.4851       2.5980
   3226.5930       3.8338       0.0000    -999.2500      25.2520      26.3539      82.3677      84.3304     266.8516     302.2562     423.5963    -999.2500       0.0014    -999.2500     405.7620       0.4343       2.7654
   3226.7454       4.1894      -0.0064    -999.2500      25.7168      26.6856      80.5948      84.5154     215.0276     246.2301     379.6681    -999.2500       0.0015    -999.2500     408.1036       0.4625       2.7897
   3226.8977       3.7319      -0.0035    -999.2500      24.9630      26.3557      72.0299      76.7076     258.1539     297.2343     484.3382    -999.2500       0.0012    -999.2500     413.0180       0.5128       2.7559
   3227.0503       3.2532       0.0000    -999.2500      24.3124      26.4705      72.5449      75.7582     269.6765     312.8013     504.8185    -999.2500       0.0010    -999.2500     412.3826       0.4462       2.7322
   3227.2026       3.0497      -0.0137    -999.2500      23.8195      27.8709      74.7985      77.4954     230.7319     268.1383     426.1494    -999.2500       0.0008    -999.2500     409.1422       0.4717       2.6393
   3227.3550       2.8308      -0.0340    -999.2500      26.1427      29.5515      74.4314      77.9640     101.0972     118.7673     192.9563    -999.2500       0.0009    -999.2500     407.5995       0.4014       2.9252
   3227.5073       2.7369      -0.0257    -999.2500      26.9060      31.0336      73.0932      77.2056      74.9556      86.9875     155.4921    -999.2500       0.0007    -999.2500     403.2467       0.4335       3.0082
   3227.6599       3.2319       0.0606    -999.2500      26.7739      33.0245      74.9937      76.8740     143.3576     166.6177     287.1683    -999.2500       0.0010    -999.2500     403.1686       0.4427       2.9042
   3227.8123       2.7721       0.0825    -999.2500      24.6364      33.9281      73.1230      75.5897     121.7420     141.4410     236.8178    -999.2500       0.0010    -999.2500     403.1956       0.3204       2.6750
   3227.9646       2.3819       0.0647    -999.2500      23.7032      32.1948      71.2295      74.0122     152.1183     177.0372     316.9601    -999.2500       0.0008    -999.2500     402.6436       0.2715       2.6160
   3228.1169       2.2486       0.0288    -999.2500      24.8098      29.0279      69.6253      71.5875     282.2678     331.5368     508.4597    -999.2500       0.0008    -999.2500     406.2629       0.2479       2.7457
   3228.2695       2.1523       0.0439    -999.2500      28.4674      29.2016      67.7499      69.7580     208.1313     246.0657     360.5801    -999.2500       0.0007    -999.2500     409.3671       0.2858       3.1877
   3228.4219       1.5552       0.0500    -999.2500      33.0297      32.9663      69.5719      70.7728     144.3050     171.1604     272.6155    -999.2500       0.0004    -999.2500     410.5655       0.3156       3.7986
   3228.5742       1.7518       0.0666    -999.2500      35.1495      37.1642      71.8293      73.5387     217.3945     256.3605     409.6196    -999.2500       0.0004    -999.2500     407.5331       0.3432       4.0510
   3228.7266       1.8028       0.0616    -999.2500      32.7934      39.2397      75.0644      78.0868     251.5595     294.2865     405.2862    -999.2500       0.0004    -999.2500     407.2257       0.3391       3.7598
   3228.8789       1.8041       0.0514    -999.2500      32.4095      40.4558      77.1166      81.3748     158.2123     182.2130     300.1049    -999.2500       0.0004    -999.2500     405.8347       0.3379       3.7127
   3229.0315       1.8041       0.0500    -999.2500      32.4095      40.4132      78.5496      83.6852     286.5804     327.7937     546.9233    -999.2500       0.0004    -999.2500     403.4502       0.3379       3.7127
   3229.1838       1.8041       0.0143    -999.2500      32.4095      38.0186      80.7557      85.5359     252.6015     286.4440     454.5346    -999.2500       0.0004    -999.2500     407.1490       0.3379       3.7127
   3229.3362       1.8041       0.0009    -999.2500      32.4095      34.7870      82.5690      86.4256      98.6897     112.0867     187.3078    -999.2500       0.0004    -999.2500     408.5116       0.3379       3.7127
   3229.4885       1.8041       0.0277    -999.2500      32.4095      31.7340      85.3398      87.9044     165.5622     188.8379     319.0908    -999.2500       0.0004    -999.2500     404.7608       0.3379       3.7127
   3229.6411       1.8041       0.0582    -999.2500      32.4095      30.2838      88.3065      90.7080     399.9687     457.7314     759.8549    -999.2500       0.0004    -999.2500     406.3076       0.3379       3.7127
   3229.7935       1.8041       0.0791    -999.2500      32.4095      30.4127      88.7658      91.5498     482.4901     553.0393     814.4421    -999.2500       0.0004    -999.2500     406.8425       0.3379       3.7127
   3229.9458       1.8041       0.0994    -999.2500      32.4095      31.6930      87.9848      90.8480     355.5626     408.5283     607.8686    -999.2500       0.0004    -999.2500     403.2306       0.3379       3.7127
   3230.0981       1.8041       0.0900    -999.2500      32.4095      32.8268      86.0970      90.0297     251.7426     290.1144     443.8229    -999.2500       0.0004    -999.2500     402.6875       0.3379       3.7127
   3230.2507       1.8041       0.0700    -999.2500      32.4095      32.5747      83.9792      88.6329     203.4054     233.4026     371.3237    -999.2500       0.0004    -999.2500     402.3614       0.3379       3.7127
   3230.4031       1.8041       0.0304    -999.2500      32.4095      31.3152      81.6197      86.4504     241.8643     276.1916     476.0861    -999.2500       0.0004    -999.2500     403.5629       0.3379       3.7127
   3230.5554       1.8041       0.0500    -999.2500      32.4095      29.3589      79.2728      83.9933     326.4233     365.2100     585.4636    -999.2500       0.0004    -999.2500     404.7289       0.3379       3.7127
   3230.7078       1.8041       0.0490    -999.2500      32.4095      26.8119      76.1334      80.8649     210.8885     235.5615     383.6109    -999.2500       0.0004    -999.2500     407.3234       0.3379       3.7127
   3230.8601       1.8041       0.0286    -999.2500      32.4095      23.7967      73.6596      78.0206     121.1316     135.5813     222.4955    -999.2500       0.0004    -999.2500     404.9114       0.3379       3.7127
   3231.0127       1.8041       0.0092    -999.2500      32.4095      22.2946      72.1922      76.0118     101.6948     114.2016     198.3283    -999.2500       0.0004    -999.2500     402.5427       0.3379       3.7127
   3231.1650       1.8041       0.0020    -999.2500      32.4095      23.5010      68.6070      71.9059     124.7797     142.1981     246.5081    -999.2500       0.0004    -999.2500     402.9569       0.3379       3.7127
   3231.3174       1.8041       0.0212    -999.2500      32.4095      27.0042      63.7668      65.5003     125.3002     145.1960     236.1692    -999.2500       0.0004    -999.2500     404.2593       0.3379       3.7127
