#------------------------------------------------------------------------------
#
#   Created by  : [OpenWorks] Log Export Utility (LEXP)
#   Created on  : 2016-05-18 13:39:54
#   Project     : CANT971
#   User        : R5K
#   Interpreter : PEP
#
#------------------------------------------------------------------------------
~VERSION INFORMATION
VERS. 2.0 : CWLS Log ASCII Standard - version 2.0
WRAP.  NO : One line per depth step
~WELL INFORMATION
#MNEMONIC   .UNIT                                           VALUE :DESCRIPTION
#------------------------------------------------------------------------------
STRT        .M                                          1895.0742 :START DEPTH
STOP        .M                                          3665.6575 :STOP DEPTH
STEP        .M                                             0.1524 :STEP
NULL        .                                           -999.2500 :NULL VALUE
COMP        .                                             UNKNOWN :COMPANY
WELL        .                                              227D-V :WELL
FLD         .                                             UNKNOWN :FIELD
LOC         .                                             UNKNOWN :LOCATION
CNTY        .                                             UNKNOWN :COUNTY
STAT        .                                             UNKNOWN :STATE
CTRY        .                                             UNKNOWN :COUNTRY
SRVC        .                                             UNKNOWN :SERVICE COMPANY
DATE        .                                             UNKNOWN :LOG DATE
UWI         .                                              227D-V :UNIQUE WELL ID
XCOORD      .                                            0.000000 :SURFACE X
YCOORD      .                                            0.000000 :SURFACE Y
LAT         .                                            0.000000 :LATITUDE
LON         .                                            0.000000 :LONGITUDE
ELEV        .M                                             0.0000 :SURFACE ELEV
ELEV_TYPE   .                                                  KB :ELEV TYPE
~CURVE INFORMATION
#MNEMONIC.UNIT        API CODE       : CURVE DESCRIPTION
#------------------------------------------------------------------------------
DEPTH    .M                          : Measured Depth
CGR      .API         UNKNOWN        : CGR:Espectrometria:rC:NONE:v0 (auto-composite)
DRHO-LWD .g/cm3       UNKNOWN        : DRHO-LWD:registros-LWD:rC:NONE:v0 (auto-composite)
DT       .us/ft       UNKNOWN        : DT:litodensidad_247:rC:NONE:v0 (auto-composite)
GR       .API         UNKNOWN        : GR:GR-Load:rC:NONE:v0 (auto-composite)
GR-LWD   .API         UNKNOWN        : GR-LWD:PETROWORKS:rC:NONE:v2 
ILD-LWD  .UNKNOWN     UNKNOWN        : ILD-LWD:PETROWORKS:rC:NONE:v3 
ILM-LWD  .UNKNOWN     UNKNOWN        : ILM-LWD:PETROWORKS:rC:NONE:v3 
LLD      .ohm.m       UNKNOWN        : LLD:resistivos:rC:NONE:v0 (auto-composite)
LLS      .ohm.m       UNKNOWN        : LLS:resistivos:rC:NONE:v0 (auto-composite)
MSFL     .ohm.m       UNKNOWN        : MSFL:resistivos:rC:NONE:v0 (auto-composite)
NPHI     .v/v_decimal UNKNOWN        : NPHI:litodensidad_247:rC:NONE:v0 (auto-composite)
POTA     .UNKNOWN     UNKNOWN        : POTA:Espectrometria:rC:NONE:v0 (auto-composite)
RHOB     .UNKNOWN     UNKNOWN        : RHOB:litodensidad_247:rC:NONE:v0 (auto-composite)
SP       .mV          UNKNOWN        : SP:resistivos:rC:NONE:v0 (auto-composite)
THOR     .ppm         UNKNOWN        : THOR:Espectrometria:rC:NONE:v0 (auto-composite)
URAN     .ppm         UNKNOWN        : URAN:Espectrometria:rC:NONE:v0 (auto-composite)
~A     DEPTH          CGR     DRHO-LWD           DT           GR       GR-LWD      ILD-LWD      ILM-LWD          LLD          LLS         MSFL         NPHI         POTA         RHOB           SP         THOR         URAN
# ...
   3141.2490       4.2334    -999.2500      48.0619      14.5122      31.0775      41.1535      38.9633   87021.2266   87017.1328   87016.1641       0.0315       0.0008       2.7818      99.4879       0.8559       1.2930
   3141.4014       3.9828    -999.2500      49.0351      14.2978      30.9008      36.1068      34.1022  100000.0000  100000.0000  100000.0000       0.0327       0.0009       2.7929      92.5762       0.7550       1.2935
   3141.5537       3.9888    -999.2500      49.7994      14.7762      31.6870      28.1919      28.0924   13072.5576   13059.8535   13049.7070       0.0347       0.0009       2.8040      86.1743       0.7650       1.3377
   3141.7063       4.0215    -999.2500      49.9220      14.6729    -999.2500    -999.2500    -999.2500      18.7130      15.6624       4.5768       0.0386       0.0009       2.8118      86.5708       0.7479       1.3328
   3141.8586       3.8208    -999.2500      49.6314      15.1021    -999.2500    -999.2500    -999.2500   87005.8672      20.2250       0.8885       0.0421       0.0008       2.8102      98.8761       0.7324       1.4091
   3142.0110       3.7825    -999.2500      48.9661      15.3518    -999.2500    -999.2500    -999.2500   12980.1729      13.1363     190.3773       0.0435       0.0008       2.8068     100.4155       0.7429       1.4461
   3142.1633       3.6492    -999.2500      48.4450      15.4503    -999.2500    -999.2500    -999.2500   87080.5078   87078.9844   87105.6953       0.0440       0.0008       2.8059      89.5447       0.6964       1.4802
   3142.3159       3.7742    -999.2500      48.3442      15.5246    -999.2500    -999.2500    -999.2500  100000.0000   13028.3203  100000.0000       0.0440       0.0008       2.8046      96.7437       0.7406       1.4813
   3142.4683       3.6939    -999.2500      48.4170      15.2282    -999.2500    -999.2500    -999.2500   13150.6504       3.1116   13868.8477       0.0431       0.0008       2.8008      77.6196       0.7199       1.4537
   3142.6206       3.9228    -999.2500      48.6376      15.4444    -999.2500    -999.2500    -999.2500   87049.0781   87028.3359   87156.1719       0.0406       0.0008       2.7988      97.3529       0.7930       1.4474
   3142.7729       3.9518    -999.2500      49.1990      15.2825    -999.2500    -999.2500    -999.2500   12940.4268   12936.2090   12982.4307       0.0378       0.0008       2.8031      97.4306       0.7987       1.4208
   3142.9255       3.8019    -999.2500      50.1835      14.5673    -999.2500    -999.2500    -999.2500   86963.2266       9.0397      81.8463       0.0354       0.0008       2.8041      99.1116       0.7381       1.3512
   3143.0779       3.6902    -999.2500      50.9234      13.6861    -999.2500    -999.2500    -999.2500   13461.9004   86979.7891     497.7371       0.0338       0.0007       2.7905     101.5576       0.7830       1.2370
   3143.2302       3.7718    -999.2500      51.0359      13.5209    -999.2500    -999.2500    -999.2500     197.9112  100000.0000   14710.5635       0.0333       0.0006       2.7765      97.6330       0.8295       1.2078
   3143.3826       3.7885    -999.2500      50.6220      13.5128    -999.2500    -999.2500    -999.2500   87071.9766   12948.5703    2484.4854       0.0333       0.0007       2.7711      98.4690       0.8228       1.1986
   3143.5349       3.9580    -999.2500      49.8302      13.6792    -999.2500    -999.2500    -999.2500   13060.4775   86950.0234   10609.6387       0.0333       0.0007       2.7672      98.1984       0.8749       1.1924
   3143.6875       3.7704    -999.2500      49.5967      13.6895    -999.2500    -999.2500    -999.2500      76.8784  100000.0000   88549.4375       0.0333       0.0006       2.7604      97.3641       0.8506       1.2073
   3143.8398       3.6774    -999.2500      50.2789      13.3780    -999.2500    -999.2500    -999.2500      16.8056  100000.0000  100000.0000       0.0332       0.0005       2.7515      97.5219       0.8834       1.1820
   3143.9922       3.6244    -999.2500      50.9411      13.3631    -999.2500    -999.2500    -999.2500   87040.5703  100000.0000   15632.3281       0.0327       0.0005       2.7409      95.7129       0.8602       1.1847
   3144.1445       3.6404    -999.2500      51.0729      12.7064    -999.2500    -999.2500    -999.2500  100000.0000   13079.9619     396.8662       0.0315       0.0006       2.7366      98.7029       0.8295       1.0919
   3144.2971       3.5240    -999.2500      50.7245      13.1806    -999.2500    -999.2500    -999.2500   13046.9785     107.5998   86974.2266       0.0304       0.0006       2.7453     104.0798       0.8008       1.1675
   3144.4495       3.2844    -999.2500      50.0362      13.2107    -999.2500    -999.2500    -999.2500   86993.4219   87002.8438  100000.0000       0.0300       0.0005       2.7558      90.5678       0.7520       1.2159
   3144.6018       3.3171    -999.2500      49.4963      13.5979    -999.2500    -999.2500    -999.2500  100000.0000  100000.0000  100000.0000       0.0301       0.0005       2.7610      89.9605       0.7638       1.2633
   3144.7542       3.1751    -999.2500      49.3654      13.2185    -999.2500    -999.2500    -999.2500   12938.0381  100000.0000   13529.2090       0.0303       0.0005       2.7631      99.7101       0.7210       1.2555
   3144.9067       3.2424    -999.2500      49.5641      13.0640    -999.2500    -999.2500    -999.2500   86961.9844   13040.2012      89.9979       0.0309       0.0006       2.7641     103.2447       0.7023       1.2238
   3145.0591       2.9944    -999.2500      49.9561      12.9709    -999.2500    -999.2500    -999.2500  100000.0000   86977.9688   86977.8672       0.0320       0.0005       2.7699     108.0745       0.6418       1.2295
   3145.2114       2.8987    -999.2500      50.2635      12.8895    -999.2500    -999.2500    -999.2500  100000.0000  100000.0000  100000.0000       0.0330       0.0005       2.7837     100.6468       0.6265       1.2441
   3145.3638       2.9556    -999.2500      50.3319      12.6795    -999.2500    -999.2500    -999.2500  100000.0000  100000.0000  100000.0000       0.0333       0.0005       2.7990     106.5104       0.6510       1.2169
   3145.5161       3.1395    -999.2500      50.1721      12.6555    -999.2500    -999.2500    -999.2500   13088.7188  100000.0000   22640.7402       0.0333       0.0006       2.8113     101.8021       0.6674       1.1925
   3145.6687       3.4825    -999.2500      49.8445      12.7367    -999.2500    -999.2500    -999.2500     130.4041  100000.0000   16505.2227       0.0333       0.0006       2.8179      97.8937       0.7487       1.1585
   3145.8210       3.4635    -999.2500      49.4746      12.7508    -999.2500    -999.2500    -999.2500   87020.6953  100000.0000   89254.0781       0.0333       0.0006       2.8175      99.7213       0.7716       1.1627
   3145.9734       3.4029    -999.2500      49.1587      12.1672    -999.2500    -999.2500    -999.2500   13115.3359  100000.0000   12961.1123       0.0334       0.0005       2.8108     101.4769       0.7678       1.0958
   3146.1257       3.3816    -999.2500      48.9642      11.6727    -999.2500    -999.2500    -999.2500      68.5878   12964.5410      32.7403       0.0340       0.0006       2.7998     108.3270       0.7565       1.0314
   3146.2783       3.5485    -999.2500      48.8981      11.2867    -999.2500    -999.2500    -999.2500   86980.2734      17.8718   86978.3359       0.0352       0.0006       2.7919      99.2562       0.7627       0.9624
   3146.4307       3.5594    -999.2500      48.8913      11.1698    -999.2500    -999.2500    -999.2500   13097.1348       2.9837   13010.6641       0.0363       0.0007       2.7909      98.4024       0.7285       0.9349
   3146.5830       3.6325    -999.2500      48.9914      11.1500    -999.2500    -999.2500    -999.2500      14.9422       0.7828       0.4924       0.0366       0.0008       2.7926      97.8473       0.7207       0.9325
   3146.7354       3.9577    -999.2500      49.4466      11.4341    -999.2500    -999.2500    -999.2500   87063.6328       1.5495       0.5732       0.0361       0.0007       2.7940      96.9338       0.8399       0.9526
