#------------------------------------------------------------------------------
#
#   Created by  : [OpenWorks] Log Export Utility (LEXP)
#   Created on  : 2016-05-18 13:39:54
#   Project     : CANT971
#   User        : R5K
#   Interpreter : PEP
#
#------------------------------------------------------------------------------
~VERSION INFORMATION
VERS. 2.0 : CWLS Log ASCII Standard - version 2.0
WRAP.  NO : One line per depth step
~WELL INFORMATION
#MNEMONIC   .UNIT                                           VALUE :DESCRIPTION
#------------------------------------------------------------------------------
STRT        .M                                          1895.0742 :START DEPTH
STOP        .M                                          3665.6575 :STOP DEPTH
STEP        .M                                             0.1524 :STEP
NULL        .                                           -999.2500 :NULL VALUE
COMP        .                                             UNKNOWN :COMPANY
WELL        .                                              227D-V :WELL
FLD         .                                             UNKNOWN :FIELD
LOC         .                                             UNKNOWN :LOCATION
CNTY        .                                             UNKNOWN :COUNTY
STAT        .                                             UNKNOWN :STATE
CTRY        .                                             UNKNOWN :COUNTRY
SRVC        .                                             UNKNOWN :SERVICE COMPANY
DATE        .                                             UNKNOWN :LOG DATE
UWI         .                                              227D-V :UNIQUE WELL ID
XCOORD      .                                            0.000000 :SURFACE X
YCOORD      .                                            0.000000 :SURFACE Y
LAT         .                                            0.000000 :LATITUDE
LON         .                                            0.000000 :LONGITUDE
ELEV        .M                                             0.0000 :SURFACE ELEV
ELEV_TYPE   .                                                  KB :ELEV TYPE
~CURVE INFORMATION
#MNEMONIC.UNIT        API CODE       : CURVE DESCRIPTION
#------------------------------------------------------------------------------
DEPTH    .M                          : Measured Depth
CGR      .API         UNKNOWN        : CGR:Espectrometria:rC:NONE:v0 (auto-composite)
DRHO-LWD .g/cm3       UNKNOWN        : DRHO-LWD:registros-LWD:rC:NONE:v0 (auto-composite)
DT       .us/ft       UNKNOWN        : DT:litodensidad_247:rC:NONE:v0 (auto-composite)
GR       .API         UNKNOWN        : GR:GR-Load:rC:NONE:v0 (auto-composite)
GR-LWD   .API         UNKNOWN        : GR-LWD:PETROWORKS:rC:NONE:v2 
ILD-LWD  .UNKNOWN     UNKNOWN        : ILD-LWD:PETROWORKS:rC:NONE:v3 
ILM-LWD  .UNKNOWN     UNKNOWN        : ILM-LWD:PETROWORKS:rC:NONE:v3 
LLD      .ohm.m       UNKNOWN        : LLD:resistivos:rC:NONE:v0 (auto-composite)
LLS      .ohm.m       UNKNOWN        : LLS:resistivos:rC:NONE:v0 (auto-composite)
MSFL     .ohm.m       UNKNOWN        : MSFL:resistivos:rC:NONE:v0 (auto-composite)
NPHI     .v/v_decimal UNKNOWN        : NPHI:litodensidad_247:rC:NONE:v0 (auto-composite)
POTA     .UNKNOWN     UNKNOWN        : POTA:Espectrometria:rC:NONE:v0 (auto-composite)
RHOB     .UNKNOWN     UNKNOWN        : RHOB:litodensidad_247:rC:NONE:v0 (auto-composite)
SP       .mV          UNKNOWN        : SP:resistivos:rC:NONE:v0 (auto-composite)
THOR     .ppm         UNKNOWN        : THOR:Espectrometria:rC:NONE:v0 (auto-composite)
URAN     .ppm         UNKNOWN        : URAN:Espectrometria:rC:NONE:v0 (auto-composite)
~A     DEPTH          CGR     DRHO-LWD           DT           GR       GR-LWD      ILD-LWD      ILM-LWD          LLD          LLS         MSFL         NPHI         POTA         RHOB           SP         THOR         URAN
# ...
   3169.4431       2.8275      -0.0062      52.7971      21.8572      26.7933     188.8997     181.2965     338.6844     339.3074     320.9077       0.0638       0.0007       2.7520     229.8131       0.4909       2.3474
   3169.5955       2.3173       0.0091      52.8240      21.6138      26.2453     183.4134     178.9596     291.9518     294.4633     275.4307       0.0648       0.0006       2.7445     227.5777       0.3932       2.3915
   3169.7478       2.2453       0.0461      53.0777      20.9174      25.7198     185.1328     187.1105     206.7525     209.0900     216.6632       0.0626       0.0005       2.7389     229.7984       0.4157       2.3167
   3169.9001       1.9336       0.0533      53.7355      19.6245      24.7937     199.2725     206.9965     204.7661     206.1660     222.9593       0.0610       0.0004       2.7384     230.4596       0.3733       2.1819
   3170.0527       1.7358       0.0226      54.9897      19.7160      23.6798     206.0007     208.9315     250.7586     251.9800     243.1608       0.0620       0.0004       2.7402     231.5327       0.3268       2.2267
   3170.2051       1.7947      -0.0040      56.9472      20.4517      23.4618     231.1640     231.1646     355.9459     361.9800     284.6553       0.0633       0.0004       2.7351     232.7204       0.3491       2.3254
   3170.3574       1.8762       0.0115      58.3913      21.4571      24.6093     188.5291     192.2780     572.4709     589.9405     323.6498       0.0635       0.0004       2.7253     233.3645       0.3554       2.4598
   3170.5098       1.5606       0.0273      58.6109      21.9350      26.5380     181.7493     186.7431     514.8256     545.9883     244.5492       0.0625       0.0004       2.7224     236.7020       0.2822       2.5510
   3170.6621       1.6367       0.0375      58.0853      22.6626      28.0241     179.9531     185.2100     456.1762     489.6354     179.2987       0.0598       0.0005       2.7265     235.8832       0.2570       2.6732
   3170.8147       1.8446       0.0171      56.8504      24.1637      28.7553     197.4932     193.5899     456.8131     491.0671     209.9276       0.0574       0.0006       2.7342     237.1007       0.2572       2.8375
   3170.9670       1.6612      -0.0056      55.3315      25.7992      29.5456     207.9254     206.2887     609.1019     650.1805     248.5649       0.0569       0.0005       2.7420     237.9650       0.2103       3.0995
   3171.1194       1.5822      -0.0100      53.7386      28.7835      31.0679     203.8011     205.8754     491.1525     514.2753     224.6078       0.0576       0.0006       2.7418     240.7825       0.1801       3.4948
   3171.2717       1.9280      -0.0019      52.6537      29.9667      33.0729     195.3623     199.7262     266.2810     268.1931     185.9836       0.0595       0.0006       2.7344     242.4937       0.2520       3.5934
   3171.4243       2.0000       0.0000      52.4905      28.0707      33.6229     188.8778     180.8188     235.3235     228.4779     188.3661       0.0624       0.0007       2.7221     243.0680       0.2393       3.3289
   3171.5767       1.8669       0.0000      52.9777      22.9899      31.8589     199.6995     188.2090     154.2392     156.1627     185.6615       0.0661       0.0007       2.7068     241.6026       0.1859       2.6986
   3171.7290       1.5219       0.0000      54.0169      18.2627      27.9745     214.5802     190.9803     166.4471     168.4668     200.1182       0.0705       0.0006       2.6898     237.1323       0.1298       2.1505
   3171.8813       1.5319       0.0000      54.8056      16.4094      25.7936     224.5040     210.9798     926.2804     936.0352     798.0912       0.0756       0.0006       2.6753     234.8131       0.1335       1.9052
   3172.0339       1.6359      -0.0089      54.9238      16.2798      23.3284     233.9955     239.2023    2140.6814    2168.2969    1215.3475       0.0817       0.0007       2.6754     232.2797       0.1445       1.8615
   3172.1863       1.9768       0.0354      54.5167      16.0898      20.3734     240.2303     249.8911    2737.7439    2768.2759     926.3226       0.0888       0.0008       2.6860     232.0462       0.1985       1.7998
   3172.3386       1.7926       0.0677      53.7011      15.1411      18.7781     234.1027     247.4034    2085.8811    2067.2686     972.4882       0.0943       0.0006       2.6981     231.4643       0.1945       1.6827
   3172.4910       1.4234       0.0888      53.0793      14.0515      17.6153     224.6176     241.8786    1985.6667    1961.8129    1179.9536       0.0960       0.0005       2.7068     231.4294       0.1551       1.5902
   3172.6433       1.2105       0.0709      52.9521      13.3554      16.3441     227.4721     245.1531    1762.9860    1694.5621    1069.0311       0.0948       0.0004       2.7058     231.7636       0.1420       1.5165
   3172.7959       0.9728       0.1186      53.1710      12.8917      15.4318     227.0322     244.4535    1659.1250    1488.2435    1053.2571       0.0917       0.0003       2.7012     233.1170       0.1207       1.4875
   3172.9482       0.9166       0.0900      53.6512      12.4231      15.2606     225.8811     238.5983    1773.5385    1538.0624    1102.1484       0.0861       0.0003       2.7060     232.5512       0.1089       1.4359
   3173.1006       0.7744       0.0700      54.2531      12.6104      15.2313     223.5460     230.1745    1793.2585    1554.0438    1088.8303       0.0783       0.0002       2.7196     233.5255       0.1187       1.4932
   3173.2529       0.5589       0.0304      54.9347      12.6196      15.3575     210.5809     216.0520    1537.7686    1345.9565     931.2780       0.0717       0.0001       2.7380     235.5379       0.1133       1.5335
   3173.4055       0.8380       0.0500      55.7514      13.3160      15.7722     192.8634     201.7626    1217.8132    1097.9058     740.4724       0.0697       0.0002       2.7526     239.7264       0.1488       1.5832
   3173.5579       0.6674       0.0495      56.6895      13.4338      16.7735     178.9085     189.3340     620.8725     572.3600     359.5792       0.0715       0.0002       2.7525     249.8272       0.0909       1.6101
   3173.7102       0.9303       0.0400      57.5712      13.9464      17.5849     166.0918     173.4387     371.4710     348.0848     246.0552       0.0755       0.0003       2.7460     259.1913       0.1139       1.6457
   3173.8625       1.0291       0.0392      58.2604      14.2824      17.7448     152.1797     154.9540     508.8960     488.0697     317.4379       0.0792       0.0003       2.7487     270.7684       0.1420       1.6869
   3174.0151       1.2115       0.0310      58.6636      14.9975      18.0020     138.0424     136.5967     478.1441     470.1912     219.1033       0.0805       0.0005       2.7607     275.4106       0.1263       1.7418
   3174.1675       1.4192       0.0400      58.7396      15.9095      18.9375     124.3896     121.9003     192.6443     196.4605     107.9007       0.0803       0.0005       2.7764     281.4742       0.1617       1.8162
   3174.3198       1.6974       0.0453      58.5169      17.2517      20.4761     111.4405     108.9229     201.1606     204.2064     120.0617       0.0798       0.0006       2.7898     289.9264       0.1963       1.9570
   3174.4722       1.6851       0.0815      57.8967      18.2576      21.4957     102.4398      96.3493     136.5846     135.2135      72.9869       0.0792       0.0005       2.7959     295.4695       0.2135       2.0962
   3174.6245       1.9405       0.0965      56.5679      19.8492      21.8612     101.5809      93.3076     106.5048     106.4112      75.6667       0.0770       0.0007       2.7938     300.8605       0.2335       2.2531
   3174.7771       2.0309       0.1300      54.8529      20.5346      22.3577     101.1494      93.5767     143.1819     144.3955      83.6216       0.0722       0.0008       2.7845     303.3566       0.2139       2.3027
   3174.9294       2.2591       0.1379      54.0770      21.2277      23.7329      97.6207      89.6923     104.9787     101.8817      57.9163       0.0688       0.0009       2.7722     303.5706       0.2131       2.3642
