#------------------------------------------------------------------------------
#
#   Created by  : [OpenWorks] Log Export Utility (LEXP)
#   Created on  : 2016-05-18 13:39:54
#   Project     : CANT971
#   User        : R5K
#   Interpreter : PEP
#
#------------------------------------------------------------------------------
~VERSION INFORMATION
VERS. 2.0 : CWLS Log ASCII Standard - version 2.0
WRAP.  NO : One line per depth step
~WELL INFORMATION
#MNEMONIC   .UNIT                                           VALUE :DESCRIPTION
#------------------------------------------------------------------------------
STRT        .M                                          1895.0742 :START DEPTH
STOP        .M                                          3665.6575 :STOP DEPTH
STEP        .M                                             0.1524 :STEP
NULL        .                                           -999.2500 :NULL VALUE
COMP        .                                             UNKNOWN :COMPANY
WELL        .                                              227D-V :WELL
FLD         .                                             UNKNOWN :FIELD
LOC         .                                             UNKNOWN :LOCATION
CNTY        .                                             UNKNOWN :COUNTY
STAT        .                                             UNKNOWN :STATE
CTRY        .                                             UNKNOWN :COUNTRY
SRVC        .                                             UNKNOWN :SERVICE COMPANY
DATE        .                                             UNKNOWN :LOG DATE
UWI         .                                              227D-V :UNIQUE WELL ID
XCOORD      .                                            0.000000 :SURFACE X
YCOORD      .                                            0.000000 :SURFACE Y
LAT         .                                            0.000000 :LATITUDE
LON         .                                            0.000000 :LONGITUDE
ELEV        .M                                             0.0000 :SURFACE ELEV
ELEV_TYPE   .                                                  KB :ELEV TYPE
~CURVE INFORMATION
#MNEMONIC.UNIT        API CODE       : CURVE DESCRIPTION
#------------------------------------------------------------------------------
DEPTH    .M                          : Measured Depth
CGR      .API         UNKNOWN        : CGR:Espectrometria:rC:NONE:v0 (auto-composite)
DRHO-LWD .g/cm3       UNKNOWN        : DRHO-LWD:registros-LWD:rC:NONE:v0 (auto-composite)
DT       .us/ft       UNKNOWN        : DT:litodensidad_247:rC:NONE:v0 (auto-composite)
GR       .API         UNKNOWN        : GR:GR-Load:rC:NONE:v0 (auto-composite)
GR-LWD   .API         UNKNOWN        : GR-LWD:PETROWORKS:rC:NONE:v2 
ILD-LWD  .UNKNOWN     UNKNOWN        : ILD-LWD:PETROWORKS:rC:NONE:v3 
ILM-LWD  .UNKNOWN     UNKNOWN        : ILM-LWD:PETROWORKS:rC:NONE:v3 
LLD      .ohm.m       UNKNOWN        : LLD:resistivos:rC:NONE:v0 (auto-composite)
LLS      .ohm.m       UNKNOWN        : LLS:resistivos:rC:NONE:v0 (auto-composite)
MSFL     .ohm.m       UNKNOWN        : MSFL:resistivos:rC:NONE:v0 (auto-composite)
NPHI     .v/v_decimal UNKNOWN        : NPHI:litodensidad_247:rC:NONE:v0 (auto-composite)
POTA     .UNKNOWN     UNKNOWN        : POTA:Espectrometria:rC:NONE:v0 (auto-composite)
RHOB     .UNKNOWN     UNKNOWN        : RHOB:litodensidad_247:rC:NONE:v0 (auto-composite)
SP       .mV          UNKNOWN        : SP:resistivos:rC:NONE:v0 (auto-composite)
THOR     .ppm         UNKNOWN        : THOR:Espectrometria:rC:NONE:v0 (auto-composite)
URAN     .ppm         UNKNOWN        : URAN:Espectrometria:rC:NONE:v0 (auto-composite)
~A     DEPTH          CGR     DRHO-LWD           DT           GR       GR-LWD      ILD-LWD      ILM-LWD          LLD          LLS         MSFL         NPHI         POTA         RHOB           SP         THOR         URAN
# ...
   3175.0818       2.3112       0.1700      54.5999      20.9544      24.9383      89.7887      82.1180      70.8925      66.0752      36.0390       0.0701       0.0009       2.7614     301.9305       0.2234       2.3218
   3175.2341       2.5078       0.1883      55.3262      20.3462      25.4350      83.3619      76.3163      82.0018      79.2416      42.3303       0.0726       0.0009       2.7553     303.3746       0.2583       2.2181
   3175.3867       2.3157       0.2281      55.6000      20.1343      25.4505      82.6791      76.3922     235.8133     239.5209      97.6245       0.0732       0.0008       2.7553     301.9399       0.2392       2.2419
   3175.5391       2.3006       0.1444      55.5933      19.3463      25.8369      84.6317      78.0515     335.1553     351.8803     111.7264       0.0727       0.0009       2.7579     301.8506       0.2251       2.1305
   3175.6914       2.2810       0.0806      55.4254      18.8051      25.8314      83.4342      78.2611     319.6295     327.7009      62.4548       0.0714       0.0008       2.7588     301.1135       0.2440       2.0548
   3175.8438       2.1901       0.0300      54.9303      17.7027      24.7471      79.7483      75.6143     150.3540     151.1936      21.2112       0.0708       0.0008       2.7553     301.5442       0.2234       1.9462
   3175.9963       1.9627       0.0300      54.1605      17.0498      23.4205      79.2377      73.7131     109.7955     110.5369      38.4679       0.0718       0.0007       2.7465     296.1899       0.2119       1.8695
   3176.1487       2.0830       0.0365      53.5704      16.5033      22.3302      81.3508      74.2241    1036.8020    1022.2958     276.3448       0.0730       0.0008       2.7354     293.3093       0.2121       1.7705
   3176.3010       1.8926       0.0432      53.4293      16.4199      21.6212      86.8000      78.0494     209.0564     203.4021      72.8828       0.0732       0.0007       2.7259     290.8246       0.2086       1.7782
   3176.4534       1.6823       0.0728      53.6882      16.7350      20.7700      87.5219      79.1067      48.3771      45.0772      25.2086       0.0713       0.0006       2.7225     281.1419       0.1921       1.8562
   3176.6057       1.7111       0.2170      54.1670      16.9836      20.1695      77.7197      73.3548      56.6542      51.7021      31.5794       0.0663       0.0006       2.7288     278.2260       0.2148       1.8636
   3176.7583       1.3342       0.3533      54.4952      16.4225      19.4480      71.7826      69.1345     132.1842     121.9821      85.4974       0.0624       0.0003       2.7380     277.0214       0.2132       1.8513
   3176.9106       0.9151       0.3173      54.5283      14.9482      18.6959     106.6838      95.7412     421.7233     410.5771     184.5868       0.0628       0.0002       2.7409     293.0792       0.1757       1.7423
   3177.0630       0.8097       0.1343      54.4988      13.9287      17.9934     110.9850     106.2452     284.1791     277.5369     118.0141       0.0640       0.0001       2.7385     321.9926       0.1861       1.6324
   3177.2153       0.8264       0.0256      54.5344      12.7467      17.6002     104.9321     104.9157     288.8666     273.2032     128.8434       0.0642       0.0002       2.7354     337.0941       0.1509       1.4881
   3177.3679       0.8646       0.0290      54.5526      12.7175      17.1098     110.9281     107.3625     294.8790     274.7863     148.8513       0.0636       0.0002       2.7309     349.7848       0.1719       1.4825
   3177.5203       0.8899       0.0494      54.5195      12.2010      16.7599     103.0478     103.4592     532.6725     481.5252     268.6618       0.0617       0.0001       2.7222     356.6025       0.1981       1.4084
   3177.6726       1.1145       0.0890      54.5363      12.2733      16.7100     103.5414     107.1691     385.9724     332.8535     206.9359       0.0594       0.0002       2.7166     360.5297       0.2274       1.4109
   3177.8250       1.2727       0.0850      54.6434      11.8595      16.4795     107.5656     111.7230     444.2700     363.5946     221.3693       0.0568       0.0003       2.7256     369.1078       0.2446       1.3545
   3177.9775       1.4879       0.0707      54.7333      12.4915      15.6088     109.3029     113.7566     251.3884     206.7520     155.2825       0.0534       0.0004       2.7439     373.2474       0.2643       1.4156
   3178.1299       1.7149       0.0581      54.6958      13.7005      14.6081     105.9843     109.6937     201.9582     168.6603     124.5544       0.0485       0.0004       2.7617     377.2209       0.3087       1.5532
   3178.2822       1.9649       0.0355      54.3776      15.8150      14.2257     109.5906     109.7691     147.2863     118.3890     101.4530       0.0448       0.0004       2.7753     383.7866       0.4019       1.7983
   3178.4346       2.2126       0.0738      53.6843      17.6745      14.6943     103.5783     106.8176     294.3606     239.3323     213.1329       0.0441       0.0005       2.7814     384.5787       0.4260       2.0028
   3178.5869       2.3912       0.1232      52.8291      18.5525      16.0253      98.7632     101.1190     513.9730     420.6962     318.6191       0.0443       0.0006       2.7802     392.7270       0.4178       2.0850
   3178.7395       2.1712       0.1281      52.0268      18.1612      17.7068      94.3145      96.9091     332.1723     291.2283     203.9212       0.0447       0.0006       2.7691     394.4812       0.3621       2.0470
   3178.8918       1.6723       0.0527      51.9149      17.3960      19.6559      91.9330      95.3018     284.6776     250.3294     157.7951       0.0452       0.0003       2.7539     393.8556       0.3590       2.0123
   3179.0442       1.8241      -0.0214      52.8461      16.5495      20.9903      90.1253      92.7534     140.5974     120.6014      75.2054       0.0454       0.0004       2.7421     388.0925       0.3666       1.8804
   3179.1965       1.6685      -0.0142      53.6600      16.2523      21.0348      87.4419      87.6390      97.5903      82.8966      54.0916       0.0476       0.0003       2.7358     383.9302       0.3444       1.8599
   3179.3491       1.4933       0.0396      53.7462      16.0646      20.0692      84.3524      84.2885     218.3212     187.7192     128.1418       0.0537       0.0003       2.7404     379.5781       0.2819       1.8626
   3179.5015       1.3449       0.1006      53.2127      16.9457      19.3577      76.8563      77.2603    1052.4592     942.6643     614.3068       0.0586       0.0003       2.7483     381.2834       0.2404       1.9968
   3179.6538       1.4383       0.0785      52.0253      17.8666      19.2260      75.1632      74.9413     398.9305     361.6160     195.3767       0.0595       0.0003       2.7460     387.6624       0.2694       2.1008
   3179.8062       2.0902       0.0458      50.9176      19.9170      19.4871      75.4541      74.1053      87.3998      79.2670      44.1088       0.0587       0.0006       2.7378     388.7802       0.3067       2.2737
   3179.9587       2.5920      -0.0252      50.2607      21.3557      19.7760      74.3066      71.2652      42.2159      38.3812      21.6567       0.0565       0.0010       2.7304     391.4756       0.2917       2.3766
   3180.1111       2.9836      -0.1092      49.9070      24.1348      21.5172      68.1231      64.0694      82.2836      79.8218      41.6252       0.0531       0.0011       2.7268     392.7448       0.2951       2.6757
   3180.2634       3.5592      -0.0998      49.9164      26.7567      24.4494      67.4327      61.3171     155.2304     149.7755      73.1221       0.0486       0.0012       2.7358     394.9416       0.4301       2.9412
   3180.4158       4.7372      -0.0668      50.4276      32.1106      28.0646      72.2593      64.4217      82.9930      78.0207      38.9855       0.0451       0.0016       2.7495     401.6700       0.5491       3.4422
   3180.5681       6.5694      -0.0127      51.5458      40.8419      30.7620      75.0580      66.7893      55.6366      51.0682      22.1647       0.0442       0.0024       2.7549     405.9996       0.6933       4.2935
