#------------------------------------------------------------------------------
#
#   Created by  : [OpenWorks] Log Export Utility (LEXP)
#   Created on  : 2016-05-18 13:39:54
#   Project     : CANT971
#   User        : R5K
#   Interpreter : PEP
#
#------------------------------------------------------------------------------
~VERSION INFORMATION
VERS. 2.0 : CWLS Log ASCII Standard - version 2.0
WRAP.  NO : One line per depth step
~WELL INFORMATION
#MNEMONIC   .UNIT                                           VALUE :DESCRIPTION
#------------------------------------------------------------------------------
STRT        .M                                          1895.0742 :START DEPTH
STOP        .M                                          3665.6575 :STOP DEPTH
STEP        .M                                             0.1524 :STEP
NULL        .                                           -999.2500 :NULL VALUE
COMP        .                                             UNKNOWN :COMPANY
WELL        .                                              227D-V :WELL
FLD         .                                             UNKNOWN :FIELD
LOC         .                                             UNKNOWN :LOCATION
CNTY        .                                             UNKNOWN :COUNTY
STAT        .                                             UNKNOWN :STATE
CTRY        .                                             UNKNOWN :COUNTRY
SRVC        .                                             UNKNOWN :SERVICE COMPANY
DATE        .                                             UNKNOWN :LOG DATE
UWI         .                                              227D-V :UNIQUE WELL ID
XCOORD      .                                            0.000000 :SURFACE X
YCOORD      .                                            0.000000 :SURFACE Y
LAT         .                                            0.000000 :LATITUDE
LON         .                                            0.000000 :LONGITUDE
ELEV        .M                                             0.0000 :SURFACE ELEV
ELEV_TYPE   .                                                  KB :ELEV TYPE
~CURVE INFORMATION
#MNEMONIC.UNIT        API CODE       : CURVE DESCRIPTION
#------------------------------------------------------------------------------
DEPTH    .M                          : Measured Depth
CGR      .API         UNKNOWN        : CGR:Espectrometria:rC:NONE:v0 (auto-composite)
DRHO-LWD .g/cm3       UNKNOWN        : DRHO-LWD:registros-LWD:rC:NONE:v0 (auto-composite)
DT       .us/ft       UNKNOWN        : DT:litodensidad_247:rC:NONE:v0 (auto-composite)
GR       .API         UNKNOWN        : GR:GR-Load:rC:NONE:v0 (auto-composite)
GR-LWD   .API         UNKNOWN        : GR-LWD:PETROWORKS:rC:NONE:v2 
ILD-LWD  .UNKNOWN     UNKNOWN        : ILD-LWD:PETROWORKS:rC:NONE:v3 
ILM-LWD  .UNKNOWN     UNKNOWN        : ILM-LWD:PETROWORKS:rC:NONE:v3 
LLD      .ohm.m       UNKNOWN        : LLD:resistivos:rC:NONE:v0 (auto-composite)
LLS      .ohm.m       UNKNOWN        : LLS:resistivos:rC:NONE:v0 (auto-composite)
MSFL     .ohm.m       UNKNOWN        : MSFL:resistivos:rC:NONE:v0 (auto-composite)
NPHI     .v/v_decimal UNKNOWN        : NPHI:litodensidad_247:rC:NONE:v0 (auto-composite)
POTA     .UNKNOWN     UNKNOWN        : POTA:Espectrometria:rC:NONE:v0 (auto-composite)
RHOB     .UNKNOWN     UNKNOWN        : RHOB:litodensidad_247:rC:NONE:v0 (auto-composite)
SP       .mV          UNKNOWN        : SP:resistivos:rC:NONE:v0 (auto-composite)
THOR     .ppm         UNKNOWN        : THOR:Espectrometria:rC:NONE:v0 (auto-composite)
URAN     .ppm         UNKNOWN        : URAN:Espectrometria:rC:NONE:v0 (auto-composite)
~A     DEPTH          CGR     DRHO-LWD           DT           GR       GR-LWD      ILD-LWD      ILM-LWD          LLD          LLS         MSFL         NPHI         POTA         RHOB           SP         THOR         URAN
# ...
   3220.1921       0.9304       0.0300    -999.2500      23.4845      26.3038     133.8805     139.1550     437.6100     478.5007     427.9966    -999.2500       0.0003    -999.2500     417.4111       0.1450       2.7818
   3220.3447       0.7579       0.0396    -999.2500      21.7063      29.7234     135.6768     139.8769     240.8890     266.8298     320.4920    -999.2500       0.0001    -999.2500     418.1523       0.1480       2.6057
   3220.4971       0.6848       0.0302    -999.2500      21.6364      31.1645     137.1585     141.9196     235.0618     261.6017     357.3648    -999.2500       0.0001    -999.2500     419.1198       0.1477       2.6026
   3220.6494       0.4662       0.0200    -999.2500      23.6386      30.5888     137.0541     142.6694     271.1317     301.0103     418.0394    -999.2500       0.0000    -999.2500     415.8779       0.1200       2.9010
   3220.8018       0.5904       0.0200    -999.2500      26.3507      29.5410     132.9959     138.2859     319.0797     357.0418     496.8007    -999.2500       0.0001    -999.2500     412.2735       0.1457       3.2195
   3220.9541       1.0958       0.0306    -999.2500      27.6187      28.5728     128.4044     130.8698     261.1304     293.2556     398.7392    -999.2500       0.0004    -999.2500     411.3770       0.1565       3.2768
   3221.1067       0.7066       0.0496    -999.2500      27.7226      27.9616     128.6808     128.6939     180.1791     202.5930     283.5258    -999.2500       0.0001    -999.2500     412.0193       0.1776       3.3630
   3221.2590       0.4909       0.0400    -999.2500      27.7014      28.1031     130.5106     131.8903     248.5808     280.6131     396.4910    -999.2500       0.0000    -999.2500     411.0374       0.1713       3.4062
   3221.4114       0.4697       0.0408    -999.2500      28.9160      29.7170     129.8012     133.1788     278.9825     314.2827     432.5371    -999.2500       0.0000    -999.2500     408.8621       0.1675       3.5812
   3221.5637       0.4642       0.0509    -999.2500      29.0666      32.3073     127.0718     131.1891     234.1178     264.1758     376.1969    -999.2500       0.0000    -999.2500     409.5422       0.1349       3.5910
   3221.7163       0.1667       0.0589    -999.2500      27.9133      34.0545     125.0779     129.4100     243.3547     273.4469     391.1467    -999.2500      -0.0001    -999.2500     413.4386       0.1199       3.5089
   3221.8687       0.4791       0.0488    -999.2500      26.7819      34.4542     125.3892     128.3162     214.0468     239.2531     344.9349    -999.2500      -0.0000    -999.2500     416.3380       0.1756       3.3471
   3222.0210       0.4910       0.0372    -999.2500      27.0080      34.8554     131.0520     133.0964     270.2750     301.8334     426.2569    -999.2500       0.0000    -999.2500     415.1644       0.1407       3.3644
   3222.1733       0.6084       0.0184    -999.2500      27.0131      35.6315     158.8723     161.9553     372.8960     418.9005     596.9734    -999.2500       0.0001    -999.2500     415.1552       0.1521       3.3316
   3222.3259       0.9830       0.0100    -999.2500      26.4953      35.3407     202.9061     211.6014     411.3006     462.3630     623.7472    -999.2500       0.0003    -999.2500     414.4265       0.1436       3.1754
   3222.4783       0.9969       0.0119    -999.2500      25.8437      33.5058     212.2937     231.8026     342.4996     384.6909     487.0831    -999.2500       0.0002    -999.2500     413.7145       0.1688       3.0940
   3222.6306       0.8353       0.0200    -999.2500      26.4460      31.7698     172.8269     184.3008     304.7298     341.3674     464.9611    -999.2500       0.0000    -999.2500     413.4618       0.2345       3.1979
   3222.7830       1.1037       0.0222    -999.2500      26.5583      31.1884     150.7461     157.3741     362.5624     409.2552     592.6458    -999.2500       0.0002    -999.2500     414.4169       0.2274       3.1720
   3222.9353       1.3802       0.0253    -999.2500      26.0004      31.2604     145.0341     162.4409     413.9627     466.2900     620.8376    -999.2500       0.0004    -999.2500     418.8084       0.2333       3.0590
   3223.0879       1.1168       0.0100    -999.2500      24.1588      30.9947     139.1417     160.0683     218.4498     246.5552     341.9929    -999.2500       0.0002    -999.2500     420.7424       0.2034       2.8389
   3223.2402       1.0572       0.0127    -999.2500      22.2983      30.7699     139.0985     153.8726     188.9495     214.9025     303.1339    -999.2500       0.0003    -999.2500     417.4028       0.1835       2.6148
   3223.3926       1.1179       0.0228    -999.2500      21.5568      30.8561     146.0915     153.4268     177.5996     202.0979     277.2293    -999.2500       0.0003    -999.2500     413.9916       0.1754       2.5097
   3223.5449       0.7870       0.0270    -999.2500      21.7874      30.5553     143.2905     148.4564     217.1549     248.1624     358.4967    -999.2500       0.0002    -999.2500     339.9231       0.1198       2.5731
   3223.6975       0.8424       0.0200    -999.2500      21.6733      28.7226     134.3471     138.1584     313.6766     361.4444     497.7326    -999.2500       0.0002    -999.2500     329.5436       0.1460       2.5668
   3223.8499       0.6155       0.0200    -999.2500      21.7240      26.3597     130.1625     131.5182     249.9229     287.7456     405.7833    -999.2500       0.0001    -999.2500     351.7003       0.1405       2.6301
   3224.0022       0.5676       0.0096    -999.2500      21.5094      25.4243     135.7787     133.9581     217.2837     249.0485     354.7722    -999.2500       0.0000    -999.2500     372.1891       0.1773       2.6121
   3224.1545       0.9023       0.0009    -999.2500      22.1036      26.2103     129.7993     130.2504     157.6884     179.9011     248.1465    -999.2500       0.0003    -999.2500     386.5589       0.1488       2.6461
   3224.3071       0.8914       0.0238    -999.2500      22.4688      26.9951     128.9348     127.8042     110.8688     125.9943     194.0027    -999.2500       0.0004    -999.2500     385.8665       0.0742       2.7126
   3224.4595       0.6966       0.0538    -999.2500      22.2781      27.5510     120.8820     120.5014     136.7991     155.1536     243.9183    -999.2500       0.0002    -999.2500     388.8706       0.0703       2.7131
   3224.6118       0.4820       0.0859    -999.2500      22.6581      27.0897     113.8579     114.4001     165.8275     188.3915     264.6340    -999.2500       0.0001    -999.2500     395.6840       0.0893       2.7986
   3224.7642       0.5374       0.0800    -999.2500      22.1000      26.4350     112.2780     110.8693     192.3913     219.9534     317.6056    -999.2500       0.0001    -999.2500     401.3588       0.1303       2.7547
   3224.9165       0.4761       0.0622    -999.2500      22.3056      25.6692     110.6845     106.0051     258.5589     295.2216     431.7543    -999.2500      -0.0001    -999.2500     409.1934       0.1832       2.8066
   3225.0691       0.7242       0.0262    -999.2500      21.0807      26.4477     107.5478     106.6216     256.6852     291.3435     420.2795    -999.2500       0.0001    -999.2500     411.4461       0.1905       2.6379
   3225.2214       0.9889       0.0100    -999.2500      20.8013      27.6416     104.0750     103.0743     258.1178     291.9909     413.0196    -999.2500       0.0002    -999.2500     409.7761       0.1848       2.5586
   3225.3738       1.0720       0.0100    -999.2500      20.8804      27.7302     102.7656     100.9205     204.8362     230.7399     324.3472    -999.2500       0.0002    -999.2500     410.6969       0.2165       2.5342
   3225.5261       1.5157       0.0252    -999.2500      21.8329      27.1197     103.7280     100.6871     161.4354     179.6902     278.8714    -999.2500       0.0005    -999.2500     419.7465       0.2343       2.5928
   3225.6787       2.0942       0.0243    -999.2500      22.5129      26.2901      94.8141      95.0428     146.7678     164.0712     261.5512    -999.2500       0.0006    -999.2500     421.9323       0.3361       2.6395
