#------------------------------------------------------------------------------
#
#   Created by  : [OpenWorks] Log Export Utility (LEXP)
#   Created on  : 2016-05-18 13:39:54
#   Project     : CANT971
#   User        : R5K
#   Interpreter : PEP
#
#------------------------------------------------------------------------------
~VERSION INFORMATION
VERS. 2.0 : CWLS Log ASCII Standard - version 2.0
WRAP.  NO : One line per depth step
~WELL INFORMATION
#MNEMONIC   .UNIT                                           VALUE :DESCRIPTION
#------------------------------------------------------------------------------
STRT        .M                                          1895.0742 :START DEPTH
STOP        .M                                          3665.6575 :STOP DEPTH
STEP        .M                                             0.1524 :STEP
NULL        .                                           -999.2500 :NULL VALUE
COMP        .                                             UNKNOWN :COMPANY
WELL        .                                              227D-V :WELL
FLD         .                                             UNKNOWN :FIELD
LOC         .                                             UNKNOWN :LOCATION
CNTY        .                                             UNKNOWN :COUNTY
STAT        .                                             UNKNOWN :STATE
CTRY        .                                             UNKNOWN :COUNTRY
SRVC        .                                             UNKNOWN :SERVICE COMPANY
DATE        .                                             UNKNOWN :LOG DATE
UWI         .                                              227D-V :UNIQUE WELL ID
XCOORD      .                                            0.000000 :SURFACE X
YCOORD      .                                            0.000000 :SURFACE Y
LAT         .                                            0.000000 :LATITUDE
LON         .                                            0.000000 :LONGITUDE
ELEV        .M                                             0.0000 :SURFACE ELEV
ELEV_TYPE   .                                                  KB :ELEV TYPE
~CURVE INFORMATION
#MNEMONIC.UNIT        API CODE       : CURVE DESCRIPTION
#------------------------------------------------------------------------------
DEPTH    .M                          : Measured Depth
CGR      .API         UNKNOWN        : CGR:Espectrometria:rC:NONE:v0 (auto-composite)
DRHO-LWD .g/cm3       UNKNOWN        : DRHO-LWD:registros-LWD:rC:NONE:v0 (auto-composite)
DT       .us/ft       UNKNOWN        : DT:litodensidad_247:rC:NONE:v0 (auto-composite)
GR       .API         UNKNOWN        : GR:GR-Load:rC:NONE:v0 (auto-composite)
GR-LWD   .API         UNKNOWN        : GR-LWD:PETROWORKS:rC:NONE:v2 
ILD-LWD  .UNKNOWN     UNKNOWN        : ILD-LWD:PETROWORKS:rC:NONE:v3 
ILM-LWD  .UNKNOWN     UNKNOWN        : ILM-LWD:PETROWORKS:rC:NONE:v3 
LLD      .ohm.m       UNKNOWN        : LLD:resistivos:rC:NONE:v0 (auto-composite)
LLS      .ohm.m       UNKNOWN        : LLS:resistivos:rC:NONE:v0 (auto-composite)
MSFL     .ohm.m       UNKNOWN        : MSFL:resistivos:rC:NONE:v0 (auto-composite)
NPHI     .v/v_decimal UNKNOWN        : NPHI:litodensidad_247:rC:NONE:v0 (auto-composite)
POTA     .UNKNOWN     UNKNOWN        : POTA:Espectrometria:rC:NONE:v0 (auto-composite)
RHOB     .UNKNOWN     UNKNOWN        : RHOB:litodensidad_247:rC:NONE:v0 (auto-composite)
SP       .mV          UNKNOWN        : SP:resistivos:rC:NONE:v0 (auto-composite)
THOR     .ppm         UNKNOWN        : THOR:Espectrometria:rC:NONE:v0 (auto-composite)
URAN     .ppm         UNKNOWN        : URAN:Espectrometria:rC:NONE:v0 (auto-composite)
~A     DEPTH          CGR     DRHO-LWD           DT           GR       GR-LWD      ILD-LWD      ILM-LWD          LLD          LLS         MSFL         NPHI         POTA         RHOB           SP         THOR         URAN
# ...
   3237.1086       1.8041       0.0000    -999.2500      32.4095      32.4992      58.9805      61.4428     332.9395     382.6165     548.9337    -999.2500       0.0004    -999.2500     424.6936       0.3379       3.7127
   3237.2610       1.8041       0.0074    -999.2500      32.4095      32.0643      59.5739      62.9880     332.9395     382.6165     548.9337    -999.2500       0.0004    -999.2500     422.2210       0.3379       3.7127
   3237.4133       1.8041       0.0024    -999.2500      32.4095      30.9585      60.3844      63.3772     332.9395     382.6165     548.9337    -999.2500       0.0004    -999.2500     421.5021       0.3379       3.7127
   3237.5659       1.8041       0.0154    -999.2500      32.4095      31.1689      62.9034      65.9164     332.9395     382.6165     548.9337    -999.2500       0.0004    -999.2500     422.5247       0.3379       3.7127
   3237.7183       1.8041       0.0436    -999.2500      32.4095      32.0635      65.3181      68.3100     332.9395     382.6165     548.9337    -999.2500       0.0004    -999.2500     422.9050       0.3379       3.7127
   3237.8706       1.8041       0.0661    -999.2500      32.4095      31.3854      70.8785      74.3286     332.9395     382.6165     548.9337    -999.2500       0.0004    -999.2500     423.6446       0.3379       3.7127
   3238.0229       1.8041       0.0700    -999.2500      32.4095      29.1236      76.3205      78.9274     332.9395     382.6165     548.9337    -999.2500       0.0004    -999.2500     422.8249       0.3379       3.7127
   3238.1755       1.8041       0.0449    -999.2500      32.4095      27.6778      78.5439      80.5741     332.9395     382.6165     548.9337    -999.2500       0.0004    -999.2500     421.3287       0.3379       3.7127
   3238.3279       1.8041       0.0230    -999.2500      32.4095      28.2733      77.8609      80.0157     332.9395     382.6165     548.9337    -999.2500       0.0004    -999.2500     421.0163       0.3379       3.7127
   3238.4802       1.8041       0.0113    -999.2500      32.4095      29.5994      80.4003      83.7776     332.9395     382.6165     548.9337    -999.2500       0.0004    -999.2500     429.4296       0.3379       3.7127
   3238.6326       1.8041       0.0100    -999.2500      32.4095      30.5360      82.4223      83.6121     332.9395     382.6165     548.9337    -999.2500       0.0004    -999.2500     429.9802       0.3379       3.7127
   3238.7849       1.8041       0.0010    -999.2500      32.4095      32.7722      82.2110      80.6540     332.9395     382.6165     548.9337    -999.2500       0.0004    -999.2500     423.0712       0.3379       3.7127
   3238.9375       1.8041      -0.0275    -999.2500      32.4095      36.2806      82.9282      81.5347     332.9395     382.6165     548.9337    -999.2500       0.0004    -999.2500     392.5957       0.3379       3.7127
   3239.0898       1.8041      -0.0207    -999.2500      32.4095      39.9829      85.3186      85.1690     332.9395     382.6165     548.9337    -999.2500       0.0004    -999.2500     369.2644       0.3379       3.7127
   3239.2422       1.8041      -0.0105    -999.2500      32.4095      41.5311      92.3045      93.2846     332.9395     382.6165     548.9337    -999.2500       0.0004    -999.2500     364.2071       0.3379       3.7127
   3239.3945       1.8041      -0.0004    -999.2500      32.4095      40.7459      97.6427      99.5550     332.9395     382.6165     548.9337    -999.2500       0.0004    -999.2500     365.1267       0.3379       3.7127
   3239.5471       1.8041      -0.0196    -999.2500      32.4095      39.8792      94.2476      97.1740     332.9395     382.6165     548.9337    -999.2500       0.0004    -999.2500     367.3781       0.3379       3.7127
   3239.6995       1.8041      -0.0100    -999.2500      32.4095      40.4483      87.2234      89.4165     332.9395     382.6165     548.9337    -999.2500       0.0004    -999.2500     366.6545       0.3379       3.7127
   3239.8518       1.8041       0.0200    -999.2500      32.4095      42.6578      83.6822      85.1647     332.9395     382.6165     548.9337    -999.2500       0.0004    -999.2500     367.7510       0.3379       3.7127
   3240.0042       1.8041       0.0300    -999.2500      32.4095      44.6309      78.5910      80.3854     332.9395     382.6165     548.9337    -999.2500       0.0004    -999.2500     367.1213       0.3379       3.7127
   3240.1567       1.8041       0.0287    -999.2500      32.4095      44.9085      66.7680      68.1000     332.9395     382.6165     548.9337    -999.2500       0.0004    -999.2500     367.7077       0.3379       3.7127
   3240.3091       1.8041       0.0000    -999.2500      32.4095      42.2781      57.1935      58.4485     332.9395     382.6165     548.9337    -999.2500       0.0004    -999.2500     368.6825       0.3379       3.7127
   3240.4614       1.8041       0.0008    -999.2500      32.4095      37.6272      53.4112      55.1310     332.9395     382.6165     548.9337    -999.2500       0.0004    -999.2500     365.7126       0.3379       3.7127
   3240.6138       1.8041       0.0091    -999.2500      32.4095      33.2627      50.0760      51.7202     332.9395     382.6165     548.9337    -999.2500       0.0004    -999.2500     364.8147       0.3379       3.7127
   3240.7661       1.8041      -0.0011    -999.2500      32.4095      30.3441      45.5935      46.8325     332.9395     382.6165     548.9337    -999.2500       0.0004    -999.2500     365.6753       0.3379       3.7127
   3240.9187       1.8041      -0.0112    -999.2500      32.4095      28.2705      40.7819      41.4822     332.9395     382.6165     548.9337    -999.2500       0.0004    -999.2500     365.8669       0.3379       3.7127
   3241.0710       1.8041      -0.0172    -999.2500      32.4095      27.0324      37.0827      37.4180     332.9395     382.6165     548.9337    -999.2500       0.0004    -999.2500     369.1920       0.3379       3.7127
   3241.2234       1.8041       0.0016    -999.2500      32.4095      26.8690      33.9219      33.9581     332.9395     382.6165     548.9337    -999.2500       0.0004    -999.2500     368.5451       0.3379       3.7127
   3241.3757       1.8041       0.0117    -999.2500      32.4095      28.0747      31.5925      31.3964     332.9395     382.6165     548.9337    -999.2500       0.0004    -999.2500     370.6063       0.3379       3.7127
   3241.5283       1.8041       0.0200    -999.2500      32.4095      31.0612      30.5477      30.4128     332.9395     382.6165     548.9337    -999.2500       0.0004    -999.2500     372.2964       0.3379       3.7127
   3241.6807       1.8041       0.0200    -999.2500      32.4095      34.6491      29.2018      28.9963     332.9395     382.6165     548.9337    -999.2500       0.0004    -999.2500     374.6747       0.3379       3.7127
   3241.8330       1.8041       0.0222    -999.2500      32.4095      37.1919      28.0647      27.9048     332.9395     382.6165     548.9337    -999.2500       0.0004    -999.2500     374.1297       0.3379       3.7127
   3241.9854       1.8041       0.0300    -999.2500      32.4095      36.6466      27.3763      27.4686     332.9395     382.6165     548.9337    -999.2500       0.0004    -999.2500     372.5852       0.3379       3.7127
   3242.1379       1.8041       0.0300    -999.2500      32.4095      34.1777      26.9658      26.8851     332.9395     382.6165     548.9337    -999.2500       0.0004    -999.2500     375.2602       0.3379       3.7127
   3242.2903       1.8041       0.0300    -999.2500      32.4095      32.2966      26.5855      26.4267     332.9395     382.6165     548.9337    -999.2500       0.0004    -999.2500     382.4842       0.3379       3.7127
   3242.4426       1.8041       0.0272    -999.2500      32.4095      31.3119      25.4675      25.7466     332.9395     382.6165     548.9337    -999.2500       0.0004    -999.2500     386.1104       0.3379       3.7127
   3242.5950       1.8041       0.0230    -999.2500      32.4095      30.7828      24.6157      24.9690     332.9395     382.6165     548.9337    -999.2500       0.0004    -999.2500     387.0985       0.3379       3.7127
