#------------------------------------------------------------------------------
#
#   Created by  : [OpenWorks] Log Export Utility (LEXP)
#   Created on  : 2016-05-18 13:39:54
#   Project     : CANT971
#   User        : R5K
#   Interpreter : PEP
#
#------------------------------------------------------------------------------
~VERSION INFORMATION
VERS. 2.0 : CWLS Log ASCII Standard - version 2.0
WRAP.  NO : One line per depth step
~WELL INFORMATION
#MNEMONIC   .UNIT                                           VALUE :DESCRIPTION
#------------------------------------------------------------------------------
STRT        .M                                          1895.0742 :START DEPTH
STOP        .M                                          3665.6575 :STOP DEPTH
STEP        .M                                             0.1524 :STEP
NULL        .                                           -999.2500 :NULL VALUE
COMP        .                                             UNKNOWN :COMPANY
WELL        .                                              227D-V :WELL
FLD         .                                             UNKNOWN :FIELD
LOC         .                                             UNKNOWN :LOCATION
CNTY        .                                             UNKNOWN :COUNTY
STAT        .                                             UNKNOWN :STATE
CTRY        .                                             UNKNOWN :COUNTRY
SRVC        .                                             UNKNOWN :SERVICE COMPANY
DATE        .                                             UNKNOWN :LOG DATE
UWI         .                                              227D-V :UNIQUE WELL ID
XCOORD      .                                            0.000000 :SURFACE X
YCOORD      .                                            0.000000 :SURFACE Y
LAT         .                                            0.000000 :LATITUDE
LON         .                                            0.000000 :LONGITUDE
ELEV        .M                                             0.0000 :SURFACE ELEV
ELEV_TYPE   .                                                  KB :ELEV TYPE
~CURVE INFORMATION
#MNEMONIC.UNIT        API CODE       : CURVE DESCRIPTION
#------------------------------------------------------------------------------
DEPTH    .M                          : Measured Depth
CGR      .API         UNKNOWN        : CGR:Espectrometria:rC:NONE:v0 (auto-composite)
DRHO-LWD .g/cm3       UNKNOWN        : DRHO-LWD:registros-LWD:rC:NONE:v0 (auto-composite)
DT       .us/ft       UNKNOWN        : DT:litodensidad_247:rC:NONE:v0 (auto-composite)
GR       .API         UNKNOWN        : GR:GR-Load:rC:NONE:v0 (auto-composite)
GR-LWD   .API         UNKNOWN        : GR-LWD:PETROWORKS:rC:NONE:v2 
ILD-LWD  .UNKNOWN     UNKNOWN        : ILD-LWD:PETROWORKS:rC:NONE:v3 
ILM-LWD  .UNKNOWN     UNKNOWN        : ILM-LWD:PETROWORKS:rC:NONE:v3 
LLD      .ohm.m       UNKNOWN        : LLD:resistivos:rC:NONE:v0 (auto-composite)
LLS      .ohm.m       UNKNOWN        : LLS:resistivos:rC:NONE:v0 (auto-composite)
MSFL     .ohm.m       UNKNOWN        : MSFL:resistivos:rC:NONE:v0 (auto-composite)
NPHI     .v/v_decimal UNKNOWN        : NPHI:litodensidad_247:rC:NONE:v0 (auto-composite)
POTA     .UNKNOWN     UNKNOWN        : POTA:Espectrometria:rC:NONE:v0 (auto-composite)
RHOB     .UNKNOWN     UNKNOWN        : RHOB:litodensidad_247:rC:NONE:v0 (auto-composite)
SP       .mV          UNKNOWN        : SP:resistivos:rC:NONE:v0 (auto-composite)
THOR     .ppm         UNKNOWN        : THOR:Espectrometria:rC:NONE:v0 (auto-composite)
URAN     .ppm         UNKNOWN        : URAN:Espectrometria:rC:NONE:v0 (auto-composite)
~A     DEPTH          CGR     DRHO-LWD           DT           GR       GR-LWD      ILD-LWD      ILM-LWD          LLD          LLS         MSFL         NPHI         POTA         RHOB           SP         THOR         URAN
# ...
   3158.1655       2.4540       0.0369      52.3515      23.9774      24.2161     206.6529     214.6304     423.4531     461.9279     653.6100       0.0632       0.0008       2.7505     274.8835       0.2834       2.6752
   3158.3179       2.1680       0.0200      52.3491      21.9775      23.6905     215.3371     209.3038     302.9506     333.8008     501.9727       0.0606       0.0008       2.7535     275.5218       0.2144       2.4868
   3158.4702       2.2136       0.0200      52.6274      20.2374      24.4446     220.1355     214.7212     515.7069     569.2673     866.4623       0.0601       0.0008       2.7586     277.1398       0.2431       2.2812
   3158.6226       2.5478       0.0200      53.1559      19.7520      24.9920     237.8743     211.5609     948.0759    1036.2937    1412.5690       0.0628       0.0009       2.7630     280.2588       0.3064       2.1606
   3158.7749       2.8020       0.0150      53.5712      19.7329      24.8296     210.6420     215.4184     392.4835     429.0957     606.3999       0.0710       0.0009       2.7659     283.0244       0.3439       2.1307
   3158.9275       2.8804       0.0152      53.6651      19.5946      24.8924     223.6329     219.7893     314.2906     341.4884     491.5548       0.0776       0.0010       2.7689     284.0817       0.3286       2.0839
   3159.0798       2.9922       0.0200      53.5405      19.1991      25.7562     224.0063     222.8737     463.8821     496.5488     689.4922       0.0784       0.0011       2.7705     284.8401       0.3258       1.9914
   3159.2322       3.4023       0.0200      53.2177      19.4230      26.9943     211.2308     223.2443     487.3705     517.2278     704.1602       0.0781       0.0012       2.7642     284.2847       0.3829       1.9744
   3159.3845       3.8067       0.0256      52.6513      20.8432      27.5288     217.6027     223.2499     550.6781     580.2094     730.8353       0.0780       0.0014       2.7506     283.8065       0.4112       2.1090
   3159.5371       3.6900       0.0300      51.8533      21.5291      27.0627     237.2451     234.0745     569.8212     593.5579     772.9626       0.0791       0.0012       2.7433     283.2064       0.4383       2.2137
   3159.6895       3.9152       0.0300      51.2661      22.3403      26.9967     223.5356     227.3978     740.1934     758.2704     928.9130       0.0825       0.0015       2.7463     280.2976       0.4054       2.2561
   3159.8418       3.5839       0.0300      51.1810      22.0164      27.1470     230.2812     231.6523     641.0714     648.3113     749.1597       0.0838       0.0014       2.7497     278.5151       0.3398       2.2063
   3159.9941       3.3009       0.0237      51.4987      22.2239      27.6743     232.7682     236.6789     582.0638     581.5121     601.7513       0.0800       0.0012       2.7486     275.8636       0.3312       2.2451
   3160.1467       2.9997       0.0136      52.2646      22.8967      27.4556     242.7632     243.1165     512.7856     516.2991     549.5930       0.0764       0.0011       2.7419     274.6303       0.2868       2.3443
   3160.2991       2.6177       0.0034      53.4482      23.2448      27.4439     256.0307     248.6768     561.4436     571.5706     563.7997       0.0757       0.0010       2.7308     274.3913       0.2253       2.4478
   3160.4514       2.4162       0.0068      54.9232      23.6799      28.7988     245.2411     252.2901     539.6099     553.5793     543.0052       0.0770       0.0011       2.7265     274.2118       0.1517       2.5564
   3160.6038       2.2031      -0.0039      55.6339      23.6352      33.0105     237.9183     248.8454     544.6406     563.4113     416.4394       0.0809       0.0009       2.7316     275.6022       0.1792       2.6026
   3160.7561       2.3350       0.0042      54.9998      25.1465      38.7185     250.1893     250.8419     560.8787     600.1667     416.4795       0.0841       0.0009       2.7389     275.7038       0.2236       2.7807
   3160.9087       2.2583       0.0317      54.3297      27.6281      43.3174     237.4361     237.6354     611.6121     677.2093     368.8764       0.0847       0.0010       2.7457     276.8834       0.1343       3.1183
   3161.0610       1.8998       0.0548      54.2535      31.5408      44.9432     244.4408     243.9732     390.8608     433.5714     297.0455       0.0815       0.0009       2.7511     279.8359       0.0536       3.6415
   3161.2134       2.2684       0.0449      54.7075      33.9879      44.9565     247.6902     240.6279     245.7147     270.7856     242.8830       0.0734       0.0011       2.7547     282.4261       0.0676       3.8934
   3161.3657       1.9977       0.0168      55.7171      35.6429      45.6092     224.1206     219.1000     194.3318     215.0605     247.0125       0.0663       0.0010       2.7566     284.4916       0.0607       4.1932
   3161.5183       2.2888       0.0179      56.4990      36.1809      44.2202     217.4139     218.3638     174.9407     194.2025     270.1749       0.0649       0.0011       2.7562     286.6527       0.0952       4.2552
   3161.6707       2.4765       0.0200      56.6133      36.4925      40.4501     213.3920     218.3940     191.9532     213.4649     309.4911       0.0690       0.0012       2.7521     286.8831       0.0975       4.2692
   3161.8230       2.8260       0.0282      56.2254      38.0527      36.2565     227.4224     227.9670     174.6698     193.9986     275.6378       0.0788       0.0014       2.7438     286.6030       0.1076       4.4367
   3161.9753       2.7508       0.0300      55.3814      38.1332      33.7386     240.6099     240.2273     125.9837     139.9660     203.2272       0.0877       0.0014       2.7334     284.9299       0.0812       4.4593
   3162.1279       2.6545       0.0385      54.7413      36.7895      32.1120     249.2060     253.6121     277.1345     307.6946     423.1689       0.0898       0.0012       2.7216     279.4151       0.1107       4.2758
   3162.2803       2.5037       0.0400      54.6254      32.8760      30.0618     254.2934     262.3117     626.0145     696.9118     708.8231       0.0855       0.0013       2.7090     273.2429       0.0379       3.7807
   3162.4326       2.0562       0.0400      54.8027      29.9760      28.9069     261.0804     264.2894     703.4082     768.5539     567.4948       0.0758       0.0012       2.6977     267.9777      -0.0360       3.4830
   3162.5850       2.0929       0.0580      55.2280      27.1641      27.7830     257.2141     265.2404     736.8335     790.0288     456.3510       0.0667       0.0010       2.6936     264.5919       0.0458       3.1165
   3162.7373       2.6241       0.0600      55.8814      25.0869      27.3028     253.2940     262.7206    1434.1251    1532.7340    1105.6332       0.0640       0.0012       2.6973     259.7854       0.1479       2.7998
   3162.8899       2.0555       0.0507      56.6956      22.3234      26.8637     269.9804     269.8690    2047.5681    2174.9709    2130.8242       0.0657       0.0009       2.7042     254.0155       0.0988       2.5404
   3163.0422       2.1077       0.0216      57.2695      21.3437      26.0813     283.2788     279.4948    1557.1665    1668.0699    1641.5618       0.0693       0.0010       2.7115     249.3347       0.1159       2.3835
   3163.1946       2.1129       0.0200      57.4302      20.6446      25.0505     268.9098     271.8722    1188.9951    1242.9238    1347.9403       0.0732       0.0008       2.7159     242.3305       0.1699       2.3049
   3163.3469       2.2833       0.0200      57.4381      20.7720      24.7324     258.2014     263.0461    1338.8452    1359.4062    1522.8807       0.0755       0.0008       2.7172     236.0413       0.2580       2.3094
   3163.4995       2.3710       0.0300      57.3828      20.7299      24.9616     252.3800     261.7636    1163.0697    1178.2274    1535.0963       0.0774       0.0008       2.7185     229.3789       0.2879       2.2970
   3163.6519       2.1872       0.0300      57.1403      20.5452      25.1610     252.7759     260.7267    1411.3740    1439.4635    1888.6455       0.0803       0.0006       2.7178     224.4765       0.3308       2.2994
