#------------------------------------------------------------------------------
#
#   Created by  : [OpenWorks] Log Export Utility (LEXP)
#   Created on  : 2016-05-18 13:39:54
#   Project     : CANT971
#   User        : R5K
#   Interpreter : PEP
#
#------------------------------------------------------------------------------
~VERSION INFORMATION
VERS. 2.0 : CWLS Log ASCII Standard - version 2.0
WRAP.  NO : One line per depth step
~WELL INFORMATION
#MNEMONIC   .UNIT                                           VALUE :DESCRIPTION
#------------------------------------------------------------------------------
STRT        .M                                          1895.0742 :START DEPTH
STOP        .M                                          3665.6575 :STOP DEPTH
STEP        .M                                             0.1524 :STEP
NULL        .                                           -999.2500 :NULL VALUE
COMP        .                                             UNKNOWN :COMPANY
WELL        .                                              227D-V :WELL
FLD         .                                             UNKNOWN :FIELD
LOC         .                                             UNKNOWN :LOCATION
CNTY        .                                             UNKNOWN :COUNTY
STAT        .                                             UNKNOWN :STATE
CTRY        .                                             UNKNOWN :COUNTRY
SRVC        .                                             UNKNOWN :SERVICE COMPANY
DATE        .                                             UNKNOWN :LOG DATE
UWI         .                                              227D-V :UNIQUE WELL ID
XCOORD      .                                            0.000000 :SURFACE X
YCOORD      .                                            0.000000 :SURFACE Y
LAT         .                                            0.000000 :LATITUDE
LON         .                                            0.000000 :LONGITUDE
ELEV        .M                                             0.0000 :SURFACE ELEV
ELEV_TYPE   .                                                  KB :ELEV TYPE
~CURVE INFORMATION
#MNEMONIC.UNIT        API CODE       : CURVE DESCRIPTION
#------------------------------------------------------------------------------
DEPTH    .M                          : Measured Depth
CGR      .API         UNKNOWN        : CGR:Espectrometria:rC:NONE:v0 (auto-composite)
DRHO-LWD .g/cm3       UNKNOWN        : DRHO-LWD:registros-LWD:rC:NONE:v0 (auto-composite)
DT       .us/ft       UNKNOWN        : DT:litodensidad_247:rC:NONE:v0 (auto-composite)
GR       .API         UNKNOWN        : GR:GR-Load:rC:NONE:v0 (auto-composite)
GR-LWD   .API         UNKNOWN        : GR-LWD:PETROWORKS:rC:NONE:v2 
ILD-LWD  .UNKNOWN     UNKNOWN        : ILD-LWD:PETROWORKS:rC:NONE:v3 
ILM-LWD  .UNKNOWN     UNKNOWN        : ILM-LWD:PETROWORKS:rC:NONE:v3 
LLD      .ohm.m       UNKNOWN        : LLD:resistivos:rC:NONE:v0 (auto-composite)
LLS      .ohm.m       UNKNOWN        : LLS:resistivos:rC:NONE:v0 (auto-composite)
MSFL     .ohm.m       UNKNOWN        : MSFL:resistivos:rC:NONE:v0 (auto-composite)
NPHI     .v/v_decimal UNKNOWN        : NPHI:litodensidad_247:rC:NONE:v0 (auto-composite)
POTA     .UNKNOWN     UNKNOWN        : POTA:Espectrometria:rC:NONE:v0 (auto-composite)
RHOB     .UNKNOWN     UNKNOWN        : RHOB:litodensidad_247:rC:NONE:v0 (auto-composite)
SP       .mV          UNKNOWN        : SP:resistivos:rC:NONE:v0 (auto-composite)
THOR     .ppm         UNKNOWN        : THOR:Espectrometria:rC:NONE:v0 (auto-composite)
URAN     .ppm         UNKNOWN        : URAN:Espectrometria:rC:NONE:v0 (auto-composite)
~A     DEPTH          CGR     DRHO-LWD           DT           GR       GR-LWD      ILD-LWD      ILM-LWD          LLD          LLS         MSFL         NPHI         POTA         RHOB           SP         THOR         URAN
# ...
   3203.2759       2.5932       0.0183    -999.2500      30.5831      34.4413     109.0079     107.4470     107.8862     107.1767      62.0416    -999.2500       0.0007    -999.2500     414.8887       0.4342       3.4053
   3203.4282       2.5447       0.0194    -999.2500      29.3984      33.7384     122.0836     117.9088     252.9088     256.1696     146.8678    -999.2500       0.0007    -999.2500     416.2971       0.4051       3.2807
   3203.5806       2.6117       0.0580    -999.2500      32.2586      33.5780     131.6311     127.7511     282.0515     281.4543     139.0456    -999.2500       0.0007    -999.2500     416.0103       0.4040       3.6146
   3203.7329       3.4969       0.0456    -999.2500      41.2074      34.3675     126.0464     129.1361     224.0867     221.6358      95.3065    -999.2500       0.0010    -999.2500     415.0666       0.5164       4.6087
   3203.8855       4.3592       0.0253    -999.2500      49.7158      35.4396     117.8834     121.3603     181.5914     179.5468      87.8614    -999.2500       0.0014    -999.2500     415.4812       0.6119       5.5162
   3204.0378       4.7831       0.0176    -999.2500      52.3838      35.6697     120.2960     119.7783     161.8174     160.5948      87.4357    -999.2500       0.0014    -999.2500     416.2150       0.7276       5.8298
   3204.1902       4.2631       0.0400    -999.2500      46.8896      37.6018     124.7333     122.6567     172.3179     171.6148      96.2736    -999.2500       0.0011    -999.2500     416.0949       0.7102       5.2668
   3204.3425       3.1076       0.0343    -999.2500      38.0087      43.2809     129.7166     126.2683     207.7246     201.7009     116.7860    -999.2500       0.0008    -999.2500     416.1714       0.5253       4.3515
   3204.4951       2.1968       0.0170    -999.2500      30.2619      51.2341     132.2478     126.8936     268.7808     258.4483     160.9338    -999.2500       0.0005    -999.2500     417.8727       0.3860       3.5351
   3204.6475       1.6734       0.0195    -999.2500      24.5800      55.8360     133.2891     129.1537     238.3593     231.7507     142.6846    -999.2500       0.0004    -999.2500     418.5056       0.3025       2.9024
   3204.7998       1.8127       0.0433    -999.2500      23.1257      54.6271     132.5762     132.3816     242.2485     236.8096     149.3874    -999.2500       0.0005    -999.2500     418.3449       0.2948       2.7140
   3204.9521       1.5632       0.0570    -999.2500      22.2189      48.4825     133.1743     134.4773     264.0495     255.3724     160.3206    -999.2500       0.0004    -999.2500     414.3401       0.2567       2.6365
   3205.1047       1.3541       0.0700    -999.2500      21.6155      39.8681     129.0262     129.8541     249.3036     244.5215     181.8879    -999.2500       0.0003    -999.2500     411.5759       0.2635       2.5990
   3205.2571       1.2956       0.0662    -999.2500      21.0428      31.7060     124.6260     126.2343     266.1788     262.1631     206.8737    -999.2500       0.0002    -999.2500     408.1514       0.2945       2.5543
   3205.4094       1.1865       0.0600    -999.2500      20.7594      27.1596     119.8414     121.8208     353.9527     346.2659     256.2320    -999.2500       0.0002    -999.2500     405.3489       0.2498       2.5156
   3205.5618       1.1841       0.0518    -999.2500      21.7552      26.1991     112.0102     113.2930     336.9902     330.5504     254.9614    -999.2500       0.0001    -999.2500     402.2796       0.3061       2.6508
   3205.7141       1.1246       0.0443    -999.2500      22.6487      26.4901     109.4149     108.8165     265.6574     263.6000     253.1593    -999.2500       0.0001    -999.2500     404.5421       0.2781       2.7738
   3205.8667       1.3784       0.0411    -999.2500      23.8445      25.8440     102.8610     103.1777     249.3540     256.1133     265.9764    -999.2500       0.0003    -999.2500     404.2307       0.2955       2.8602
   3206.0190       1.5177       0.0254    -999.2500      22.8072      25.1653     100.6776     101.2185     238.9969     254.0373     251.7023    -999.2500       0.0004    -999.2500     403.4181       0.2752       2.7079
   3206.1714       1.4241       0.0152    -999.2500      21.8732      25.2838      94.1281      94.2852     177.2076     189.8318     184.0991    -999.2500       0.0003    -999.2500     403.0949       0.2559       2.6158
   3206.3237       1.8302      -0.0097    -999.2500      21.6249      26.8178      83.3330      83.4404     113.6800     122.3893     145.1501    -999.2500       0.0004    -999.2500     403.0625       0.3437       2.5296
   3206.4763       1.9374      -0.0300    -999.2500      24.5905      28.5650      80.7004      79.8758     119.3328     129.0434     176.9552    -999.2500       0.0004    -999.2500     404.2040       0.3686       2.8769
   3206.6287       2.1823      -0.0300    -999.2500      28.3493      28.9533      71.3019      71.3102     180.7699     195.1238     283.0997    -999.2500       0.0004    -999.2500     405.5711       0.4385       3.3118
   3206.7810       2.1271       0.0024    -999.2500      30.4267      27.8760      63.0825      63.1983     183.9803     199.6434     280.0110    -999.2500       0.0004    -999.2500     406.6747       0.4312       3.5687
   3206.9333       1.7087       0.0189    -999.2500      29.8013      28.1709      59.6086      57.4372     105.8540     114.8766     147.0279    -999.2500       0.0004    -999.2500     407.4111       0.3347       3.5198
   3207.0859       1.6109       0.0157    -999.2500      28.4540      31.2618      57.2427      55.8988      53.0142      56.9541      77.7540    -999.2500       0.0003    -999.2500     405.4890       0.3151       3.3563
   3207.2383       1.2695       0.0024    -999.2500      27.4240      35.9590      56.9545      55.3526     198.2079     214.0495     224.8311    -999.2500       0.0002    -999.2500     405.2962       0.2648       3.2765
   3207.3906       1.3313      -0.0160    -999.2500      27.6333      37.1850      56.9473      55.7011     229.4205     250.0555     287.6038    -999.2500       0.0003    -999.2500     405.6388       0.2489       3.2846
   3207.5430       0.8974      -0.0386    -999.2500      27.2717      35.6959      55.9948      53.9450     308.6092     333.9780     311.4162    -999.2500       0.0001    -999.2500     406.2860       0.2030       3.2841
   3207.6953       0.8349      -0.0309    -999.2500      26.4757      33.5019      60.2450      59.6926     283.3204     303.7129     267.3484    -999.2500       0.0000    -999.2500     406.3750       0.2645       3.1757
   3207.8479       1.0839      -0.0004    -999.2500      26.6259      32.3005      61.9040      61.5098     207.6700     221.1862     198.8877    -999.2500       0.0001    -999.2500     405.3964       0.3052       3.1237
   3208.0002       0.7224       0.0501    -999.2500      27.8372      31.5691      62.7786      64.3924     177.5979     187.8356     180.6759    -999.2500       0.0000    -999.2500     406.4463       0.2218       3.3297
   3208.1526       0.9259       0.0632    -999.2500      30.1854      29.9936      64.7039      66.0452     140.0029     146.3692     174.6534    -999.2500       0.0001    -999.2500     409.1818       0.2682       3.6154
   3208.3049       0.7695       0.0390    -999.2500      31.3869      29.8215      66.5629      68.4736     170.0348     172.8599     225.5749    -999.2500       0.0000    -999.2500     403.6848       0.2426       3.8228
   3208.4575       0.8427       0.0228    -999.2500      31.1212      30.8254      69.1211      70.7146     127.4271     127.7941     160.5244    -999.2500       0.0000    -999.2500     398.0833       0.2676       3.7886
   3208.6099       1.3156       0.0200    -999.2500      31.1873      33.5254      70.5247      71.4230     146.6669     149.7525     209.5150    -999.2500       0.0001    -999.2500     399.0604       0.3818       3.7359
   3208.7622       1.2375       0.0350    -999.2500      31.5412      35.7935      71.0911      72.5799     286.2220     296.4445     369.2934    -999.2500      -0.0001    -999.2500     400.4003       0.4173       3.8250
