#------------------------------------------------------------------------------
#
#   Created by  : [OpenWorks] Log Export Utility (LEXP)
#   Created on  : 2016-05-18 13:39:54
#   Project     : CANT971
#   User        : R5K
#   Interpreter : PEP
#
#------------------------------------------------------------------------------
~VERSION INFORMATION
VERS. 2.0 : CWLS Log ASCII Standard - version 2.0
WRAP.  NO : One line per depth step
~WELL INFORMATION
#MNEMONIC   .UNIT                                           VALUE :DESCRIPTION
#------------------------------------------------------------------------------
STRT        .M                                          1895.0742 :START DEPTH
STOP        .M                                          3665.6575 :STOP DEPTH
STEP        .M                                             0.1524 :STEP
NULL        .                                           -999.2500 :NULL VALUE
COMP        .                                             UNKNOWN :COMPANY
WELL        .                                              227D-V :WELL
FLD         .                                             UNKNOWN :FIELD
LOC         .                                             UNKNOWN :LOCATION
CNTY        .                                             UNKNOWN :COUNTY
STAT        .                                             UNKNOWN :STATE
CTRY        .                                             UNKNOWN :COUNTRY
SRVC        .                                             UNKNOWN :SERVICE COMPANY
DATE        .                                             UNKNOWN :LOG DATE
UWI         .                                              227D-V :UNIQUE WELL ID
XCOORD      .                                            0.000000 :SURFACE X
YCOORD      .                                            0.000000 :SURFACE Y
LAT         .                                            0.000000 :LATITUDE
LON         .                                            0.000000 :LONGITUDE
ELEV        .M                                             0.0000 :SURFACE ELEV
ELEV_TYPE   .                                                  KB :ELEV TYPE
~CURVE INFORMATION
#MNEMONIC.UNIT        API CODE       : CURVE DESCRIPTION
#------------------------------------------------------------------------------
DEPTH    .M                          : Measured Depth
CGR      .API         UNKNOWN        : CGR:Espectrometria:rC:NONE:v0 (auto-composite)
DRHO-LWD .g/cm3       UNKNOWN        : DRHO-LWD:registros-LWD:rC:NONE:v0 (auto-composite)
DT       .us/ft       UNKNOWN        : DT:litodensidad_247:rC:NONE:v0 (auto-composite)
GR       .API         UNKNOWN        : GR:GR-Load:rC:NONE:v0 (auto-composite)
GR-LWD   .API         UNKNOWN        : GR-LWD:PETROWORKS:rC:NONE:v2 
ILD-LWD  .UNKNOWN     UNKNOWN        : ILD-LWD:PETROWORKS:rC:NONE:v3 
ILM-LWD  .UNKNOWN     UNKNOWN        : ILM-LWD:PETROWORKS:rC:NONE:v3 
LLD      .ohm.m       UNKNOWN        : LLD:resistivos:rC:NONE:v0 (auto-composite)
LLS      .ohm.m       UNKNOWN        : LLS:resistivos:rC:NONE:v0 (auto-composite)
MSFL     .ohm.m       UNKNOWN        : MSFL:resistivos:rC:NONE:v0 (auto-composite)
NPHI     .v/v_decimal UNKNOWN        : NPHI:litodensidad_247:rC:NONE:v0 (auto-composite)
POTA     .UNKNOWN     UNKNOWN        : POTA:Espectrometria:rC:NONE:v0 (auto-composite)
RHOB     .UNKNOWN     UNKNOWN        : RHOB:litodensidad_247:rC:NONE:v0 (auto-composite)
SP       .mV          UNKNOWN        : SP:resistivos:rC:NONE:v0 (auto-composite)
THOR     .ppm         UNKNOWN        : THOR:Espectrometria:rC:NONE:v0 (auto-composite)
URAN     .ppm         UNKNOWN        : URAN:Espectrometria:rC:NONE:v0 (auto-composite)
~A     DEPTH          CGR     DRHO-LWD           DT           GR       GR-LWD      ILD-LWD      ILM-LWD          LLD          LLS         MSFL         NPHI         POTA         RHOB           SP         THOR         URAN
# ...
   3124.3325       5.4492    -999.2500      55.3444      19.2491      30.3837      32.4366      34.5585  100000.0000   86945.6562   86945.0391       0.0714       0.0010       2.6516     143.6875       1.1461       1.7168
   3124.4851       5.2169    -999.2500      56.5301      19.3988      34.5714      29.3392      30.8521  100000.0000   13038.9814  100000.0000       0.0741       0.0011       2.6342     143.6875       1.0492       1.7672
   3124.6375       4.6662    -999.2500      56.6718      19.0396      39.6357      27.2093      28.1721   13026.9775   86997.9531   13029.6455       0.0716       0.0010       2.6320     143.6875       0.8834       1.7850
   3124.7898       4.2282    -999.2500      58.4123      18.8770      43.1414      26.1814      26.8106   87038.5859  100000.0000   87038.9844       0.0657       0.0009       2.6593     143.6875       0.8015       1.8548
   3124.9421       4.4475    -999.2500      62.5781      19.6162      43.1425      25.4013      25.7971   12929.9570   12928.2480   12939.6631       0.0582       0.0009       2.6974     143.6875       0.8967       1.9210
   3125.0947       4.6806    -999.2500      65.9297      20.3564      41.7784      24.7883      25.0768   86969.6094       0.0983      25.6877       0.0512       0.0010       2.7259     143.6875       0.9278       1.9905
   3125.2471       4.9009    -999.2500      66.4882      20.6655      40.9260      24.7493      24.9742   13015.5117   86985.3984       4.6041       0.0444       0.0010       2.7452     143.6875       0.9662       1.9928
   3125.3994       4.4551    -999.2500      64.1568      19.8417      40.5205      25.1905      25.4063      91.8713   12978.9355       0.2387       0.0381       0.0008       2.7564     143.6875       0.9444       1.9622
   3125.5518       4.1789    -999.2500      59.6550      19.1713      40.0144      25.3708      25.8672      13.7239       0.1960       0.1057       0.0342       0.0007       2.7639     143.6875       0.9392       1.9379
   3125.7041       3.7761    -999.2500      56.1271      18.6299      39.0212      25.1271      26.1831   86956.8125       2.3129     146.1077       0.0339       0.0006       2.7711     143.6875       0.8555       1.9274
   3125.8567       3.2778    -999.2500      55.4251      18.6537      39.7706      24.9240      26.3150  100000.0000       0.4298      21.9736       0.0343       0.0005       2.7741     143.6875       0.7440       1.9952
   3126.0090       3.1196    -999.2500      57.5634      18.4748      46.6763      24.7011      26.1427  100000.0000   87009.7578   87009.7578       0.0328       0.0006       2.7668     143.6875       0.6397       1.9663
   3126.1614       2.9241    -999.2500      61.6150      19.6385      63.4329      24.0250      25.6662  100000.0000  100000.0000   12953.4619       0.0308       0.0005       2.7619     143.6875       0.6274       2.1495
   3126.3137       3.9609    -999.2500      64.8024      24.7565      85.5461      23.1932      25.1056  100000.0000  100000.0000   86944.2734       0.0302       0.0008       2.7732     143.6875       0.8364       2.6843
   3126.4663       5.9342    -999.2500      65.5828      35.1437      97.5766      23.0451      25.0713  100000.0000  100000.0000  100000.0000       0.0307       0.0011       2.7897     143.6875       1.2563       3.7453
   3126.6187       6.9814    -999.2500      64.1800      43.2190      89.8818      23.7308      25.7405  100000.0000  100000.0000  100000.0000       0.0318       0.0014       2.7982     143.6875       1.4102       4.6527
   3126.7710       6.6025    -999.2500      61.0794      43.0482      70.3984      24.7732      26.6954   12971.1260  100000.0000   17995.0215       0.0330       0.0014       2.7959     143.6875       1.3088       4.6699
   3126.9233       5.2159    -999.2500      56.9259      34.6364      53.5502      25.6795      27.5853       3.1238   12941.2422     770.3731       0.0333       0.0011       2.7826     143.6875       1.0048       3.7581
   3127.0759       4.5614    -999.2500      52.6430      26.4980      45.1715      26.6500      28.4986   86968.9297      17.2939     789.5007       0.0333       0.0012       2.7653     143.6875       0.7783       2.7922
   3127.2283       3.8792    -999.2500      49.7481      21.7094      41.6477      27.9429      29.6221  100000.0000   86986.9297   87102.2500       0.0333       0.0011       2.7502     143.6875       0.5989       2.2510
   3127.3806       3.9632    -999.2500      48.8119      20.5478      40.9416      29.4907      31.0149   12987.4570  100000.0000   17067.3965       0.0333       0.0011       2.7414     143.6875       0.6244       2.0811
   3127.5330       4.6087    -999.2500      49.0565      20.7183      41.5879      30.3964      31.9811      36.4843   12996.7871     608.2061       0.0333       0.0012       2.7409     143.6875       0.7800       2.0128
   3127.6853       5.4777    -999.2500      49.7092      21.9652      39.8774      31.2802      32.8235   86961.2969      15.8023     829.9814       0.0333       0.0011       2.7472     143.6875       1.0813       2.1060
   3127.8379       6.5242    -999.2500      50.2275      22.3984      36.4766      32.8161      34.3413  100000.0000   86973.1797   87096.3984       0.0333       0.0014       2.7583     143.6875       1.2792       2.0162
   3127.9902       6.4997    -999.2500      50.3471      21.6339      33.6182      34.5694      36.0332   13145.9727   13088.6768   12991.2510       0.0333       0.0013       2.7697     143.6875       1.3036       1.8808
   3128.1426       6.4985    -999.2500      50.0547      20.5432      34.4396      36.4907      37.6838      47.5920   87060.4375    9582.8486       0.0334       0.0012       2.7776     143.6875       1.3783       1.7450
   3128.2949       6.2247    -999.2500      49.5048      19.9412      37.0351      37.7394      38.8723       4.6171   13067.1514    1449.9406       0.0337       0.0010       2.7821     143.6875       1.3678       1.7188
   3128.4475       6.0684    -999.2500      49.0656      19.8996      39.3672      39.7323      40.8098   86959.6250   86961.0859   86961.3672       0.0347       0.0010       2.7841     143.6875       1.3342       1.7443
   3128.5999       6.3817    -999.2500      48.9308      20.7407      40.7592      41.3137      42.6170  100000.0000  100000.0000  100000.0000       0.0356       0.0010       2.7814     143.6875       1.4337       1.8305
   3128.7522       6.3227    -999.2500      49.0099      21.0836      39.7464      42.4668      43.9229  100000.0000  100000.0000  100000.0000       0.0358       0.0008       2.7721     143.6875       1.5284       1.8782
   3128.9045       6.5010    -999.2500      49.2689      21.7451      37.3979      43.0670      44.5956   13029.5117   12965.0000   12930.5264       0.0354       0.0007       2.7621     146.7350       1.6315       1.9444
   3129.0571       6.2547    -999.2500      49.8227      20.5131      34.1946      42.0954      44.2024   86982.7422   86973.0859   86967.9219       0.0344       0.0008       2.7573     149.9596       1.5492       1.8270
   3129.2095       5.8523    -999.2500      50.6203      20.1610      31.7824      40.9724      43.6520  100000.0000   13028.4277   13016.2412       0.0335       0.0007       2.7552     161.6829       1.4496       1.8482
   3129.3618       5.1570    -999.2500      51.2246      18.9433      31.6658      39.9906      42.5078   12989.6094   87022.6016    5890.8857       0.0333       0.0007       2.7519     146.7867       1.2439       1.7516
   3129.5142       4.8039    -999.2500      51.3411      18.5263      33.9754      38.8441      40.9859   87059.2344   12997.3633     876.2169       0.0335       0.0006       2.7451     143.0611       1.1903       1.7531
   3129.6665       4.5027    -999.2500      50.9469      18.2272      35.6637      39.0025      41.6344  100000.0000   86963.5156   86955.2734       0.0341       0.0005       2.7329     141.2989       1.1166       1.7945
   3129.8191       4.7226    -999.2500      50.1620      19.1413      35.5907      38.3338      41.1141   13565.3447   13047.3008   13028.8047       0.0353       0.0008       2.7181     139.5949       1.0498       1.8759
