#------------------------------------------------------------------------------
#
#   Created by  : [OpenWorks] Log Export Utility (LEXP)
#   Created on  : 2016-05-18 13:39:54
#   Project     : CANT971
#   User        : R5K
#   Interpreter : PEP
#
#------------------------------------------------------------------------------
~VERSION INFORMATION
VERS. 2.0 : CWLS Log ASCII Standard - version 2.0
WRAP.  NO : One line per depth step
~WELL INFORMATION
#MNEMONIC   .UNIT                                           VALUE :DESCRIPTION
#------------------------------------------------------------------------------
STRT        .M                                          1895.0742 :START DEPTH
STOP        .M                                          3665.6575 :STOP DEPTH
STEP        .M                                             0.1524 :STEP
NULL        .                                           -999.2500 :NULL VALUE
COMP        .                                             UNKNOWN :COMPANY
WELL        .                                              227D-V :WELL
FLD         .                                             UNKNOWN :FIELD
LOC         .                                             UNKNOWN :LOCATION
CNTY        .                                             UNKNOWN :COUNTY
STAT        .                                             UNKNOWN :STATE
CTRY        .                                             UNKNOWN :COUNTRY
SRVC        .                                             UNKNOWN :SERVICE COMPANY
DATE        .                                             UNKNOWN :LOG DATE
UWI         .                                              227D-V :UNIQUE WELL ID
XCOORD      .                                            0.000000 :SURFACE X
YCOORD      .                                            0.000000 :SURFACE Y
LAT         .                                            0.000000 :LATITUDE
LON         .                                            0.000000 :LONGITUDE
ELEV        .M                                             0.0000 :SURFACE ELEV
ELEV_TYPE   .                                                  KB :ELEV TYPE
~CURVE INFORMATION
#MNEMONIC.UNIT        API CODE       : CURVE DESCRIPTION
#------------------------------------------------------------------------------
DEPTH    .M                          : Measured Depth
CGR      .API         UNKNOWN        : CGR:Espectrometria:rC:NONE:v0 (auto-composite)
DRHO-LWD .g/cm3       UNKNOWN        : DRHO-LWD:registros-LWD:rC:NONE:v0 (auto-composite)
DT       .us/ft       UNKNOWN        : DT:litodensidad_247:rC:NONE:v0 (auto-composite)
GR       .API         UNKNOWN        : GR:GR-Load:rC:NONE:v0 (auto-composite)
GR-LWD   .API         UNKNOWN        : GR-LWD:PETROWORKS:rC:NONE:v2 
ILD-LWD  .UNKNOWN     UNKNOWN        : ILD-LWD:PETROWORKS:rC:NONE:v3 
ILM-LWD  .UNKNOWN     UNKNOWN        : ILM-LWD:PETROWORKS:rC:NONE:v3 
LLD      .ohm.m       UNKNOWN        : LLD:resistivos:rC:NONE:v0 (auto-composite)
LLS      .ohm.m       UNKNOWN        : LLS:resistivos:rC:NONE:v0 (auto-composite)
MSFL     .ohm.m       UNKNOWN        : MSFL:resistivos:rC:NONE:v0 (auto-composite)
NPHI     .v/v_decimal UNKNOWN        : NPHI:litodensidad_247:rC:NONE:v0 (auto-composite)
POTA     .UNKNOWN     UNKNOWN        : POTA:Espectrometria:rC:NONE:v0 (auto-composite)
RHOB     .UNKNOWN     UNKNOWN        : RHOB:litodensidad_247:rC:NONE:v0 (auto-composite)
SP       .mV          UNKNOWN        : SP:resistivos:rC:NONE:v0 (auto-composite)
THOR     .ppm         UNKNOWN        : THOR:Espectrometria:rC:NONE:v0 (auto-composite)
URAN     .ppm         UNKNOWN        : URAN:Espectrometria:rC:NONE:v0 (auto-composite)
~A     DEPTH          CGR     DRHO-LWD           DT           GR       GR-LWD      ILD-LWD      ILM-LWD          LLD          LLS         MSFL         NPHI         POTA         RHOB           SP         THOR         URAN
# ...
   3118.6938    -999.2500    -999.2500      48.9686    -999.2500      49.6661     127.2954     128.0093    -999.2500    -999.2500    -999.2500       0.0299    -999.2500       2.7924    -999.2500    -999.2500    -999.2500
   3118.8462    -999.2500    -999.2500      48.6979    -999.2500      48.8361     126.8146     127.6818    -999.2500    -999.2500    -999.2500       0.0316    -999.2500       2.7927    -999.2500    -999.2500    -999.2500
   3118.9985    -999.2500    -999.2500      48.4972    -999.2500      47.4582     124.5929     127.0116    -999.2500    -999.2500    -999.2500       0.0326    -999.2500       2.8011    -999.2500    -999.2500    -999.2500
   3119.1511    -999.2500    -999.2500      48.4811    -999.2500      46.5119     122.8207     125.0387    -999.2500    -999.2500    -999.2500       0.0332    -999.2500       2.8113    -999.2500    -999.2500    -999.2500
   3119.3035    -999.2500    -999.2500      48.7277    -999.2500      45.2090     119.3684     122.5763    -999.2500    -999.2500    -999.2500       0.0333    -999.2500       2.8147    -999.2500    -999.2500    -999.2500
   3119.4558    -999.2500    -999.2500      49.1819    -999.2500      41.5992     116.9107     120.4129    -999.2500    -999.2500    -999.2500       0.0328    -999.2500       2.8096    -999.2500    -999.2500    -999.2500
   3119.6082    -999.2500    -999.2500      49.5434    -999.2500      36.7915     109.9799     112.2986    -999.2500    -999.2500    -999.2500       0.0315    -999.2500       2.7971    -999.2500    -999.2500    -999.2500
   3119.7605    -999.2500    -999.2500      49.6111    -999.2500      32.9880     108.2816     109.5747    -999.2500    -999.2500    -999.2500       0.0301    -999.2500       2.7814    -999.2500    -999.2500    -999.2500
   3119.9131    -999.2500    -999.2500      49.3576    -999.2500      34.4819     103.2013     105.8514    -999.2500    -999.2500    -999.2500       0.0292    -999.2500       2.7671    -999.2500    -999.2500    -999.2500
   3120.0654    -999.2500    -999.2500      48.8640    -999.2500      36.9926      99.5144     101.2020    -999.2500    -999.2500    -999.2500       0.0290    -999.2500       2.7566    -999.2500    -999.2500    -999.2500
   3120.2178    -999.2500    -999.2500      48.4690    -999.2500      40.3755      88.9160      91.3574    -999.2500    -999.2500    -999.2500       0.0294    -999.2500       2.7513    -999.2500    -999.2500    -999.2500
   3120.3701    -999.2500    -999.2500      48.3656    -999.2500      42.7510      84.9454      87.3114    -999.2500    -999.2500    -999.2500       0.0299    -999.2500       2.7507    -999.2500    -999.2500    -999.2500
   3120.5227    -999.2500    -999.2500      48.4574    -999.2500      45.9667      80.7965      82.4625    -999.2500    -999.2500    -999.2500       0.0300    -999.2500       2.7543    -999.2500    -999.2500    -999.2500
   3120.6750    -999.2500    -999.2500      48.7261    -999.2500      50.1442      77.8543      77.6975    -999.2500    -999.2500    -999.2500       0.0300    -999.2500       2.7625    -999.2500    -999.2500    -999.2500
   3120.8274       3.9320    -999.2500      49.2734      20.4949      51.8162      73.3437      73.2222      47.7560  100000.0000    1496.1895       0.0299       0.0012       2.7778     143.6875       0.5736       2.0929
   3120.9797       4.3635    -999.2500      50.0981      21.2207      54.8423      71.9401      72.2812     117.9503   12928.6260     193.4945       0.0285       0.0012       2.7982     143.6875       0.6659       2.1358
   3121.1323       4.2821    -999.2500      50.7228      21.5471      53.3858      71.2738      72.2695      44.2183   86971.1719    5229.2310       0.0243       0.0012       2.8218     143.6875       0.6833       2.1942
   3121.2847       4.9624    -999.2500      50.8583      22.4275      49.1459      71.4834      71.8146   86991.0391  100000.0000   87769.3516       0.0208       0.0014       2.8400     143.6875       0.8051       2.2306
   3121.4370       5.6151    -999.2500      50.6796      24.3832      41.7779      74.9305      75.5335   12990.0273   13016.1875   13126.1582       0.0200       0.0015       2.8351     143.6875       0.9096       2.3796
   3121.5894       5.7274    -999.2500      50.2527      25.4395      38.7364      78.1178      78.4845      37.4208      26.8456     325.1248       0.0203       0.0015       2.8177     143.6875       0.9576       2.5000
   3121.7417       5.3250    -999.2500      49.7597      23.9340      39.1725      81.1508      81.0915   86963.6328      60.4399    1069.7373       0.0213       0.0013       2.8044     143.6875       0.9371       2.3741
   3121.8943       4.9420    -999.2500      49.3006      21.5835      41.5128      82.6499      82.5544  100000.0000      35.9200     153.7509       0.0232       0.0011       2.7970     143.6875       0.9006       2.1090
   3122.0466       4.4663    -999.2500      49.0003      20.0091      40.2606      86.5504      86.1789   13057.8682       6.0642       1.1760       0.0263       0.0009       2.7980     143.6875       0.8867       1.9509
   3122.1990       4.8032    -999.2500      48.9647      21.1983      41.1118      84.1307      86.6080     131.5114   87048.5000     136.4350       0.0290       0.0010       2.8020     143.6875       0.9438       2.0510
   3122.3513       4.9152    -999.2500      49.1819      21.1277      42.1393      82.2972      86.0210   86963.9688   13111.8955      26.5877       0.0298       0.0010       2.8004     143.6875       0.9969       2.0149
   3122.5039       5.1649    -999.2500      49.6926      20.7390      41.9286      80.9319      85.1086  100000.0000   86970.4453   86962.7188       0.0301       0.0009       2.7950     143.6875       1.0936       1.9516
   3122.6562       4.9057    -999.2500      50.2009      20.1439      39.2565      80.3480      84.4026   13033.4209   13023.8721   13004.4502       0.0307       0.0009       2.7875     143.6875       1.0200       1.8875
   3122.8086       5.2339    -999.2500      50.5664      20.0438      36.2615      79.7049      82.6757   87040.4297      13.1837     195.9877       0.0314       0.0010       2.7782     143.6875       1.0983       1.8298
   3122.9609       4.9091    -999.2500      50.8343      19.4936      35.9467      77.9534      81.4704  100000.0000       4.2161      99.2278       0.0324       0.0008       2.7649     143.6875       1.0987       1.8056
   3123.1135       4.4806    -999.2500      50.9987      18.0887      35.9624      71.4765      73.1398   13297.1943     101.2272      10.5902       0.0331       0.0007       2.7491     143.6875       1.0289       1.6739
   3123.2659       4.6045    -999.2500      51.0916      16.8957      35.4327      65.8593      67.2629      55.4022      20.4457      24.4265       0.0335       0.0008       2.7307     143.6875       1.0288       1.4938
   3123.4182       4.8792    -999.2500      51.1148      17.0402      33.9937      58.8126      59.9113   87025.3750   87023.8750     120.0973       0.0345       0.0008       2.7136     143.6875       1.0898       1.4765
   3123.5706       5.0563    -999.2500      51.1433      17.6986      32.8196      57.3146      58.5929  100000.0000  100000.0000   87077.3203       0.0372       0.0008       2.7084     143.6875       1.1433       1.5520
   3123.7229       5.5769    -999.2500      51.2344      18.9277      32.2572      54.9576      57.0791  100000.0000  100000.0000  100000.0000       0.0408       0.0010       2.7091     143.6875       1.1990       1.6390
   3123.8755       5.9468    -999.2500      51.4981      19.2780      31.5764      46.9602      49.6012   13054.6230   13026.5869   13146.4531       0.0451       0.0011       2.7087     143.6875       1.2773       1.6274
   3124.0278       5.7273    -999.2500      52.1058      19.1081      30.5125      39.7073      42.4555      34.8447      19.7616      19.7079       0.0519       0.0010       2.7032     143.6875       1.2425       1.6463
   3124.1802       5.3751    -999.2500      53.3822      19.0279      29.2161      35.4773      38.0085   87051.9922       7.1408       0.3520       0.0624       0.0010       2.6801     143.6875       1.1319       1.6771
