#------------------------------------------------------------------------------
#
#   Created by  : [OpenWorks] Log Export Utility (LEXP)
#   Created on  : 2016-05-19 09:45:26
#   Project     : CANT971
#   User        : R5K
#   Interpreter : PEP
#
#------------------------------------------------------------------------------
~VERSION INFORMATION
VERS. 2.0 : CWLS Log ASCII Standard - version 2.0
WRAP.  NO : One line per depth step
~WELL INFORMATION
#MNEMONIC   .UNIT                                           VALUE :DESCRIPTION
#------------------------------------------------------------------------------
STRT        .M                                           500.7865 :START DEPTH
STOP        .M                                          2967.5330 :STOP DEPTH
STEP        .M                                             0.1524 :STEP
NULL        .                                           -999.2500 :NULL VALUE
COMP        .                                   PEMEX EXPL & PROD :COMPANY
WELL        .                                                2294 :WELL
FLD         .                                           CANTARELL :FIELD
LOC         .                                             UNKNOWN :LOCATION
CNTY        .                                      CD. DEL CARMEN :COUNTY
STAT        .                                            CAMPECHE :STATE
CTRY        .                                              MEXICO :COUNTRY
SRVC        .                                             UNKNOWN :SERVICE COMPANY
DATE        .                                             UNKNOWN :LOG DATE
UWI         .                                          3060000528 :UNIQUE WELL ID
XCOORD      .                                       597712.870000 :SURFACE X
YCOORD      .                                      2140963.740000 :SURFACE Y
LAT         .                                           19.361511 :LATITUDE
LON         .                                          -92.069629 :LONGITUDE
ELEV        .M                                            23.0000 :SURFACE ELEV
ELEV_TYPE   .                                                  KB :ELEV TYPE
~CURVE INFORMATION
#MNEMONIC.UNIT        API CODE       : CURVE DESCRIPTION
#------------------------------------------------------------------------------
DEPTH    .M                          : Measured Depth
CALI     .inches      UNKNOWN        : CALI:registros:rC:NONE:v0 (auto-composite)
DRHO     .g/cm3       UNKNOWN        : DRHO:registros:rC:NONE:v0 (auto-composite)
DT       .UNKNOWN     UNKNOWN        : DT:registros:rC:NONE:v0 (auto-composite)
GR       .API         UNKNOWN        : GR:registros:rC:NONE:v0 (auto-composite)
ILD      .ohm.m       UNKNOWN        : ILD:registros:rC:NONE:v0 (auto-composite)
LLD      .ohm.m       UNKNOWN        : LLD:registros:rC:NONE:v0 (auto-composite)
LLS      .ohm.m       UNKNOWN        : LLS:registros:rC:NONE:v0 (auto-composite)
MSFL     .ohm.m       UNKNOWN        : MSFL:registros:rC:NONE:v0 (auto-composite)
NPHI     .UNKNOWN     UNKNOWN        : NPHI:registros:rC:NONE:v0 (auto-composite)
RHOB     .g/cm3       UNKNOWN        : RHOB:registros:rC:NONE:v0 (auto-composite)
~A     DEPTH         CALI         DRHO           DT           GR          ILD          LLD          LLS         MSFL         NPHI         RHOB
# ...
   2770.9370      14.6390       0.0830      59.4440      33.3330       2.2410       9.9300       1.8080       5.7250       0.1583       2.5100
   2771.0894      14.6530       0.0700      63.0686      34.9512       2.1957       6.4493       1.6784       4.3690       0.1765       2.4915
   2771.2417      14.6670       0.0570      66.6670      36.5500       2.1510       2.9660       1.5490       3.0120       0.1949       2.4730
   2771.3940      14.7325       0.0420      62.7641      36.7115       1.7843       2.2572       1.9406       3.6607       0.2107       2.4505
   2771.5464      14.7980       0.0270      58.8890      36.8710       1.4220       1.5490       2.3320       4.3090       0.2242       2.4280
   2771.6990      14.9330       0.0025      62.7916      37.7778       1.0579       2.9294       2.2620       4.1189       0.2319       2.4490
   2771.8513      15.0680      -0.0220      66.6670      38.6740       0.6980       4.3090       2.1920       3.9290       0.2378       2.4700
   2772.0037      15.3046      -0.0150      61.9282      41.0809       0.5753       3.2067       1.9534       3.6984       0.2431       2.4970
   2772.1560      15.5410      -0.0080      57.2220      43.4560       0.4540       2.1050       1.7150       3.4680       0.2486       2.5240
   2772.3086      15.8261       0.0070      63.0799      46.7495       0.3655       2.2500       1.7525       3.2400       0.2550       2.5315
   2772.4609      16.1110       0.0220      68.8890      50.0000       0.2780       2.3950       1.7900       3.0120       0.2604       2.5390
   2772.6133      15.8335       0.0165      65.5418      47.2039    -999.2500       2.6280       1.8450       3.2615       0.2609       2.4610
   2772.7656      15.5560       0.0110      62.2220      44.4440    -999.2500       2.8610       1.9000       3.5110       0.2605       2.3830
   2772.9182      15.6180       0.0285      69.7103      45.0036    -999.2500       2.4305       1.7650       3.4370       0.2619       2.4065
   2773.0706      15.6800       0.0460      77.1380      45.5560    -999.2500       2.0000       1.6300       3.3630       0.2642       2.4300
   2773.2229      15.8400       0.0620      82.7579      43.8783    -999.2500       2.0795       1.6725       3.1120       0.2685       2.4900
   2773.3752      16.0000       0.0780      88.3330      42.2220    -999.2500       2.1590       1.7150       2.8610       0.2723       2.5500
   2773.5276      15.4806       0.0940      92.5425      42.2220    -999.2500       2.2890       1.8075       3.0880       0.2721       2.5220
   2773.6802      14.9620       0.1100      96.7190      42.2220    -999.2500       2.4190       1.9000       3.3150       0.2694       2.4940
   2773.8325      14.1850       0.1300     103.3852      43.2700    -999.2500       2.4365       1.7345       3.5055       0.2605       2.4725
   2773.9849      13.4090       0.1500     110.0000      44.3050    -999.2500       2.4540       1.5690       3.6960       0.2520       2.4510
   2774.1372      12.3704       0.1360     101.3562      44.9344    -999.2500       2.3085       1.4485       3.2671       0.2510       2.4340
   2774.2898      11.3330       0.1220      92.7780      45.5560    -999.2500       2.1630       1.3280       2.8380       0.2537       2.4170
   2774.4421      11.5001       0.1445      98.6328      43.8787    -999.2500       1.8561       1.4090       2.6460       0.2627       2.4725
   2774.5945      11.6670       0.1670     104.4440      42.2220    -999.2500       1.5490       1.4900       2.4540       0.2750       2.5280
   2774.7468      12.5404       0.1365     100.4579      42.5550    -999.2500       1.6320       1.9112       2.7329       0.2936       2.5050
   2774.8994      13.4130       0.1060      96.5010      42.8840    -999.2500       1.7150       2.3320       3.0120       0.3133       2.4820
   2775.0518      14.2624       0.1215      90.4507      44.4755    -999.2500       1.6470       1.8298       2.6311       0.3314       2.3980
   2775.2041      15.1110       0.1370      84.4440      46.0480    -999.2500       1.5790       1.3280       2.2500       0.3500       2.3140
   2775.3564      14.8669       0.1435      95.3160      46.3596    -999.2500       1.4204       1.4545       1.7243       0.3728       2.2320
   2775.5088      14.6230       0.1500     106.1110      46.6670    -999.2500       1.2620       1.5810       1.1990       0.3921       2.1500
   2775.6614      13.9498       0.1250     101.5100      45.8249    -999.2500       3.7142       2.9454       4.0148       0.3933       2.1140
   2775.8137      13.2770       0.1000      96.9410      44.9940    -999.2500       6.1650       4.3090       6.8290       0.3874       2.0780
   2775.9661      12.6384       0.1000      94.8157      43.0396    -999.2500       4.9847       4.1105       4.6410       0.3713       2.0780
   2776.1184      12.0000       0.1000      92.7050      41.1110    -999.2500       3.8050       3.9120       2.4540       0.3527       2.0780
   2776.2710      12.0000       0.1000      86.9320      41.1110    -999.2500       2.8523       3.0639       3.2741       0.3338       2.0780
   2776.4233      12.0000       0.1000      81.2070      41.1110    -999.2500       1.9000       2.2160       4.0940       0.3169       2.0780
   2776.5757      13.5557       0.1355      75.3014      41.6198    -999.2500       1.9000       2.2160       3.4774       0.3078       2.1285
   2776.7280      15.1110       0.1710      69.4440      42.1220    -999.2500       1.9000       2.2160       2.8610       0.3009       2.1790
   2776.8806      14.8000       0.1800      70.6544      43.2905    -999.2500       2.3095       2.2740       4.6746       0.2953       2.2255
   2777.0330      14.4890       0.1890      71.8550      44.4440    -999.2500       2.7190       2.3320       6.4880       0.2941       2.2720
   2777.1853      13.4665       0.1445      82.0790      44.6392    -999.2500       2.7900       2.3320       5.8630       0.3100       2.1609
   2777.3376      12.4440       0.1000      92.2220      44.8320    -999.2500       2.8610       2.3320       5.2380       0.3264       2.0500
   2777.4900      12.9499       0.1140      88.3178      45.5138    -999.2500       2.5975       2.3320       3.8461       0.3281       2.0945
   2777.6426      13.4550       0.1280      84.4440      46.1870    -999.2500       2.3340       2.3320       2.4540       0.3247       2.1390
   2777.7949      14.3641       0.1640      85.7611      47.7482    -999.2500       2.1170       2.3320       2.6115       0.3148       2.1085
   2777.9473      15.2720       0.2000      87.0680      49.2900    -999.2500       1.9000       2.3320       2.7690       0.3087       2.0780
   2778.0996      15.7473       0.1890      91.6067      49.6512    -999.2500       2.1769       2.3320       2.8150       0.3250       2.0500
   2778.2522      16.2220       0.1780      96.1110      50.0080    -999.2500       2.4540       2.3320       2.8610       0.3422       2.0220
   2778.4045      16.0659       0.2055      95.4822      50.8149    -999.2500       2.2795       2.2740       2.8610       0.3403       2.0735
   2778.5569      15.9100       0.2330      94.8580      51.6120    -999.2500       2.1050       2.2160       2.8610       0.3296       2.1250
   2778.7092      15.2937       0.2305      91.3050      52.4777    -999.2500       2.3439       2.2160       2.9625       0.3003       2.2541
   2778.8618      14.6780       0.2280      87.7780      53.3330    -999.2500       2.5830       2.2160       3.0640       0.2733       2.3830
   2779.0142      14.2278       0.1975      90.5655      53.3330    -999.2500       2.4191       2.2740       3.2001       0.2744       2.2274
   2779.1665      13.7780       0.1670      93.3330      53.3330    -999.2500       2.2550       2.3320       3.3360       0.2825       2.0720
   2779.3188      14.3667       0.1790      92.8408      53.8268    -999.2500       2.1275       2.1840       3.6131       0.2920       2.1830
