#------------------------------------------------------------------------------
#
#   Created by  : [OpenWorks] Log Export Utility (LEXP)
#   Created on  : 2016-05-19 09:45:26
#   Project     : CANT971
#   User        : R5K
#   Interpreter : PEP
#
#------------------------------------------------------------------------------
~VERSION INFORMATION
VERS. 2.0 : CWLS Log ASCII Standard - version 2.0
WRAP.  NO : One line per depth step
~WELL INFORMATION
#MNEMONIC   .UNIT                                           VALUE :DESCRIPTION
#------------------------------------------------------------------------------
STRT        .M                                           500.7865 :START DEPTH
STOP        .M                                          2967.5330 :STOP DEPTH
STEP        .M                                             0.1524 :STEP
NULL        .                                           -999.2500 :NULL VALUE
COMP        .                                   PEMEX EXPL & PROD :COMPANY
WELL        .                                                2294 :WELL
FLD         .                                           CANTARELL :FIELD
LOC         .                                             UNKNOWN :LOCATION
CNTY        .                                      CD. DEL CARMEN :COUNTY
STAT        .                                            CAMPECHE :STATE
CTRY        .                                              MEXICO :COUNTRY
SRVC        .                                             UNKNOWN :SERVICE COMPANY
DATE        .                                             UNKNOWN :LOG DATE
UWI         .                                          3060000528 :UNIQUE WELL ID
XCOORD      .                                       597712.870000 :SURFACE X
YCOORD      .                                      2140963.740000 :SURFACE Y
LAT         .                                           19.361511 :LATITUDE
LON         .                                          -92.069629 :LONGITUDE
ELEV        .M                                            23.0000 :SURFACE ELEV
ELEV_TYPE   .                                                  KB :ELEV TYPE
~CURVE INFORMATION
#MNEMONIC.UNIT        API CODE       : CURVE DESCRIPTION
#------------------------------------------------------------------------------
DEPTH    .M                          : Measured Depth
CALI     .inches      UNKNOWN        : CALI:registros:rC:NONE:v0 (auto-composite)
DRHO     .g/cm3       UNKNOWN        : DRHO:registros:rC:NONE:v0 (auto-composite)
DT       .UNKNOWN     UNKNOWN        : DT:registros:rC:NONE:v0 (auto-composite)
GR       .API         UNKNOWN        : GR:registros:rC:NONE:v0 (auto-composite)
ILD      .ohm.m       UNKNOWN        : ILD:registros:rC:NONE:v0 (auto-composite)
LLD      .ohm.m       UNKNOWN        : LLD:registros:rC:NONE:v0 (auto-composite)
LLS      .ohm.m       UNKNOWN        : LLS:registros:rC:NONE:v0 (auto-composite)
MSFL     .ohm.m       UNKNOWN        : MSFL:registros:rC:NONE:v0 (auto-composite)
NPHI     .UNKNOWN     UNKNOWN        : NPHI:registros:rC:NONE:v0 (auto-composite)
RHOB     .g/cm3       UNKNOWN        : RHOB:registros:rC:NONE:v0 (auto-composite)
~A     DEPTH         CALI         DRHO           DT           GR          ILD          LLD          LLS         MSFL         NPHI         RHOB
# ...
   2916.0217       9.3520       0.1000      54.4440      37.7780    -999.2500     768.2310     798.8850      71.9010       0.0708       2.6370
   2916.1741       9.5550       0.0990      55.8388      39.4555    -999.2500     453.7033     600.2479      38.3042       0.0984       2.5265
   2916.3264       9.7580       0.0980      57.2220      41.1110    -999.2500     139.7890     402.3160       4.7730       0.1202       2.4170
   2916.4790      10.2226       0.0880      51.9228      41.6701    -999.2500     189.3613     286.6371      10.3571       0.1204       2.4331
   2916.6313      10.6870       0.0780      46.6670      42.2220    -999.2500     238.8430     171.5390      15.9310       0.1078       2.4490
   2916.7837      11.0100       0.0966      52.6697      41.8068    -999.2500     490.5474     202.0632     109.0897       0.0885       2.5193
   2916.9360      11.3330       0.1150      58.6240      41.3970    -999.2500     741.8240     232.4380     202.0900       0.0679       2.5890
   2917.0884      10.5850       0.1406      69.3547      39.1019    -999.2500     940.6496     386.8268     916.5203       0.0514       2.6252
   2917.2410       9.8370       0.1660      80.0000      36.8360    -999.2500    1139.1620     540.4790    1629.8250       0.0422       2.6610
   2917.3933       9.5850       0.1665      71.1333      34.5144    -999.2500     928.8101     629.8284     899.5294       0.0450       2.6083
   2917.5457       9.3330       0.1670      62.3360      32.2220    -999.2500     718.7630     718.7630     170.2920       0.0477       2.5560
   2917.6980       9.3550       0.1333      55.0288      34.1238    -999.2500     718.7630     610.3249      96.1744       0.0383       2.6314
   2917.8506       9.3770       0.1000      47.7780      36.0020    -999.2500     718.7630     502.3770      22.1550       0.0284       2.7060
   2918.0029       9.4795       0.1241      48.6413      39.3974    -999.2500     700.8257     518.8442      32.6387       0.0295       2.7115
   2918.1553       9.5820       0.1480      49.4980      42.7510    -999.2500     682.9100     535.2390      43.0930       0.0372       2.7170
   2918.3076       9.7909       0.1796      54.0048      46.4007    -999.2500     719.7238     558.1279     134.3143       0.0479       2.7004
   2918.4602      10.0000       0.2110      58.4780      50.0000    -999.2500     756.4980     580.9190     225.2920       0.0604       2.6840
   2918.6125       9.5556       0.1301      64.0881      48.6880    -999.2500     651.4922     583.3290     627.3332       0.0734       2.6483
   2918.7649       9.1110       0.0500      69.6570      47.3940    -999.2500     546.7540     585.7290    1028.3500       0.0834       2.6130
   2918.9172       9.1415       0.0510      85.4409      43.1487    -999.2500     448.8260     508.8760     775.4068       0.0862       2.5673
   2919.0696       9.1720       0.0520     101.1110      38.9610    -999.2500     351.1350     432.3320     523.0760       0.0844       2.5220
   2919.2222       9.3080       0.0676      93.8575      35.2959    -999.2500     369.9201     366.6216     446.2347       0.0796       2.5456
   2919.3745       9.4440       0.0830      86.6670      31.6800    -999.2500     388.6620     301.1670     369.5700       0.0705       2.5690
   2919.5269       9.3330       0.1192      88.8604      29.1567    -999.2500     472.6782     312.6176     441.6873       0.0550       2.6288
   2919.6792       9.2220       0.1550      91.0350      26.6670    -999.2500     556.5120     324.0250     513.6480       0.0426       2.6880
   2919.8318       9.2740       0.1721      91.9102      26.6670    -999.2500     516.8745     377.5535     594.9497       0.0429       2.7081
   2919.9841       9.3260       0.1890      92.7780      26.6670    -999.2500     477.3180     430.8870     676.0850       0.0493       2.7280
   2920.1365       9.4410       0.0996     101.4249      27.2262    -999.2500     531.5756     382.1678     907.8459       0.0562       2.6999
   2920.2888       9.5560       0.0110     110.0000      27.7780    -999.2500     585.7290     333.6200    1139.1620       0.0596       2.6720
   2920.4414       9.5560       0.0140     105.6301      27.7780    -999.2500     536.2731     459.9898     629.0715       0.0550       2.6891
   2920.5938       9.5560       0.0170     101.2960      27.7780    -999.2500     486.9060     585.7290     119.8970       0.0511       2.7060
   2920.7461       9.5000       0.0587      75.2653      27.4474    -999.2500     401.8716     529.6527     136.3432       0.0567       2.6648
   2920.8984       9.4440       0.1000      49.4440      27.1210    -999.2500     316.9790     473.8490     152.7620       0.0626       2.6240
   2921.0508       9.4440       0.0804      50.5755      25.2149    -999.2500     370.4828     365.8235     390.3055       0.0599       2.5758
   2921.2034       9.4440       0.0610      51.6980      23.3330    -999.2500     423.9040     258.3100     627.4820       0.0516       2.5280
   2921.3557       9.4475       0.0841      66.7411      23.4009    -999.2500     594.4454     267.0191    1012.9614       0.0399       2.6340
   2921.5081       9.4510       0.1070      81.6670      23.4680    -999.2500     764.7450     275.6880    1397.8940       0.0302       2.7390
   2921.6604       9.5590       0.1231      70.5127      25.6365    -999.2500     944.8305     373.6895     937.3080       0.0279       2.7305
   2921.8130       9.6670       0.1390      59.4440      27.7780    -999.2500    1124.6830     471.2510     477.3180       0.0298       2.7220
   2921.9653       9.6145       0.1084      73.6646      27.7780    -999.2500    1240.4406     591.8385     753.2158       0.0329       2.6878
   2922.1177       9.5620       0.0780      87.7780      27.7780    -999.2500    1356.0630     711.9000    1028.3500       0.0345       2.6540
   2922.2700       9.4475       0.0780      83.1709      27.7780    -999.2500    1413.7036     820.3389     698.5245       0.0317       2.6158
   2922.4226       9.3330       0.0780      78.5980      27.7780    -999.2500    1471.2841     928.3180     369.5700       0.0279       2.5780
   2922.5750       9.5849       0.1056      62.2950      27.7780    -999.2500    1197.7438     887.0792     591.8798       0.0267       2.5976
   2922.7273       9.8370       0.1330      46.1110      27.7780    -999.2500     924.8920     846.0100     813.6300       0.0277       2.6170
   2922.8796      10.0851       0.0963      46.8486      26.6594    -999.2500     812.5452     738.9559     847.8619       0.0311       2.6105
   2923.0320      10.3330       0.0600      47.5810      25.5560    -999.2500     700.4670     632.3290     882.0120       0.0361       2.6040
   2923.1846       9.9999       0.0439      56.8862      26.3085    -999.2500     601.3096     571.2330     563.3574       0.0427       2.5488
   2923.3369       9.6670       0.0280      66.1110      27.0510    -999.2500     502.3770     510.3730     245.4250       0.0473       2.4940
   2923.4893       9.7295       0.0576      62.9616      27.9761    -999.2500     502.3770     467.7267     323.3013       0.0462       2.5302
   2923.6416       9.7920       0.0870      59.8390      28.8890    -999.2500     502.3770     425.2400     401.0110       0.0392       2.5660
   2923.7942       9.8405       0.1383      55.4405      28.3298    -999.2500     466.5959     341.5570     865.0557       0.0252       2.6248
   2923.9465       9.8890       0.1890      51.0790      27.7780    -999.2500     430.8870     258.3100    1328.1650       0.0104       2.6830
   2924.0989       9.6110       0.1835      49.7003      27.7765    -999.2500     656.6628     489.1228    1204.4056       0.0006       2.7081
   2924.2512       9.3330       0.1780      48.3330      27.7750    -999.2500     882.0120     718.7630    1080.8800       0.0005       2.7330
   2924.4038       9.4940       0.1569      48.6744      26.6583    -999.2500     788.1592     672.7264     815.1995       0.0152       2.7240
