#------------------------------------------------------------------------------
#
#   Created by  : [OpenWorks] Log Export Utility (LEXP)
#   Created on  : 2016-05-19 09:45:26
#   Project     : CANT971
#   User        : R5K
#   Interpreter : PEP
#
#------------------------------------------------------------------------------
~VERSION INFORMATION
VERS. 2.0 : CWLS Log ASCII Standard - version 2.0
WRAP.  NO : One line per depth step
~WELL INFORMATION
#MNEMONIC   .UNIT                                           VALUE :DESCRIPTION
#------------------------------------------------------------------------------
STRT        .M                                           500.7865 :START DEPTH
STOP        .M                                          2967.5330 :STOP DEPTH
STEP        .M                                             0.1524 :STEP
NULL        .                                           -999.2500 :NULL VALUE
COMP        .                                   PEMEX EXPL & PROD :COMPANY
WELL        .                                                2294 :WELL
FLD         .                                           CANTARELL :FIELD
LOC         .                                             UNKNOWN :LOCATION
CNTY        .                                      CD. DEL CARMEN :COUNTY
STAT        .                                            CAMPECHE :STATE
CTRY        .                                              MEXICO :COUNTRY
SRVC        .                                             UNKNOWN :SERVICE COMPANY
DATE        .                                             UNKNOWN :LOG DATE
UWI         .                                          3060000528 :UNIQUE WELL ID
XCOORD      .                                       597712.870000 :SURFACE X
YCOORD      .                                      2140963.740000 :SURFACE Y
LAT         .                                           19.361511 :LATITUDE
LON         .                                          -92.069629 :LONGITUDE
ELEV        .M                                            23.0000 :SURFACE ELEV
ELEV_TYPE   .                                                  KB :ELEV TYPE
~CURVE INFORMATION
#MNEMONIC.UNIT        API CODE       : CURVE DESCRIPTION
#------------------------------------------------------------------------------
DEPTH    .M                          : Measured Depth
CALI     .inches      UNKNOWN        : CALI:registros:rC:NONE:v0 (auto-composite)
DRHO     .g/cm3       UNKNOWN        : DRHO:registros:rC:NONE:v0 (auto-composite)
DT       .UNKNOWN     UNKNOWN        : DT:registros:rC:NONE:v0 (auto-composite)
GR       .API         UNKNOWN        : GR:registros:rC:NONE:v0 (auto-composite)
ILD      .ohm.m       UNKNOWN        : ILD:registros:rC:NONE:v0 (auto-composite)
LLD      .ohm.m       UNKNOWN        : LLD:registros:rC:NONE:v0 (auto-composite)
LLS      .ohm.m       UNKNOWN        : LLS:registros:rC:NONE:v0 (auto-composite)
MSFL     .ohm.m       UNKNOWN        : MSFL:registros:rC:NONE:v0 (auto-composite)
NPHI     .UNKNOWN     UNKNOWN        : NPHI:registros:rC:NONE:v0 (auto-composite)
RHOB     .g/cm3       UNKNOWN        : RHOB:registros:rC:NONE:v0 (auto-composite)
~A     DEPTH         CALI         DRHO           DT           GR          ILD          LLD          LLS         MSFL         NPHI         RHOB
# ...
   2881.8840       9.8970       0.0560      70.7770      54.4440    -999.2500     161.2810     102.8350     178.6610       0.0797       2.6720
   2882.0366       9.9485       0.0430      69.1254      52.2078    -999.2500     137.5795     127.0778     114.3980       0.0804       2.6635
   2882.1890      10.0000       0.0300      67.4870      50.0000    -999.2500     113.9160     151.2430      50.2380       0.0837       2.6550
   2882.3413      10.0000       0.0150      65.7191      50.0000    -999.2500     211.1457     275.6983     252.0223       0.0854       2.6470
   2882.4937      10.0000       0.0000      63.9650      50.0000    -999.2500     308.2320     399.7710     453.5090       0.0863       2.6390
   2882.6460       9.6665       0.0075      63.0364      50.2148    -999.2500     447.0742     559.5024     321.6775       0.0857       2.6666
   2882.7986       9.3330       0.0150      62.1150      50.4270    -999.2500     585.7290     718.7630     190.0240       0.0834       2.6940
   2882.9509       9.3560       0.0326      61.6111      51.5600    -999.2500     392.7464     488.2109     202.8143       0.0766       2.6804
   2883.1033       9.3790       0.0500      61.1110      52.6790    -999.2500     200.0000     258.3100     215.5890       0.0687       2.6670
   2883.2556       9.4115       0.0304      63.3418      53.0080    -999.2500     210.1741     258.3100     236.9612       0.0615       2.6831
   2883.4082       9.4440       0.0110      65.5560      53.3330    -999.2500     220.3370     258.3100     258.3100       0.0542       2.6990
   2883.5605       9.4440       0.0155      63.8979      50.9586    -999.2500     261.5266     328.7321     337.5435       0.0456       2.7221
   2883.7129       9.4440       0.0200      62.2520      48.6130    -999.2500     302.6760     398.9730     416.7000       0.0384       2.7450
   2883.8652       9.2219       0.0687      59.7279      43.1585    -999.2500     356.0576     450.7798     567.7956       0.0367       2.7781
   2884.0176       9.0000       0.1170      57.2220      37.7780    -999.2500     409.3940     502.3770     718.7630       0.0368       2.8110
   2884.1702       9.0000       0.1115      59.7309      38.1002    -999.2500     394.8442     476.1306     678.7390       0.0372       2.8020
   2884.3225       9.0000       0.1060      62.2220      38.4180    -999.2500     380.3050     449.9870     638.8080       0.0378       2.7930
   2884.4749       8.9445       0.0694      61.1071      39.4977    -999.2500     336.7655     375.4355     441.9003       0.0388       2.7519
   2884.6272       8.8890       0.0330      60.0000      40.5630    -999.2500     293.2520     301.1670     245.4250       0.0404       2.7110
   2884.7798       8.8890       0.0385      63.9055      41.3980    -999.2500     269.3137     306.8815     276.1223       0.0433       2.7130
   2884.9321       8.8890       0.0440      67.7780      42.2220    -999.2500     245.4250     312.5750     306.7560       0.0451       2.7150
   2885.0845       8.8365       0.0310      63.3149      41.6628    -999.2500     279.0327     378.7608     451.5804       0.0417       2.7316
   2885.2368       8.7840       0.0180      58.8890      41.1110    -999.2500     312.5750     444.7120     596.1230       0.0364       2.7480
   2885.3894       8.6700       0.0035      59.7259      42.4139    -999.2500     398.8476     527.9933     929.3219       0.0300       2.7630
   2885.5417       8.5560      -0.0110      60.5560      43.7000    -999.2500     484.9630     610.9900    1261.9139       0.0250       2.7780
   2885.6941       8.5560      -0.0165      59.1614      44.6340    -999.2500     731.2177     746.7246     825.0728       0.0253       2.7745
   2885.8464       8.5560      -0.0220      57.7780      45.5560    -999.2500     977.0550     882.0120     388.9720       0.0278       2.7710
   2885.9988       8.5000      -0.0220      60.1243      44.9964    -999.2500     920.2434     785.3239     635.6857       0.0323       2.7549
   2886.1514       8.4440      -0.0220      62.4520      44.4440    -999.2500     863.5210     688.9420     882.0120       0.0372       2.7390
   2886.3037       8.4440      -0.0220      63.1733      45.5625    -999.2500     782.6011     538.7284     707.0587       0.0414       2.7641
   2886.4561       8.4440      -0.0220      63.8890      46.6670    -999.2500     701.7980     388.9720     532.3580       0.0461       2.7890
   2886.6084       8.3885      -0.0110      60.4723      46.1080    -999.2500     577.5715     426.7185     481.5890       0.0528       2.7684
   2886.7610       8.3330       0.0000      57.0820      45.5560    -999.2500     453.5090     464.3550     430.8870       0.0594       2.7480
   2886.9133       8.3330       0.0085      54.6428      46.9652    -999.2500     857.9528    1007.1992     756.8074       0.0635       2.7234
   2887.0657       8.3330       0.0170      52.2220      48.3570    -999.2500    1261.9139    1548.5270    1082.3390       0.0671       2.6990
   2887.2180       8.3330       0.0727      54.4528      49.1835    -999.2500    1071.8615    1442.1135     985.6638       0.0717       2.6774
   2887.3706       8.3330       0.1280      56.6670      50.0000    -999.2500     882.0120    1336.1541     889.0920       0.0741       2.6560
   2887.5229       8.3330       0.1145      50.8121      48.3234    -999.2500     914.7404    1026.8187     638.9141       0.0685       2.6866
   2887.6753       8.3330       0.1010      45.0000      46.6670    -999.2500     947.4380     718.7630     388.9720       0.0596       2.7170
   2887.8276       8.3840       0.0694      50.5756      47.7856    -999.2500    1073.2544     959.3485     433.1631       0.0485       2.6613
   2887.9800       8.4350       0.0380      56.1110      48.8890    -999.2500    1198.9680    1198.9680     477.3180       0.0390       2.6060
   2888.1326       8.4550       0.0300      55.6018      46.6515    -999.2500     910.9539     850.4602     247.4230       0.0367       2.6783
   2888.2849       8.4750       0.0220      55.0970      44.4440    -999.2500     623.1390     503.3070      18.0550       0.0368       2.7500
   2888.4373       8.5710       0.0626      52.5376      45.5629    -999.2500     480.8077     423.2869      24.0775       0.0373       2.7390
   2888.5896       8.6670       0.1030      50.0000      46.6670    -999.2500     338.5570     343.5680      30.0870       0.0383       2.7280
   2888.7422       8.7310       0.1155      50.6427      43.0557    -999.2500     314.3273     294.4071      84.9940       0.0409       2.7390
   2888.8945       8.7950       0.1280      51.2800      39.4920    -999.2500     290.1470     245.4250     139.7890       0.0438       2.7500
   2889.0469       8.9300       0.1039      53.3049      34.1557    -999.2500     240.0375     261.3790     100.6811       0.0466       2.7144
   2889.1992       9.0650       0.0800      55.3130      28.8890    -999.2500     190.0240     277.2770      61.6480       0.0502       2.6790
   2889.3518       9.2545       0.0454      57.1083      27.2117    -999.2500     361.7307     653.4504     889.2610       0.0563       2.6142
   2889.5042       9.4440       0.0110      58.8890      25.5560    -999.2500     533.1300    1028.3500    1715.3920       0.0625       2.5500
   2889.6565       9.4440       0.0110      55.5420      25.8172    -999.2500     866.3262     987.0461    1637.1740       0.0661       2.5500
   2889.8088       9.4440       0.0110      52.2220      26.0750    -999.2500    1198.9680     945.8770    1559.0861       0.0716       2.5500
   2889.9612       9.4440       0.0055      52.9805      26.9319    -999.2500    1032.6730     732.3702     895.6237       0.0853       2.5108
   2890.1138       9.4440       0.0000      53.7330      27.7780    -999.2500     866.6340     519.5330     233.1830       0.1016       2.4720
   2890.2661       9.4440       0.0055      54.8353      30.0140    -999.2500     549.6845     407.4376     250.3831       0.1176       2.4971
