#------------------------------------------------------------------------------
#
#   Created by  : [OpenWorks] Log Export Utility (LEXP)
#   Created on  : 2016-05-19 09:45:26
#   Project     : CANT971
#   User        : R5K
#   Interpreter : PEP
#
#------------------------------------------------------------------------------
~VERSION INFORMATION
VERS. 2.0 : CWLS Log ASCII Standard - version 2.0
WRAP.  NO : One line per depth step
~WELL INFORMATION
#MNEMONIC   .UNIT                                           VALUE :DESCRIPTION
#------------------------------------------------------------------------------
STRT        .M                                           500.7865 :START DEPTH
STOP        .M                                          2967.5330 :STOP DEPTH
STEP        .M                                             0.1524 :STEP
NULL        .                                           -999.2500 :NULL VALUE
COMP        .                                   PEMEX EXPL & PROD :COMPANY
WELL        .                                                2294 :WELL
FLD         .                                           CANTARELL :FIELD
LOC         .                                             UNKNOWN :LOCATION
CNTY        .                                      CD. DEL CARMEN :COUNTY
STAT        .                                            CAMPECHE :STATE
CTRY        .                                              MEXICO :COUNTRY
SRVC        .                                             UNKNOWN :SERVICE COMPANY
DATE        .                                             UNKNOWN :LOG DATE
UWI         .                                          3060000528 :UNIQUE WELL ID
XCOORD      .                                       597712.870000 :SURFACE X
YCOORD      .                                      2140963.740000 :SURFACE Y
LAT         .                                           19.361511 :LATITUDE
LON         .                                          -92.069629 :LONGITUDE
ELEV        .M                                            23.0000 :SURFACE ELEV
ELEV_TYPE   .                                                  KB :ELEV TYPE
~CURVE INFORMATION
#MNEMONIC.UNIT        API CODE       : CURVE DESCRIPTION
#------------------------------------------------------------------------------
DEPTH    .M                          : Measured Depth
CALI     .inches      UNKNOWN        : CALI:registros:rC:NONE:v0 (auto-composite)
DRHO     .g/cm3       UNKNOWN        : DRHO:registros:rC:NONE:v0 (auto-composite)
DT       .UNKNOWN     UNKNOWN        : DT:registros:rC:NONE:v0 (auto-composite)
GR       .API         UNKNOWN        : GR:registros:rC:NONE:v0 (auto-composite)
ILD      .ohm.m       UNKNOWN        : ILD:registros:rC:NONE:v0 (auto-composite)
LLD      .ohm.m       UNKNOWN        : LLD:registros:rC:NONE:v0 (auto-composite)
LLS      .ohm.m       UNKNOWN        : LLS:registros:rC:NONE:v0 (auto-composite)
MSFL     .ohm.m       UNKNOWN        : MSFL:registros:rC:NONE:v0 (auto-composite)
NPHI     .UNKNOWN     UNKNOWN        : NPHI:registros:rC:NONE:v0 (auto-composite)
RHOB     .g/cm3       UNKNOWN        : RHOB:registros:rC:NONE:v0 (auto-composite)
~A     DEPTH         CALI         DRHO           DT           GR          ILD          LLD          LLS         MSFL         NPHI         RHOB
# ...
   2762.4026       8.8890    -999.2500      84.4440      23.3330       1.5050       1.0280       1.2120       0.2380       0.4100       2.1110
   2762.5549       8.8890    -999.2500      84.4440      22.2151       1.6267       1.1135       1.2370       0.2190       0.4100       2.1110
   2762.7073       8.8890    -999.2500      84.4440      21.1110       1.7470       1.1990       1.2620       0.2000       0.4100       2.1110
   2762.8596       8.8890    -999.2500      84.4440      22.2288       1.8179       1.1025       1.0626       0.2060       0.4100       2.1110
   2763.0122       8.8890    -999.2500      84.4440      23.3330       1.8880       1.0060       0.8630       0.2120       0.4100       2.1110
   2763.1646       8.8890    -999.2500      84.4440      23.3330       1.8940       0.8111       0.6716       0.2285       0.4100       2.1110
   2763.3169       8.8890    -999.2500      84.4440      23.3330       1.9000       0.6160       0.4800       0.2450       0.4100       2.1110
   2763.4692       8.8890    -999.2500      84.4440      23.3330       1.8789       0.6930       0.3454       0.2395       0.4100       2.1110
   2763.6216       8.8890    -999.2500      84.4440      23.3330       1.8580       0.7700       0.2110       0.2340       0.4100       2.1110
   2763.7742       8.8890    -999.2500      84.4440      23.3330       1.8329       0.9699       0.2225       0.2225       0.4100       2.1110
   2763.9265       8.8890    -999.2500      84.4440      23.3330       1.8080       1.1700       0.2340       0.2110       0.4100       2.1110
   2764.0789       8.8890    -999.2500      84.4440      25.3977       1.7683       1.2785       0.2395       0.2210       0.4100       2.1110
   2764.2312       8.8890    -999.2500      84.4440      27.4350       1.7290       1.3870       0.2450       0.2310       0.4100       2.1110
   2764.3838       8.8890    -999.2500      84.4440      29.0451       1.6767       1.5960       0.2450       0.2380       0.4100       2.1110
   2764.5361       8.8890    -999.2500      84.4440      30.6340       1.6250       1.8050       0.2450       0.2450       0.4100       2.1110
   2764.6885       8.8890    -999.2500      84.4440      34.2294       1.5752       1.4269       0.2450       0.2280       0.4100       2.1110
   2764.8408       8.8890    -999.2500      84.4440      37.7780       1.5260       1.0490       0.2450       0.2110       0.4100       2.1110
   2764.9934       8.8890    -999.2500      84.4440      37.4529       1.4993       0.8490       0.2390       0.2175       0.4100       2.1110
   2765.1458       8.8890    -999.2500      84.4440      37.1320       1.4730       0.6490       0.2330       0.2240       0.4087       2.1110
   2765.2981       8.8890    -999.2500      79.9826      34.6612       1.4368       0.6910       0.2330       0.2345       0.4033       2.2135
   2765.4504       8.8890    -999.2500      75.5570      32.2220       1.4010       0.7330       0.2330       0.2450       0.3995       2.3160
   2765.6028       8.8890    -999.2500      66.0745      32.2220       1.4372       1.4190       0.2220       0.2225       0.4050       2.4470
   2765.7554       8.8890      -0.0060      56.6670      32.2220       1.4730       2.1050       0.2110       0.2000       0.4111       2.5780
   2765.9077       8.9020       0.0100      56.9325      32.2220       1.6028       1.1886       0.2375       0.2130       0.4098       2.4500
   2766.0601       8.9150       0.0260      57.1960      32.2220       1.7310       0.2720       0.2640       0.2260       0.4041       2.3220
   2766.2124       9.0851       0.0695      58.0457      32.2220       1.7677       0.3080       0.3240       0.3925       0.3917       2.3310
   2766.3650       9.2550       0.1130      58.8890      32.2220       1.8040       0.3440       0.3840       0.5590       0.3784       2.3400
   2766.5173       9.4056       0.1575      58.3314      32.2220       1.8367       0.9079       0.4915       2.4336       0.3691       2.3580
   2766.6697       9.5560       0.2020      57.7780      32.2220       1.8690       1.4720       0.5990       4.3090       0.3613       2.3760
   2766.8220       9.7056       0.2170      57.7780      32.2220       1.9344       7.1668       1.2358       3.3818       0.3544       2.3900
   2766.9746       9.8550       0.2320      57.7780      32.2220       1.9990      12.8650       1.8730       2.4540       0.3458       2.4040
   2767.1270      10.8084       0.2440      57.2205      32.2864       1.9014      96.6752       3.0906       2.6744       0.3305       2.4660
   2767.2793      11.7610       0.2560      56.6670      32.3500       1.8050     180.5450       4.3090       2.8950       0.3177       2.5280
   2767.4316      12.6959       0.2560      56.7598      32.8444       1.8050      91.6689       3.3201       3.0876       0.3194       2.4985
   2767.5840      13.6300       0.2560      56.8520      33.3330       1.8050       2.8610       2.3320       3.2800       0.3274       2.4690
   2767.7366      14.2032       0.2560      57.0377      32.7742       1.8040       2.8610       2.3320       3.3955       0.3415       2.3740
   2767.8889      14.7760       0.2560      57.2220      32.2220       1.8030       2.8610       2.3320       3.5110       0.3550       2.2790
   2768.0413      15.2996       0.2560      57.4372      32.2220       1.7613       4.6750       2.3320       3.5110       0.3604       2.2175
   2768.1936      15.8230       0.2560      57.6510      32.2220       1.7200       6.4880       2.3320       3.5110       0.3609       2.1560
   2768.3462      16.1876       0.2560      57.7148      32.2220       1.7653       5.5113       2.2740       3.1859       0.3533       2.2115
   2768.4985      16.5520       0.2560      57.7780      32.2220       1.8100       4.5350       2.2160       2.8610       0.3491       2.2670
   2768.6509      16.7205       0.2555      57.2202      29.9855       1.8961       4.8135       2.3255       2.9080       0.3650       2.2140
   2768.8032      16.8890       0.2550      56.6670      27.7780       1.9810       5.0920       2.4350       2.9550       0.3799       2.1610
   2768.9558      16.8650       0.2490      56.6670      28.0185       2.1018       5.9606       2.6480       3.4225       0.3716       2.1960
   2769.1082      16.8410       0.2430      56.6670      28.2560       2.2210       6.8290       2.8610       3.8900       0.3525       2.2310
   2769.2605      16.5930       0.2270      56.8477      29.3007       2.2582       5.8010       2.9095       3.8265       0.3193       2.2805
   2769.4128      16.3450       0.2110      57.0270      30.3320       2.2950       4.7730       2.9580       3.7630       0.2829       2.3300
   2769.5652      15.9502       0.2110      58.3367      31.2100       2.3136       5.6305       3.1995       3.5495       0.2495       2.3645
   2769.7178      15.5560       0.2110      59.6360      32.0770       2.3320       6.4880       3.4410       3.3360       0.2194       2.3990
   2769.8701      15.5460       0.2095      64.2805      32.7090       2.3320       5.6306       3.7765       4.9118       0.1974       2.4745
   2770.0225      15.5360       0.2080      68.8890      33.3330       2.3320       4.7730       4.1120       6.4880       0.1786       2.5500
   2770.1748      15.3319       0.1825      65.8218      33.3330       2.3320       6.1243       4.2105       5.8881       0.1630       2.5490
   2770.3274      15.1280       0.1570      62.7780      33.3330       2.3320       7.4760       4.3090       5.2880       0.1492       2.5480
   2770.4797      14.8418       0.1065      63.6141      33.3330       2.3275      13.2376       3.7566       7.5290       0.1391       2.5400
   2770.6321      14.5560       0.0560      64.4440      33.3330       2.3230      19.0020       3.2040       9.7710       0.1341       2.5320
   2770.7844      14.5975       0.0695      61.9348      33.3330       2.2817      14.4674       2.5057       7.7486       0.1437       2.5210
