#------------------------------------------------------------------------------
#
#   Created by  : [OpenWorks] Log Export Utility (LEXP)
#   Created on  : 2016-05-19 09:45:26
#   Project     : CANT971
#   User        : R5K
#   Interpreter : PEP
#
#------------------------------------------------------------------------------
~VERSION INFORMATION
VERS. 2.0 : CWLS Log ASCII Standard - version 2.0
WRAP.  NO : One line per depth step
~WELL INFORMATION
#MNEMONIC   .UNIT                                           VALUE :DESCRIPTION
#------------------------------------------------------------------------------
STRT        .M                                           500.7865 :START DEPTH
STOP        .M                                          2967.5330 :STOP DEPTH
STEP        .M                                             0.1524 :STEP
NULL        .                                           -999.2500 :NULL VALUE
COMP        .                                   PEMEX EXPL & PROD :COMPANY
WELL        .                                                2294 :WELL
FLD         .                                           CANTARELL :FIELD
LOC         .                                             UNKNOWN :LOCATION
CNTY        .                                      CD. DEL CARMEN :COUNTY
STAT        .                                            CAMPECHE :STATE
CTRY        .                                              MEXICO :COUNTRY
SRVC        .                                             UNKNOWN :SERVICE COMPANY
DATE        .                                             UNKNOWN :LOG DATE
UWI         .                                          3060000528 :UNIQUE WELL ID
XCOORD      .                                       597712.870000 :SURFACE X
YCOORD      .                                      2140963.740000 :SURFACE Y
LAT         .                                           19.361511 :LATITUDE
LON         .                                          -92.069629 :LONGITUDE
ELEV        .M                                            23.0000 :SURFACE ELEV
ELEV_TYPE   .                                                  KB :ELEV TYPE
~CURVE INFORMATION
#MNEMONIC.UNIT        API CODE       : CURVE DESCRIPTION
#------------------------------------------------------------------------------
DEPTH    .M                          : Measured Depth
CALI     .inches      UNKNOWN        : CALI:registros:rC:NONE:v0 (auto-composite)
DRHO     .g/cm3       UNKNOWN        : DRHO:registros:rC:NONE:v0 (auto-composite)
DT       .UNKNOWN     UNKNOWN        : DT:registros:rC:NONE:v0 (auto-composite)
GR       .API         UNKNOWN        : GR:registros:rC:NONE:v0 (auto-composite)
ILD      .ohm.m       UNKNOWN        : ILD:registros:rC:NONE:v0 (auto-composite)
LLD      .ohm.m       UNKNOWN        : LLD:registros:rC:NONE:v0 (auto-composite)
LLS      .ohm.m       UNKNOWN        : LLS:registros:rC:NONE:v0 (auto-composite)
MSFL     .ohm.m       UNKNOWN        : MSFL:registros:rC:NONE:v0 (auto-composite)
NPHI     .UNKNOWN     UNKNOWN        : NPHI:registros:rC:NONE:v0 (auto-composite)
RHOB     .g/cm3       UNKNOWN        : RHOB:registros:rC:NONE:v0 (auto-composite)
~A     DEPTH         CALI         DRHO           DT           GR          ILD          LLD          LLS         MSFL         NPHI         RHOB
# ...
   2873.3496      11.6230       0.1280      79.0410      84.2140    -999.2500       5.2880       7.9620       6.4880       0.1979       2.5390
   2873.5022      11.5210       0.0919      91.7954      84.8894    -999.2500       5.6433       7.4892       6.8103       0.1887       2.5370
   2873.6545      11.4190       0.0560     104.4440      85.5560    -999.2500       5.9980       7.0180       7.1320       0.1815       2.5350
   2873.8069      11.3205       0.0560     100.2519      86.0230    -999.2500       6.5330       6.5908       7.5138       0.1800       2.5285
   2873.9592      11.2220       0.0560      96.0940      86.4840    -999.2500       7.0670       6.1650       7.8950       0.1794       2.5220
   2874.1118      11.2250       0.0640      88.5723      88.8738    -999.2500       6.7773       6.1650       8.8338       0.1767       2.5305
   2874.2642      11.2280       0.0720      81.1110      91.2330    -999.2500       6.4880       6.1650       9.7710       0.1739       2.5390
   2874.4165      11.2805       0.0625      81.3399      92.2897    -999.2500       6.5801       6.2086       9.5268       0.1733       2.5415
   2874.5688      11.3330       0.0530      81.5670      93.3330    -999.2500       6.6720       6.2520       9.2830       0.1737       2.5440
   2874.7212      11.2220       0.0445      83.2752      92.7815    -999.2500       7.3120       6.7152       9.5272       0.1758       2.5510
   2874.8738      11.1110       0.0360      84.9700      92.2370    -999.2500       7.9510       7.1770       9.7710       0.1783       2.5580
   2875.0261      11.1110       0.0280      88.0523      91.2725    -999.2500       8.3858       7.5701       9.5959       0.1808       2.5705
   2875.1785      11.1110       0.0200      91.1110      90.3200    -999.2500       8.8200       7.9620       9.4210       0.1832       2.5830
   2875.3308      11.0000       0.0155      90.5915      89.6001    -999.2500       8.4188       7.7762       8.9297       0.1849       2.5780
   2875.4834      10.8890       0.0110      90.0760      88.8890    -999.2500       8.0180       7.5910       8.4390       0.1870       2.5730
   2875.6357      10.8335       0.0195      87.5562      89.4479    -999.2500       7.2526       7.0388       7.6336       0.1916       2.5449
   2875.7881      10.7780       0.0280      85.0550      90.0000    -999.2500       6.4880       6.4880       6.8290       0.1961       2.5170
   2875.9404      10.7780       0.0290      81.4032      86.9346    -999.2500       6.7906       6.5501       7.0286       0.1985       2.5170
   2876.0930      10.7780       0.0300      77.7780      83.9110    -999.2500       7.0930       6.6120       7.2280       0.2012       2.5170
   2876.2454      10.8105       0.0370      84.1900      81.9422    -999.2500       7.4446       7.0440       7.7172       0.2069       2.5280
   2876.3977      10.8430       0.0440      90.5560      80.0000    -999.2500       7.7960       7.4750       8.2060       0.2117       2.5390
   2876.5500      10.9555       0.0330      86.7285      81.3551    -999.2500       8.5953       7.8873       8.8467       0.2106       2.5280
   2876.7024      11.0680       0.0220      82.9280      82.6920    -999.2500       9.3940       8.2980       9.4870       0.2074       2.5170
   2876.8550      11.0895       0.0220      78.1100      83.5738    -999.2500      14.1993      10.1810      12.1028       0.2023       2.5225
   2877.0073      11.1110       0.0220      73.3330      84.4440    -999.2500      19.0020      12.0570      14.7130       0.1974       2.5280
   2877.1597      10.9725       0.0220      75.5648      83.0594    -999.2500      18.8830      16.5616      15.0934       0.1950       2.5280
   2877.3120      10.8340       0.0220      77.7780      81.6930    -999.2500      18.7640      21.0500      15.4730       0.1925       2.5280
   2877.4646      10.6950       0.0235      76.9983      76.8193    -999.2500      15.3738      19.2198      16.7652       0.1867       2.5330
   2877.6169      10.5560       0.0250      76.2250      72.0090    -999.2500      11.9900      17.3960      18.0550       0.1812       2.5380
   2877.7693      10.5940       0.0265      74.7731      66.2584    -999.2500      11.9900      14.3890      16.3425       0.1800       2.5495
   2877.9216      10.6320       0.0280      73.3330      60.5820    -999.2500      11.9900      11.3920      14.6330       0.1803       2.5610
   2878.0742      10.6495       0.0360      73.3330      55.2570    -999.2500      15.9712      11.3920      13.3104       0.1817       2.5444
   2878.2266      10.6670       0.0440      73.3330      50.0000    -999.2500      19.9460      11.3920      11.9900       0.1828       2.5280
   2878.3789      10.5555       0.0360      73.7150      50.0689    -999.2500      32.6581      26.1885      35.2990       0.1819       2.5446
   2878.5312      10.4440       0.0280      74.0940      50.1370    -999.2500      45.3510      40.9390      58.5730       0.1780       2.5610
   2878.6836      10.4440       0.0290      75.2103      52.3041    -999.2500      43.0844      40.2324      56.1123       0.1652       2.5570
   2878.8362      10.4440       0.0300      76.3180      54.4440    -999.2500      40.8210      39.5280      53.6550       0.1537       2.5530
   2878.9885      10.4440       0.0315      78.1661      52.2081    -999.2500      31.4821      34.0241      48.3687       0.1556       2.5264
   2879.1409      10.4440       0.0330      80.0000      50.0000    -999.2500      22.1550      28.5360      43.0890       0.1619       2.5000
   2879.2932      10.3330       0.0360      77.7696      50.0000    -999.2500      22.6068      20.2517      48.9323       0.1706       2.5130
   2879.4458      10.2220       0.0390      75.5560      50.0000    -999.2500      23.0580      11.9900      54.7690       0.1774       2.5260
   2879.5981      10.3330       0.0305      79.7379      50.5589    -999.2500      32.0030      22.6899      59.8295       0.1750       2.5546
   2879.7505      10.4440       0.0220      83.8890      51.1110    -999.2500      40.9390      33.3620      64.8850       0.1692       2.5830
   2879.9028      10.1664       0.0275      80.8224      52.7889    -999.2500      29.9657      37.7760      63.2658       0.1606       2.6056
   2880.0554       9.8890       0.0330      77.7780      54.4440    -999.2500      19.0020      42.1790      61.6480       0.1519       2.6280
   2880.2078       9.8890       0.0195      79.4505      53.7085    -999.2500      19.2176      30.5768      60.1087       0.1458       2.6230
   2880.3601       9.8890       0.0060      81.1110      52.9830    -999.2500      19.4330      19.0020      58.5730       0.1407       2.6180
   2880.5125       9.8890       0.0115      79.0959      51.4815    -999.2500      32.1345      25.2474      62.7942       0.1363       2.5949
   2880.6648       9.8890       0.0170      77.0950      50.0000    -999.2500      44.8280      31.4690      67.0060       0.1320       2.5720
   2880.8174       9.9445       0.0250      75.0644      50.0000    -999.2500      75.9292      50.8428      87.3444       0.1268       2.5815
   2880.9697      10.0000       0.0330      73.0510      50.0000    -999.2500     106.9650      70.1450     107.6400       0.1212       2.5910
   2881.1221       9.8890       0.0300      71.5191      50.7197    -999.2500     135.4021     112.5749     183.0495       0.1155       2.5985
   2881.2744       9.7780       0.0270      70.0000      51.4300    -999.2500     163.7830     154.8530     258.3100       0.1100       2.6060
   2881.4270       9.7780       0.0220      70.8369      52.9468    -999.2500     176.9157     153.6114     242.0279       0.1055       2.5920
   2881.5793       9.7780       0.0170      71.6670      54.4440    -999.2500     190.0240     152.3740     225.7760       0.0999       2.5780
   2881.7317       9.8375       0.0366      71.2202      54.4440    -999.2500     175.6401     127.5632     202.1982       0.0890       2.6252
