#------------------------------------------------------------------------------
#
#   Created by  : [OpenWorks] Log Export Utility (LEXP)
#   Created on  : 2016-05-19 09:45:26
#   Project     : CANT971
#   User        : R5K
#   Interpreter : PEP
#
#------------------------------------------------------------------------------
~VERSION INFORMATION
VERS. 2.0 : CWLS Log ASCII Standard - version 2.0
WRAP.  NO : One line per depth step
~WELL INFORMATION
#MNEMONIC   .UNIT                                           VALUE :DESCRIPTION
#------------------------------------------------------------------------------
STRT        .M                                           500.7865 :START DEPTH
STOP        .M                                          2967.5330 :STOP DEPTH
STEP        .M                                             0.1524 :STEP
NULL        .                                           -999.2500 :NULL VALUE
COMP        .                                   PEMEX EXPL & PROD :COMPANY
WELL        .                                                2294 :WELL
FLD         .                                           CANTARELL :FIELD
LOC         .                                             UNKNOWN :LOCATION
CNTY        .                                      CD. DEL CARMEN :COUNTY
STAT        .                                            CAMPECHE :STATE
CTRY        .                                              MEXICO :COUNTRY
SRVC        .                                             UNKNOWN :SERVICE COMPANY
DATE        .                                             UNKNOWN :LOG DATE
UWI         .                                          3060000528 :UNIQUE WELL ID
XCOORD      .                                       597712.870000 :SURFACE X
YCOORD      .                                      2140963.740000 :SURFACE Y
LAT         .                                           19.361511 :LATITUDE
LON         .                                          -92.069629 :LONGITUDE
ELEV        .M                                            23.0000 :SURFACE ELEV
ELEV_TYPE   .                                                  KB :ELEV TYPE
~CURVE INFORMATION
#MNEMONIC.UNIT        API CODE       : CURVE DESCRIPTION
#------------------------------------------------------------------------------
DEPTH    .M                          : Measured Depth
CALI     .inches      UNKNOWN        : CALI:registros:rC:NONE:v0 (auto-composite)
DRHO     .g/cm3       UNKNOWN        : DRHO:registros:rC:NONE:v0 (auto-composite)
DT       .UNKNOWN     UNKNOWN        : DT:registros:rC:NONE:v0 (auto-composite)
GR       .API         UNKNOWN        : GR:registros:rC:NONE:v0 (auto-composite)
ILD      .ohm.m       UNKNOWN        : ILD:registros:rC:NONE:v0 (auto-composite)
LLD      .ohm.m       UNKNOWN        : LLD:registros:rC:NONE:v0 (auto-composite)
LLS      .ohm.m       UNKNOWN        : LLS:registros:rC:NONE:v0 (auto-composite)
MSFL     .ohm.m       UNKNOWN        : MSFL:registros:rC:NONE:v0 (auto-composite)
NPHI     .UNKNOWN     UNKNOWN        : NPHI:registros:rC:NONE:v0 (auto-composite)
RHOB     .g/cm3       UNKNOWN        : RHOB:registros:rC:NONE:v0 (auto-composite)
~A     DEPTH         CALI         DRHO           DT           GR          ILD          LLD          LLS         MSFL         NPHI         RHOB
# ...
   2907.4873       9.1110       0.0700      80.0000      38.7720    -999.2500    1009.1080     258.3100     211.0270       0.0336       2.6890
   2907.6396       9.1110       0.0404      88.6415      43.8646    -999.2500    1312.7554     339.2493     484.0714       0.0300       2.7166
   2907.7920       9.1110       0.0110      97.2220      48.8890    -999.2500    1615.7159     419.8760     756.4980       0.0274       2.7440
   2907.9446       9.1110       0.0527      92.7585      48.6731    -999.2500    1808.0637     571.1860     804.1044       0.0267       2.7415
   2908.0969       9.1110       0.0940      88.3330      48.4600    -999.2500    2000.0000     721.9310     851.6090       0.0281       2.7390
   2908.2493       9.1445       0.0498     107.8594      46.9984    -999.2500    1805.1224     992.4109    1090.1270       0.0327       2.7445
   2908.4016       9.1780       0.0060     127.2220      45.5560    -999.2500    1610.6370    1261.9139    1328.1650       0.0399       2.7500
   2908.5542       9.2455       0.0080     105.1864      46.6743    -999.2500    1208.8977    1186.7971    1179.5582       0.0496       2.7359
   2908.7065       9.3130       0.0100      83.3330      47.7780    -999.2500     807.9170    1111.9420    1031.2321       0.0590       2.7220
   2908.8589       9.3785       0.0160      91.9797      47.0750    -999.2500     567.3862     904.1097     748.6027       0.0652       2.7471
   2909.0112       9.4440       0.0220     100.5560      46.3810    -999.2500     327.2790     696.9760     466.4710       0.0682       2.7720
   2909.1638       9.3330       0.0195      96.3722      39.2560    -999.2500     178.5763     475.1090     236.8300       0.0670       2.7705
   2909.3162       9.2220       0.0170      92.2220      32.2220    -999.2500      30.1170     254.3140       7.5650       0.0631       2.7690
   2909.4685       9.2220       0.0180      95.5687      32.4912    -999.2500      37.3975     136.3807      12.3141       0.0570       2.7374
   2909.6208       9.2220       0.0190      98.8890      32.7570    -999.2500      44.6670      19.0020      17.0560       0.0520       2.7060
   2909.7732       9.3330       0.0280      90.0903      35.7910    -999.2500     115.6262      38.4395      85.7776       0.0517       2.7115
   2909.9258       9.4440       0.0370      81.3600      38.7870    -999.2500     186.4870      57.7880     154.4040       0.0522       2.7170
   2910.0781       9.2775       0.0631      69.1454      43.0419    -999.2500     287.7933     187.6727     708.5080       0.0500       2.7115
   2910.2305       9.1110       0.0890      57.0240      47.2440    -999.2500     388.9720     316.9790    1261.9139       0.0477       2.7060
   2910.3828       9.2220       0.0413      51.8260      56.2749    -999.2500     323.6039     244.1012     700.5328       0.0478       2.7055
   2910.5354       9.3330      -0.0060      46.6670      65.1950    -999.2500     258.3100     171.5390     139.7890       0.0511       2.7050
   2910.6877       9.3530      -0.0050      54.1948      72.5688    -999.2500     313.9681     215.0159     334.5246       0.0592       2.6955
   2910.8401       9.3730      -0.0040      61.6670      79.8530    -999.2500     369.5700     258.3100     528.7520       0.0736       2.6860
   2910.9924       9.6864       0.0191      53.8606      84.9613    -999.2500     248.3844     243.8675     386.7157       0.0980       2.6669
   2911.1450      10.0000       0.0420      46.1110      90.0000    -999.2500     127.3060     229.4840     245.0320       0.1147       2.6480
   2911.2974       9.9115       0.0877      53.2199      89.1085    -999.2500      82.0782     163.1133     130.5300       0.1041       2.6184
   2911.4497       9.8230       0.1330      60.2780      88.2290    -999.2500      36.9570      97.0050      16.2980       0.0815       2.5890
   2911.6021       9.3003       0.1054      66.9198      77.8210    -999.2500      61.4238      65.1224      18.5510       0.0591       2.6417
   2911.7544       8.7780       0.0780      73.5150      67.5520    -999.2500      85.8360      33.3620      20.7990       0.0419       2.6940
   2911.9070       8.7780       0.1212      86.2561      59.0790    -999.2500     273.3176     102.5827     180.4312       0.0367       2.7221
   2912.0593       8.7780       0.1640      98.8890      50.7180    -999.2500     460.4040     171.5470     339.7270       0.0367       2.7500
   2912.2117       8.8030       0.1766      96.6090      43.6461    -999.2500     694.5930     301.3955     834.4360       0.0367       2.7425
   2912.3640       8.8280       0.1890      94.3480      36.6670    -999.2500     928.3180     430.7790    1328.1650       0.0369       2.7350
   2912.5166       8.8585       0.1569      88.0360      36.6670    -999.2500     722.2586     575.0200     997.0040       0.0378       2.7174
   2912.6689       8.8890       0.1250      81.7760      36.6670    -999.2500     516.5820     718.7630     666.4580       0.0398       2.7000
   2912.8213       9.1110       0.0678      73.9116      34.9892    -999.2500     339.6294     503.1855     363.7911       0.0439       2.7306
   2912.9736       9.3330       0.0110      66.1110      33.3330    -999.2500     162.9830     288.3260      61.6480       0.0491       2.7610
   2913.1262       9.1665       0.0446      73.6411      32.7739    -999.2500     172.3921     210.3844     255.3896       0.0545       2.7474
   2913.2786       9.0000       0.0780      81.1110      32.2220    -999.2500     181.7860     132.8170     448.8200       0.0559       2.7340
   2913.4309       9.0185       0.0584      77.0490      32.4072    -999.2500     579.7149     202.2211     713.1331       0.0483       2.7084
   2913.5833       9.0370       0.0390      73.0190      32.5900    -999.2500     977.0550     271.3010     977.0550       0.0401       2.6830
   2913.7356       9.0740       0.0415      64.6577      33.8876    -999.2500     912.8015     409.3146     912.8015       0.0394       2.7136
   2913.8882       9.1110       0.0440      56.3610      35.1690    -999.2500     848.6350     546.7000     848.6350       0.0425       2.7440
   2914.0405       9.0000       0.0329      54.8412      36.7830    -999.2500     765.7216     616.3270     608.7632       0.0461       2.7249
   2914.1929       8.8890       0.0220      53.3330      38.3770    -999.2500     682.9100     685.6460     369.5700       0.0487       2.7060
   2914.3452       8.8890       0.0250      55.0063      41.9552    -999.2500     853.4682     702.2402     476.3483       0.0484       2.6834
   2914.4978       8.8890       0.0280      56.6670      45.4840    -999.2500    1023.8380     718.7630     582.8380       0.0447       2.6610
   2914.6501       9.0554       0.0250      51.0910      49.4356    -999.2500    1111.4459     722.6165    1107.0073       0.0367       2.7012
   2914.8025       9.2220       0.0220      45.5560      53.3330    -999.2500    1198.9680     726.4540    1629.8250       0.0302       2.7410
   2914.9548       9.1110       0.0612      46.9837      52.3780    -999.2500    1234.7908     785.2320    1484.2476       0.0317       2.7872
   2915.1072       9.0000       0.1000      48.4010      51.4360    -999.2500    1270.5830     843.7720    1339.0270       0.0335       2.8330
   2915.2598       9.1666       0.0608      51.2218      47.9843    -999.2500    1475.2448     927.0073    1150.5526       0.0283       2.7747
   2915.4121       9.3330       0.0220      54.0180      44.5790    -999.2500    1679.4301    1009.9160     962.5170       0.0240       2.7170
   2915.5645       9.2220       0.0270      61.2063      41.9409    -999.2500    1839.8916    1074.6620     925.2750       0.0286       2.7421
   2915.7168       9.1110       0.0320      68.3330      39.3380    -999.2500    2000.0000    1139.1620     888.1150       0.0387       2.7670
   2915.8694       9.2315       0.0661      61.3590      38.5528    -999.2500    1383.4751     968.7105     479.5837       0.0520       2.7017
