#------------------------------------------------------------------------------
#
#   Created by  : [OpenWorks] Log Export Utility (LEXP)
#   Created on  : 2016-05-19 09:45:26
#   Project     : CANT971
#   User        : R5K
#   Interpreter : PEP
#
#------------------------------------------------------------------------------
~VERSION INFORMATION
VERS. 2.0 : CWLS Log ASCII Standard - version 2.0
WRAP.  NO : One line per depth step
~WELL INFORMATION
#MNEMONIC   .UNIT                                           VALUE :DESCRIPTION
#------------------------------------------------------------------------------
STRT        .M                                           500.7865 :START DEPTH
STOP        .M                                          2967.5330 :STOP DEPTH
STEP        .M                                             0.1524 :STEP
NULL        .                                           -999.2500 :NULL VALUE
COMP        .                                   PEMEX EXPL & PROD :COMPANY
WELL        .                                                2294 :WELL
FLD         .                                           CANTARELL :FIELD
LOC         .                                             UNKNOWN :LOCATION
CNTY        .                                      CD. DEL CARMEN :COUNTY
STAT        .                                            CAMPECHE :STATE
CTRY        .                                              MEXICO :COUNTRY
SRVC        .                                             UNKNOWN :SERVICE COMPANY
DATE        .                                             UNKNOWN :LOG DATE
UWI         .                                          3060000528 :UNIQUE WELL ID
XCOORD      .                                       597712.870000 :SURFACE X
YCOORD      .                                      2140963.740000 :SURFACE Y
LAT         .                                           19.361511 :LATITUDE
LON         .                                          -92.069629 :LONGITUDE
ELEV        .M                                            23.0000 :SURFACE ELEV
ELEV_TYPE   .                                                  KB :ELEV TYPE
~CURVE INFORMATION
#MNEMONIC.UNIT        API CODE       : CURVE DESCRIPTION
#------------------------------------------------------------------------------
DEPTH    .M                          : Measured Depth
CALI     .inches      UNKNOWN        : CALI:registros:rC:NONE:v0 (auto-composite)
DRHO     .g/cm3       UNKNOWN        : DRHO:registros:rC:NONE:v0 (auto-composite)
DT       .UNKNOWN     UNKNOWN        : DT:registros:rC:NONE:v0 (auto-composite)
GR       .API         UNKNOWN        : GR:registros:rC:NONE:v0 (auto-composite)
ILD      .ohm.m       UNKNOWN        : ILD:registros:rC:NONE:v0 (auto-composite)
LLD      .ohm.m       UNKNOWN        : LLD:registros:rC:NONE:v0 (auto-composite)
LLS      .ohm.m       UNKNOWN        : LLS:registros:rC:NONE:v0 (auto-composite)
MSFL     .ohm.m       UNKNOWN        : MSFL:registros:rC:NONE:v0 (auto-composite)
NPHI     .UNKNOWN     UNKNOWN        : NPHI:registros:rC:NONE:v0 (auto-composite)
RHOB     .g/cm3       UNKNOWN        : RHOB:registros:rC:NONE:v0 (auto-composite)
~A     DEPTH         CALI         DRHO           DT           GR          ILD          LLD          LLS         MSFL         NPHI         RHOB
# ...
   2822.1433      10.5710      -0.0010      57.7780      26.3490    -999.2500       6.4880       6.4880       7.9610       0.1186       2.6060
   2822.2957      10.6630       0.0045      57.4990      28.8356    -999.2500       5.3982       5.0905       9.9761       0.1258       2.6170
   2822.4480      10.7550       0.0100      57.2220      31.2890    -999.2500       4.3090       3.6960      11.9900       0.1331       2.6280
   2822.6006      10.7665       0.0080      61.9645      32.3344    -999.2500       3.9099       3.8952       8.7768       0.1415       2.6085
   2822.7529      10.7780       0.0060      66.6670      33.3660    -999.2500       3.5110       4.0940       5.5650       0.1500       2.5890
   2822.9053      10.7655       0.0065      61.6461      35.4109    -999.2500       3.5110       3.7146       5.8651       0.1545       2.6000
   2823.0576      10.7530       0.0070      56.6670      37.4290    -999.2500       3.5110       3.3360       6.1650       0.1589       2.6110
   2823.2102      10.4875       0.0090      56.6670      38.9735    -999.2500       3.6800       3.5392       5.4689       0.1644       2.6010
   2823.3625      10.2220       0.0110      56.6670      40.4980    -999.2500       3.8490       3.7420       4.7730       0.1700       2.5910
   2823.5149      10.2220       0.0110      59.2710      40.8065    -999.2500       4.3110       4.0257       5.1220       0.1667       2.5770
   2823.6672      10.2220       0.0110      61.8540      41.1110    -999.2500       4.7730       4.3090       5.4710       0.1633       2.5630
   2823.8196      10.2220       0.0275      63.6491      41.1110    -999.2500       4.3770       3.5864       5.9424       0.1600       2.5495
   2823.9722      10.2220       0.0440      65.4300      41.1110    -999.2500       3.9810       2.8650       6.4130       0.1567       2.5360
   2824.1245      10.1110       0.0109      69.1184      40.5520    -999.2500       3.1566       2.5983       5.2527       0.1750       2.5100
   2824.2769      10.0000      -0.0220      72.7780      40.0000    -999.2500       2.3320       2.3320       4.0940       0.1935       2.4840
   2824.4292       9.9445      -0.0055      71.3836      39.4546    -999.2500       2.2184       2.5967       4.2016       0.2100       2.4469
   2824.5818       9.8890       0.0110      70.0000      38.9160    -999.2500       2.1050       2.8610       4.3090       0.2265       2.4100
   2824.7341       9.8890       0.0085      70.0000      36.2642    -999.2500       2.3316       3.0591       3.8222       0.2416       2.3689
   2824.8865       9.8890       0.0060      70.0000      33.6450    -999.2500       2.5580       3.2570       3.3360       0.2567       2.3280
   2825.0388       9.8890       0.0110      68.0839      31.0899    -999.2500       4.4440       5.0730       4.1339       0.2477       2.3516
   2825.1914       9.8890       0.0160      66.1820      28.5660    -999.2500       6.3280       6.8870       4.9310       0.2388       2.3750
   2825.3438       9.9435       0.0416      63.3978      27.6208    -999.2500       7.1454       7.4252       8.1630       0.1852       2.4281
   2825.4961       9.9980       0.0670      60.6340      26.6870    -999.2500       7.9620       7.9620      11.3920       0.1318       2.4810
   2825.6484      10.0100       0.0585      58.9218      26.1176    -999.2500       6.7630       6.6234       9.8854       0.1108       2.5436
   2825.8008      10.0220       0.0500      57.2220      25.5560    -999.2500       5.5650       5.2880       8.3800       0.0900       2.6060
   2825.9534      10.0900       0.0670      58.0143      25.7916    -999.2500       6.3768       5.8887       8.3800       0.0967       2.5975
   2826.1057      10.1580       0.0840      58.8010      26.0240    -999.2500       7.1880       6.4880       8.3800       0.1033       2.5890
   2826.2581      10.1900       0.1030      59.6585      26.7055    -999.2500       6.9599       5.7552      12.3401       0.1066       2.5945
   2826.4104      10.2220       0.1220      60.5100      27.3780    -999.2500       6.7320       5.0240      16.2980       0.1097       2.6000
   2826.5630      10.2695       0.0769      62.2498      28.0600    -999.2500       5.7503       5.0240      11.7420       0.1130       2.6030
   2826.7153      10.3170       0.0320      63.9750      28.7330    -999.2500       4.7690       5.0240       7.1880       0.1162       2.6060
   2826.8677      10.3805       0.0105      68.3948      31.2227    -999.2500       5.0285       5.2948       8.2357       0.1148       2.5890
   2827.0200      10.4440      -0.0110      72.7780      33.6800    -999.2500       5.2880       5.5650       9.2830       0.1133       2.5720
   2827.1726      10.4440       0.0000      72.1966      36.8605    -999.2500       4.7985       5.3083       8.6224       0.1143       2.5730
   2827.3250      10.4440       0.0110      71.6200      40.0000    -999.2500       4.3090       5.0520       7.9620       0.1154       2.5740
   2827.4773      10.5015       0.0110      69.6913      38.8818    -999.2500       4.3090       4.6767       7.9620       0.1203       2.5830
   2827.6296      10.5590       0.0110      67.7780      37.7780    -999.2500       4.3090       4.3020       7.9620       0.1253       2.5920
   2827.7820      10.6130       0.0090      68.5993      38.1896    -999.2500       4.0075       3.9788       7.2780       0.1349       2.5990
   2827.9346      10.6670       0.0070      69.4140      38.5960    -999.2500       3.7060       3.6560       6.5950       0.1447       2.6060
   2828.0869      10.6670       0.0005      70.2658      39.8614    -999.2500       3.3695       3.2582       5.9596       0.1506       2.5529
   2828.2393      10.6670      -0.0060      71.1110      41.1110    -999.2500       3.0330       2.8610       5.3250       0.1564       2.5000
   2828.3916      10.7225       0.0025      70.8324      38.8751    -999.2500       2.8079       2.9000       5.1079       0.1643       2.5336
   2828.5442      10.7780       0.0110      70.5560      36.6670    -999.2500       2.5830       2.9390       4.8910       0.1724       2.5670
   2828.6965      10.7780       0.0501      72.5073      36.6670    -999.2500       2.7786       3.1716       4.4923       0.1828       2.5570
   2828.8489      10.7780       0.0890      74.4440      36.6670    -999.2500       2.9740       3.4040       4.0940       0.1931       2.5470
   2829.0012      10.9141       0.1110      72.4928      38.3437    -999.2500       3.5343       3.6471       4.4422       0.1872       2.5039
   2829.1538      11.0500       0.1330      70.5560      40.0000    -999.2500       4.0940       3.8900       4.7900       0.1811       2.4610
   2829.3062      11.1821       0.0944      71.2515      38.8823    -999.2500       3.7148       3.7929       5.6394       0.1755       2.4891
   2829.4585      11.3140       0.0560      71.9420      37.7780    -999.2500       3.3360       3.6960       6.4880       0.1701       2.5170
   2829.6108      11.3235       0.0695      73.2256      38.9247    -999.2500       3.5161       3.8952       5.3981       0.1717       2.5390
   2829.7632      11.3330       0.0830      74.5000      40.0560    -999.2500       3.6960       4.0940       4.3090       0.1737       2.5610
   2829.9158      11.2625       0.0880      76.0856      40.5871    -999.2500       3.1393       4.0104       4.7987       0.1851       2.5084
   2830.0681      11.1920       0.0930      77.6600      41.1110    -999.2500       2.5830       3.9270       5.2880       0.1963       2.4560
   2830.2205      11.0970       0.1436      87.1965      40.5518    -999.2500       2.8766       3.5481       5.0964       0.1901       2.4836
   2830.3728      11.0020       0.1940      96.6670      40.0000    -999.2500       3.1700       3.1700       4.9050       0.1834       2.5110
   2830.5254      10.8900       0.1304      93.5027      40.5592    -999.2500       3.0155       3.1700       4.6069       0.1651       2.5000
