#------------------------------------------------------------------------------
#
#   Created by  : [OpenWorks] Log Export Utility (LEXP)
#   Created on  : 2016-05-19 09:45:26
#   Project     : CANT971
#   User        : R5K
#   Interpreter : PEP
#
#------------------------------------------------------------------------------
~VERSION INFORMATION
VERS. 2.0 : CWLS Log ASCII Standard - version 2.0
WRAP.  NO : One line per depth step
~WELL INFORMATION
#MNEMONIC   .UNIT                                           VALUE :DESCRIPTION
#------------------------------------------------------------------------------
STRT        .M                                           500.7865 :START DEPTH
STOP        .M                                          2967.5330 :STOP DEPTH
STEP        .M                                             0.1524 :STEP
NULL        .                                           -999.2500 :NULL VALUE
COMP        .                                   PEMEX EXPL & PROD :COMPANY
WELL        .                                                2294 :WELL
FLD         .                                           CANTARELL :FIELD
LOC         .                                             UNKNOWN :LOCATION
CNTY        .                                      CD. DEL CARMEN :COUNTY
STAT        .                                            CAMPECHE :STATE
CTRY        .                                              MEXICO :COUNTRY
SRVC        .                                             UNKNOWN :SERVICE COMPANY
DATE        .                                             UNKNOWN :LOG DATE
UWI         .                                          3060000528 :UNIQUE WELL ID
XCOORD      .                                       597712.870000 :SURFACE X
YCOORD      .                                      2140963.740000 :SURFACE Y
LAT         .                                           19.361511 :LATITUDE
LON         .                                          -92.069629 :LONGITUDE
ELEV        .M                                            23.0000 :SURFACE ELEV
ELEV_TYPE   .                                                  KB :ELEV TYPE
~CURVE INFORMATION
#MNEMONIC.UNIT        API CODE       : CURVE DESCRIPTION
#------------------------------------------------------------------------------
DEPTH    .M                          : Measured Depth
CALI     .inches      UNKNOWN        : CALI:registros:rC:NONE:v0 (auto-composite)
DRHO     .g/cm3       UNKNOWN        : DRHO:registros:rC:NONE:v0 (auto-composite)
DT       .UNKNOWN     UNKNOWN        : DT:registros:rC:NONE:v0 (auto-composite)
GR       .API         UNKNOWN        : GR:registros:rC:NONE:v0 (auto-composite)
ILD      .ohm.m       UNKNOWN        : ILD:registros:rC:NONE:v0 (auto-composite)
LLD      .ohm.m       UNKNOWN        : LLD:registros:rC:NONE:v0 (auto-composite)
LLS      .ohm.m       UNKNOWN        : LLS:registros:rC:NONE:v0 (auto-composite)
MSFL     .ohm.m       UNKNOWN        : MSFL:registros:rC:NONE:v0 (auto-composite)
NPHI     .UNKNOWN     UNKNOWN        : NPHI:registros:rC:NONE:v0 (auto-composite)
RHOB     .g/cm3       UNKNOWN        : RHOB:registros:rC:NONE:v0 (auto-composite)
~A     DEPTH         CALI         DRHO           DT           GR          ILD          LLD          LLS         MSFL         NPHI         RHOB
# ...
   2933.0906       8.8890       0.1500      58.3330      31.5110    -999.2500    3036.7561     727.7620     756.4980       0.0860       2.7060
   2933.2429       9.0555       0.1158      57.5259      31.8687    -999.2500    3726.2302    1002.3380     629.2513       0.0871       2.6558
   2933.3953       9.2220       0.0820      56.7250      32.2220    -999.2500    4414.7900    1275.6730     502.3770       0.0837       2.6060
   2933.5476       9.1775       0.0463      55.0225      33.1150    -999.2500    4990.2993    1588.3580     535.1929       0.0794       2.6392
   2933.7002       9.1330       0.0110      53.3330      33.9970    -999.2500    5565.1172    1899.6680     567.9170       0.0744       2.6720
   2933.8525       9.0665       0.0276      53.3526      39.2526    -999.2500    4536.8589    1949.9413     725.1749       0.0690       2.7057
   2934.0049       9.0000       0.0440      53.3720      44.4440    -999.2500    3511.3521    2000.0000     882.0120       0.0664       2.7390
   2934.1572       9.0395       0.0752      55.5831      43.5146    -999.2500    4393.6992    1857.4003     824.7991       0.0700       2.7134
   2934.3098       9.0790       0.1060      57.7780      42.5980    -999.2500    5273.7979    1715.3920     767.7320       0.0734       2.6880
   2934.4622       9.2614       0.0668      57.6505      37.8267    -999.2500    5943.6323    1756.4530     692.0142       0.0701       2.6734
   2934.6145       9.4440       0.0280      57.5240      33.1200    -999.2500    6611.8418    1797.3490     616.4800       0.0645       2.6590
   2934.7668       9.4065       0.0375      56.8085      30.4309    -999.2500    7026.4683    1882.3381    1259.0969       0.0607       2.6469
   2934.9192       9.3690       0.0470      56.0980      27.7780    -999.2500    7440.1421    1966.9960    1900.2371       0.0579       2.6350
   2935.0718       9.2400       0.0515      55.5763      28.3372    -999.2500    7502.6284    1983.5424    1473.6868       0.0555       2.6260
   2935.2241       9.1110       0.0560      55.0590      28.8890    -999.2500    7564.9790    2000.0000    1048.0640       0.0551       2.6170
   2935.3765       9.2220       0.0671      54.7502      28.3298    -999.2500    8479.1348    2052.6379     865.2999       0.0583       2.6336
   2935.5288       9.3330       0.0780      54.4440      27.7780    -999.2500    9391.4180    2105.0000     682.9100       0.0617       2.6500
   2935.6814       9.2775       0.0564      58.6284      27.7780    -999.2500   10200.9121    2105.0000    1005.8481       0.0617       2.6776
   2935.8337       9.2220       0.0350      62.7780      27.7780    -999.2500   11008.8486    2105.0000    1328.1650       0.0592       2.7050
   2935.9861       8.9885       0.0229      59.1522      29.0120    -999.2500   11814.7197    2105.0000    1093.3516       0.0550       2.7246
   2936.1384       8.7550       0.0110      55.5560      30.2300    -999.2500   12619.1436    2105.0000     858.9600       0.0529       2.7440
   2936.2910       8.4885       0.0371      55.8346      31.2324    -999.2500   11696.7510    2105.0000     707.6094       0.0564       2.7249
   2936.4434       8.2220       0.0630      56.1110      32.2220    -999.2500   10775.9014    2105.0000     556.5120       0.0642       2.7060
   2936.5957       8.2220       0.0846      54.1778      32.2220    -999.2500    8800.9736    2105.0000     586.5433       0.0747       2.7140
   2936.7480       8.2220       0.1060      52.2600      32.2220    -999.2500    6829.0991    2105.0000     616.4800       0.0852       2.7220
   2936.9004       8.3010       0.0864      51.6833      33.8995    -999.2500    6829.0991    2160.3843     512.7805       0.0932       2.6637
   2937.0530       8.3800       0.0670      51.1110      35.5560    -999.2500    6829.0991    2215.5129     409.3940       0.0971       2.6060
   2937.2053       8.5395       0.0725      52.5053      35.7955    -999.2500    6496.7319    2215.5129     443.4173       0.0950       2.6311
   2937.3577       8.6990       0.0780      53.8890      36.0320    -999.2500    6164.7949    2215.5129     477.3420       0.0925       2.6560
   2937.5100       8.8300       0.0725      53.5276      36.7142    -999.2500    6602.5332    2215.5129     563.2123       0.0950       2.6434
   2937.6626       8.9610       0.0670      53.1690      37.3870    -999.2500    7039.7588    2215.5129     648.8450       0.0977       2.6310
   2937.8149       9.0360       0.0499      52.7309      37.5839    -999.2500    8458.0684    2215.5129     562.9679       0.0957       2.6214
   2937.9673       9.1110       0.0330      52.2960      37.7780    -999.2500    9872.6270    2215.5129     477.3180       0.0906       2.6120
   2938.1196       8.8891       0.0446      50.5863      38.9455    -999.2500   10078.3252    2215.5129     481.6069       0.0840       2.6030
   2938.2722       8.6670       0.0560      48.8890      40.0970    -999.2500   10283.5059    2215.5129     485.8850       0.0790       2.5940
   2938.4246       8.6840       0.0575      49.5704      40.7786    -999.2500    8954.9189    2181.3030     684.1859       0.0787       2.6332
   2938.5769       8.7010       0.0590      50.2470      41.4510    -999.2500    7629.5132    2147.2839     882.0120       0.0818       2.6720
   2938.7292       8.7685       0.0701      52.3805      42.3983    -999.2500    5714.2031    1879.7208     557.2293       0.0871       2.6429
   2938.8816       8.8360       0.0810      54.4990      43.3330    -999.2500    3803.2361    1613.6180     233.1830       0.0926       2.6140
   2939.0342       8.8625       0.1016      55.8598      42.5010    -999.2500    2803.2712    1277.3167     331.1090       0.0963       2.5733
   2939.1865       8.8890       0.1220      57.2090      41.6800    -999.2500    1805.4500     942.8100     428.8250       0.0986       2.5330
   2939.3389       8.9425       0.1195      60.7177      40.8344    -999.2500    2130.1775     849.4108     655.6473       0.0996       2.5807
   2939.4912       8.9960       0.1170      64.1970      40.0000    -999.2500    2454.2500     756.4980     882.0120       0.0991       2.6280
   2939.6438       9.1645       0.0778      68.2262      40.6613    -999.2500    2041.6470    1194.2749     791.7671       0.0967       2.6079
   2939.7961       9.3330       0.0390      72.2220      41.3140    -999.2500    1629.8250    1629.8250     701.6930       0.0937       2.5880
   2939.9485       9.1665       0.0918      64.6914      41.7709    -999.2500    1969.4174    1506.0491     474.5169       0.0917       2.5327
   2940.1008       9.0000       0.1440      57.2220      42.2220    -999.2500    2308.4099    1382.8870     247.7420       0.0904       2.4780
   2940.2534       9.2780       0.1355      78.6971      42.2220    -999.2500    2461.9851    1167.4905     190.3384       0.0900       2.4780
   2940.4058       9.5560       0.1270     100.0000      42.2220    -999.2500    2615.3081     953.1360     133.0290       0.0904       2.4780
   2940.5581       9.5090       0.1195      92.2710      42.6915    -999.2500    2813.6409     835.6730     106.2833       0.0914       2.4212
   2940.7104       9.4620       0.1120      84.6030      43.1550    -999.2500    3011.6731     718.7630      79.6210       0.0925       2.3650
   2940.8628       9.2865       0.0778      70.5805      43.8368    -999.2500    2732.7676     805.9976     114.1501       0.0932       2.3213
   2941.0154       9.1110       0.0440      56.6670      44.5100    -999.2500    2454.2500     892.8320     148.5760       0.0938       2.2780
   2941.1677       9.2220       0.0666      59.1766      45.0363    -999.2500    2471.8616    1019.5906     268.9464       0.0951       2.3886
   2941.3201       9.3330       0.0890      61.6670      45.5560    -999.2500    2489.4509    1145.7841     388.9720       0.0965       2.4980
   2941.4724       9.3055       0.0639      60.8304      44.7202    -999.2500    2569.6577    1272.1130     284.6157       0.0975       2.5548
