#------------------------------------------------------------------------------
#
#   Created by  : [OpenWorks] Log Export Utility (LEXP)
#   Created on  : 2016-05-19 09:45:26
#   Project     : CANT971
#   User        : R5K
#   Interpreter : PEP
#
#------------------------------------------------------------------------------
~VERSION INFORMATION
VERS. 2.0 : CWLS Log ASCII Standard - version 2.0
WRAP.  NO : One line per depth step
~WELL INFORMATION
#MNEMONIC   .UNIT                                           VALUE :DESCRIPTION
#------------------------------------------------------------------------------
STRT        .M                                           500.7865 :START DEPTH
STOP        .M                                          2967.5330 :STOP DEPTH
STEP        .M                                             0.1524 :STEP
NULL        .                                           -999.2500 :NULL VALUE
COMP        .                                   PEMEX EXPL & PROD :COMPANY
WELL        .                                                2294 :WELL
FLD         .                                           CANTARELL :FIELD
LOC         .                                             UNKNOWN :LOCATION
CNTY        .                                      CD. DEL CARMEN :COUNTY
STAT        .                                            CAMPECHE :STATE
CTRY        .                                              MEXICO :COUNTRY
SRVC        .                                             UNKNOWN :SERVICE COMPANY
DATE        .                                             UNKNOWN :LOG DATE
UWI         .                                          3060000528 :UNIQUE WELL ID
XCOORD      .                                       597712.870000 :SURFACE X
YCOORD      .                                      2140963.740000 :SURFACE Y
LAT         .                                           19.361511 :LATITUDE
LON         .                                          -92.069629 :LONGITUDE
ELEV        .M                                            23.0000 :SURFACE ELEV
ELEV_TYPE   .                                                  KB :ELEV TYPE
~CURVE INFORMATION
#MNEMONIC.UNIT        API CODE       : CURVE DESCRIPTION
#------------------------------------------------------------------------------
DEPTH    .M                          : Measured Depth
CALI     .inches      UNKNOWN        : CALI:registros:rC:NONE:v0 (auto-composite)
DRHO     .g/cm3       UNKNOWN        : DRHO:registros:rC:NONE:v0 (auto-composite)
DT       .UNKNOWN     UNKNOWN        : DT:registros:rC:NONE:v0 (auto-composite)
GR       .API         UNKNOWN        : GR:registros:rC:NONE:v0 (auto-composite)
ILD      .ohm.m       UNKNOWN        : ILD:registros:rC:NONE:v0 (auto-composite)
LLD      .ohm.m       UNKNOWN        : LLD:registros:rC:NONE:v0 (auto-composite)
LLS      .ohm.m       UNKNOWN        : LLS:registros:rC:NONE:v0 (auto-composite)
MSFL     .ohm.m       UNKNOWN        : MSFL:registros:rC:NONE:v0 (auto-composite)
NPHI     .UNKNOWN     UNKNOWN        : NPHI:registros:rC:NONE:v0 (auto-composite)
RHOB     .g/cm3       UNKNOWN        : RHOB:registros:rC:NONE:v0 (auto-composite)
~A     DEPTH         CALI         DRHO           DT           GR          ILD          LLD          LLS         MSFL         NPHI         RHOB
# ...
   2830.6777      10.7780       0.0670      90.3650      41.1110    -999.2500       2.8610       3.1700       4.3090       0.1474       2.4890
   2830.8301      10.7780       0.1031      83.3732      38.8745    -999.2500       3.1600       3.3276       4.7986       0.1583       2.5020
   2830.9824      10.7780       0.1390      76.4390      36.6670    -999.2500       3.4590       3.4850       5.2880       0.1693       2.5150
   2831.1350      10.9445       0.1195      68.1860      37.5557    -999.2500       3.8840       3.8974       4.7985       0.1533       2.5546
   2831.2874      11.1110       0.1000      60.0000      38.4330    -999.2500       4.3090       4.3090       4.3090       0.1375       2.5940
   2831.4397      11.1110       0.1055      53.3067      40.3397    -999.2500       4.0185       4.0993       5.0830       0.1517       2.5660
   2831.5920      11.1110       0.1110      46.6670      42.2220    -999.2500       3.7280       3.8900       5.8570       0.1660       2.5380
   2831.7444      11.0000       0.0859      53.2033      42.2220    -999.2500       3.3697       3.8900       5.4622       0.1579       2.5210
   2831.8970      10.8890       0.0610      59.6880      42.2220    -999.2500       3.0120       3.8900       5.0680       0.1491       2.5040
   2832.0493      10.8890       0.0700      69.3258      43.5719    -999.2500       3.5153       4.0571       5.4047       0.1395       2.4880
   2832.2017      10.8890       0.0790      78.8890      44.9050    -999.2500       4.0180       4.2240       5.7410       0.1306       2.4720
   2832.3540      10.9460       0.0895      72.7546      47.4684    -999.2500       5.0922       5.3567       7.0613       0.1383       2.5306
   2832.5066      11.0030       0.1000      66.6670      50.0000    -999.2500       6.1650       6.4880       8.3800       0.1464       2.5890
   2832.6589      11.0570       0.0970      67.5031      50.0000    -999.2500       6.0890       6.2171       8.1269       0.1463       2.5885
   2832.8113      11.1110       0.0940      68.3330      50.0000    -999.2500       6.0130       5.9470       7.8740       0.1458       2.5880
   2832.9636      11.1365       0.0740      68.9784      51.0348    -999.2500       4.9510       5.0193       6.5804       0.1429       2.5745
   2833.1162      11.1620       0.0540      69.6190      52.0570    -999.2500       3.8900       4.0940       5.2880       0.1402       2.5610
   2833.2686      11.2300       0.0239      71.1280      54.0198    -999.2500       4.4572       4.2422       5.4266       0.1434       2.5720
   2833.4209      11.2980      -0.0060      72.6260      55.9590    -999.2500       5.0240       4.3900       5.5650       0.1467       2.5830
   2833.5732      11.3155       0.0015      74.4871      57.3227    -999.2500       4.6994       4.7074       5.4264       0.1484       2.5945
   2833.7256      11.3330       0.0090      76.3350      58.6680    -999.2500       4.3750       5.0240       5.2880       0.1498       2.6060
   2833.8782      11.2775       0.0215      78.1739      58.7792    -999.2500       4.0354       4.3593       5.8882       0.1450       2.5890
   2834.0305      11.2220       0.0340      80.0000      58.8890    -999.2500       3.6960       3.6960       6.4880       0.1403       2.5720
   2834.1829      11.2410       0.0400      79.5279      58.8890    -999.2500       4.3602       4.0028       5.5113       0.1417       2.5890
   2834.3352      11.2600       0.0460      79.0590      58.8890    -999.2500       5.0240       4.3090       4.5350       0.1437       2.6060
   2834.4878      11.3590       0.0510      76.4632      57.9519    -999.2500       4.8175       4.6669       5.5117       0.1523       2.5614
   2834.6401      11.4580       0.0560      73.8890      57.0270    -999.2500       4.6110       5.0240       6.4880       0.1613       2.5170
   2834.7925      11.5935       0.0866      75.4067      54.1131    -999.2500       4.0714       4.7412       4.6033       0.1747       2.5280
   2834.9448      11.7290       0.1170      76.9120      51.2370    -999.2500       3.5320       4.4590       2.7190       0.1883       2.5390
   2835.0974      11.7535       0.1115      79.2992      50.0554    -999.2500       3.1970       3.9856       3.6278       0.2057       2.5195
   2835.2498      11.7780       0.1060      81.6670      48.8890    -999.2500       2.8620       3.5130       4.5350       0.2219       2.5000
   2835.4021      11.7225       0.0694      77.7624      49.4481    -999.2500       2.6580       3.1157       4.4219       0.2084       2.4779
   2835.5544      11.6670       0.0330      73.8890      50.0000    -999.2500       2.4540       2.7190       4.3090       0.1932       2.4560
   2835.7068      11.6670       0.0776      74.7258      50.9741    -999.2500       3.6144       2.8791       5.9382       0.1701       2.4836
   2835.8594      11.6670       0.1220      75.5560      51.9360    -999.2500       4.7730       3.0390       7.5650       0.1483       2.5110
   2836.0117      11.7395       0.1150      74.1616      53.1979    -999.2500       4.6184       4.0322       6.8760       0.1587       2.5040
   2836.1641      11.8120       0.1080      72.7780      54.4440    -999.2500       4.4640       5.0240       6.1880       0.1707       2.4970
   2836.3164      12.0445       0.0875      73.9966      52.4899    -999.2500       3.7376       4.3481       5.5266       0.1828       2.4709
   2836.4690      12.2770       0.0670      75.2060      50.5600    -999.2500       3.0120       3.6730       4.8660       0.1945       2.4450
   2836.6213      12.7494       0.0976      75.3817      49.1604    -999.2500       3.6609       3.2665       5.5159       0.1977       2.3994
   2836.7737      13.2220       0.1280      75.5560      47.7780    -999.2500       4.3090       2.8610       6.1650       0.2015       2.3540
   2836.9260      12.9444       0.0804      70.2585      46.1009    -999.2500       3.9903       3.2790       6.0680       0.2269       2.3114
   2837.0786      12.6670       0.0330      65.0000      44.4440    -999.2500       3.6720       3.6960       5.9710       0.2534       2.2690
   2837.2310      13.1097       0.0510      66.6289      45.0381    -999.2500       2.9437       3.2945       4.6529       0.2823       2.2204
   2837.3833      13.5520       0.0690      68.2460      45.6250    -999.2500       2.2160       2.8940       3.3360       0.3108       2.1720
   2837.5356      14.6099       0.0900      70.7986      47.4080    -999.2500       2.2160       2.4465       4.7510       0.3323       2.2096
   2837.6880      15.6670       0.1110      73.3330      49.1670    -999.2500       2.2160       2.0000       6.1650       0.3503       2.2470
   2837.8406      14.7507       0.0890      72.4964      49.5863    -999.2500       2.6001       2.1607       5.8734       0.3162       2.3407
   2837.9929      13.8350       0.0670      71.6670      50.0000    -999.2500       2.9840       2.3210       5.5820       0.2792       2.4340
   2838.1453      12.6952       0.0930      77.8039      50.0000    -999.2500       3.4751       2.5738       4.5463       0.2452       2.4906
   2838.2976      11.5560       0.1190      83.8890      50.0000    -999.2500       3.9660       2.8260       3.5110       0.2118       2.5470
   2838.4502      12.0561       0.1270      79.1468      50.0000    -999.2500       4.3696       3.2649       4.0981       0.1837       2.5640
   2838.6025      12.5560       0.1350      74.4440      50.0000    -999.2500       4.7730       3.7030       4.6850       0.1573       2.5810
   2838.7549      12.3335       0.1395      74.4440      50.0000    -999.2500       4.5410       4.2385       5.5866       0.1519       2.5960
   2838.9072      12.1110       0.1440      74.4440      50.0000    -999.2500       4.3090       4.7730       6.4880       0.1480       2.6110
   2839.0598      12.2520       0.1470      73.8863      50.0000    -999.2500       4.3090       4.3311       5.3976       0.1456       2.6305
