#------------------------------------------------------------------------------
#
#   Created by  : [OpenWorks] Log Export Utility (LEXP)
#   Created on  : 2016-05-19 09:45:26
#   Project     : CANT971
#   User        : R5K
#   Interpreter : PEP
#
#------------------------------------------------------------------------------
~VERSION INFORMATION
VERS. 2.0 : CWLS Log ASCII Standard - version 2.0
WRAP.  NO : One line per depth step
~WELL INFORMATION
#MNEMONIC   .UNIT                                           VALUE :DESCRIPTION
#------------------------------------------------------------------------------
STRT        .M                                           500.7865 :START DEPTH
STOP        .M                                          2967.5330 :STOP DEPTH
STEP        .M                                             0.1524 :STEP
NULL        .                                           -999.2500 :NULL VALUE
COMP        .                                   PEMEX EXPL & PROD :COMPANY
WELL        .                                                2294 :WELL
FLD         .                                           CANTARELL :FIELD
LOC         .                                             UNKNOWN :LOCATION
CNTY        .                                      CD. DEL CARMEN :COUNTY
STAT        .                                            CAMPECHE :STATE
CTRY        .                                              MEXICO :COUNTRY
SRVC        .                                             UNKNOWN :SERVICE COMPANY
DATE        .                                             UNKNOWN :LOG DATE
UWI         .                                          3060000528 :UNIQUE WELL ID
XCOORD      .                                       597712.870000 :SURFACE X
YCOORD      .                                      2140963.740000 :SURFACE Y
LAT         .                                           19.361511 :LATITUDE
LON         .                                          -92.069629 :LONGITUDE
ELEV        .M                                            23.0000 :SURFACE ELEV
ELEV_TYPE   .                                                  KB :ELEV TYPE
~CURVE INFORMATION
#MNEMONIC.UNIT        API CODE       : CURVE DESCRIPTION
#------------------------------------------------------------------------------
DEPTH    .M                          : Measured Depth
CALI     .inches      UNKNOWN        : CALI:registros:rC:NONE:v0 (auto-composite)
DRHO     .g/cm3       UNKNOWN        : DRHO:registros:rC:NONE:v0 (auto-composite)
DT       .UNKNOWN     UNKNOWN        : DT:registros:rC:NONE:v0 (auto-composite)
GR       .API         UNKNOWN        : GR:registros:rC:NONE:v0 (auto-composite)
ILD      .ohm.m       UNKNOWN        : ILD:registros:rC:NONE:v0 (auto-composite)
LLD      .ohm.m       UNKNOWN        : LLD:registros:rC:NONE:v0 (auto-composite)
LLS      .ohm.m       UNKNOWN        : LLS:registros:rC:NONE:v0 (auto-composite)
MSFL     .ohm.m       UNKNOWN        : MSFL:registros:rC:NONE:v0 (auto-composite)
NPHI     .UNKNOWN     UNKNOWN        : NPHI:registros:rC:NONE:v0 (auto-composite)
RHOB     .g/cm3       UNKNOWN        : RHOB:registros:rC:NONE:v0 (auto-composite)
~A     DEPTH         CALI         DRHO           DT           GR          ILD          LLD          LLS         MSFL         NPHI         RHOB
# ...
   2941.6250       9.2780       0.0390      60.0000      43.8960    -999.2500    2649.7729    1397.8940     180.5450       0.0986       2.6110
   2941.7773       9.1390       0.0410      70.3161      42.4939    -999.2500    2684.2876    1362.9561     240.9349       0.1004       2.6251
   2941.9297       9.0000       0.0430      80.5560      41.1110    -999.2500    2718.7119    1328.1650     301.1670       0.1024       2.6390
   2942.0820       9.0555       0.0998      71.9397      41.1110    -999.2500    2785.5225    1328.1650     175.5463       0.1044       2.6164
   2942.2346       9.1110       0.1560      63.3860      41.1110    -999.2500    2852.1670    1328.1650      50.2380       0.1069       2.5940
   2942.3870       9.0035       0.0917      61.4064      41.1110    -999.2500    2932.0144    1328.1650     466.6172       0.1102       2.6056
   2942.5393       8.8960       0.0280      59.4440      41.1110    -999.2500    3011.6731    1328.1650     882.0120       0.1139       2.6170
   2942.6917       8.4063       0.0109      73.6722      41.1110    -999.2500    3011.6731    1328.1650     747.4210       0.1178       2.6044
   2942.8440       7.9170      -0.0060      87.7780      41.1110    -999.2500    3011.6731    1328.1650     613.1310       0.1217       2.5920
   2942.9966       7.3053      -0.0040      76.6196      41.1110    -999.2500    3011.6731    1328.1650     372.7200       0.1258       2.5613
   2943.1489       6.6940      -0.0020      65.5560      41.1110    -999.2500    3011.6731    1328.1650     132.8170       0.1298       2.5310
   2943.3013       6.4580       0.0151      69.6356      41.1110    -999.2500    3011.6731    1328.1650     167.0840       0.1333       2.5094
   2943.4536       6.2220       0.0320      73.6810      41.1110    -999.2500    3011.6731    1328.1650     201.2830       0.1350       2.4880
   2943.6062       6.2220       0.0385      75.1802      38.8745    -999.2500    3011.6731    1365.4323     229.8231       0.1333       2.4382
   2943.7585       6.2220       0.0450      76.6670      36.6670    -999.2500    3011.6731    1402.5110     258.3100       0.1308       2.3890
   2943.9109       6.2220       0.0701      76.3879      36.8074    -999.2500    3011.6731    1485.7316     230.3422       0.1300       2.3930
   2944.0632       6.2220       0.0950      76.1110      36.9460    -999.2500    3011.6731    1568.5420     202.4230       0.1300       2.3970
   2944.2158       6.5620       0.1111      76.1110      37.8910    -999.2500    3011.6731    1599.2573     140.8494       0.1300       2.4136
   2944.3682       6.9020       0.1270      76.1110      38.8240    -999.2500    3011.6731    1629.8250      79.3750       0.1306       2.4300
   2944.5205       8.0504       0.1416      76.1110      39.8012    -999.2500    3011.6731    1815.3463      61.8224       0.1323       2.4345
   2944.6729       9.1990       0.1560      76.1110      40.7660    -999.2500    3011.6731    2000.0000      44.3240       0.1347       2.4390
   2944.8252      10.8068       0.1485      76.1110      41.4986    -999.2500    3011.6731    1234.6725      35.0032       0.1373       2.4264
   2944.9778      12.4150       0.1410      76.1110      42.2220    -999.2500    3011.6731     472.8320      25.7100       0.1385       2.4140
   2945.1301      13.7228       0.1370      76.1110      41.6630    -999.2500    3011.6731     240.6635      20.5397       0.1367       2.3984
   2945.2825      15.0310       0.1330      76.1110      41.1110    -999.2500    3011.6731       9.5230      15.3840       0.1342       2.3830
   2945.4348      15.5154       0.1446      76.1110      40.5516    -999.2500    3011.6731       5.1927      14.9184       0.1333       2.3910
   2945.5874      16.0000       0.1560      76.1110      40.0000    -999.2500    3011.6731       0.8810      14.4540       0.1329       2.3990
   2945.7397      16.0000       0.1545      76.1110      40.3167    -999.2500    3011.6731    -999.2500      14.0164       0.1317       2.4216
   2945.8921      16.0000       0.1530      76.1110      40.6290    -999.2500    3011.6731    -999.2500      13.5800       0.1304       2.4440
   2946.0444      16.0000       0.1294      76.1110      40.8717    -999.2500    3011.6731    -999.2500      13.0989       0.1300       2.4420
   2946.1968      16.0000       0.1060      76.1110      41.1110    -999.2500    3011.6731    -999.2500      12.6190       0.1317       2.4400
   2946.3494      16.0000       0.1085      76.1110      39.4332    -999.2500    2850.1426    -999.2500      12.6190       0.1367       2.4254
   2946.5017      16.0000       0.1110      76.1110      37.7780    -999.2500    2688.9890    -999.2500      12.6190       0.1416       2.4110
   2946.6541      16.0000       0.1175      76.1110      38.0282    -999.2500    1427.6222    -999.2500      12.6190       0.1430       2.4221
   2946.8064      16.0000       0.1240      76.1110      38.2750    -999.2500     169.0380    -999.2500      12.6190       0.1415       2.4330
   2946.9590      16.0000       0.1325      76.1110      39.7024    -999.2500      89.9221    -999.2500      12.6190       0.1380       2.4415
   2947.1113      16.0000       0.1410      76.1110      41.1110    -999.2500      10.9710    -999.2500      12.6190       0.1350       2.4500
   2947.2637      16.0000       0.1455      76.1110      40.5518    -999.2500       6.2594    -999.2500      12.6190       0.1355       2.4405
   2947.4160      16.0000       0.1500      76.1110      40.0000    -999.2500       1.5570    -999.2500      12.6190       0.1378       2.4310
   2947.5686      16.0000       0.1575      76.1110      40.5591    -999.2500       0.9775    -999.2500      12.6190       0.1403       2.4214
   2947.7209      16.0000       0.1650      76.1110      41.1110    -999.2500       0.3990    -999.2500      12.6190       0.1423       2.4120
   2947.8733      16.0000       0.1660      76.1110      40.5519    -999.2500       0.2994    -999.2500      12.6190       0.1431       2.4029
   2948.0256      16.0000       0.1670      76.1110      40.0000    -999.2500       0.2000    -999.2500      12.6190       0.1420       2.3940
   2948.1780      16.0000       0.1509      76.1110      41.6117    -999.2500       0.2015    -999.2500      12.6190       0.1383       2.4056
   2948.3306      16.0000       0.1350      76.1110      43.2030    -999.2500       0.2030    -999.2500      12.6190       0.1346       2.4170
   2948.4829      16.0000       0.1229      76.1110      51.4449    -999.2500       0.2070    -999.2500      12.6190       0.1333       2.4155
   2948.6353      16.0000       0.1110      76.1110      59.5830    -999.2500       0.2110    -999.2500      12.6190       0.1333       2.4140
   2948.7876      16.0000       0.1110      76.1110      69.2205    -999.2500       0.2110    -999.2500      12.6190       0.1333       2.4105
   2948.9402      16.0000       0.1110      76.1110      78.7380    -999.2500       0.2110    -999.2500      12.6190       0.1337       2.4070
   2949.0925      16.0000       0.1165      76.1110     102.2924    -999.2500    -999.2500    -999.2500      12.6190       0.1350       2.4005
   2949.2449      16.0000       0.1220      76.1110     125.5560    -999.2500    -999.2500    -999.2500      12.6190       0.1370       2.3940
   2949.3972      16.0000       0.1275      76.1110    -999.2500    -999.2500    -999.2500    -999.2500      12.6190       0.1400       2.4000
   2949.5498      16.0000       0.1330      76.1110    -999.2500    -999.2500    -999.2500    -999.2500      12.6190       0.1425       2.4060
   2949.7021      16.0000       0.1275      76.1110    -999.2500    -999.2500    -999.2500    -999.2500      12.6190       0.1433       2.3944
   2949.8545      16.0000       0.1220      76.1110    -999.2500    -999.2500    -999.2500    -999.2500      12.6190       0.1433       2.3830
   2950.0068      16.0000       0.1220      76.1110    -999.2500    -999.2500    -999.2500    -999.2500      12.6190       0.1433       2.3850
