#------------------------------------------------------------------------------
#
#   Created by  : [OpenWorks] Log Export Utility (LEXP)
#   Created on  : 2016-05-19 09:45:26
#   Project     : CANT971
#   User        : R5K
#   Interpreter : PEP
#
#------------------------------------------------------------------------------
~VERSION INFORMATION
VERS. 2.0 : CWLS Log ASCII Standard - version 2.0
WRAP.  NO : One line per depth step
~WELL INFORMATION
#MNEMONIC   .UNIT                                           VALUE :DESCRIPTION
#------------------------------------------------------------------------------
STRT        .M                                           500.7865 :START DEPTH
STOP        .M                                          2967.5330 :STOP DEPTH
STEP        .M                                             0.1524 :STEP
NULL        .                                           -999.2500 :NULL VALUE
COMP        .                                   PEMEX EXPL & PROD :COMPANY
WELL        .                                                2294 :WELL
FLD         .                                           CANTARELL :FIELD
LOC         .                                             UNKNOWN :LOCATION
CNTY        .                                      CD. DEL CARMEN :COUNTY
STAT        .                                            CAMPECHE :STATE
CTRY        .                                              MEXICO :COUNTRY
SRVC        .                                             UNKNOWN :SERVICE COMPANY
DATE        .                                             UNKNOWN :LOG DATE
UWI         .                                          3060000528 :UNIQUE WELL ID
XCOORD      .                                       597712.870000 :SURFACE X
YCOORD      .                                      2140963.740000 :SURFACE Y
LAT         .                                           19.361511 :LATITUDE
LON         .                                          -92.069629 :LONGITUDE
ELEV        .M                                            23.0000 :SURFACE ELEV
ELEV_TYPE   .                                                  KB :ELEV TYPE
~CURVE INFORMATION
#MNEMONIC.UNIT        API CODE       : CURVE DESCRIPTION
#------------------------------------------------------------------------------
DEPTH    .M                          : Measured Depth
CALI     .inches      UNKNOWN        : CALI:registros:rC:NONE:v0 (auto-composite)
DRHO     .g/cm3       UNKNOWN        : DRHO:registros:rC:NONE:v0 (auto-composite)
DT       .UNKNOWN     UNKNOWN        : DT:registros:rC:NONE:v0 (auto-composite)
GR       .API         UNKNOWN        : GR:registros:rC:NONE:v0 (auto-composite)
ILD      .ohm.m       UNKNOWN        : ILD:registros:rC:NONE:v0 (auto-composite)
LLD      .ohm.m       UNKNOWN        : LLD:registros:rC:NONE:v0 (auto-composite)
LLS      .ohm.m       UNKNOWN        : LLS:registros:rC:NONE:v0 (auto-composite)
MSFL     .ohm.m       UNKNOWN        : MSFL:registros:rC:NONE:v0 (auto-composite)
NPHI     .UNKNOWN     UNKNOWN        : NPHI:registros:rC:NONE:v0 (auto-composite)
RHOB     .g/cm3       UNKNOWN        : RHOB:registros:rC:NONE:v0 (auto-composite)
~A     DEPTH         CALI         DRHO           DT           GR          ILD          LLD          LLS         MSFL         NPHI         RHOB
# ...
   2788.0056      16.0630       0.0170     121.6670      51.2020    -999.2500       2.1050       2.3320       3.3540       0.2616       2.2060
   2788.1582      14.3648       0.0475      97.1217      55.0706    -999.2500       3.2071       2.9216       4.4596       0.2816       2.2175
   2788.3105      12.6670       0.0780      72.7780      58.8890    -999.2500       4.3090       3.5110       5.5650       0.3052       2.2290
   2788.4629      13.3335       0.0775      77.0026      56.6521    -999.2500       3.9400       2.8635       5.3155       0.3024       2.2535
   2788.6152      14.0000       0.0770      81.1930      54.4440    -999.2500       3.5710       2.2160       5.0660       0.2921       2.2780
   2788.7676      13.6230       0.0835      94.8173      54.4440    -999.2500       2.8380       2.2160       4.0390       0.2676       2.3225
   2788.9202      13.2460       0.0900     108.3330      54.4440    -999.2500       2.1050       2.2160       3.0120       0.2421       2.3670
   2789.0725      12.5675       0.1285     106.3312      52.2079    -999.2500       2.1050       2.2160       3.6605       0.2252       2.4195
   2789.2249      11.8890       0.1670     104.3450      50.0000    -999.2500       2.1050       2.2160       4.3090       0.2137       2.4720
   2789.3772      11.9445       0.1335      96.0294      49.4410    -999.2500       2.4829       2.2160       3.6606       0.2233       2.4500
   2789.5298      12.0000       0.1000      87.7780      48.8890    -999.2500       2.8610       2.2160       3.0120       0.2350       2.4280
   2789.6821      12.1866       0.1035      91.8886      49.4480    -999.2500       2.3806       2.0579       3.0380       0.2373       2.3670
   2789.8345      12.3730       0.1070      95.9680      50.0000    -999.2500       1.9000       1.9000       3.0640       0.2403       2.3060
   2789.9868      13.2980       0.1175     102.1119      48.3233    -999.2500       2.0450       1.9000       3.2581       0.2573       2.3370
   2790.1394      14.2220       0.1280     108.2100      46.6670    -999.2500       2.1900       1.9000       3.4520       0.2719       2.3680
   2790.2917      13.8778       0.1000     113.8477      47.5327    -999.2500       2.8503       2.0201       3.8072       0.2586       2.4145
   2790.4441      13.5340       0.0720     119.4440      48.3880    -999.2500       3.5110       2.1400       4.1620       0.2411       2.4610
   2790.5964      12.9918       0.0890     109.4078      49.1948    -999.2500       3.1879       2.2360       4.2355       0.2270       2.4555
   2790.7488      12.4500       0.1060      99.4440      49.9920    -999.2500       2.8650       2.3320       4.3090       0.2155       2.4500
   2790.9014      12.2449       0.1140      99.7230      49.9960    -999.2500       2.7240       2.2740       3.9099       0.2167       2.4415
   2791.0537      12.0400       0.1220     100.0000      50.0000    -999.2500       2.5830       2.2160       3.5110       0.2181       2.4330
   2791.2061      11.8850       0.0805      98.2394      51.1184    -999.2500       2.7025       2.2405       3.7301       0.2083       2.4665
   2791.3584      11.7300       0.0390      96.4910      52.2220    -999.2500       2.8220       2.2650       3.9490       0.1985       2.5000
   2791.5110      11.6260       0.0390      92.7251      51.4937    -999.2500       3.1666       2.3790       4.4866       0.1999       2.4965
   2791.6633      11.5220       0.0390      88.9910      50.7750    -999.2500       3.5110       2.4930       5.0240       0.2032       2.4930
   2791.8157      11.4345       0.0315      86.9872      48.1483    -999.2500       3.2615       2.5380       4.3599       0.2064       2.4855
   2791.9680      11.3470       0.0240      85.0000      45.5560    -999.2500       3.0120       2.5830       3.6960       0.2094       2.4780
   2792.1206      11.2290       0.0120      88.0681      47.2333    -999.2500       3.0120       2.3995       5.0921       0.2114       2.4935
   2792.2729      11.1110       0.0000      91.1110      48.8890    -999.2500       3.0120       2.2160       6.4880       0.2127       2.5090
   2792.4253      11.1110       0.0000      89.9920      47.2118    -999.2500       3.3540       2.4410       5.5115       0.2096       2.5460
   2792.5776      11.1110       0.0000      88.8820      45.5560    -999.2500       3.6960       2.6660       4.5350       0.2054       2.5830
   2792.7300      11.1110       0.0030      84.9810      45.5560    -999.2500       3.5065       2.7636       4.5350       0.1978       2.5610
   2792.8826      11.1110       0.0060      81.1110      45.5560    -999.2500       3.3170       2.8610       4.5350       0.1898       2.5390
   2793.0349      11.1110       0.0210      82.7780      46.8089    -999.2500       3.0890       2.9170       4.9115       0.1832       2.5430
   2793.1873      11.1110       0.0360      84.4320      48.0460    -999.2500       2.8610       2.9730       5.2880       0.1778       2.5470
   2793.3396      11.1110       0.0650      86.1115      49.0291    -999.2500       3.3754       3.2422       5.0305       0.1800       2.5595
   2793.4922      11.1110       0.0940      87.7780      50.0000    -999.2500       3.8900       3.5110       4.7730       0.1828       2.5720
   2793.6445      11.1110       0.0870      72.7211      49.3374    -999.2500       3.3756       3.2614       5.1689       0.1824       2.5695
   2793.7969      11.1110       0.0800      57.7780      48.6830    -999.2500       2.8610       3.0120       5.5650       0.1810       2.5670
   2793.9492      11.1110       0.0600      66.8176      47.1099    -999.2500       3.1196       3.2116       4.9367       0.1767       2.5700
   2794.1018      11.1110       0.0400      75.7900      45.5560    -999.2500       3.3780       3.4110       4.3090       0.1719       2.5730
   2794.2542      10.9724       0.0170      93.5153      45.9046    -999.2500       4.4720       4.1073       7.0413       0.1668       2.5900
   2794.4065      10.8340      -0.0060     111.1110      46.2490    -999.2500       5.5650       4.8030       9.7710       0.1610       2.6070
   2794.5588      10.5629       0.0035      91.0389      47.8722    -999.2500       5.4264       5.5433       7.5286       0.1507       2.6230
   2794.7112      10.2920       0.0130      71.1110      49.4760    -999.2500       5.2880       6.2830       5.2880       0.1399       2.6390
   2794.8638      10.1460       0.0175      80.0315      51.4160    -999.2500       5.3305       5.9239       7.5303       0.1299       2.6335
   2795.0161      10.0000       0.0220      88.8890      53.3330    -999.2500       5.3730       5.5650       9.7710       0.1220       2.6280
   2795.1685      10.0000       0.0220     103.1048      51.6554    -999.2500       6.6679       5.6875       9.3669       0.1283       2.6195
   2795.3208      10.0000       0.0220     117.2220      50.0000    -999.2500       7.9620       5.8100       8.9630       0.1356       2.6110
   2795.4734       9.9445       0.0275     111.6320      50.0000    -999.2500       6.9838       6.1491       7.5627       0.1350       2.5860
   2795.6257       9.8890       0.0330     106.0890      50.0000    -999.2500       6.0060       6.4880       6.1630       0.1326       2.5610
   2795.7781       9.8890       0.0275      99.9190      50.0000    -999.2500       4.8208       5.8449       5.2359       0.1250       2.5610
   2795.9304       9.8890       0.0220      93.8000      50.0000    -999.2500       3.6360       5.2020       4.3090       0.1183       2.5610
   2796.0830       9.9410       0.0405      91.8922      49.4746    -999.2500       3.2485       4.3894       6.1357       0.1229       2.5720
   2796.2354       9.9930       0.0590      90.0000      48.9560    -999.2500       2.8610       3.5770       7.9620       0.1295       2.5830
   2796.3877      10.0520       0.0710      96.1356      48.3632    -999.2500       3.4070       3.2190       6.6250       0.1379       2.5610
