#------------------------------------------------------------------------------
#
#   Created by  : [OpenWorks] Log Export Utility (LEXP)
#   Created on  : 2016-05-19 09:45:26
#   Project     : CANT971
#   User        : R5K
#   Interpreter : PEP
#
#------------------------------------------------------------------------------
~VERSION INFORMATION
VERS. 2.0 : CWLS Log ASCII Standard - version 2.0
WRAP.  NO : One line per depth step
~WELL INFORMATION
#MNEMONIC   .UNIT                                           VALUE :DESCRIPTION
#------------------------------------------------------------------------------
STRT        .M                                           500.7865 :START DEPTH
STOP        .M                                          2967.5330 :STOP DEPTH
STEP        .M                                             0.1524 :STEP
NULL        .                                           -999.2500 :NULL VALUE
COMP        .                                   PEMEX EXPL & PROD :COMPANY
WELL        .                                                2294 :WELL
FLD         .                                           CANTARELL :FIELD
LOC         .                                             UNKNOWN :LOCATION
CNTY        .                                      CD. DEL CARMEN :COUNTY
STAT        .                                            CAMPECHE :STATE
CTRY        .                                              MEXICO :COUNTRY
SRVC        .                                             UNKNOWN :SERVICE COMPANY
DATE        .                                             UNKNOWN :LOG DATE
UWI         .                                          3060000528 :UNIQUE WELL ID
XCOORD      .                                       597712.870000 :SURFACE X
YCOORD      .                                      2140963.740000 :SURFACE Y
LAT         .                                           19.361511 :LATITUDE
LON         .                                          -92.069629 :LONGITUDE
ELEV        .M                                            23.0000 :SURFACE ELEV
ELEV_TYPE   .                                                  KB :ELEV TYPE
~CURVE INFORMATION
#MNEMONIC.UNIT        API CODE       : CURVE DESCRIPTION
#------------------------------------------------------------------------------
DEPTH    .M                          : Measured Depth
CALI     .inches      UNKNOWN        : CALI:registros:rC:NONE:v0 (auto-composite)
DRHO     .g/cm3       UNKNOWN        : DRHO:registros:rC:NONE:v0 (auto-composite)
DT       .UNKNOWN     UNKNOWN        : DT:registros:rC:NONE:v0 (auto-composite)
GR       .API         UNKNOWN        : GR:registros:rC:NONE:v0 (auto-composite)
ILD      .ohm.m       UNKNOWN        : ILD:registros:rC:NONE:v0 (auto-composite)
LLD      .ohm.m       UNKNOWN        : LLD:registros:rC:NONE:v0 (auto-composite)
LLS      .ohm.m       UNKNOWN        : LLS:registros:rC:NONE:v0 (auto-composite)
MSFL     .ohm.m       UNKNOWN        : MSFL:registros:rC:NONE:v0 (auto-composite)
NPHI     .UNKNOWN     UNKNOWN        : NPHI:registros:rC:NONE:v0 (auto-composite)
RHOB     .g/cm3       UNKNOWN        : RHOB:registros:rC:NONE:v0 (auto-composite)
~A     DEPTH         CALI         DRHO           DT           GR          ILD          LLD          LLS         MSFL         NPHI         RHOB
# ...
   2890.4185       9.4440       0.0110      55.9290      32.2220    -999.2500     233.1830     295.6800     267.5590       0.1298       2.5220
   2890.5708       9.4440       0.0140      56.5780      31.7234    -999.2500     263.0758     233.5198     328.3046       0.1317       2.5095
   2890.7234       9.4440       0.0170      57.2220      31.2310    -999.2500     292.9300     171.5390     388.9720       0.1320       2.4970
   2890.8757       9.3885       0.0085      55.6742      26.1397    -999.2500     413.8203     201.7052     323.6030       0.1383       2.4679
   2891.0281       9.3330       0.0000      54.1380      21.1110    -999.2500     534.5700     231.7880     258.3100       0.1449       2.4390
   2891.1804       9.3515       0.0020      52.3403      21.1110    -999.2500     723.5401     303.7910     728.8832       0.1461       2.4465
   2891.3330       9.3700       0.0040      50.5560      21.1110    -999.2500     912.3140     375.4890    1198.9680       0.1441       2.4540
   2891.4854       9.4070       0.0150      54.4587      21.7247    -999.2500     944.6993     462.5603    1140.5802       0.1378       2.4911
   2891.6377       9.4440       0.0260      58.3330      22.3300    -999.2500     977.0550     549.2740    1082.3390       0.1316       2.5280
   2891.7900       9.4870       0.0365      58.0545      22.8349    -999.2500     922.7331     693.9332    1110.7844       0.1300       2.5225
   2891.9424       9.5300       0.0470      57.7780      23.3330    -999.2500     868.4540     838.0160    1139.1620       0.1300       2.5170
   2892.0950       9.6525       0.0485      60.8468      21.6764    -999.2500     832.3220     744.3053     776.5444       0.1300       2.5170
   2892.2473       9.7750       0.0500      63.8890      20.0420    -999.2500     796.2140     650.9560     414.7470       0.1300       2.5170
   2892.3997       9.8320       0.0861      57.6685      19.4616    -999.2500     796.2140     563.9746     365.8108       0.1300       2.5305
   2892.5520       9.8890       0.1220      51.5010      18.8890    -999.2500     796.2140     477.3180     316.9790       0.1299       2.5440
   2892.7046       9.8890       0.0718      45.4471      19.1271    -999.2500     796.2140     477.3180     316.9790       0.1293       2.5636
   2892.8569       9.8890       0.0220      39.4440      19.3620    -999.2500     796.2140     477.3180     316.9790       0.1275       2.5830
   2893.0093       9.8890       0.0290      44.2980      20.8014    -999.2500     662.3569     477.3180     316.9790       0.1226       2.5760
   2893.1616       9.8890       0.0360      49.1120      22.2220    -999.2500     528.7520     477.3180     316.9790       0.1191       2.5690
   2893.3142       9.8410       0.0460      54.9231      21.7389    -999.2500     588.8514     516.9816     334.0721       0.1224       2.5359
   2893.4666       9.7930       0.0560      60.6870      21.2620    -999.2500     648.8450     556.5120     351.1350       0.1315       2.5030
   2893.6189       9.7300       0.0445      63.6413      20.6269    -999.2500     478.7851     501.1455     326.1306       0.1497       2.3594
   2893.7712       9.6670       0.0330      66.5720      20.0000    -999.2500     309.0030     445.9580     301.1670       0.1679       2.2170
   2893.9236       9.6670       0.0250      70.5648      21.1181    -999.2500     245.4505     315.7593     204.6277       0.1772       2.2481
   2894.0762       9.6670       0.0170      74.5260      22.2220    -999.2500     181.9940     185.9650     108.2340       0.1790       2.2790
   2894.2285       9.6380       0.0210      78.3890      22.2220    -999.2500     128.7852     130.7251     164.9317       0.1685       2.3844
   2894.3809       9.6090       0.0250      82.2220      22.2220    -999.2500      75.6500      75.6500     221.5510       0.1499       2.4890
   2894.5332       9.5410       0.1073      77.2616      22.6361    -999.2500     102.1662      80.2182     196.5293       0.1204       2.5733
   2894.6858       9.4730       0.1890      72.3390      23.0450    -999.2500     128.6490      84.7660     171.5390       0.0890       2.6570
   2894.8381       9.4030       0.1303      65.0311      24.8003    -999.2500     292.5583     166.2753     445.3059       0.0626       2.6756
   2894.9905       9.3330       0.0720      57.7780      26.5340    -999.2500     456.2820     247.4320     718.7630       0.0403       2.6940
   2895.1428       9.3430       0.0329      61.6112      32.4964    -999.2500     587.5886     402.2975     517.7698       0.0241       2.7055
   2895.2954       9.3530      -0.0060      65.4160      38.3770    -999.2500     718.7630     556.5120     316.9790       0.0175       2.7170
   2895.4478       9.4210       0.0276      75.8449      39.7534    -999.2500     586.2586     534.6765     758.5214       0.0313       2.7225
   2895.6001       9.4890       0.0610      86.1980      41.1110    -999.2500     453.8710     512.9300    1198.9680       0.0535       2.7280
   2895.7524       9.5225       0.0444      93.6466      38.8739    -999.2500     324.3996     456.1984     632.9633       0.0780       2.7210
   2895.9048       9.5560       0.0280     101.0420      36.6670    -999.2500     195.0260     399.6910      68.2910       0.1019       2.7140
   2896.0574       9.5560       0.0395     109.1670      36.6670    -999.2500     139.3519     325.3884      69.7867       0.1215       2.6678
   2896.2097       9.5560       0.0510     117.2220      36.6670    -999.2500      83.8020     251.3700      71.2790       0.1364       2.6220
   2896.3621       9.6670       0.0897     102.7160      36.6670    -999.2500     214.1571     182.5155     328.7749       0.1431       2.5914
   2896.5144       9.7780       0.1280      88.3330      36.6670    -999.2500     344.2380     113.9160     585.7290       0.1433       2.5610
   2896.6670       9.6110       0.1134      90.8435      36.3590    -999.2500     531.6861     455.6760     529.8752       0.1347       2.5751
   2896.8193       9.4440       0.0990      93.3330      36.0550    -999.2500     718.7630     796.2140     474.1320       0.1218       2.5890
   2896.9717       9.4440       0.0523      87.2686      34.1260    -999.2500     631.4241     526.7968     332.3461       0.1064       2.6126
   2897.1240       9.4440       0.0060      81.2540      32.2220    -999.2500     544.2470     258.3100     190.8230       0.0897       2.6360
   2897.2766       9.4440       0.0060      71.4623      32.2220    -999.2500     415.0843     273.2924     124.6408       0.0717       2.6932
   2897.4290       9.4440       0.0060      61.7500      32.2220    -999.2500     286.1450     288.2250      58.5730       0.0583       2.7500
   2897.5813       9.4440       0.0060      57.7124      32.7433    -999.2500     358.5740     328.9627     177.7400       0.0580       2.7189
   2897.7336       9.4440       0.0060      53.7070      33.2580    -999.2500     430.8870     369.5700     296.7160       0.0632       2.6880
   2897.8860       9.4440       0.0155      52.4039      34.4993    -999.2500     261.7345     222.3837     567.5662       0.0697       2.6704
   2898.0386       9.4440       0.0250      51.1110      35.7250    -999.2500      92.8320      75.6500     838.0160       0.0730       2.6530
   2898.1909       9.4440       0.0516      51.6687      36.1990    -999.2500      98.4368      84.4495     437.2156       0.0667       2.6078
   2898.3433       9.4440       0.0780      52.2220      36.6670    -999.2500     104.0340      93.2230      36.9570       0.0601       2.5630
   2898.4956       9.4770       0.0333      52.6526      36.6670    -999.2500     218.0985     161.1948      56.6646       0.0626       2.4812
   2898.6482       9.5100      -0.0110      53.0800      36.6670    -999.2500     332.0230     228.8660      76.3480       0.0725       2.4000
   2898.8005       9.6680      -0.0110      55.5708      36.6670    -999.2500     618.0610     393.0416     289.4799       0.0928       2.2660
