#------------------------------------------------------------------------------
#
#   Created by  : [OpenWorks] Log Export Utility (LEXP)
#   Created on  : 2016-05-19 09:45:26
#   Project     : CANT971
#   User        : R5K
#   Interpreter : PEP
#
#------------------------------------------------------------------------------
~VERSION INFORMATION
VERS. 2.0 : CWLS Log ASCII Standard - version 2.0
WRAP.  NO : One line per depth step
~WELL INFORMATION
#MNEMONIC   .UNIT                                           VALUE :DESCRIPTION
#------------------------------------------------------------------------------
STRT        .M                                           500.7865 :START DEPTH
STOP        .M                                          2967.5330 :STOP DEPTH
STEP        .M                                             0.1524 :STEP
NULL        .                                           -999.2500 :NULL VALUE
COMP        .                                   PEMEX EXPL & PROD :COMPANY
WELL        .                                                2294 :WELL
FLD         .                                           CANTARELL :FIELD
LOC         .                                             UNKNOWN :LOCATION
CNTY        .                                      CD. DEL CARMEN :COUNTY
STAT        .                                            CAMPECHE :STATE
CTRY        .                                              MEXICO :COUNTRY
SRVC        .                                             UNKNOWN :SERVICE COMPANY
DATE        .                                             UNKNOWN :LOG DATE
UWI         .                                          3060000528 :UNIQUE WELL ID
XCOORD      .                                       597712.870000 :SURFACE X
YCOORD      .                                      2140963.740000 :SURFACE Y
LAT         .                                           19.361511 :LATITUDE
LON         .                                          -92.069629 :LONGITUDE
ELEV        .M                                            23.0000 :SURFACE ELEV
ELEV_TYPE   .                                                  KB :ELEV TYPE
~CURVE INFORMATION
#MNEMONIC.UNIT        API CODE       : CURVE DESCRIPTION
#------------------------------------------------------------------------------
DEPTH    .M                          : Measured Depth
CALI     .inches      UNKNOWN        : CALI:registros:rC:NONE:v0 (auto-composite)
DRHO     .g/cm3       UNKNOWN        : DRHO:registros:rC:NONE:v0 (auto-composite)
DT       .UNKNOWN     UNKNOWN        : DT:registros:rC:NONE:v0 (auto-composite)
GR       .API         UNKNOWN        : GR:registros:rC:NONE:v0 (auto-composite)
ILD      .ohm.m       UNKNOWN        : ILD:registros:rC:NONE:v0 (auto-composite)
LLD      .ohm.m       UNKNOWN        : LLD:registros:rC:NONE:v0 (auto-composite)
LLS      .ohm.m       UNKNOWN        : LLS:registros:rC:NONE:v0 (auto-composite)
MSFL     .ohm.m       UNKNOWN        : MSFL:registros:rC:NONE:v0 (auto-composite)
NPHI     .UNKNOWN     UNKNOWN        : NPHI:registros:rC:NONE:v0 (auto-composite)
RHOB     .g/cm3       UNKNOWN        : RHOB:registros:rC:NONE:v0 (auto-composite)
~A     DEPTH         CALI         DRHO           DT           GR          ILD          LLD          LLS         MSFL         NPHI         RHOB
# ...
   2847.7466      12.9910       0.1330      86.5370      60.0000    -999.2500       2.5830       3.3390       4.0940       0.2150       2.6010
   2847.8989      13.1620       0.1250      88.8328      58.8821    -999.2500       3.1398       3.0997       4.1155       0.2077       2.5885
   2848.0513      13.3330       0.1170      91.1110      57.7780    -999.2500       3.6960       2.8610       4.1370       0.1990       2.5760
   2848.2036      13.1109       0.1581      89.1276      58.0145    -999.2500       3.4329       3.1864       4.3361       0.1939       2.5545
   2848.3562      12.8890       0.1990      87.1590      58.2480    -999.2500       3.1700       3.5110       4.5350       0.1892       2.5330
   2848.5085      12.6594       0.2191      83.4925      60.0047    -999.2500       3.2776       3.1856       4.3144       0.1851       2.5420
   2848.6609      12.4300       0.2390      79.8530      61.7400    -999.2500       3.3850       2.8610       4.0940       0.1810       2.5510
   2848.8132      12.1594       0.1693      75.7451      65.4326    -999.2500       3.6376       3.2790       4.6913       0.1756       2.5670
   2848.9658      11.8890       0.1000      71.6670      69.0750    -999.2500       3.8900       3.6960       5.2880       0.1716       2.5830
   2849.1182      12.1666       0.1110      86.1632      70.6592    -999.2500       3.7855       3.3536       4.7983       0.1817       2.5720
   2849.2705      12.4440       0.1220     100.5560      72.2220    -999.2500       3.6810       3.0120       4.3090       0.1905       2.5610
   2849.4229      12.3330       0.1080      91.0783      71.1035    -999.2500       3.4254       3.1316       5.0832       0.1750       2.5650
   2849.5752      12.2220       0.0940      81.6670      70.0000    -999.2500       3.1700       3.2510       5.8570       0.1589       2.5690
   2849.7278      12.5001       0.1025      82.1008      70.5798    -999.2500       3.7396       3.7806       5.7060       0.1617       2.5845
   2849.8801      12.7780       0.1110      82.5310      71.1520    -999.2500       4.3090       4.3090       5.5550       0.1660       2.6000
   2850.0325      12.5730       0.1090      85.7233      71.6905    -999.2500       3.9099       3.9096       5.0449       0.1650       2.5970
   2850.1848      12.3680       0.1070      88.8890      72.2220    -999.2500       3.5110       3.5110       4.5350       0.1638       2.5940
   2850.3374      12.2395       0.1010      82.1950      73.8279    -999.2500       3.8910       3.5996       5.0260       0.1665       2.6191
   2850.4897      12.1110       0.0950      75.5560      75.4130    -999.2500       4.2710       3.6880       5.5160       0.1696       2.6440
   2850.6421      12.3335       0.0855      92.5688      78.2804    -999.2500       4.7795       4.1119       6.1731       0.1715       2.6250
   2850.7944      12.5560       0.0760     109.4440      81.1110    -999.2500       5.2880       4.5350       6.8290       0.1730       2.6060
   2850.9468      12.5780       0.0685      95.2208      80.2264    -999.2500       4.3988       4.3589       5.6811       0.1717       2.6060
   2851.0994      12.6000       0.0610      81.1110      79.3530    -999.2500       3.5110       4.1830       4.5350       0.1702       2.6060
   2851.2517      12.7445       0.0680      86.5925      76.6278    -999.2500       4.0234       3.8465       5.5122       0.1700       2.6060
   2851.4041      12.8890       0.0750      92.0310      73.9370    -999.2500       4.5350       3.5110       6.4880       0.1701       2.6060
   2851.5564      12.7500       0.0835     102.7233      70.2792    -999.2500       4.2123       3.9106       5.8876       0.1714       2.5920
   2851.7090      12.6110       0.0920     113.3330      66.6670    -999.2500       3.8900       4.3090       5.2880       0.1730       2.5780
   2851.8613      12.4720       0.0850      95.4877      67.2260    -999.2500       4.3318       4.2013       5.2880       0.1764       2.5529
   2852.0137      12.3330       0.0780      77.7780      67.7780    -999.2500       4.7730       4.0940       5.2880       0.1797       2.5280
   2852.1660      12.6112       0.0780      80.0570      67.2191    -999.2500       4.5914       4.3148       4.9113       0.1805       2.5476
   2852.3186      12.8890       0.0780      82.3190      66.6670    -999.2500       4.4100       4.5350       4.5350       0.1817       2.5670
   2852.4709      12.6959       0.0790      91.7496      66.9417    -999.2500       3.7897       3.6969       4.5350       0.1888       2.5805
   2852.6233      12.5030       0.0800     101.1110      67.2130    -999.2500       3.1700       2.8610       4.5350       0.1950       2.5940
   2852.7756      12.3389       0.0835      88.8397      67.4974    -999.2500       3.5562       3.0853       4.5350       0.1884       2.5785
   2852.9280      12.1750       0.0870      76.6570      67.7780    -999.2500       3.9420       3.3090       4.5350       0.1797       2.5630
   2853.0806      11.8849       0.0960      68.8563      68.8965    -999.2500       4.5772       3.6799       5.1442       0.1674       2.5399
   2853.2329      11.5950       0.1050      61.1110      70.0000    -999.2500       5.2120       4.0500       5.7530       0.1548       2.5170
   2853.3853      11.2419       0.1276      90.6586      71.6777    -999.2500       5.5346       4.2292       6.6593       0.1424       2.5556
   2853.5376      10.8890       0.1500     120.0000      73.3330    -999.2500       5.8570       4.4080       7.5650       0.1319       2.5940
   2853.6902      10.8890       0.1375     115.4814      73.1271    -999.2500       5.8570       4.7644       7.6370       0.1350       2.5915
   2853.8425      10.8890       0.1250     111.0010      72.9240    -999.2500       5.8570       5.1200       7.7090       0.1389       2.5890
   2853.9949      10.8890       0.0904      89.8571      71.9144    -999.2500       5.4404       5.2041       8.7402       0.1350       2.6055
   2854.1472      10.8890       0.0560      68.8890      70.9180    -999.2500       5.0240       5.2880       9.7710       0.1300       2.6220
   2854.2998      10.9785       0.0580      78.3382      69.3378    -999.2500       5.0240       4.9112       8.8592       0.1246       2.6110
   2854.4521      11.0680       0.0600      87.7100      67.7780    -999.2500       5.0240       4.5350       7.9490       0.1195       2.6000
   2854.6045      11.0895       0.0660     101.6894      67.7352    -999.2500       5.4560       4.9156       7.2179       0.1163       2.6030
   2854.7568      11.1110       0.0720     115.5560      67.6930    -999.2500       5.8880       5.2950       6.4880       0.1143       2.6060
   2854.9092      11.1110       0.0750      99.1398      65.9213    -999.2500       6.7272       5.5369       8.6572       0.1187       2.5799
   2855.0618      11.1110       0.0780      82.8540      64.1720    -999.2500       7.5650       5.7780      10.8230       0.1248       2.5540
   2855.2141      11.1110       0.0670      71.1031      63.4907    -999.2500       6.8370       6.8717      10.4507       0.1358       2.5269
   2855.3665      11.1110       0.0560      59.4440      62.8180    -999.2500       6.1100       7.9620      10.0790       0.1474       2.5000
   2855.5188      11.1110       0.0560      64.7815      61.7539    -999.2500       4.8096       5.8259       7.5498       0.1588       2.5000
   2855.6714      11.1110       0.0560      70.0780      60.7030    -999.2500       3.5110       3.6960       5.0240       0.1681       2.5000
   2855.8237      11.3889       0.0560      89.5572      59.8447    -999.2500       4.0233       3.6960       5.7564       0.1650       2.5000
   2855.9761      11.6670       0.0560     108.8890      58.9970    -999.2500       4.5350       3.6960       6.4880       0.1614       2.5000
   2856.1284      11.3889       0.0525      85.4683      57.8249    -999.2500       3.9352       4.0029       5.5110       0.1667       2.5306
