#------------------------------------------------------------------------------
#
#   Created by  : [OpenWorks] Log Export Utility (LEXP)
#   Created on  : 2016-05-19 09:45:26
#   Project     : CANT971
#   User        : R5K
#   Interpreter : PEP
#
#------------------------------------------------------------------------------
~VERSION INFORMATION
VERS. 2.0 : CWLS Log ASCII Standard - version 2.0
WRAP.  NO : One line per depth step
~WELL INFORMATION
#MNEMONIC   .UNIT                                           VALUE :DESCRIPTION
#------------------------------------------------------------------------------
STRT        .M                                           500.7865 :START DEPTH
STOP        .M                                          2967.5330 :STOP DEPTH
STEP        .M                                             0.1524 :STEP
NULL        .                                           -999.2500 :NULL VALUE
COMP        .                                   PEMEX EXPL & PROD :COMPANY
WELL        .                                                2294 :WELL
FLD         .                                           CANTARELL :FIELD
LOC         .                                             UNKNOWN :LOCATION
CNTY        .                                      CD. DEL CARMEN :COUNTY
STAT        .                                            CAMPECHE :STATE
CTRY        .                                              MEXICO :COUNTRY
SRVC        .                                             UNKNOWN :SERVICE COMPANY
DATE        .                                             UNKNOWN :LOG DATE
UWI         .                                          3060000528 :UNIQUE WELL ID
XCOORD      .                                       597712.870000 :SURFACE X
YCOORD      .                                      2140963.740000 :SURFACE Y
LAT         .                                           19.361511 :LATITUDE
LON         .                                          -92.069629 :LONGITUDE
ELEV        .M                                            23.0000 :SURFACE ELEV
ELEV_TYPE   .                                                  KB :ELEV TYPE
~CURVE INFORMATION
#MNEMONIC.UNIT        API CODE       : CURVE DESCRIPTION
#------------------------------------------------------------------------------
DEPTH    .M                          : Measured Depth
CALI     .inches      UNKNOWN        : CALI:registros:rC:NONE:v0 (auto-composite)
DRHO     .g/cm3       UNKNOWN        : DRHO:registros:rC:NONE:v0 (auto-composite)
DT       .UNKNOWN     UNKNOWN        : DT:registros:rC:NONE:v0 (auto-composite)
GR       .API         UNKNOWN        : GR:registros:rC:NONE:v0 (auto-composite)
ILD      .ohm.m       UNKNOWN        : ILD:registros:rC:NONE:v0 (auto-composite)
LLD      .ohm.m       UNKNOWN        : LLD:registros:rC:NONE:v0 (auto-composite)
LLS      .ohm.m       UNKNOWN        : LLS:registros:rC:NONE:v0 (auto-composite)
MSFL     .ohm.m       UNKNOWN        : MSFL:registros:rC:NONE:v0 (auto-composite)
NPHI     .UNKNOWN     UNKNOWN        : NPHI:registros:rC:NONE:v0 (auto-composite)
RHOB     .g/cm3       UNKNOWN        : RHOB:registros:rC:NONE:v0 (auto-composite)
~A     DEPTH         CALI         DRHO           DT           GR          ILD          LLD          LLS         MSFL         NPHI         RHOB
# ...
   2856.2810      11.1110       0.0490      62.2220      56.6670    -999.2500       3.3360       4.3090       4.5350       0.1722       2.5610
   2856.4333      10.9999       0.0410      64.6925      56.8577    -999.2500       3.5526       3.8219       4.6991       0.1705       2.5445
   2856.5857      10.8890       0.0330      67.1450      57.0460    -999.2500       3.7690       3.3360       4.8630       0.1669       2.5280
   2856.7380      10.8890       0.0470      73.0382      58.9791    -999.2500       4.6674       3.5933       6.4131       0.1584       2.5335
   2856.8904      10.8890       0.0610      78.8890      60.8860    -999.2500       5.5650       3.8500       7.9620       0.1492       2.5390
   2857.0430      10.8890       0.0470      76.1012      62.1178    -999.2500       5.1689       4.5698       7.7634       0.1396       2.5560
   2857.1953      10.8890       0.0330      73.3330      63.3330    -999.2500       4.7730       5.2880       7.5650       0.1319       2.5730
   2857.3477      10.8335       0.0721      76.1207      62.7748    -999.2500       5.0301       5.0302       7.7636       0.1367       2.5976
   2857.5000      10.7780       0.1110      78.8890      62.2240    -999.2500       5.2870       4.7730       7.9620       0.1399       2.6220
   2857.6526      10.6110       0.1165      74.4257      60.5455    -999.2500       6.4017       5.9182       7.2242       0.1211       2.6055
   2857.8049      10.4440       0.1220      70.0000      58.8890    -999.2500       7.5160       7.0610       6.4880       0.1003       2.5890
   2857.9573      10.4440       0.0894      70.2435      60.0073    -999.2500       8.4741       7.6020       9.2416       0.0875       2.5975
   2858.1096      10.4440       0.0570      70.4850      61.1110    -999.2500       9.4320       8.1420      11.9900       0.0765       2.6060
   2858.2622      10.3885       0.0450      70.7993      60.5519    -999.2500      10.5980       8.5524      12.8523       0.0680       2.6311
   2858.4146      10.3330       0.0330      71.1110      60.0000    -999.2500      11.7620       8.9620      13.7130       0.0610       2.6560
   2858.5669      10.3815       0.0666      71.1110      60.5591    -999.2500      13.4294       9.3361      17.9375       0.0600       2.6530
   2858.7192      10.4300       0.1000      71.1110      61.1110    -999.2500      15.0940       9.7090      22.1550       0.0598       2.6500
   2858.8716      10.3815       0.0915      67.2066      59.9929    -999.2500      16.5756      11.0286      24.6729       0.0583       2.6565
   2859.0242      10.3330       0.0830      63.3330      58.8890    -999.2500      18.0550      12.3440      27.1870       0.0570       2.6630
   2859.1765      10.4445       0.0795      59.9870      58.8890    -999.2500      17.2259      14.7526      21.7387       0.0577       2.6730
   2859.3289      10.5560       0.0760      56.6670      58.8890    -999.2500      16.3980      17.1540      16.2980       0.0593       2.6830
   2859.4812      10.5000       0.0379      59.3433      57.6966    -999.2500      13.9915      14.4271      16.7263       0.0637       2.6609
   2859.6338      10.4440       0.0000      61.9990      56.5190    -999.2500      11.5880      11.7080      17.1540       0.0683       2.6390
   2859.7861      10.4440       0.0000      64.3418      55.0550    -999.2500       9.7740       9.8324      13.9867       0.0710       2.6390
   2859.9385      10.4440       0.0000      66.6670      53.6090    -999.2500       7.9620       7.9620      10.8230       0.0716       2.6390
   2860.0908      10.3329       0.0000      71.9641      52.3840    -999.2500       9.9080       9.3473      16.2693       0.0620       2.6530
   2860.2434      10.2220       0.0000      77.2220      51.1740    -999.2500      11.8520      10.7290      21.7100       0.0512       2.6670
   2860.3958      10.3651       0.0030      76.1069      50.5834    -999.2500      14.0760      14.8707      32.4043       0.0437       2.6133
   2860.5481      10.5080       0.0060      75.0000      50.0000    -999.2500      16.2980      19.0020      43.0890       0.0400       2.5600
   2860.7004      10.8932       0.0050      75.7351      51.4750    -999.2500      12.3860      14.6728      29.6693       0.0550       2.4808
   2860.8528      11.2780       0.0040      76.4650      52.9300    -999.2500       8.4770      10.3540      16.2600       0.0776       2.4020
   2861.0054      11.9187      -0.0035      84.0928      57.0480    -999.2500       5.6636       6.6373      11.4629       0.1244       2.3258
   2861.1577      12.5590      -0.0110      91.6670      61.1110    -999.2500       2.8520       2.9290       6.6690       0.1768       2.2500
   2861.3101      13.0066      -0.0110      90.0128      59.9926    -999.2500       2.1248       2.4024       4.4099       0.2379       2.2094
   2861.4624      13.4540      -0.0110      88.3700      58.8890    -999.2500       1.3980       1.8770       2.1520       0.2991       2.1690
   2861.6150      13.1714      -0.0140      78.3093      61.1257    -999.2500       1.4075       1.7534       1.9783       0.3536       2.1429
   2861.7673      12.8890      -0.0170      68.3330      63.3330    -999.2500       1.4170       1.6300       1.8050       0.3986       2.1170
   2861.9197      12.9845      -0.0130      68.3330      62.6928    -999.2500       1.5660       1.6420       1.8525       0.4000       2.1421
   2862.0720      13.0800      -0.0090      68.3330      62.0610    -999.2500       1.7150       1.6540       1.9000       0.3943       2.1670
   2862.2246      13.5400       0.0081      76.7005      60.1819    -999.2500       1.7150       1.6846       1.9000       0.3942       2.1615
   2862.3770      14.0000       0.0250      85.0000      58.3270    -999.2500       1.7150       1.7150       1.9000       0.3957       2.1560
   2862.5293      13.7780       0.0932      73.5652      57.6456    -999.2500       1.6725       1.6839       1.8525       0.4007       2.1946
   2862.6816      13.5560       0.1610      62.2220      56.9730    -999.2500       1.6300       1.6530       1.8050       0.4064       2.2330
   2862.8340      14.2900       0.1470      67.7528      55.7629    -999.2500       1.6700       1.6029       1.8500       0.4129       2.2255
   2862.9866      15.0240       0.1330      73.2400      54.5680    -999.2500       1.7100       1.5530       1.8950       0.4188       2.2180
   2863.1389      15.8454       0.1501      86.6721      50.5926    -999.2500       1.7490       1.4403       2.1137       0.4214       2.1809
   2863.2913      16.6670       0.1670     100.0000      46.6670    -999.2500       1.7880       1.3280       2.3320       0.4214       2.1440
   2863.4436      16.5395       0.1615      95.4100      47.2260    -999.2500       2.2158       1.6590       2.3550       0.4116       2.1676
   2863.5962      16.4120       0.1560      90.8550      47.7780    -999.2500       2.6430       1.9890       2.3780       0.3972       2.1910
   2863.7485      15.6382       0.1570      75.9270      45.5418    -999.2500       3.8622       3.7829       2.9108       0.3695       2.2477
   2863.9009      14.8640       0.1580      61.1110      43.3330    -999.2500       5.0800       5.5720       3.4430       0.3365       2.3040
   2864.0532      14.2592       0.1339      62.7837      44.2516    -999.2500       9.8989      13.3211       7.8842       0.2890       2.3326
   2864.2058      13.6550       0.1100      64.4440      45.1590    -999.2500      14.7130      21.0500      12.3210       0.2336       2.3610
   2864.3582      12.1603       0.0909      59.4258      49.8296    -999.2500      11.9873      16.7136       8.4263       0.1511       2.3259
   2864.5105      10.6670       0.0720      54.4440      54.4440    -999.2500       9.2640      12.3880       4.5350       0.0795       2.2910
   2864.6628      11.0551       0.0650      55.1656      52.2069    -999.2500       5.8887       7.1824       6.6783       0.0896       2.2469
