#------------------------------------------------------------------------------
#
#   Created by  : [OpenWorks] Log Export Utility (LEXP)
#   Created on  : 2016-05-19 09:45:26
#   Project     : CANT971
#   User        : R5K
#   Interpreter : PEP
#
#------------------------------------------------------------------------------
~VERSION INFORMATION
VERS. 2.0 : CWLS Log ASCII Standard - version 2.0
WRAP.  NO : One line per depth step
~WELL INFORMATION
#MNEMONIC   .UNIT                                           VALUE :DESCRIPTION
#------------------------------------------------------------------------------
STRT        .M                                           500.7865 :START DEPTH
STOP        .M                                          2967.5330 :STOP DEPTH
STEP        .M                                             0.1524 :STEP
NULL        .                                           -999.2500 :NULL VALUE
COMP        .                                   PEMEX EXPL & PROD :COMPANY
WELL        .                                                2294 :WELL
FLD         .                                           CANTARELL :FIELD
LOC         .                                             UNKNOWN :LOCATION
CNTY        .                                      CD. DEL CARMEN :COUNTY
STAT        .                                            CAMPECHE :STATE
CTRY        .                                              MEXICO :COUNTRY
SRVC        .                                             UNKNOWN :SERVICE COMPANY
DATE        .                                             UNKNOWN :LOG DATE
UWI         .                                          3060000528 :UNIQUE WELL ID
XCOORD      .                                       597712.870000 :SURFACE X
YCOORD      .                                      2140963.740000 :SURFACE Y
LAT         .                                           19.361511 :LATITUDE
LON         .                                          -92.069629 :LONGITUDE
ELEV        .M                                            23.0000 :SURFACE ELEV
ELEV_TYPE   .                                                  KB :ELEV TYPE
~CURVE INFORMATION
#MNEMONIC.UNIT        API CODE       : CURVE DESCRIPTION
#------------------------------------------------------------------------------
DEPTH    .M                          : Measured Depth
CALI     .inches      UNKNOWN        : CALI:registros:rC:NONE:v0 (auto-composite)
DRHO     .g/cm3       UNKNOWN        : DRHO:registros:rC:NONE:v0 (auto-composite)
DT       .UNKNOWN     UNKNOWN        : DT:registros:rC:NONE:v0 (auto-composite)
GR       .API         UNKNOWN        : GR:registros:rC:NONE:v0 (auto-composite)
ILD      .ohm.m       UNKNOWN        : ILD:registros:rC:NONE:v0 (auto-composite)
LLD      .ohm.m       UNKNOWN        : LLD:registros:rC:NONE:v0 (auto-composite)
LLS      .ohm.m       UNKNOWN        : LLS:registros:rC:NONE:v0 (auto-composite)
MSFL     .ohm.m       UNKNOWN        : MSFL:registros:rC:NONE:v0 (auto-composite)
NPHI     .UNKNOWN     UNKNOWN        : NPHI:registros:rC:NONE:v0 (auto-composite)
RHOB     .g/cm3       UNKNOWN        : RHOB:registros:rC:NONE:v0 (auto-composite)
~A     DEPTH         CALI         DRHO           DT           GR          ILD          LLD          LLS         MSFL         NPHI         RHOB
# ...
   2813.6089       9.3330       0.0110      61.4450      39.1840    -999.2500       9.2660      15.1190       8.8200       0.0691       2.6160
   2813.7612       9.3330       0.0130      64.0655      34.9968    -999.2500       8.2265      11.5389       9.9830       0.0729       2.6360
   2813.9138       9.3330       0.0150      66.6670      30.8600    -999.2500       7.1880       7.9620      11.1450       0.0764       2.6560
   2814.0662       9.3330       0.0185      64.9654      27.0739    -999.2500       8.2919       8.7403      16.0994       0.0752       2.6335
   2814.2185       9.3330       0.0220      63.2760      23.3330    -999.2500       9.3950       9.5180      21.0500       0.0737       2.6110
   2814.3708       9.3330       0.0110      60.2383      22.7738    -999.2500      10.7489      10.9240      15.9348       0.0699       2.6250
   2814.5232       9.3330       0.0000      57.2220      22.2220    -999.2500      12.1020      12.3290      10.8230       0.0660       2.6390
   2814.6758       9.3330       0.0000      67.5439      22.2220    -999.2500      13.0162      14.8512      19.0071       0.0615       2.6360
   2814.8281       9.3330       0.0000      77.7780      22.2220    -999.2500      13.9300      17.3680      27.1870       0.0567       2.6330
   2814.9805       9.3330      -0.0030      73.2009      22.5179    -999.2500      15.8309      18.9601      29.4429       0.0468       2.6385
   2815.1328       9.3330      -0.0060      68.6620      22.8100    -999.2500      17.7310      20.5490      31.6980       0.0371       2.6440
   2815.2854       9.3330      -0.0060      63.1297      23.0732    -999.2500      18.8657      20.7997      27.9680       0.0367       2.6415
   2815.4377       9.3330      -0.0060      57.6430      23.3330    -999.2500      20.0000      21.0500      24.2390       0.0367       2.6390
   2815.5901       9.3330      -0.0085      56.0731      23.8740    -999.2500      21.6016      21.5845      22.6444       0.0367       2.6390
   2815.7424       9.3330      -0.0110      54.5160      24.4080    -999.2500      23.2030      22.1180      21.0500       0.0367       2.6390
   2815.8950       9.3885      -0.0100      54.2012      26.6629    -999.2500      26.6600      23.0593      36.9627       0.0367       2.6475
   2816.0474       9.4440      -0.0090      53.8890      28.8890    -999.2500      30.1170      23.9990      52.8750       0.0366       2.6560
   2816.1997       9.3885      -0.0025      56.1288      28.2077    -999.2500      28.9156      26.3082      36.9633       0.0350       2.6530
   2816.3521       9.3330       0.0040      58.3510      27.5350    -999.2500      27.7140      28.6140      21.0500       0.0334       2.6500
   2816.5044       9.3675       0.0075      59.4578      25.4208    -999.2500      25.0043      26.4955      27.2102       0.0333       2.6535
   2816.6570       9.4020       0.0110      60.5560      23.3330    -999.2500      22.2940      24.3800      33.3620       0.0334       2.6570
   2816.8093       9.4705       0.0065      58.9072      23.8049    -999.2500      19.7245      20.7647      24.4179       0.0361       2.6590
   2816.9617       9.5390       0.0020      57.2710      24.2710    -999.2500      17.1540      17.1540      15.4850       0.0390       2.6610
   2817.1140       9.5475      -0.0020      54.7370      26.1435    -999.2500      25.2625      19.9145      27.1976       0.0446       2.6360
   2817.2666       9.5560      -0.0060      52.2220      27.9930    -999.2500      33.3620      22.6720      38.8970       0.0501       2.6110
   2817.4189       9.6030      -0.0050      52.6957      29.7200    -999.2500      28.6316      28.0197      23.4218       0.0532       2.6120
   2817.5713       9.6500      -0.0040      53.1660      31.4260    -999.2500      23.9060      33.3620       7.9620       0.0563       2.6130
   2817.7236       9.7696      -0.0020      54.9264      31.8264    -999.2500      14.8776      25.6727       8.5092       0.0631       2.6205
   2817.8762       9.8890       0.0000      56.6740      32.2220    -999.2500       5.8570      17.9900       9.0560       0.0702       2.6280
   2818.0286       9.8890       0.0000      57.7855      32.2220    -999.2500       8.0713      12.4074      12.6783       0.0830       2.6200
   2818.1809       9.8890       0.0000      58.8890      32.2220    -999.2500      10.2840       6.8290      16.2980       0.0960       2.6120
   2818.3333       9.8335       0.0000      58.6100      30.5443    -999.2500       8.1698       7.3957      12.3023       0.1122       2.5895
   2818.4856       9.7780       0.0000      58.3330      28.8890    -999.2500       6.0570       7.9620       8.3090       0.1282       2.5670
   2818.6382       9.7780       0.0085      59.0249      28.8890    -999.2500       5.1828       6.1336       6.5406       0.1359       2.5690
   2818.7905       9.7780       0.0170      59.7110      28.8890    -999.2500       4.3090       4.3090       4.7730       0.1428       2.5710
   2818.9429       9.7780       0.0055      60.6253      27.7707    -999.2500       4.3940       4.4832       5.3776       0.1295       2.5855
   2819.0952       9.7780      -0.0060      61.5320      26.6670    -999.2500       4.4790       4.6570       5.9820       0.1158       2.6000
   2819.2478       9.7780       0.0090      62.1576      27.7852    -999.2500       4.7005       5.0549       7.7752       0.1046       2.6155
   2819.4001       9.7780       0.0240      62.7780      28.8890    -999.2500       4.9220       5.4520       9.5680       0.0933       2.6310
   2819.5525       9.7780       0.0621      62.0937      27.9751    -999.2500       5.3085       5.8809      12.1406       0.0805       2.6460
   2819.7048       9.7780       0.1000      61.4150      27.0730    -999.2500       5.6950       6.3090      14.7130       0.0677       2.6610
   2819.8572       9.7780       0.0469      54.8478      25.7501    -999.2500       7.5690       7.1587      14.3460       0.0605       2.6445
   2820.0098       9.7780      -0.0060      48.3330      24.4440    -999.2500       9.4430       8.0070      13.9790       0.0535       2.6280
   2820.1621       9.7920      -0.0060      50.8303      24.8732    -999.2500      12.0778      10.0000      18.0667       0.0542       2.6285
   2820.3145       9.8060      -0.0060      53.3080      25.2970    -999.2500      14.7130      11.9900      22.1550       0.0551       2.6290
   2820.4668       9.8475      -0.0060      63.6384      26.5453    -999.2500      14.1947      11.7048      21.1268       0.0615       2.6310
   2820.6194       9.8890      -0.0060      73.8890      27.7780    -999.2500      13.6770      11.4200      20.1000       0.0680       2.6330
   2820.7717       9.8890      -0.0060      71.1782      25.5417    -999.2500      12.5093      10.2403      18.7617       0.0815       2.6330
   2820.9241       9.8890      -0.0060      68.4880      23.3330    -999.2500      11.3430       9.0620      17.4250       0.0951       2.6330
   2821.0764       9.9906      -0.0115      62.5553      23.3330    -999.2500      10.3740       8.3466      16.1658       0.1069       2.6445
   2821.2290      10.0920      -0.0170      56.6670      23.3330    -999.2500       9.4060       7.6320      14.9080       0.1185       2.6560
   2821.3813      10.1570      -0.0085      57.2245      25.0102    -999.2500       6.9693       6.4594      11.9086       0.1243       2.6420
   2821.5337      10.2220       0.0000      57.7780      26.6670    -999.2500       4.5350       5.2880       8.9120       0.1299       2.6280
   2821.6860      10.2250      -0.0055      56.9415      25.5479    -999.2500       4.6611       5.2880       7.6995       0.1234       2.6280
   2821.8384      10.2280      -0.0110      56.1110      24.4440    -999.2500       4.7870       5.2880       6.4880       0.1168       2.6280
   2821.9910      10.3996      -0.0060      56.9475      25.4029    -999.2500       5.6378       5.8887       7.2248       0.1176       2.6170
