#------------------------------------------------------------------------------
#
#   Created by  : [OpenWorks] Log Export Utility (LEXP)
#   Created on  : 2016-05-19 09:45:26
#   Project     : CANT971
#   User        : R5K
#   Interpreter : PEP
#
#------------------------------------------------------------------------------
~VERSION INFORMATION
VERS. 2.0 : CWLS Log ASCII Standard - version 2.0
WRAP.  NO : One line per depth step
~WELL INFORMATION
#MNEMONIC   .UNIT                                           VALUE :DESCRIPTION
#------------------------------------------------------------------------------
STRT        .M                                           500.7865 :START DEPTH
STOP        .M                                          2967.5330 :STOP DEPTH
STEP        .M                                             0.1524 :STEP
NULL        .                                           -999.2500 :NULL VALUE
COMP        .                                   PEMEX EXPL & PROD :COMPANY
WELL        .                                                2294 :WELL
FLD         .                                           CANTARELL :FIELD
LOC         .                                             UNKNOWN :LOCATION
CNTY        .                                      CD. DEL CARMEN :COUNTY
STAT        .                                            CAMPECHE :STATE
CTRY        .                                              MEXICO :COUNTRY
SRVC        .                                             UNKNOWN :SERVICE COMPANY
DATE        .                                             UNKNOWN :LOG DATE
UWI         .                                          3060000528 :UNIQUE WELL ID
XCOORD      .                                       597712.870000 :SURFACE X
YCOORD      .                                      2140963.740000 :SURFACE Y
LAT         .                                           19.361511 :LATITUDE
LON         .                                          -92.069629 :LONGITUDE
ELEV        .M                                            23.0000 :SURFACE ELEV
ELEV_TYPE   .                                                  KB :ELEV TYPE
~CURVE INFORMATION
#MNEMONIC.UNIT        API CODE       : CURVE DESCRIPTION
#------------------------------------------------------------------------------
DEPTH    .M                          : Measured Depth
CALI     .inches      UNKNOWN        : CALI:registros:rC:NONE:v0 (auto-composite)
DRHO     .g/cm3       UNKNOWN        : DRHO:registros:rC:NONE:v0 (auto-composite)
DT       .UNKNOWN     UNKNOWN        : DT:registros:rC:NONE:v0 (auto-composite)
GR       .API         UNKNOWN        : GR:registros:rC:NONE:v0 (auto-composite)
ILD      .ohm.m       UNKNOWN        : ILD:registros:rC:NONE:v0 (auto-composite)
LLD      .ohm.m       UNKNOWN        : LLD:registros:rC:NONE:v0 (auto-composite)
LLS      .ohm.m       UNKNOWN        : LLS:registros:rC:NONE:v0 (auto-composite)
MSFL     .ohm.m       UNKNOWN        : MSFL:registros:rC:NONE:v0 (auto-composite)
NPHI     .UNKNOWN     UNKNOWN        : NPHI:registros:rC:NONE:v0 (auto-composite)
RHOB     .g/cm3       UNKNOWN        : RHOB:registros:rC:NONE:v0 (auto-composite)
~A     DEPTH         CALI         DRHO           DT           GR          ILD          LLD          LLS         MSFL         NPHI         RHOB
# ...
   2796.5400      10.1110       0.0830     102.2220      47.7780    -999.2500       3.9530       2.8610       5.2880       0.1456       2.5390
   2796.6924      10.0555       0.0445     100.1142      48.5484    -999.2500       4.6935       4.0964      10.0268       0.1454       2.5475
   2796.8450      10.0000       0.0060      98.0230      49.3090    -999.2500       5.4340       5.3300      14.7660       0.1432       2.5560
   2796.9973      10.0000       0.0075      93.5551      49.6567    -999.2500       9.3576       8.3631      30.0570       0.1341       2.5695
   2797.1497      10.0000       0.0090      89.1220      50.0000    -999.2500      13.2820      11.3920      45.3510       0.1227       2.5830
   2797.3020      10.0000       0.0240      86.7740      51.8253    -999.2500      12.2602      10.9352      29.1542       0.1004       2.6000
   2797.4546      10.0000       0.0390      84.4440      53.6280    -999.2500      11.2380      10.4790      12.9520       0.0793       2.6170
   2797.6069      10.0000       0.0165      86.6749      51.8028    -999.2500       7.0505       7.4728       9.1209       0.0777       2.5900
   2797.7593      10.0000      -0.0060      88.8890      50.0000    -999.2500       2.8610       4.4700       5.2880       0.0835       2.5630
   2797.9116       9.9445       0.0165      85.8221      50.0000    -999.2500       2.9375       3.6651       6.6257       0.1260       2.4924
   2798.0642       9.8890       0.0390      82.7780      50.0000    -999.2500       3.0140       2.8610       7.9620       0.1683       2.4220
   2798.2166       9.8890       0.0280      85.5656      49.4708    -999.2500       3.6388       3.0851       6.1347       0.1718       2.4470
   2798.3689       9.8890       0.0170      88.3330      48.9480    -999.2500       4.2630       3.3090       4.3090       0.1690       2.4720
   2798.5212       9.9275       0.0210      85.8240      47.2405    -999.2500       5.0603       3.9768       6.1362       0.1568       2.5115
   2798.6736       9.9660       0.0250      83.3330      45.5560    -999.2500       5.8570       4.6440       7.9620       0.1450       2.5510
   2798.8262       9.9830       0.0415      80.5457      45.5560    -999.2500       5.3583       4.9661       7.6074       0.1464       2.5615
   2798.9785      10.0000       0.0580      77.7780      45.5560    -999.2500       4.8600       5.2880       7.2530       0.1496       2.5720
   2799.1309      10.0555       0.0760      78.8929      45.5560    -999.2500       4.0978       4.3993       6.4088       0.1543       2.5500
   2799.2832      10.1110       0.0940      80.0000      45.5560    -999.2500       3.3360       3.5110       5.5650       0.1599       2.5280
   2799.4358      10.1110       0.0470      79.4422      44.9676    -999.2500       4.3122       3.5110       5.7190       0.1709       2.5305
   2799.5881      10.1110       0.0000      78.8890      44.3870    -999.2500       5.2880       3.5110       5.8730       0.1823       2.5330
   2799.7405      10.1110       0.0030      77.4943      40.5017    -999.2500       4.8639       3.6715       6.3511       0.1917       2.5285
   2799.8928      10.1110       0.0060      76.1110      36.6670    -999.2500       4.4400       3.8320       6.8290       0.2009       2.5240
   2800.0454      10.0555       0.0225      76.7712      38.4319    -999.2500       3.7259       4.0707       6.2050       0.2105       2.5025
   2800.1978      10.0000       0.0390      77.4260      40.1740    -999.2500       3.0120       4.3090       5.5810       0.2186       2.4810
   2800.3501      10.0000       0.0305      78.1604      38.4092    -999.2500       3.3560       3.9097       4.9450       0.2149       2.4655
   2800.5024      10.0000       0.0220      78.8890      36.6670    -999.2500       3.7000       3.5110       4.3090       0.2081       2.4500
   2800.6548      10.0000       0.0195      72.7538      37.1757    -999.2500       4.0045       3.8027       4.8295       0.1866       2.5055
   2800.8074      10.0000       0.0170      66.6670      37.6780    -999.2500       4.3090       4.0940       5.3500       0.1656       2.5610
   2800.9597      10.0000       0.0180      69.1767      40.1535    -999.2500       4.5150       3.9814       6.4574       0.1648       2.5525
   2801.1121      10.0000       0.0190      71.6670      42.5980    -999.2500       4.7210       3.8690       7.5650       0.1663       2.5440
   2801.2644       9.9445       0.0240      71.1094      43.8996    -999.2500       5.0044       4.3213       6.5644       0.1682       2.5315
   2801.4170       9.8890       0.0290      70.5560      45.1850    -999.2500       5.2880       4.7730       5.5650       0.1693       2.5190
   2801.5693       9.8890       0.0310      70.5560      45.3716    -999.2500       4.1503       4.1416       6.7642       0.1641       2.5125
   2801.7217       9.8890       0.0330      70.5560      45.5560    -999.2500       3.0120       3.5110       7.9620       0.1576       2.5060
   2801.8740       9.8335       0.0165      71.2591      45.5560    -999.2500       3.3542       3.8026       6.7629       0.1458       2.5350
   2802.0266       9.7780       0.0000      71.9570      45.5560    -999.2500       3.6960       4.0940       5.5650       0.1344       2.5640
   2802.1790       9.7780       0.0000      73.2050      45.0137    -999.2500       3.4329       3.8024       5.2944       0.1333       2.5765
   2802.3313       9.7780       0.0000      74.4440      44.4780    -999.2500       3.1700       3.5110       5.0240       0.1333       2.5890
   2802.4836       9.7780       0.0000      74.4440      40.5460    -999.2500       3.9928       3.5110       5.7363       0.1333       2.5890
   2802.6360       9.7780       0.0000      74.4440      36.6670    -999.2500       4.8150       3.5110       6.4480       0.1340       2.5890
   2802.7886       9.7780       0.0040      74.4440      37.0928    -999.2500       5.6202       3.5110       7.2052       0.1417       2.5695
   2802.9409       9.7780       0.0080      74.4440      37.5130    -999.2500       6.4250       3.5110       7.9620       0.1490       2.5500
   2803.0933       9.6110       0.0095      75.5593      39.8394    -999.2500       6.8066       4.2502       5.9255       0.1467       2.5720
   2803.2456       9.4440       0.0110      76.6670      42.1350    -999.2500       7.1880       4.9890       3.8900       0.1428       2.5940
   2803.3982       9.5555      -0.0000      75.4389      43.2971    -999.2500       5.7482       5.9092       6.8310       0.1317       2.5885
   2803.5505       9.6670      -0.0110      74.2210      44.4440    -999.2500       4.3090       6.8290       9.7710       0.1210       2.5830
   2803.7029       9.6435       0.0140      67.6390      43.9755    -999.2500       4.7676       5.6819       8.1293       0.1207       2.5665
   2803.8552       9.6200       0.0390      61.1110      43.5130    -999.2500       5.2260       4.5350       6.4880       0.1218       2.5500
   2804.0078       9.5320       0.0360      61.8234      42.3042    -999.2500       7.7551       4.5350       8.3861       0.1274       2.4609
   2804.1602       9.4440       0.0330      62.5300      41.1110    -999.2500      10.2840       4.5350      10.2840       0.1322       2.3720
   2804.3125       9.4440       0.0470      65.0852      42.5492    -999.2500       8.1790       6.0512       8.6060       0.1250       2.2829
   2804.4648       9.4440       0.0610      67.6200      43.9690    -999.2500       6.0740       7.5650       6.9280       0.1176       2.1940
   2804.6172       9.8330       0.0355      69.2017      44.7675    -999.2500       4.3966       4.7805       4.8946       0.1203       2.3192
   2804.7698      10.2220       0.0100      70.7710      45.5560    -999.2500       2.7190       2.0000       2.8610       0.1295       2.4440
   2804.9221      11.0859       0.0020      77.6340      47.2330    -999.2500       4.0928       2.4168       4.9552       0.1986       2.3719
