#------------------------------------------------------------------------------
#
#   Created by  : [OpenWorks] Log Export Utility (LEXP)
#   Created on  : 2016-05-19 10:37:47
#   Project     : CANT971
#   User        : R5K
#   Interpreter : PEP
#
#------------------------------------------------------------------------------
~VERSION INFORMATION
VERS. 2.0 : CWLS Log ASCII Standard - version 2.0
WRAP.  NO : One line per depth step
~WELL INFORMATION
#MNEMONIC   .UNIT                                           VALUE :DESCRIPTION
#------------------------------------------------------------------------------
STRT        .M                                           493.6236 :START DEPTH
STOP        .M                                          2733.4463 :STOP DEPTH
STEP        .M                                             0.1524 :STEP
NULL        .                                           -999.2500 :NULL VALUE
COMP        .                                   PEMEX EXPL & PROD :COMPANY
WELL        .                                                2295 :WELL
FLD         .                                           CANTARELL :FIELD
LOC         .                                             UNKNOWN :LOCATION
CNTY        .                                      CD. DEL CARMEN :COUNTY
STAT        .                                            CAMPECHE :STATE
CTRY        .                                              MEXICO :COUNTRY
SRVC        .                                             UNKNOWN :SERVICE COMPANY
DATE        .                                             UNKNOWN :LOG DATE
UWI         .                                          3060000234 :UNIQUE WELL ID
XCOORD      .                                       597311.680000 :SURFACE X
YCOORD      .                                      2143044.130000 :SURFACE Y
LAT         .                                           19.380330 :LATITUDE
LON         .                                          -92.073342 :LONGITUDE
ELEV        .M                                            27.7000 :SURFACE ELEV
ELEV_TYPE   .                                                  KB :ELEV TYPE
~CURVE INFORMATION
#MNEMONIC.UNIT        API CODE       : CURVE DESCRIPTION
#------------------------------------------------------------------------------
DEPTH    .M                          : Measured Depth
CALI     .inches      UNKNOWN        : CALI:Import:r9:MAIN:v1 
DRHO     .g/cm3       UNKNOWN        : DRHO:Import:r9:MAIN:v1 
DT       .us/ft       UNKNOWN        : DT:Import:r9:MAIN:v1 
GR       .API         UNKNOWN        : GR:Import:r9:MAIN:v1 
ILD      .ohm.m       UNKNOWN        : ILD:Import:r9:MAIN:v1 
LLD      .ohm.m       UNKNOWN        : LLD:Import:r9:MAIN:v1 
LLS      .ohm.m       UNKNOWN        : LLS:Import:r9:MAIN:v1 
MSFL     .ohm.m       UNKNOWN        : MSFL:Import:r9:MAIN:v1 
NPHI     .v/v_decimal UNKNOWN        : NPHI:Import:r9:MAIN:v1 
RHOB     .g/cm3       UNKNOWN        : RHOB:Import:r9:MAIN:v1 
SP       .mV          UNKNOWN        : SP:Import:r9:MAIN:v1 
~A     DEPTH         CALI         DRHO           DT           GR          ILD          LLD          LLS         MSFL         NPHI         RHOB           SP
# ...
    826.4652      16.2393       0.0520     117.5454      44.4933       1.8974    -999.2500    -999.2500    -999.2500    -999.2500       2.2850     -22.6116
    826.6176      16.3390       0.0580     118.0000      44.9270       1.8510    -999.2500    -999.2500    -999.2500    -999.2500       2.2900     -22.0000
    826.7700      16.4047       0.0525     118.0000      45.3147       1.8264    -999.2500    -999.2500    -999.2500    -999.2500       2.2865     -22.1047
    826.9224      16.4700       0.0470     118.0000      45.7000       1.8020    -999.2500    -999.2500    -999.2500    -999.2500       2.2830     -22.2090
    827.0748      16.4850       0.0475     118.7006      45.5997       1.7819    -999.2500    -999.2500    -999.2500    -999.2500       2.2765     -22.6746
    827.2272      16.5000       0.0480     119.3970      45.5000       1.7620    -999.2500    -999.2500    -999.2500    -999.2500       2.2700     -23.1380
    827.3796      16.5702       0.0500     120.2008      45.7507       1.7510    -999.2500    -999.2500    -999.2500    -999.2500       2.2700     -23.4197
    827.5320      16.6400       0.0520     121.0000      46.0000       1.7400    -999.2500    -999.2500    -999.2500    -999.2500       2.2700     -23.7000
    827.6844      16.6701       0.0440     120.6475      45.8591       1.7400    -999.2500    -999.2500    -999.2500    -999.2500       2.2650     -23.5998
    827.8368      16.7000       0.0360     120.2970      45.7190       1.7400    -999.2500    -999.2500    -999.2500    -999.2500       2.2600     -23.5000
    827.9892      16.6499       0.0270     119.4430      45.4477       1.7450    -999.2500    -999.2500    -999.2500    -999.2500       2.2670     -23.8523
    828.1416      16.6000       0.0180     118.5940      45.1780       1.7500    -999.2500    -999.2500    -999.2500    -999.2500       2.2740     -24.2030
    828.2940      16.6351       0.0210     117.7945      44.5370       1.7465    -999.2500    -999.2500    -999.2500    -999.2500       2.2820     -24.8816
    828.4464      16.6700       0.0240     117.0000      43.9000       1.7430    -999.2500    -999.2500    -999.2500    -999.2500       2.2900     -25.5570
    828.5988      16.7558       0.0315     117.7071      44.5720       1.7275    -999.2500    -999.2500    -999.2500    -999.2500       2.2795     -26.4505
    828.7512      16.8410       0.0390     118.4100      45.2400       1.7120    -999.2500    -999.2500    -999.2500    -999.2500       2.2690     -27.3400
    828.9036      16.9769       0.0540     120.4771      46.3714       1.6809    -999.2500    -999.2500    -999.2500    -999.2500       2.2545     -27.6707
    829.0560      17.1120       0.0690     122.5320      47.4960       1.6500    -999.2500    -999.2500    -999.2500    -999.2500       2.2400     -28.0000
    829.2084      17.2273       0.0660     124.3352      48.0626       1.6184    -999.2500    -999.2500    -999.2500    -999.2500       2.2450     -27.5379
    829.3608      17.3420       0.0630     126.1280      48.6260       1.5870    -999.2500    -999.2500    -999.2500    -999.2500       2.2500     -27.0780
    829.5132      17.4067       0.0515     127.2768      49.2468       1.5644    -999.2500    -999.2500    -999.2500    -999.2500       2.2430     -26.3552
    829.6656      17.4710       0.0400     128.4190      49.8640       1.5420    -999.2500    -999.2500    -999.2500    -999.2500       2.2360     -25.6360
    829.8180      17.5211       0.0305     129.2119      50.3680       1.5255    -999.2500    -999.2500    -999.2500    -999.2500       2.2230     -24.9539
    829.9704      17.5710       0.0210     130.0000      50.8690       1.5090    -999.2500    -999.2500    -999.2500    -999.2500       2.2100     -24.2750
    830.1228      17.5855       0.0180     129.6429      51.2703       1.4975    -999.2500    -999.2500    -999.2500    -999.2500       2.2135     -23.8866
    830.2752      17.6000       0.0150     129.2880      51.6690       1.4860    -999.2500    -999.2500    -999.2500    -999.2500       2.2170     -23.5000
    830.4276      17.6000       0.0125     127.6390      52.3932       1.4760    -999.2500    -999.2500    -999.2500    -999.2500       2.2185     -23.5717
    830.5800      17.6000       0.0100     126.0000      53.1130       1.4660    -999.2500    -999.2500    -999.2500    -999.2500       2.2200     -23.6430
    830.7324      17.6000       0.0100     126.3591      53.5077       1.4485    -999.2500    -999.2500    -999.2500    -999.2500       2.2130     -23.9943
    830.8848      17.6000       0.0100     126.7160      53.9000       1.4310    -999.2500    -999.2500    -999.2500    -999.2500       2.2060     -24.3440
    831.0372      17.6000       0.0140     127.9356      53.1458       1.4145    -999.2500    -999.2500    -999.2500    -999.2500       2.1930     -24.8672
    831.1896      17.6000       0.0180     129.1480      52.3960       1.3980    -999.2500    -999.2500    -999.2500    -999.2500       2.1800     -25.3880
    831.3420      17.6000       0.0245     130.6548      51.3951       1.3830    -999.2500    -999.2500    -999.2500    -999.2500       2.1800     -25.7950
    831.4944      17.6000       0.0310     132.1530      50.4000       1.3680    -999.2500    -999.2500    -999.2500    -999.2500       2.1800     -26.2000
    831.6468      17.6000       0.0370     132.9377      50.7600       1.3570    -999.2500    -999.2500    -999.2500    -999.2500       2.1800     -26.0922
    831.7992      17.6000       0.0430     133.7180      51.1180       1.3460    -999.2500    -999.2500    -999.2500    -999.2500       2.1800     -25.9850
    831.9516      17.6000       0.0410     134.5810      51.5483       1.3380    -999.2500    -999.2500    -999.2500    -999.2500       2.1730     -25.7981
    832.1040      17.6000       0.0390     135.4390      51.9760       1.3300    -999.2500    -999.2500    -999.2500    -999.2500       2.1660     -25.6120
    832.2564      17.6000       0.0355     136.7234      52.5593       1.3300    -999.2500    -999.2500    -999.2500    -999.2500       2.1530     -25.3750
    832.4088      17.6000       0.0320     138.0000      53.1390       1.3300    -999.2500    -999.2500    -999.2500    -999.2500       2.1400     -25.1390
    832.5612      17.6000       0.0275     136.9970      54.3712       1.3300    -999.2500    -999.2500    -999.2500    -999.2500       2.1400     -24.5988
    832.7136      17.6000       0.0230     136.0000      55.5960       1.3300    -999.2500    -999.2500    -999.2500    -999.2500       2.1400     -24.0610
    832.8660      17.5639       0.0230     136.0000      56.3262       1.3300    -999.2500    -999.2500    -999.2500    -999.2500       2.1350     -23.3353
    833.0184      17.5280       0.0230     136.0000      57.0520       1.3300    -999.2500    -999.2500    -999.2500    -999.2500       2.1300     -22.6130
    833.1708      17.4779       0.0260     136.7266      57.4672       1.3300    -999.2500    -999.2500    -999.2500    -999.2500       2.1300     -22.0050
    833.3232      17.4280       0.0290     137.4490      57.8800       1.3300    -999.2500    -999.2500    -999.2500    -999.2500       2.1300     -21.4000
    833.4756      17.3774       0.0280     138.0893      58.9736       1.3225    -999.2500    -999.2500    -999.2500    -999.2500       2.1225     -21.6185
    833.6280      17.3270       0.0270     138.7260      60.0610       1.3150    -999.2500    -999.2500    -999.2500    -999.2500       2.1150     -21.8360
    833.7804      17.2768       0.0220     139.5946      60.4818       1.3050    -999.2500    -999.2500    -999.2500    -999.2500       2.1025     -22.2470
    833.9328      17.2270       0.0170     140.4580      60.9000       1.2950    -999.2500    -999.2500    -999.2500    -999.2500       2.0900     -22.6560
    834.0852      17.1633       0.0120     140.7298      59.8467       1.2890    -999.2500    -999.2500    -999.2500    -999.2500       2.0900     -22.9978
    834.2376      17.1000       0.0070     141.0000      58.8000       1.2830    -999.2500    -999.2500    -999.2500    -999.2500       2.0900     -23.3380
