#------------------------------------------------------------------------------
#
#   Created by  : [OpenWorks] Log Export Utility (LEXP)
#   Created on  : 2016-05-19 10:37:47
#   Project     : CANT971
#   User        : R5K
#   Interpreter : PEP
#
#------------------------------------------------------------------------------
~VERSION INFORMATION
VERS. 2.0 : CWLS Log ASCII Standard - version 2.0
WRAP.  NO : One line per depth step
~WELL INFORMATION
#MNEMONIC   .UNIT                                           VALUE :DESCRIPTION
#------------------------------------------------------------------------------
STRT        .M                                           493.6236 :START DEPTH
STOP        .M                                          2733.4463 :STOP DEPTH
STEP        .M                                             0.1524 :STEP
NULL        .                                           -999.2500 :NULL VALUE
COMP        .                                   PEMEX EXPL & PROD :COMPANY
WELL        .                                                2295 :WELL
FLD         .                                           CANTARELL :FIELD
LOC         .                                             UNKNOWN :LOCATION
CNTY        .                                      CD. DEL CARMEN :COUNTY
STAT        .                                            CAMPECHE :STATE
CTRY        .                                              MEXICO :COUNTRY
SRVC        .                                             UNKNOWN :SERVICE COMPANY
DATE        .                                             UNKNOWN :LOG DATE
UWI         .                                          3060000234 :UNIQUE WELL ID
XCOORD      .                                       597311.680000 :SURFACE X
YCOORD      .                                      2143044.130000 :SURFACE Y
LAT         .                                           19.380330 :LATITUDE
LON         .                                          -92.073342 :LONGITUDE
ELEV        .M                                            27.7000 :SURFACE ELEV
ELEV_TYPE   .                                                  KB :ELEV TYPE
~CURVE INFORMATION
#MNEMONIC.UNIT        API CODE       : CURVE DESCRIPTION
#------------------------------------------------------------------------------
DEPTH    .M                          : Measured Depth
CALI     .inches      UNKNOWN        : CALI:Import:r9:MAIN:v1 
DRHO     .g/cm3       UNKNOWN        : DRHO:Import:r9:MAIN:v1 
DT       .us/ft       UNKNOWN        : DT:Import:r9:MAIN:v1 
GR       .API         UNKNOWN        : GR:Import:r9:MAIN:v1 
ILD      .ohm.m       UNKNOWN        : ILD:Import:r9:MAIN:v1 
LLD      .ohm.m       UNKNOWN        : LLD:Import:r9:MAIN:v1 
LLS      .ohm.m       UNKNOWN        : LLS:Import:r9:MAIN:v1 
MSFL     .ohm.m       UNKNOWN        : MSFL:Import:r9:MAIN:v1 
NPHI     .v/v_decimal UNKNOWN        : NPHI:Import:r9:MAIN:v1 
RHOB     .g/cm3       UNKNOWN        : RHOB:Import:r9:MAIN:v1 
SP       .mV          UNKNOWN        : SP:Import:r9:MAIN:v1 
~A     DEPTH         CALI         DRHO           DT           GR          ILD          LLD          LLS         MSFL         NPHI         RHOB           SP
# ...
    549.0972      18.0251       0.0915     138.4956      51.1732       1.3699    -999.2500    -999.2500    -999.2500    -999.2500       1.9875     -39.9787
    549.2496      17.9000       0.0980     137.0000      49.9000       1.3200    -999.2500    -999.2500    -999.2500    -999.2500       1.9750     -39.7030
    549.4020      17.9246       0.0880     137.2477      50.3212       1.3200    -999.2500    -999.2500    -999.2500    -999.2500       1.9675     -39.4031
    549.5544      17.9490       0.0780     137.4940      50.7400       1.3200    -999.2500    -999.2500    -999.2500    -999.2500       1.9600     -39.1050
    549.7068      18.0242       0.0780     138.2491      51.2956       1.3300    -999.2500    -999.2500    -999.2500    -999.2500       1.9801     -38.5780
    549.8592      18.0990       0.0780     139.0000      51.8480       1.3400    -999.2500    -999.2500    -999.2500    -999.2500       2.0000     -38.0540
    550.0116      18.1747       0.0810     138.0017      52.0746       1.3575    -999.2500    -999.2500    -999.2500    -999.2500       2.0351     -37.5265
    550.1640      18.2500       0.0840     137.0090      52.3000       1.3750    -999.2500    -999.2500    -999.2500    -999.2500       2.0700     -37.0020
    550.3164      18.2751       0.0920     135.5004      51.6984       1.3825    -999.2500    -999.2500    -999.2500    -999.2500       2.0600     -36.7503
    550.4688      18.3000       0.1000     134.0000      51.1000       1.3900    -999.2500    -999.2500    -999.2500    -999.2500       2.0500     -36.5000
    550.6212      18.3000       0.0965     134.0000      51.5513       1.3950    -999.2500    -999.2500    -999.2500    -999.2500       2.0274     -36.6253
    550.7736      18.3000       0.0930     134.0000      52.0000       1.4000    -999.2500    -999.2500    -999.2500    -999.2500       2.0050     -36.7500
    550.9260      18.2499       0.0845     134.7532      51.1715       1.3975    -999.2500    -999.2500    -999.2500    -999.2500       1.9699     -37.0508
    551.0784      18.2000       0.0760     135.5020      50.3480       1.3950    -999.2500    -999.2500    -999.2500    -999.2500       1.9350     -37.3500
    551.2308      18.2251       0.0675     136.7582      49.3712       1.3850    -999.2500    -999.2500    -999.2500    -999.2500       1.8924     -37.6769
    551.3832      18.2500       0.0590     138.0070      48.4000       1.3750    -999.2500    -999.2500    -999.2500    -999.2500       1.8500     -38.0020
    551.5356      18.4255       0.0525     139.0109      51.5089       1.3575    -999.2500    -999.2500    -999.2500    -999.2500       1.8550     -38.2527
    551.6880      18.6000       0.0460     140.0090      54.6000       1.3400    -999.2500    -999.2500    -999.2500    -999.2500       1.8600     -38.5020
    551.8404      18.5744       0.0515     144.0157      54.2455       1.3199    -999.2500    -999.2500    -999.2500    -999.2500       1.8775     -38.6775
    551.9928      18.5490       0.0570     148.0000      53.8930       1.3000    -999.2500    -999.2500    -999.2500    -999.2500       1.8950     -38.8520
    552.1452      18.4227       0.0786     147.7463      50.6878       1.3125    -999.2500    -999.2500    -999.2500    -999.2500       1.9281     -39.1293
    552.2976      18.2970       0.1000     147.4940      47.5000       1.3250    -999.2500    -999.2500    -999.2500    -999.2500       1.9610     -39.4050
    552.4500      18.1220       0.0930     141.9051      47.8008       1.3822    -999.2500    -999.2500    -999.2500    -999.2500       2.0312     -39.9083
    552.6024      17.9480       0.0860     136.3460      48.1000       1.4390    -999.2500    -999.2500    -999.2500    -999.2500       2.1010     -40.4090
    552.7548      17.7715       0.0695     128.1501      46.7708       1.5342    -999.2500    -999.2500    -999.2500    -999.2500       2.1607     -41.7530
    552.9072      17.5960       0.0530     120.0000      45.4490       1.6290    -999.2500    -999.2500    -999.2500    -999.2500       2.2200     -43.0900
    553.0596      17.4210       0.0701     122.8173      43.7355       1.7223    -999.2500    -999.2500    -999.2500    -999.2500       2.2125     -45.5061
    553.2120      17.2470       0.0870     125.6180      42.0320       1.8150    -999.2500    -999.2500    -999.2500    -999.2500       2.2050     -47.9090
    553.3644      17.1477       0.0860     132.9365      41.3581       1.9429    -999.2500    -999.2500    -999.2500    -999.2500       2.1819     -49.9258
    553.5168      17.0490       0.0850     140.2130      40.6880       2.0700    -999.2500    -999.2500    -999.2500    -999.2500       2.1590     -51.9310
    553.6692      16.9743       0.0820     152.6414      40.4177       2.0650    -999.2500    -999.2500    -999.2500    -999.2500       2.1394     -52.9017
    553.8216      16.9000       0.0790     165.0000      40.1490       2.0600    -999.2500    -999.2500    -999.2500    -999.2500       2.1200     -53.8670
    553.9740      16.9000       0.0765     164.4986      39.1217       1.9993    -999.2500    -999.2500    -999.2500    -999.2500       2.1100     -54.7514
    554.1264      16.9000       0.0740     164.0000      38.1000       1.9390    -999.2500    -999.2500    -999.2500    -999.2500       2.1000     -55.6310
    554.2788      16.9000       0.0720     166.0721      38.7217       1.8362    -999.2500    -999.2500    -999.2500    -999.2500       2.0900     -56.6071
    554.4312      16.9000       0.0700     168.1330      39.3400       1.7340    -999.2500    -999.2500    -999.2500    -999.2500       2.0800     -57.5780
    554.5836      16.9000       0.0530     174.5847      41.4259       1.6498    -999.2500    -999.2500    -999.2500    -999.2500       2.0850     -58.3911
    554.7360      16.9000       0.0360     181.0000      43.5000       1.5660    -999.2500    -999.2500    -999.2500    -999.2500       2.0900     -59.2000
    554.8884      16.9000       0.0365     179.1801      42.7724       1.4878    -999.2500    -999.2500    -999.2500    -999.2500       2.0800     -59.0702
    555.0408      16.9000       0.0370     177.3710      42.0490       1.4100    -999.2500    -999.2500    -999.2500    -999.2500       2.0700     -58.9410
    555.1932      16.9000       0.0420     169.1703      40.1485       1.4100    -999.2500    -999.2500    -999.2500    -999.2500       2.0805     -58.2216
    555.3456      16.9000       0.0470     161.0170      38.2590       1.4100    -999.2500    -999.2500    -999.2500    -999.2500       2.0910     -57.5060
    555.4980      16.9521       0.0540     148.9899      36.8254       1.4255    -999.2500    -999.2500    -999.2500    -999.2500       2.1161     -55.7771
    555.6504      17.0040       0.0610     137.0310      35.4000       1.4410    -999.2500    -999.2500    -999.2500    -999.2500       2.1410     -54.0580
    555.8028      17.1048       0.0670     128.4919      37.4557       1.4761    -999.2500    -999.2500    -999.2500    -999.2500       2.1606     -51.1138
    555.9552      17.2050       0.0730     120.0000      39.5000       1.5110    -999.2500    -999.2500    -999.2500    -999.2500       2.1800     -48.1860
    556.1076      17.3028       0.0670     120.7881      39.1992       1.5707    -999.2500    -999.2500    -999.2500    -999.2500       2.1750     -45.0696
    556.2600      17.4000       0.0610     121.5720      38.9000       1.6300    -999.2500    -999.2500    -999.2500    -999.2500       2.1700     -41.9700
    556.4124      17.3499       0.0715     122.8145      38.9792       1.6245    -999.2500    -999.2500    -999.2500    -999.2500       2.1550     -40.1552
    556.5648      17.3000       0.0820     124.0500      39.0580       1.6190    -999.2500    -999.2500    -999.2500    -999.2500       2.1400     -38.3500
    556.7172      17.3000       0.0815     124.7912      39.9231       1.6040    -999.2500    -999.2500    -999.2500    -999.2500       2.1450     -37.4507
    556.8696      17.3000       0.0810     125.5280      40.7830       1.5890    -999.2500    -999.2500    -999.2500    -999.2500       2.1500     -36.5560
