#------------------------------------------------------------------------------
#
#   Created by  : [OpenWorks] Log Export Utility (LEXP)
#   Created on  : 2016-05-19 10:37:47
#   Project     : CANT971
#   User        : R5K
#   Interpreter : PEP
#
#------------------------------------------------------------------------------
~VERSION INFORMATION
VERS. 2.0 : CWLS Log ASCII Standard - version 2.0
WRAP.  NO : One line per depth step
~WELL INFORMATION
#MNEMONIC   .UNIT                                           VALUE :DESCRIPTION
#------------------------------------------------------------------------------
STRT        .M                                           493.6236 :START DEPTH
STOP        .M                                          2733.4463 :STOP DEPTH
STEP        .M                                             0.1524 :STEP
NULL        .                                           -999.2500 :NULL VALUE
COMP        .                                   PEMEX EXPL & PROD :COMPANY
WELL        .                                                2295 :WELL
FLD         .                                           CANTARELL :FIELD
LOC         .                                             UNKNOWN :LOCATION
CNTY        .                                      CD. DEL CARMEN :COUNTY
STAT        .                                            CAMPECHE :STATE
CTRY        .                                              MEXICO :COUNTRY
SRVC        .                                             UNKNOWN :SERVICE COMPANY
DATE        .                                             UNKNOWN :LOG DATE
UWI         .                                          3060000234 :UNIQUE WELL ID
XCOORD      .                                       597311.680000 :SURFACE X
YCOORD      .                                      2143044.130000 :SURFACE Y
LAT         .                                           19.380330 :LATITUDE
LON         .                                          -92.073342 :LONGITUDE
ELEV        .M                                            27.7000 :SURFACE ELEV
ELEV_TYPE   .                                                  KB :ELEV TYPE
~CURVE INFORMATION
#MNEMONIC.UNIT        API CODE       : CURVE DESCRIPTION
#------------------------------------------------------------------------------
DEPTH    .M                          : Measured Depth
CALI     .inches      UNKNOWN        : CALI:Import:r9:MAIN:v1 
DRHO     .g/cm3       UNKNOWN        : DRHO:Import:r9:MAIN:v1 
DT       .us/ft       UNKNOWN        : DT:Import:r9:MAIN:v1 
GR       .API         UNKNOWN        : GR:Import:r9:MAIN:v1 
ILD      .ohm.m       UNKNOWN        : ILD:Import:r9:MAIN:v1 
LLD      .ohm.m       UNKNOWN        : LLD:Import:r9:MAIN:v1 
LLS      .ohm.m       UNKNOWN        : LLS:Import:r9:MAIN:v1 
MSFL     .ohm.m       UNKNOWN        : MSFL:Import:r9:MAIN:v1 
NPHI     .v/v_decimal UNKNOWN        : NPHI:Import:r9:MAIN:v1 
RHOB     .g/cm3       UNKNOWN        : RHOB:Import:r9:MAIN:v1 
SP       .mV          UNKNOWN        : SP:Import:r9:MAIN:v1 
~A     DEPTH         CALI         DRHO           DT           GR          ILD          LLD          LLS         MSFL         NPHI         RHOB           SP
# ...
    984.9612      13.4000       0.0090     102.3854      47.8480       2.3899    -999.2500    -999.2500    -999.2500    -999.2500       2.3450     -10.5925
    985.1136      13.4000       0.0050     103.0000      47.2000       2.3590    -999.2500    -999.2500    -999.2500    -999.2500       2.3500     -10.8310
    985.2660      13.4000       0.0060     103.1936      47.3354       2.3249    -999.2500    -999.2500    -999.2500    -999.2500       2.3350     -11.2478
    985.4184      13.4000       0.0070     103.3860      47.4700       2.2910    -999.2500    -999.2500    -999.2500    -999.2500       2.3200     -11.6630
    985.5708      13.4582       0.0110     104.0822      48.1371       2.2694    -999.2500    -999.2500    -999.2500    -999.2500       2.3200     -12.2457
    985.7232      13.5160       0.0150     104.7740      48.8000       2.2480    -999.2500    -999.2500    -999.2500    -999.2500       2.3200     -12.8260
    985.8756      13.6278       0.0150     105.3889      48.6997       2.2350    -999.2500    -999.2500    -999.2500    -999.2500       2.3220     -13.3141
    986.0280      13.7390       0.0150     106.0000      48.6000       2.2220    -999.2500    -999.2500    -999.2500    -999.2500       2.3240     -13.8000
    986.1804      13.7696       0.0125     104.9970      48.7505       2.2080    -999.2500    -999.2500    -999.2500    -999.2500       2.3370     -13.5494
    986.3328      13.8000       0.0100     104.0000      48.9000       2.1940    -999.2500    -999.2500    -999.2500    -999.2500       2.3500     -13.3000
    986.4852      13.6997       0.0100     104.3927      47.3454       2.1760    -999.2500    -999.2500    -999.2500    -999.2500       2.3400     -13.4568
    986.6376      13.6000       0.0100     104.7830      45.8000       2.1580    -999.2500    -999.2500    -999.2500    -999.2500       2.3300     -13.6130
    986.7900      13.6196       0.0155     105.7864      46.5080       2.1390    -999.2500    -999.2500    -999.2500    -999.2500       2.3300     -14.2578
    986.9424      13.6390       0.0210     106.7840      47.2120       2.1200    -999.2500    -999.2500    -999.2500    -999.2500       2.3300     -14.9000
    987.0948      13.6892       0.0340     107.5909      49.0395       2.0909    -999.2500    -999.2500    -999.2500    -999.2500       2.3350     -14.7818
    987.2472      13.7390       0.0470     108.3930      50.8560       2.0620    -999.2500    -999.2500    -999.2500    -999.2500       2.3400     -14.6640
    987.3996      13.8684       0.0435     108.8951      52.0317       2.0309    -999.2500    -999.2500    -999.2500    -999.2500       2.3300     -14.3434
    987.5520      13.9970       0.0400     109.3940      53.2000       2.0000    -999.2500    -999.2500    -999.2500    -999.2500       2.3200     -14.0240
    987.7044      14.1991       0.0310     110.1995      52.0464       1.9800    -999.2500    -999.2500    -999.2500    -999.2500       2.3200     -13.5530
    987.8568      14.4000       0.0220     111.0000      50.9000       1.9600    -999.2500    -999.2500    -999.2500    -999.2500       2.3200     -13.0840
    988.0092      14.3498       0.0225     110.4985      51.0600       1.9600    -999.2500    -999.2500    -999.2500    -999.2500       2.3200     -12.6911
    988.1616      14.3000       0.0230     110.0000      51.2190       1.9600    -999.2500    -999.2500    -999.2500    -999.2500       2.3200     -12.3000
    988.3140      14.3201       0.0245     110.2001      52.0003       1.9600    -999.2500    -999.2500    -999.2500    -999.2500       2.3200     -12.4598
    988.4664      14.3400       0.0260     110.3990      52.7770       1.9600    -999.2500    -999.2500    -999.2500    -999.2500       2.3200     -12.6190
    988.6188      14.3701       0.0200     110.7004      54.0522       1.9650    -999.2500    -999.2500    -999.2500    -999.2500       2.3100     -12.9201
    988.7712      14.4000       0.0140     111.0000      55.3200       1.9700    -999.2500    -999.2500    -999.2500    -999.2500       2.3000     -13.2200
    988.9236      14.4502       0.0150     111.0000      56.9149       1.9650    -999.2500    -999.2500    -999.2500    -999.2500       2.3020     -13.3903
    989.0760      14.5000       0.0160     111.0000      58.5000       1.9600    -999.2500    -999.2500    -999.2500    -999.2500       2.3040     -13.5600
    989.2284      14.4594       0.0205     111.0000      58.3786       1.9620    -999.2500    -999.2500    -999.2500    -999.2500       2.3070     -13.8305
    989.3808      14.4190       0.0250     111.0000      58.2580       1.9640    -999.2500    -999.2500    -999.2500    -999.2500       2.3100     -14.1000
    989.5332      14.2590       0.0305     110.7969      57.4695       1.9670    -999.2500    -999.2500    -999.2500    -999.2500       2.3120     -13.9497
    989.6856      14.1000       0.0360     110.5950      56.6860       1.9700    -999.2500    -999.2500    -999.2500    -999.2500       2.3140     -13.8000
    989.8380      14.1406       0.0460     109.7951      55.6278       1.9650    -999.2500    -999.2500    -999.2500    -999.2500       2.3170     -13.8812
    989.9904      14.1810       0.0560     109.0000      54.5760       1.9600    -999.2500    -999.2500    -999.2500    -999.2500       2.3200     -13.9620
    990.1428      14.5416       0.0655     109.4077      54.2355       1.9720    -999.2500    -999.2500    -999.2500    -999.2500       2.3050     -14.3819
    990.2952      14.9000       0.0750     109.8130      53.8970       1.9840    -999.2500    -999.2500    -999.2500    -999.2500       2.2900     -14.8000
    990.4476      14.8183       0.0770     110.9097      53.4622       2.0341    -999.2500    -999.2500    -999.2500    -999.2500       2.2940     -14.8000
    990.6000      14.7370       0.0790     112.0000      53.0300       2.0840    -999.2500    -999.2500    -999.2500    -999.2500       2.2980     -14.8000
    990.7524      14.4742       0.0609     110.3558      51.5247       2.1502    -999.2500    -999.2500    -999.2500    -999.2500       2.3241     -14.7499
    990.9048      14.2130       0.0430     108.7210      50.0280       2.2160    -999.2500    -999.2500    -999.2500    -999.2500       2.3500     -14.7000
    991.0572      13.8554       0.0741     103.0936      45.8515       2.2531    -999.2500    -999.2500    -999.2500    -999.2500       2.3400     -14.8443
    991.2096      13.5000       0.1050      97.5000      41.7000       2.2900    -999.2500    -999.2500    -999.2500    -999.2500       2.3300     -14.9880
    991.3620      13.5828       0.1020      98.0166      42.1339       2.3451    -999.2500    -999.2500    -999.2500    -999.2500       2.3320     -15.4951
    991.5144      13.6650       0.0990      98.5300      42.5650       2.4000    -999.2500    -999.2500    -999.2500    -999.2500       2.3340     -16.0000
    991.6668      13.8451       0.0824     100.0963      43.4537       2.3940    -999.2500    -999.2500    -999.2500    -999.2500       2.3390     -15.7995
    991.8192      14.0240       0.0660     101.6530      44.3370       2.3880    -999.2500    -999.2500    -999.2500    -999.2500       2.3440     -15.6000
    991.9716      14.1328       0.0675     103.3316      44.7402       2.3539    -999.2500    -999.2500    -999.2500    -999.2500       2.3520     -15.7659
    992.1240      14.2410       0.0690     105.0000      45.1410       2.3200    -999.2500    -999.2500    -999.2500    -999.2500       2.3600     -15.9310
    992.2764      14.4712       0.0605     104.7914      47.1765       2.2799    -999.2500    -999.2500    -999.2500    -999.2500       2.3450     -16.7172
    992.4288      14.7000       0.0520     104.5840      49.2000       2.2400    -999.2500    -999.2500    -999.2500    -999.2500       2.3300     -17.5000
    992.5812      14.6789       0.0370     103.6628      48.2974       2.2605    -999.2500    -999.2500    -999.2500    -999.2500       2.3450     -17.4163
    992.7336      14.6580       0.0220     102.7470      47.4000       2.2810    -999.2500    -999.2500    -999.2500    -999.2500       2.3600     -17.3330
