#------------------------------------------------------------------------------
#
#   Created by  : [OpenWorks] Log Export Utility (LEXP)
#   Created on  : 2016-05-19 10:37:47
#   Project     : CANT971
#   User        : R5K
#   Interpreter : PEP
#
#------------------------------------------------------------------------------
~VERSION INFORMATION
VERS. 2.0 : CWLS Log ASCII Standard - version 2.0
WRAP.  NO : One line per depth step
~WELL INFORMATION
#MNEMONIC   .UNIT                                           VALUE :DESCRIPTION
#------------------------------------------------------------------------------
STRT        .M                                           493.6236 :START DEPTH
STOP        .M                                          2733.4463 :STOP DEPTH
STEP        .M                                             0.1524 :STEP
NULL        .                                           -999.2500 :NULL VALUE
COMP        .                                   PEMEX EXPL & PROD :COMPANY
WELL        .                                                2295 :WELL
FLD         .                                           CANTARELL :FIELD
LOC         .                                             UNKNOWN :LOCATION
CNTY        .                                      CD. DEL CARMEN :COUNTY
STAT        .                                            CAMPECHE :STATE
CTRY        .                                              MEXICO :COUNTRY
SRVC        .                                             UNKNOWN :SERVICE COMPANY
DATE        .                                             UNKNOWN :LOG DATE
UWI         .                                          3060000234 :UNIQUE WELL ID
XCOORD      .                                       597311.680000 :SURFACE X
YCOORD      .                                      2143044.130000 :SURFACE Y
LAT         .                                           19.380330 :LATITUDE
LON         .                                          -92.073342 :LONGITUDE
ELEV        .M                                            27.7000 :SURFACE ELEV
ELEV_TYPE   .                                                  KB :ELEV TYPE
~CURVE INFORMATION
#MNEMONIC.UNIT        API CODE       : CURVE DESCRIPTION
#------------------------------------------------------------------------------
DEPTH    .M                          : Measured Depth
CALI     .inches      UNKNOWN        : CALI:Import:r9:MAIN:v1 
DRHO     .g/cm3       UNKNOWN        : DRHO:Import:r9:MAIN:v1 
DT       .us/ft       UNKNOWN        : DT:Import:r9:MAIN:v1 
GR       .API         UNKNOWN        : GR:Import:r9:MAIN:v1 
ILD      .ohm.m       UNKNOWN        : ILD:Import:r9:MAIN:v1 
LLD      .ohm.m       UNKNOWN        : LLD:Import:r9:MAIN:v1 
LLS      .ohm.m       UNKNOWN        : LLS:Import:r9:MAIN:v1 
MSFL     .ohm.m       UNKNOWN        : MSFL:Import:r9:MAIN:v1 
NPHI     .v/v_decimal UNKNOWN        : NPHI:Import:r9:MAIN:v1 
RHOB     .g/cm3       UNKNOWN        : RHOB:Import:r9:MAIN:v1 
SP       .mV          UNKNOWN        : SP:Import:r9:MAIN:v1 
~A     DEPTH         CALI         DRHO           DT           GR          ILD          LLD          LLS         MSFL         NPHI         RHOB           SP
# ...
    929.4876      16.1642       0.0294     119.2164      54.0569       1.7419    -999.2500    -999.2500    -999.2500    -999.2500       2.2484     -19.8930
    929.6400      16.2140       0.0130     120.1440      54.0140       1.7100    -999.2500    -999.2500    -999.2500    -999.2500       2.2200     -19.8860
    929.7924      16.4076       0.0160     120.5733      53.5837       1.7105    -999.2500    -999.2500    -999.2500    -999.2500       2.2205     -19.8068
    929.9448      16.6000       0.0190     121.0000      53.1560       1.7110    -999.2500    -999.2500    -999.2500    -999.2500       2.2210     -19.7280
    930.0972      16.5779       0.0185     120.8536      51.9745       1.7185    -999.2500    -999.2500    -999.2500    -999.2500       2.2270     -19.4329
    930.2496      16.5560       0.0180     120.7080      50.8000       1.7260    -999.2500    -999.2500    -999.2500    -999.2500       2.2330     -19.1390
    930.4020      16.4201       0.0165     119.7026      50.9559       1.7460    -999.2500    -999.2500    -999.2500    -999.2500       2.2435     -18.5793
    930.5544      16.2850       0.0150     118.7030      51.1110       1.7660    -999.2500    -999.2500    -999.2500    -999.2500       2.2540     -18.0220
    930.7068      16.1922       0.0135     117.3474      52.1271       1.7860    -999.2500    -999.2500    -999.2500    -999.2500       2.2670     -17.3094
    930.8592      16.1000       0.0120     116.0000      53.1370       1.8060    -999.2500    -999.2500    -999.2500    -999.2500       2.2800     -16.6000
    931.0116      16.1000       0.0125     116.5016      53.8708       1.8250    -999.2500    -999.2500    -999.2500    -999.2500       2.2800     -16.6827
    931.1640      16.1000       0.0130     117.0000      54.6000       1.8440    -999.2500    -999.2500    -999.2500    -999.2500       2.2800     -16.7650
    931.3164      16.1000       0.0175     116.9248      53.9480       1.8620    -999.2500    -999.2500    -999.2500    -999.2500       2.2810     -17.3163
    931.4688      16.1000       0.0220     116.8500      53.3000       1.8800    -999.2500    -999.2500    -999.2500    -999.2500       2.2820     -17.8650
    931.6212      16.1000       0.0320     115.9222      54.2529       1.8790    -999.2500    -999.2500    -999.2500    -999.2500       2.3011     -18.3947
    931.7736      16.1000       0.0420     115.0000      55.2000       1.8780    -999.2500    -999.2500    -999.2500    -999.2500       2.3200     -18.9220
    931.9260      16.1000       0.0420     115.1550      55.1769       1.8690    -999.2500    -999.2500    -999.2500    -999.2500       2.3190     -19.3394
    932.0784      16.1000       0.0420     115.3090      55.1540       1.8600    -999.2500    -999.2500    -999.2500    -999.2500       2.3180     -19.7550
    932.2308      16.0499       0.0395     116.1570      52.3187       1.8650    -999.2500    -999.2500    -999.2500    -999.2500       2.3040     -20.3788
    932.3832      16.0000       0.0370     117.0000      49.5000       1.8700    -999.2500    -999.2500    -999.2500    -999.2500       2.2900     -21.0000
    932.5356      16.0000       0.0245     116.4986      49.6494       1.8650    -999.2500    -999.2500    -999.2500    -999.2500       2.2910     -20.9213
    932.6880      16.0000       0.0120     116.0000      49.7980       1.8600    -999.2500    -999.2500    -999.2500    -999.2500       2.2920     -20.8430
    932.8404      15.9499       0.0125     116.0000      50.7273       1.8600    -999.2500    -999.2500    -999.2500    -999.2500       2.3010     -20.3655
    932.9928      15.9000       0.0130     116.0000      51.6510       1.8600    -999.2500    -999.2500    -999.2500    -999.2500       2.3100     -19.8900
    933.1452      15.9000       0.0175     116.0000      52.4781       1.8610    -999.2500    -999.2500    -999.2500    -999.2500       2.3090     -19.5387
    933.2976      15.9000       0.0220     116.0000      53.3000       1.8620    -999.2500    -999.2500    -999.2500    -999.2500       2.3080     -19.1890
    933.4500      15.9000       0.0200     115.4985      53.2193       1.8710    -999.2500    -999.2500    -999.2500    -999.2500       2.3030     -18.7480
    933.6024      15.9000       0.0180     115.0000      53.1390       1.8800    -999.2500    -999.2500    -999.2500    -999.2500       2.2980     -18.3090
    933.7548      15.9000       0.0180     115.0807      51.7654       1.8750    -999.2500    -999.2500    -999.2500    -999.2500       2.2890     -16.9014
    933.9072      15.9000       0.0180     115.1610      50.4000       1.8700    -999.2500    -999.2500    -999.2500    -999.2500       2.2800     -15.5000
    934.0596      15.9000       0.0160     115.5817      51.5534       1.8700    -999.2500    -999.2500    -999.2500    -999.2500       2.2810     -15.5331
    934.2120      15.9000       0.0140     116.0000      52.7000       1.8700    -999.2500    -999.2500    -999.2500    -999.2500       2.2820     -15.5660
    934.3644      15.9000       0.0160     115.9168      52.6499       1.8710    -999.2500    -999.2500    -999.2500    -999.2500       2.2870     -15.7835
    934.5168      15.9000       0.0180     115.8340      52.6000       1.8720    -999.2500    -999.2500    -999.2500    -999.2500       2.2920     -16.0000
    934.6692      15.8915       0.0145     114.9142      51.4465       1.8770    -999.2500    -999.2500    -999.2500    -999.2500       2.2970     -15.9749
    934.8216      15.8830       0.0110     114.0000      50.3000       1.8820    -999.2500    -999.2500    -999.2500    -999.2500       2.3020     -15.9500
    934.9740      15.8243       0.0110     114.0000      50.4008       1.8860    -999.2500    -999.2500    -999.2500    -999.2500       2.3060     -15.8247
    935.1264      15.7660       0.0110     114.0000      50.5010       1.8900    -999.2500    -999.2500    -999.2500    -999.2500       2.3100     -15.7000
    935.2788      15.6326       0.0135     114.0000      51.0693       1.8890    -999.2500    -999.2500    -999.2500    -999.2500       2.3090     -15.7251
    935.4312      15.5000       0.0160     114.0000      51.6340       1.8880    -999.2500    -999.2500    -999.2500    -999.2500       2.3080     -15.7500
    935.5836      15.5000       0.0250     114.0853      52.4194       1.8825    -999.2500    -999.2500    -999.2500    -999.2500       2.3030     -15.9179
    935.7360      15.5000       0.0340     114.1700      53.2000       1.8770    -999.2500    -999.2500    -999.2500    -999.2500       2.2980     -16.0850
    935.8884      15.5000       0.0330     114.5862      52.9663       1.8650    -999.2500    -999.2500    -999.2500    -999.2500       2.2930     -16.3100
    936.0408      15.5000       0.0320     115.0000      52.7340       1.8530    -999.2500    -999.2500    -999.2500    -999.2500       2.2880     -16.5340
    936.1932      15.5261       0.0330     114.9137      51.5967       1.8264    -999.2500    -999.2500    -999.2500    -999.2500       2.2790     -16.7174
    936.3456      15.5520       0.0340     114.8280      50.4660       1.8000    -999.2500    -999.2500    -999.2500    -999.2500       2.2700     -16.9000
    936.4980      15.8268       0.0425     114.2377      50.1199       1.8015    -999.2500    -999.2500    -999.2500    -999.2500       2.2725     -16.8038
    936.6504      16.1000       0.0510     113.6510      49.7760       1.8030    -999.2500    -999.2500    -999.2500    -999.2500       2.2750     -16.7080
    936.8028      16.0564       0.0475     110.3149      45.6750       1.8115    -999.2500    -999.2500    -999.2500    -999.2500       2.3126     -15.9995
    936.9552      16.0130       0.0440     107.0000      41.6000       1.8200    -999.2500    -999.2500    -999.2500    -999.2500       2.3500     -15.2940
    937.1076      15.4046       0.0455     107.1776      41.7244       1.8145    -999.2500    -999.2500    -999.2500    -999.2500       2.3455     -13.9078
    937.2600      14.8000       0.0470     107.3540      41.8480       1.8090    -999.2500    -999.2500    -999.2500    -999.2500       2.3410     -12.5280
