#------------------------------------------------------------------------------
#
#   Created by  : [OpenWorks] Log Export Utility (LEXP)
#   Created on  : 2016-05-19 10:37:47
#   Project     : CANT971
#   User        : R5K
#   Interpreter : PEP
#
#------------------------------------------------------------------------------
~VERSION INFORMATION
VERS. 2.0 : CWLS Log ASCII Standard - version 2.0
WRAP.  NO : One line per depth step
~WELL INFORMATION
#MNEMONIC   .UNIT                                           VALUE :DESCRIPTION
#------------------------------------------------------------------------------
STRT        .M                                           493.6236 :START DEPTH
STOP        .M                                          2733.4463 :STOP DEPTH
STEP        .M                                             0.1524 :STEP
NULL        .                                           -999.2500 :NULL VALUE
COMP        .                                   PEMEX EXPL & PROD :COMPANY
WELL        .                                                2295 :WELL
FLD         .                                           CANTARELL :FIELD
LOC         .                                             UNKNOWN :LOCATION
CNTY        .                                      CD. DEL CARMEN :COUNTY
STAT        .                                            CAMPECHE :STATE
CTRY        .                                              MEXICO :COUNTRY
SRVC        .                                             UNKNOWN :SERVICE COMPANY
DATE        .                                             UNKNOWN :LOG DATE
UWI         .                                          3060000234 :UNIQUE WELL ID
XCOORD      .                                       597311.680000 :SURFACE X
YCOORD      .                                      2143044.130000 :SURFACE Y
LAT         .                                           19.380330 :LATITUDE
LON         .                                          -92.073342 :LONGITUDE
ELEV        .M                                            27.7000 :SURFACE ELEV
ELEV_TYPE   .                                                  KB :ELEV TYPE
~CURVE INFORMATION
#MNEMONIC.UNIT        API CODE       : CURVE DESCRIPTION
#------------------------------------------------------------------------------
DEPTH    .M                          : Measured Depth
CALI     .inches      UNKNOWN        : CALI:Import:r9:MAIN:v1 
DRHO     .g/cm3       UNKNOWN        : DRHO:Import:r9:MAIN:v1 
DT       .us/ft       UNKNOWN        : DT:Import:r9:MAIN:v1 
GR       .API         UNKNOWN        : GR:Import:r9:MAIN:v1 
ILD      .ohm.m       UNKNOWN        : ILD:Import:r9:MAIN:v1 
LLD      .ohm.m       UNKNOWN        : LLD:Import:r9:MAIN:v1 
LLS      .ohm.m       UNKNOWN        : LLS:Import:r9:MAIN:v1 
MSFL     .ohm.m       UNKNOWN        : MSFL:Import:r9:MAIN:v1 
NPHI     .v/v_decimal UNKNOWN        : NPHI:Import:r9:MAIN:v1 
RHOB     .g/cm3       UNKNOWN        : RHOB:Import:r9:MAIN:v1 
SP       .mV          UNKNOWN        : SP:Import:r9:MAIN:v1 
~A     DEPTH         CALI         DRHO           DT           GR          ILD          LLD          LLS         MSFL         NPHI         RHOB           SP
# ...
    660.0444      17.5062       0.0550     110.4894      41.3231       2.1041    -999.2500    -999.2500    -999.2500    -999.2500       2.2705     -28.0618
    660.1968      17.4050       0.0650     110.9760      42.5390       2.1300    -999.2500    -999.2500    -999.2500    -999.2500       2.2600     -28.0000
    660.3492      17.3534       0.0760     110.9880      43.4722       2.1250    -999.2500    -999.2500    -999.2500    -999.2500       2.2700     -28.4887
    660.5016      17.3020       0.0870     111.0000      44.4000       2.1200    -999.2500    -999.2500    -999.2500    -999.2500       2.2800     -28.9750
    660.6540      17.2027       0.0755     109.9972      43.5175       2.1100    -999.2500    -999.2500    -999.2500    -999.2500       2.2900     -29.4888
    660.8064      17.1040       0.0640     109.0000      42.6400       2.1000    -999.2500    -999.2500    -999.2500    -999.2500       2.3000     -30.0000
    660.9588      17.0529       0.0670     109.0000      41.7350       2.1050    -999.2500    -999.2500    -999.2500    -999.2500       2.2900     -30.0000
    661.1112      17.0020       0.0700     109.0000      40.8350       2.1100    -999.2500    -999.2500    -999.2500    -999.2500       2.2800     -30.0000
    661.2636      16.9509       0.0780     111.4566      40.1295       2.1100    -999.2500    -999.2500    -999.2500    -999.2500       2.2700     -29.8496
    661.4160      16.9000       0.0860     113.8990      39.4280       2.1100    -999.2500    -999.2500    -999.2500    -999.2500       2.2600     -29.7000
    661.5684      16.9000       0.0760     114.4512      38.5112       2.1200    -999.2500    -999.2500    -999.2500    -999.2500       2.2600     -29.8479
    661.7208      16.9000       0.0660     115.0000      37.6000       2.1300    -999.2500    -999.2500    -999.2500    -999.2500       2.2600     -29.9950
    661.8732      16.9000       0.0620     113.9970      37.9937       2.1350    -999.2500    -999.2500    -999.2500    -999.2500       2.2796     -30.1449
    662.0256      16.9000       0.0580     113.0000      38.3850       2.1400    -999.2500    -999.2500    -999.2500    -999.2500       2.2990     -30.2940
    662.1780      16.9000       0.0520     114.4803      40.3667       2.1154    -999.2500    -999.2500    -999.2500    -999.2500       2.3045     -30.6424
    662.3304      16.9000       0.0460     115.9520      42.3370       2.0910    -999.2500    -999.2500    -999.2500    -999.2500       2.3100     -30.9890
    662.4828      16.8499       0.0510     119.4860      43.4216       2.0459    -999.2500    -999.2500    -999.2500    -999.2500       2.3050     -31.0948
    662.6352      16.8000       0.0560     123.0000      44.5000       2.0010    -999.2500    -999.2500    -999.2500    -999.2500       2.3000     -31.2000
    662.7876      16.8496       0.0500     121.4959      43.7981       1.9363    -999.2500    -999.2500    -999.2500    -999.2500       2.2900     -30.9032
    662.9400      16.8990       0.0440     120.0000      43.1000       1.8720    -999.2500    -999.2500    -999.2500    -999.2500       2.2800     -30.6080
    663.0924      16.9491       0.0425     124.4634      43.5463       1.8063    -999.2500    -999.2500    -999.2500    -999.2500       2.2750     -30.4055
    663.2448      16.9990       0.0410     128.9010      43.9900       1.7410    -999.2500    -999.2500    -999.2500    -999.2500       2.2700     -30.2040
    663.3972      16.9995       0.0525     129.4522      44.8376       1.6959    -999.2500    -999.2500    -999.2500    -999.2500       2.2650     -29.9012
    663.5496      17.0000       0.0640     130.0000      45.6800       1.6510    -999.2500    -999.2500    -999.2500    -999.2500       2.2600     -29.6000
    663.7020      17.0496       0.0655     128.5096      45.8405       1.6209    -999.2500    -999.2500    -999.2500    -999.2500       2.2500     -29.6496
    663.8544      17.0990       0.0670     127.0280      46.0000       1.5910    -999.2500    -999.2500    -999.2500    -999.2500       2.2400     -29.6990
    664.0068      17.2489       0.0720     126.5125      45.3526       1.5704    -999.2500    -999.2500    -999.2500    -999.2500       2.2350     -30.0479
    664.1592      17.3980       0.0770     126.0000      44.7090       1.5500    -999.2500    -999.2500    -999.2500    -999.2500       2.2300     -30.3950
    664.3116      17.5981       0.0810     126.5014      44.4036       1.5350    -999.2500    -999.2500    -999.2500    -999.2500       2.2300     -30.8952
    664.4640      17.7970       0.0850     127.0000      44.1000       1.5200    -999.2500    -999.2500    -999.2500    -999.2500       2.2300     -31.3930
    664.6164      17.9981       0.0745     126.4986      44.7989       1.5150    -999.2500    -999.2500    -999.2500    -999.2500       2.2200     -31.6472
    664.7688      18.1980       0.0640     126.0000      45.4940       1.5100    -999.2500    -999.2500    -999.2500    -999.2500       2.2100     -31.9000
    664.9212      18.2988       0.0665     126.0000      46.9434       1.5200    -999.2500    -999.2500    -999.2500    -999.2500       2.1899     -31.9000
    665.0736      18.3990       0.0690     126.0000      48.3850       1.5300    -999.2500    -999.2500    -999.2500    -999.2500       2.1700     -31.9000
    665.2260      18.4993       0.0740     126.0000      49.1948       1.5400    -999.2500    -999.2500    -999.2500    -999.2500       2.1650     -31.8499
    665.3784      18.5990       0.0790     126.0000      50.0000       1.5500    -999.2500    -999.2500    -999.2500    -999.2500       2.1600     -31.8000
    665.5308      18.5995       0.0785     126.0000      48.9469       1.5500    -999.2500    -999.2500    -999.2500    -999.2500       2.1600     -31.8000
    665.6832      18.6000       0.0780     126.0000      47.9000       1.5500    -999.2500    -999.2500    -999.2500    -999.2500       2.1600     -31.8000
    665.8356      18.7003       0.0800     124.9971      48.9531       1.5450    -999.2500    -999.2500    -999.2500    -999.2500       2.1550     -31.8000
    665.9880      18.8000       0.0820     124.0000      50.0000       1.5400    -999.2500    -999.2500    -999.2500    -999.2500       2.1500     -31.8000
    666.1404      18.9003       0.0770     125.0059      49.8967       1.5250    -999.2500    -999.2500    -999.2500    -999.2500       2.1299     -31.8501
    666.2928      19.0000       0.0720     126.0060      49.7940       1.5100    -999.2500    -999.2500    -999.2500    -999.2500       2.1100     -31.9000
    666.4452      19.0501       0.0755     128.0086      48.2908       1.4950    -999.2500    -999.2500    -999.2500    -999.2500       2.1100     -31.5988
    666.5976      19.1000       0.0790     130.0000      46.7960       1.4800    -999.2500    -999.2500    -999.2500    -999.2500       2.1100     -31.2990
    666.7500      19.1000       0.0615     129.4986      44.8427       1.4650    -999.2500    -999.2500    -999.2500    -999.2500       2.1301     -30.9486
    666.9024      19.1000       0.0440     129.0000      42.9000       1.4500    -999.2500    -999.2500    -999.2500    -999.2500       2.1500     -30.6000
    667.0548      19.1005       0.0465     129.0035      42.9040       1.4400    -999.2500    -999.2500    -999.2500    -999.2500       2.1500     -30.6025
    667.2072      19.1010       0.0490     129.0070      42.9080       1.4300    -999.2500    -999.2500    -999.2500    -999.2500       2.1500     -30.6050
    667.3596      19.1512       0.0450     129.5110      44.1578       1.4250    -999.2500    -999.2500    -999.2500    -999.2500       2.1249     -30.9549
    667.5120      19.2010       0.0410     130.0120      45.4000       1.4200    -999.2500    -999.2500    -999.2500    -999.2500       2.1000     -31.3030
    667.6644      19.2511       0.0410     132.0119      45.3940       1.4150    -999.2500    -999.2500    -999.2500    -999.2500       2.1000     -31.7025
    667.8168      19.3010       0.0410     134.0000      45.3880       1.4100    -999.2500    -999.2500    -999.2500    -999.2500       2.1000     -32.1000
