#------------------------------------------------------------------------------
#
#   Created by  : [OpenWorks] Log Export Utility (LEXP)
#   Created on  : 2016-05-19 10:37:47
#   Project     : CANT971
#   User        : R5K
#   Interpreter : PEP
#
#------------------------------------------------------------------------------
~VERSION INFORMATION
VERS. 2.0 : CWLS Log ASCII Standard - version 2.0
WRAP.  NO : One line per depth step
~WELL INFORMATION
#MNEMONIC   .UNIT                                           VALUE :DESCRIPTION
#------------------------------------------------------------------------------
STRT        .M                                           493.6236 :START DEPTH
STOP        .M                                          2733.4463 :STOP DEPTH
STEP        .M                                             0.1524 :STEP
NULL        .                                           -999.2500 :NULL VALUE
COMP        .                                   PEMEX EXPL & PROD :COMPANY
WELL        .                                                2295 :WELL
FLD         .                                           CANTARELL :FIELD
LOC         .                                             UNKNOWN :LOCATION
CNTY        .                                      CD. DEL CARMEN :COUNTY
STAT        .                                            CAMPECHE :STATE
CTRY        .                                              MEXICO :COUNTRY
SRVC        .                                             UNKNOWN :SERVICE COMPANY
DATE        .                                             UNKNOWN :LOG DATE
UWI         .                                          3060000234 :UNIQUE WELL ID
XCOORD      .                                       597311.680000 :SURFACE X
YCOORD      .                                      2143044.130000 :SURFACE Y
LAT         .                                           19.380330 :LATITUDE
LON         .                                          -92.073342 :LONGITUDE
ELEV        .M                                            27.7000 :SURFACE ELEV
ELEV_TYPE   .                                                  KB :ELEV TYPE
~CURVE INFORMATION
#MNEMONIC.UNIT        API CODE       : CURVE DESCRIPTION
#------------------------------------------------------------------------------
DEPTH    .M                          : Measured Depth
CALI     .inches      UNKNOWN        : CALI:Import:r9:MAIN:v1 
DRHO     .g/cm3       UNKNOWN        : DRHO:Import:r9:MAIN:v1 
DT       .us/ft       UNKNOWN        : DT:Import:r9:MAIN:v1 
GR       .API         UNKNOWN        : GR:Import:r9:MAIN:v1 
ILD      .ohm.m       UNKNOWN        : ILD:Import:r9:MAIN:v1 
LLD      .ohm.m       UNKNOWN        : LLD:Import:r9:MAIN:v1 
LLS      .ohm.m       UNKNOWN        : LLS:Import:r9:MAIN:v1 
MSFL     .ohm.m       UNKNOWN        : MSFL:Import:r9:MAIN:v1 
NPHI     .v/v_decimal UNKNOWN        : NPHI:Import:r9:MAIN:v1 
RHOB     .g/cm3       UNKNOWN        : RHOB:Import:r9:MAIN:v1 
SP       .mV          UNKNOWN        : SP:Import:r9:MAIN:v1 
~A     DEPTH         CALI         DRHO           DT           GR          ILD          LLD          LLS         MSFL         NPHI         RHOB           SP
# ...
   1151.3820      13.0446       0.0100     133.5529      72.4936       1.2560    -999.2500    -999.2500    -999.2500    -999.2500       2.1800      -6.3639
   1151.5344      12.9000       0.0100     134.0000      74.5000       1.2700    -999.2500    -999.2500    -999.2500    -999.2500       2.1800      -7.2000
   1151.6868      12.9000       0.0110     133.4985      74.2834       1.2695    -999.2500    -999.2500    -999.2500    -999.2500       2.1900      -7.1805
   1151.8392      12.9000       0.0120     133.0000      74.0680       1.2690    -999.2500    -999.2500    -999.2500    -999.2500       2.2000      -7.1610
   1151.9916      12.8499       0.0085     133.0000      72.0281       1.2640    -999.2500    -999.2500    -999.2500    -999.2500       2.1995      -6.7647
   1152.1440      12.8000       0.0050     133.0000      70.0000       1.2590    -999.2500    -999.2500    -999.2500    -999.2500       2.1990      -6.3700
   1152.2964      12.8000       0.0075     133.0552      70.4513       1.2535    -999.2500    -999.2500    -999.2500    -999.2500       2.1930      -6.4116
   1152.4489      12.8000       0.0100     133.1100      70.9000       1.2480    -999.2500    -999.2500    -999.2500    -999.2500       2.1870      -6.4530
   1152.6012      12.8000       0.0100     133.5562      70.2983       1.2340    -999.2500    -999.2500    -999.2500    -999.2500       2.1684      -6.8773
   1152.7535      12.8000       0.0100     134.0000      69.7000       1.2200    -999.2500    -999.2500    -999.2500    -999.2500       2.1500      -7.3000
   1152.9060      12.8055       0.0085     133.4984      70.3520       1.2200    -999.2500    -999.2500    -999.2500    -999.2500       2.1500      -7.2830
   1153.0583      12.8110       0.0070     133.0000      71.0000       1.2200    -999.2500    -999.2500    -999.2500    -999.2500       2.1500      -7.2660
   1153.2108      12.8557       0.0070     133.1154      70.7491       1.2205    -999.2500    -999.2500    -999.2500    -999.2500       2.1500      -7.0947
   1153.3632      12.9000       0.0070     133.2300      70.5000       1.2210    -999.2500    -999.2500    -999.2500    -999.2500       2.1500      -6.9240
   1153.5156      12.9055       0.0080     134.6197      70.5171       1.2305    -999.2500    -999.2500    -999.2500    -999.2500       2.1450      -6.5839
   1153.6680      12.9110       0.0090     136.0000      70.5340       1.2400    -999.2500    -999.2500    -999.2500    -999.2500       2.1400      -6.2450
   1153.8204      13.0058       0.0095     135.9413      71.7711       1.2395    -999.2500    -999.2500    -999.2500    -999.2500       2.1400      -5.6815
   1153.9728      13.1000       0.0100     135.8830      73.0000       1.2390    -999.2500    -999.2500    -999.2500    -999.2500       2.1400      -5.1200
   1154.1252      13.0885       0.0120     135.3814      72.8826       1.2340    -999.2500    -999.2500    -999.2500    -999.2500       2.1405      -5.2001
   1154.2776      13.0770       0.0140     134.8830      72.7660       1.2290    -999.2500    -999.2500    -999.2500    -999.2500       2.1410      -5.2800
   1154.4301      12.9822       0.0165     133.9385      71.5792       1.2235    -999.2500    -999.2500    -999.2500    -999.2500       2.1555      -5.2550
   1154.5824      12.8880       0.0190     133.0000      70.4000       1.2180    -999.2500    -999.2500    -999.2500    -999.2500       2.1700      -5.2300
   1154.7347      12.7937       0.0165     133.0000      70.5093       1.2085    -999.2500    -999.2500    -999.2500    -999.2500       2.1650      -5.4504
   1154.8872      12.7000       0.0140     133.0000      70.6180       1.1990    -999.2500    -999.2500    -999.2500    -999.2500       2.1600      -5.6700
   1155.0396      12.7120       0.0170     133.1214      71.4114       1.1935    -999.2500    -999.2500    -999.2500    -999.2500       2.1650      -5.6349
   1155.1920      12.7240       0.0200     133.2420      72.2000       1.1880    -999.2500    -999.2500    -999.2500    -999.2500       2.1700      -5.6000
   1155.3444      12.8308       0.0165     134.3092      72.9021       1.1785    -999.2500    -999.2500    -999.2500    -999.2500       2.1695      -5.6160
   1155.4968      12.9370       0.0130     135.3700      73.6000       1.1690    -999.2500    -999.2500    -999.2500    -999.2500       2.1690      -5.6320
   1155.6492      13.0814       0.0130     136.6889      73.1487       1.1620    -999.2500    -999.2500    -999.2500    -999.2500       2.1625      -5.9968
   1155.8016      13.2250       0.0130     138.0000      72.7000       1.1550    -999.2500    -999.2500    -999.2500    -999.2500       2.1560      -6.3600
   1155.9540      13.3128       0.0140     138.1259      72.7501       1.1350    -999.2500    -999.2500    -999.2500    -999.2500       2.1279      -6.3279
   1156.1064      13.4000       0.0150     138.2510      72.8000       1.1150    -999.2500    -999.2500    -999.2500    -999.2500       2.1000      -6.2960
   1156.2588      13.4000       0.0180     139.3847      72.5819       1.0955    -999.2500    -999.2500    -999.2500    -999.2500       2.1050      -6.0295
   1156.4113      13.4000       0.0210     140.5120      72.3650       1.0760    -999.2500    -999.2500    -999.2500    -999.2500       2.1100      -5.7640
   1156.5636      13.4000       0.0280     143.7649      70.5275       1.0530    -999.2500    -999.2500    -999.2500    -999.2500       2.1050      -5.4339
   1156.7159      13.4000       0.0350     147.0000      68.7000       1.0300    -999.2500    -999.2500    -999.2500    -999.2500       2.1000      -5.1050
   1156.8684      13.4065       0.0355     145.9969      69.0586       1.0300    -999.2500    -999.2500    -999.2500    -999.2500       2.1050      -4.7067
   1157.0208      13.4130       0.0360     145.0000      69.4150       1.0300    -999.2500    -999.2500    -999.2500    -999.2500       2.1100      -4.3100
   1157.1732      13.4566       0.0355     145.0000      71.9783       1.0300    -999.2500    -999.2500    -999.2500    -999.2500       2.1050      -4.3215
   1157.3256      13.5000       0.0350     145.0000      74.5240       1.0300    -999.2500    -999.2500    -999.2500    -999.2500       2.1000      -4.3330
   1157.4780      13.5000       0.0300     145.0000      75.6157       1.0300    -999.2500    -999.2500    -999.2500    -999.2500       2.1000      -4.4287
   1157.6304      13.5000       0.0250     145.0000      76.7000       1.0300    -999.2500    -999.2500    -999.2500    -999.2500       2.1000      -4.5240
   1157.7828      13.4865       0.0200     144.9323      76.6258       1.0315    -999.2500    -999.2500    -999.2500    -999.2500       2.1000      -4.6687
   1157.9352      13.4730       0.0150     144.8650      76.5520       1.0330    -999.2500    -999.2500    -999.2500    -999.2500       2.1000      -4.8130
   1158.0876      13.3361       0.0120     143.9295      74.2686       1.0430    -999.2500    -999.2500    -999.2500    -999.2500       2.1005      -5.0729
   1158.2400      13.2000       0.0090     143.0000      72.0000       1.0530    -999.2500    -999.2500    -999.2500    -999.2500       2.1010      -5.3320
   1158.3925      13.2502       0.0080     143.0682      72.2508       1.0635    -999.2500    -999.2500    -999.2500    -999.2500       2.1105      -5.9620
   1158.5448      13.3000       0.0070     143.1360      72.5000       1.0740    -999.2500    -999.2500    -999.2500    -999.2500       2.1200      -6.5900
   1158.6971      13.2498       0.0040     143.6376      72.3701       1.0890    -999.2500    -999.2500    -999.2500    -999.2500       2.1100      -6.5650
   1158.8496      13.2000       0.0010     144.1360      72.2410       1.1040    -999.2500    -999.2500    -999.2500    -999.2500       2.1000      -6.5400
   1159.0020      13.2000       0.0015     144.5693      70.9165       1.1170    -999.2500    -999.2500    -999.2500    -999.2500       2.1000      -6.3295
   1159.1544      13.2000       0.0020     145.0000      69.6000       1.1300    -999.2500    -999.2500    -999.2500    -999.2500       2.1000      -6.1200
