#------------------------------------------------------------------------------
#
#   Created by  : [OpenWorks] Log Export Utility (LEXP)
#   Created on  : 2016-05-19 10:37:47
#   Project     : CANT971
#   User        : R5K
#   Interpreter : PEP
#
#------------------------------------------------------------------------------
~VERSION INFORMATION
VERS. 2.0 : CWLS Log ASCII Standard - version 2.0
WRAP.  NO : One line per depth step
~WELL INFORMATION
#MNEMONIC   .UNIT                                           VALUE :DESCRIPTION
#------------------------------------------------------------------------------
STRT        .M                                           493.6236 :START DEPTH
STOP        .M                                          2733.4463 :STOP DEPTH
STEP        .M                                             0.1524 :STEP
NULL        .                                           -999.2500 :NULL VALUE
COMP        .                                   PEMEX EXPL & PROD :COMPANY
WELL        .                                                2295 :WELL
FLD         .                                           CANTARELL :FIELD
LOC         .                                             UNKNOWN :LOCATION
CNTY        .                                      CD. DEL CARMEN :COUNTY
STAT        .                                            CAMPECHE :STATE
CTRY        .                                              MEXICO :COUNTRY
SRVC        .                                             UNKNOWN :SERVICE COMPANY
DATE        .                                             UNKNOWN :LOG DATE
UWI         .                                          3060000234 :UNIQUE WELL ID
XCOORD      .                                       597311.680000 :SURFACE X
YCOORD      .                                      2143044.130000 :SURFACE Y
LAT         .                                           19.380330 :LATITUDE
LON         .                                          -92.073342 :LONGITUDE
ELEV        .M                                            27.7000 :SURFACE ELEV
ELEV_TYPE   .                                                  KB :ELEV TYPE
~CURVE INFORMATION
#MNEMONIC.UNIT        API CODE       : CURVE DESCRIPTION
#------------------------------------------------------------------------------
DEPTH    .M                          : Measured Depth
CALI     .inches      UNKNOWN        : CALI:Import:r9:MAIN:v1 
DRHO     .g/cm3       UNKNOWN        : DRHO:Import:r9:MAIN:v1 
DT       .us/ft       UNKNOWN        : DT:Import:r9:MAIN:v1 
GR       .API         UNKNOWN        : GR:Import:r9:MAIN:v1 
ILD      .ohm.m       UNKNOWN        : ILD:Import:r9:MAIN:v1 
LLD      .ohm.m       UNKNOWN        : LLD:Import:r9:MAIN:v1 
LLS      .ohm.m       UNKNOWN        : LLS:Import:r9:MAIN:v1 
MSFL     .ohm.m       UNKNOWN        : MSFL:Import:r9:MAIN:v1 
NPHI     .v/v_decimal UNKNOWN        : NPHI:Import:r9:MAIN:v1 
RHOB     .g/cm3       UNKNOWN        : RHOB:Import:r9:MAIN:v1 
SP       .mV          UNKNOWN        : SP:Import:r9:MAIN:v1 
~A     DEPTH         CALI         DRHO           DT           GR          ILD          LLD          LLS         MSFL         NPHI         RHOB           SP
# ...
   2617.4700       6.3355      -0.0105      78.4175      46.1477    -999.2500       4.1456       3.2582       2.7140       0.2320       1.9180    -999.2500
   2617.6223       6.3380      -0.0030      92.3630      46.0730    -999.2500       4.7780       3.6560       3.0730       0.2738       1.8090    -999.2500
   2617.7749       6.3752       0.0030      92.0482      44.6974    -999.2500       4.1054       3.6224       3.0610       0.2789       1.7277    -999.2500
   2617.9272       6.4120       0.0090      91.7360      43.3330    -999.2500       3.4350       3.5890       3.0490       0.2738       1.6470    -999.2500
   2618.0796       6.4758       0.0241      80.6532      45.5644    -999.2500       4.1577       3.1693       2.3980       0.2431       1.6590    -999.2500
   2618.2319       6.5390       0.0390      69.6590      47.7780    -999.2500       4.8780       2.7510       1.7470       0.2127       1.6710    -999.2500
   2618.3843       6.5475       0.0792      70.7453      47.7665    -999.2500       3.5159       2.1205       1.7710       0.2096       1.8341    -999.2500
   2618.5369       6.5560       0.1190      71.8230      47.7550    -999.2500       2.1580       1.4920       1.7950       0.2130       1.9960    -999.2500
   2618.6892       6.5560       0.1185      85.3107      47.2089    -999.2500       2.1810       1.4970       2.1567       0.2286       2.1631    -999.2500
   2618.8416       6.5560       0.1180      98.6940      46.6670    -999.2500       2.2040       1.5020       2.5180       0.2458       2.3290    -999.2500
   2618.9939       6.5560       0.1115     111.7764      46.6670    -999.2500       5.8767       1.5716       2.8687       0.2619       2.3441    -999.2500
   2619.1465       6.5560       0.1050     124.7590      46.6670    -999.2500       9.5390       1.6410       3.2190       0.2755       2.3590    -999.2500
   2619.2988       6.5043       0.0568     124.5030      46.7092    -999.2500       9.4839       1.7672       3.1925       0.2766       2.3981    -999.2500
   2619.4512       6.4530       0.0090     124.2490      46.7510    -999.2500       9.4290       1.8930       3.1660       0.2741       2.4370    -999.2500
   2619.6035       6.4530       0.0090     120.6999      47.3326    -999.2500       6.1407       1.8885       2.8709       0.2634       2.4360    -999.2500
   2619.7561       6.4530       0.0090     117.1770      47.9100    -999.2500       2.8610       1.8840       2.5760       0.2522       2.4350    -999.2500
   2619.9084       6.4635       0.0045     106.0682      49.2624    -999.2500       2.8965       1.8364       2.2439       0.2461       2.4174    -999.2500
   2620.0608       6.4740       0.0000      95.0400      50.6050    -999.2500       2.9320       1.7890       1.9120       0.2416       2.4000    -999.2500
   2620.2131       6.5969       0.0000      97.3934      52.5008    -999.2500       5.9260       1.7660       2.0736       0.2410       2.3694    -999.2500
   2620.3655       6.7190       0.0000      99.7300      54.3830    -999.2500       8.9130       1.7430       2.2350       0.2412       2.3390    -999.2500
   2620.5181       7.5614       0.0000      96.9698      57.6524    -999.2500       8.8334       1.6864       2.2315       0.2422       2.3054    -999.2500
   2620.6704       8.3980       0.0000      94.2290      60.8990    -999.2500       8.7540       1.6300       2.2280       0.2444       2.2720    -999.2500
   2620.8228       8.3850       0.0030      94.3459      63.0745    -999.2500       7.7284       1.7646       2.0650       0.2533       2.2223    -999.2500
   2620.9751       8.3720       0.0060      94.4620      65.2350    -999.2500       6.7050       1.8990       1.9020       0.2618       2.1730    -999.2500
   2621.1277       8.2399       0.0055      96.5954      66.0203    -999.2500       4.6074       1.8520       2.0035       0.2620       2.1755    -999.2500
   2621.2800       8.1090       0.0050      98.7110      66.7990    -999.2500       2.5140       1.8050       2.1050       0.2610       2.1780    -999.2500
   2621.4324       8.0844       0.0010     109.0259      67.8483    -999.2500       2.5155       1.8070       2.0595       0.2612       2.2071    -999.2500
   2621.5847       8.0600      -0.0030     119.2560      68.8890    -999.2500       2.5170       1.8090       2.0140       0.2624       2.2360    -999.2500
   2621.7373       7.8070      -0.0020     119.2284      68.8549    -999.2500       2.5380       1.8526       2.0470       0.2675       2.2425    -999.2500
   2621.8896       7.5560      -0.0010     119.2010      68.8210    -999.2500       2.5590       1.8960       2.0800       0.2725       2.2490    -999.2500
   2622.0420       7.7031       0.0136     105.4723      68.1920    -999.2500       2.7338       2.3082       2.4748       0.2725       2.2525    -999.2500
   2622.1943       7.8490       0.0280      91.8530      67.5680    -999.2500       2.9080       2.7190       2.8690       0.2705       2.2560    -999.2500
   2622.3467       7.8239       0.0395      92.8725      64.3559    -999.2500       8.3603       2.4917       3.6526       0.2625       2.2691    -999.2500
   2622.4993       7.7990       0.0510      93.8840      61.1690    -999.2500      13.7960       2.2650       4.4350       0.2533       2.2820    -999.2500
   2622.6516       7.5094       0.0711     103.7034      57.4175    -999.2500      13.1120       2.2905       4.3705       0.2436       2.2945    -999.2500
   2622.8040       7.2220       0.0910     113.4470      53.6950    -999.2500      12.4300       2.3160       4.3060       0.2341       2.3070    -999.2500
   2622.9563       7.2250       0.0800     112.1365      51.4866    -999.2500       8.1960       2.7877       3.2684       0.2259       2.3336    -999.2500
   2623.1089       7.2280       0.0690     110.8360      49.2950    -999.2500       3.9740       3.2580       2.2320       0.2180       2.3600    -999.2500
   2623.2612       7.2616       0.0710      98.7780      46.4423    -999.2500       4.0321       3.2440       2.2890       0.2098       2.4137    -999.2500
   2623.4136       7.2950       0.0730      86.8100      43.6110    -999.2500       4.0900       3.2300       2.3460       0.2030       2.4670    -999.2500
   2623.5659       7.3627       0.1252      82.4319      43.7606    -999.2500       7.3752       2.9767       3.5526       0.2029       2.4655    -999.2500
   2623.7185       7.4300       0.1770      78.0860      43.9090    -999.2500      10.6520       2.7240       4.7580       0.2071       2.4640    -999.2500
   2623.8708       7.4982       0.1755      78.1322      45.7476    -999.2500      10.2996       2.8251       4.6555       0.2267       2.4479    -999.2500
   2624.0232       7.5660       0.1740      78.1780      47.5730    -999.2500       9.9480       2.9260       4.5530       0.2456       2.4320    -999.2500
   2624.1755       7.6388       0.1268      82.4783      47.4551    -999.2500       7.6699       4.7361       3.7952       0.2461       2.3934    -999.2500
   2624.3279       7.7110       0.0800      86.7480      47.3380    -999.2500       5.3970       6.5420       3.0380       0.2356       2.3550    -999.2500
   2624.4805       7.8369       0.0940      79.4541      45.3285    -999.2500       3.9865       6.3753       3.1375       0.1885       2.3344    -999.2500
   2624.6328       7.9620       0.1080      72.2110      43.3330    -999.2500       2.5790       6.2090       3.2370       0.1424       2.3140    -999.2500
   2624.7852       8.1943       0.1080      72.4222      43.4328    -999.2500       2.6882       4.7002       4.6468       0.1367       2.3190    -999.2500
   2624.9375       8.4250       0.1080      72.6320      43.5320    -999.2500       2.7970       3.1970       6.0560       0.1471       2.3240    -999.2500
   2625.0901       8.6002       0.1040      78.2378      45.6332    -999.2500       4.4715       3.2912       9.3437       0.1966       2.3717    -999.2500
   2625.2424       8.7740       0.1000      83.7970      47.7170    -999.2500       6.1400       3.3850      12.6250       0.2453       2.4190    -999.2500
