#------------------------------------------------------------------------------
#
#   Created by  : [OpenWorks] Log Export Utility (LEXP)
#   Created on  : 2016-05-19 10:37:47
#   Project     : CANT971
#   User        : R5K
#   Interpreter : PEP
#
#------------------------------------------------------------------------------
~VERSION INFORMATION
VERS. 2.0 : CWLS Log ASCII Standard - version 2.0
WRAP.  NO : One line per depth step
~WELL INFORMATION
#MNEMONIC   .UNIT                                           VALUE :DESCRIPTION
#------------------------------------------------------------------------------
STRT        .M                                           493.6236 :START DEPTH
STOP        .M                                          2733.4463 :STOP DEPTH
STEP        .M                                             0.1524 :STEP
NULL        .                                           -999.2500 :NULL VALUE
COMP        .                                   PEMEX EXPL & PROD :COMPANY
WELL        .                                                2295 :WELL
FLD         .                                           CANTARELL :FIELD
LOC         .                                             UNKNOWN :LOCATION
CNTY        .                                      CD. DEL CARMEN :COUNTY
STAT        .                                            CAMPECHE :STATE
CTRY        .                                              MEXICO :COUNTRY
SRVC        .                                             UNKNOWN :SERVICE COMPANY
DATE        .                                             UNKNOWN :LOG DATE
UWI         .                                          3060000234 :UNIQUE WELL ID
XCOORD      .                                       597311.680000 :SURFACE X
YCOORD      .                                      2143044.130000 :SURFACE Y
LAT         .                                           19.380330 :LATITUDE
LON         .                                          -92.073342 :LONGITUDE
ELEV        .M                                            27.7000 :SURFACE ELEV
ELEV_TYPE   .                                                  KB :ELEV TYPE
~CURVE INFORMATION
#MNEMONIC.UNIT        API CODE       : CURVE DESCRIPTION
#------------------------------------------------------------------------------
DEPTH    .M                          : Measured Depth
CALI     .inches      UNKNOWN        : CALI:Import:r9:MAIN:v1 
DRHO     .g/cm3       UNKNOWN        : DRHO:Import:r9:MAIN:v1 
DT       .us/ft       UNKNOWN        : DT:Import:r9:MAIN:v1 
GR       .API         UNKNOWN        : GR:Import:r9:MAIN:v1 
ILD      .ohm.m       UNKNOWN        : ILD:Import:r9:MAIN:v1 
LLD      .ohm.m       UNKNOWN        : LLD:Import:r9:MAIN:v1 
LLS      .ohm.m       UNKNOWN        : LLS:Import:r9:MAIN:v1 
MSFL     .ohm.m       UNKNOWN        : MSFL:Import:r9:MAIN:v1 
NPHI     .v/v_decimal UNKNOWN        : NPHI:Import:r9:MAIN:v1 
RHOB     .g/cm3       UNKNOWN        : RHOB:Import:r9:MAIN:v1 
SP       .mV          UNKNOWN        : SP:Import:r9:MAIN:v1 
~A     DEPTH         CALI         DRHO           DT           GR          ILD          LLD          LLS         MSFL         NPHI         RHOB           SP
# ...
    604.5708      15.9000       0.0130     112.3313      44.7613       1.9709    -999.2500    -999.2500    -999.2500    -999.2500       2.2450     -32.8930
    604.7232      15.9000       0.0160     113.0000      47.0410       1.9310    -999.2500    -999.2500    -999.2500    -999.2500       2.2600     -32.7070
    604.8756      15.9371       0.0195     113.0000      47.5219       1.9094    -999.2500    -999.2500    -999.2500    -999.2500       2.2565     -32.3024
    605.0280      15.9740       0.0230     113.0000      48.0000       1.8880    -999.2500    -999.2500    -999.2500    -999.2500       2.2530     -31.9000
    605.1804      16.0242       0.0310     113.7387      47.0401       1.8765    -999.2500    -999.2500    -999.2500    -999.2500       2.2465     -32.0479
    605.3328      16.0740       0.0390     114.4730      46.0860       1.8650    -999.2500    -999.2500    -999.2500    -999.2500       2.2400     -32.1950
    605.4852      16.0870       0.0360     115.2388      44.2982       1.8475    -999.2500    -999.2500    -999.2500    -999.2500       2.2400     -32.8025
    605.6376      16.1000       0.0330     116.0000      42.5210       1.8300    -999.2500    -999.2500    -999.2500    -999.2500       2.2400     -33.4070
    605.7900      16.1501       0.0265     115.6299      41.0834       1.8200    -999.2500    -999.2500    -999.2500    -999.2500       2.2435     -34.5293
    605.9424      16.2000       0.0200     115.2620      39.6540       1.8100    -999.2500    -999.2500    -999.2500    -999.2500       2.2470     -35.6460
    606.0948      16.1499       0.0160     114.7596      39.1406       1.8210    -999.2500    -999.2500    -999.2500    -999.2500       2.2535     -37.2728
    606.2472      16.1000       0.0120     114.2600      38.6300       1.8320    -999.2500    -999.2500    -999.2500    -999.2500       2.2600     -38.8910
    606.3996      16.1000       0.0065     113.0126      38.2294       1.8511    -999.2500    -999.2500    -999.2500    -999.2500       2.2525     -41.0229
    606.5520      16.1000       0.0010     111.7720      37.8310       1.8700    -999.2500    -999.2500    -999.2500    -999.2500       2.2450     -43.1430
    606.7044      16.0253      -0.0025     110.3823      36.3615       1.8936    -999.2500    -999.2500    -999.2500    -999.2500       2.2325     -44.9895
    606.8568      15.9510      -0.0060     109.0000      34.9000       1.9170    -999.2500    -999.2500    -999.2500    -999.2500       2.2200     -46.8260
    607.0092      15.8507      -0.0050     109.0000      35.0118       1.9285    -999.2500    -999.2500    -999.2500    -999.2500       2.2275     -47.9159
    607.1616      15.7510      -0.0040     109.0000      35.1230       1.9400    -999.2500    -999.2500    -999.2500    -999.2500       2.2350     -49.0000
    607.3140      15.6753      -0.0060     109.0000      36.6982       1.9099    -999.2500    -999.2500    -999.2500    -999.2500       2.2375     -48.9624
    607.4664      15.6000      -0.0080     109.0000      38.2640       1.8800    -999.2500    -999.2500    -999.2500    -999.2500       2.2400     -48.9250
    607.6188      15.6376      -0.0065     110.4994      39.4855       1.8133    -999.2500    -999.2500    -999.2500    -999.2500       2.2290     -48.5004
    607.7712      15.6750      -0.0050     111.9900      40.7000       1.7470    -999.2500    -999.2500    -999.2500    -999.2500       2.2180     -48.0780
    607.9236      15.7627      -0.0010     114.7509      40.0236       1.6753    -999.2500    -999.2500    -999.2500    -999.2500       2.1989     -47.5631
    608.0760      15.8500       0.0030     117.4960      39.3510       1.6040    -999.2500    -999.2500    -999.2500    -999.2500       2.1800     -47.0510
    608.2284      15.9503       0.0020     119.2529      38.7488       1.5529    -999.2500    -999.2500    -999.2500    -999.2500       2.1800     -46.5491
    608.3808      16.0500       0.0010     121.0000      38.1500       1.5020    -999.2500    -999.2500    -999.2500    -999.2500       2.1800     -46.0500
    608.5332      16.1127       0.0055     119.8699      37.3844       1.4860    -999.2500    -999.2500    -999.2500    -999.2500       2.1915     -45.6985
    608.6856      16.1750       0.0100     118.7460      36.6230       1.4700    -999.2500    -999.2500    -999.2500    -999.2500       2.2030     -45.3490
    608.8380      16.2251       0.0175     115.7254      35.9195       1.4815    -999.2500    -999.2500    -999.2500    -999.2500       2.2256     -45.2743
    608.9904      16.2750       0.0250     112.7220      35.2200       1.4930    -999.2500    -999.2500    -999.2500    -999.2500       2.2480     -45.2000
    609.1428      16.2875       0.0270     109.8524      34.8705       1.5156    -999.2500    -999.2500    -999.2500    -999.2500       2.2741     -45.8803
    609.2952      16.3000       0.0290     107.0000      34.5230       1.5380    -999.2500    -999.2500    -999.2500    -999.2500       2.3000     -46.5570
    609.4476      16.3381       0.0250     107.0000      33.6274       1.5490    -999.2500    -999.2500    -999.2500    -999.2500       2.2850     -48.2568
    609.6000      16.3760       0.0210     107.0000      32.7370       1.5600    -999.2500    -999.2500    -999.2500    -999.2500       2.2700     -49.9480
    609.7524      16.4261       0.0225     107.0000      31.8159       1.5525    -999.2500    -999.2500    -999.2500    -999.2500       2.2424     -51.9037
    609.9048      16.4760       0.0240     107.0000      30.9000       1.5450    -999.2500    -999.2500    -999.2500    -999.2500       2.2150     -53.8490
    610.0572      16.4880       0.0345     105.4797      31.3182       1.5234    -999.2500    -999.2500    -999.2500    -999.2500       2.1975     -55.4279
    610.2096      16.5000       0.0450     103.9680      31.7340       1.5020    -999.2500    -999.2500    -999.2500    -999.2500       2.1800     -56.9980
    610.3620      16.5000       0.0410     102.4799      33.0496       1.4769    -999.2500    -999.2500    -999.2500    -999.2500       2.1900     -57.9601
    610.5144      16.5000       0.0370     101.0000      34.3580       1.4520    -999.2500    -999.2500    -999.2500    -999.2500       2.2000     -58.9170
    610.6668      16.5000       0.0245     102.1443      35.1814       1.4309    -999.2500    -999.2500    -999.2500    -999.2500       2.1960     -59.3597
    610.8192      16.5000       0.0120     103.2820      36.0000       1.4100    -999.2500    -999.2500    -999.2500    -999.2500       2.1920     -59.8000
    610.9716      16.5000       0.0130     107.0835      34.7382       1.4140    -999.2500    -999.2500    -999.2500    -999.2500       2.1810     -59.5709
    611.1240      16.5000       0.0140     110.8620      33.4840       1.4180    -999.2500    -999.2500    -999.2500    -999.2500       2.1700     -59.3430
    611.2764      16.4233       0.0170     112.4356      32.2383       1.4305    -999.2500    -999.2500    -999.2500    -999.2500       2.1740     -58.7745
    611.4288      16.3470       0.0200     114.0000      31.0000       1.4430    -999.2500    -999.2500    -999.2500    -999.2500       2.1780     -58.2090
    611.5812      16.2853       0.0180     111.3162      31.3450       1.4656    -999.2500    -999.2500    -999.2500    -999.2500       2.1830     -57.3644
    611.7336      16.2240       0.0160     108.6480      31.6880       1.4880    -999.2500    -999.2500    -999.2500    -999.2500       2.1880     -56.5240
    611.8860      16.1734       0.0165     107.3202      31.7943       1.5206    -999.2500    -999.2500    -999.2500    -999.2500       2.1890     -55.6191
    612.0384      16.1230       0.0170     106.0000      31.9000       1.5530    -999.2500    -999.2500    -999.2500    -999.2500       2.1900     -54.7190
    612.1908      16.0729       0.0160     106.3846      31.6308       1.5921    -999.2500    -999.2500    -999.2500    -999.2500       2.1850     -54.1625
    612.3432      16.0230       0.0150     106.7670      31.3630       1.6310    -999.2500    -999.2500    -999.2500    -999.2500       2.1800     -53.6090
