#------------------------------------------------------------------------------
#
#   Created by  : [OpenWorks] Log Export Utility (LEXP)
#   Created on  : 2016-05-19 10:37:47
#   Project     : CANT971
#   User        : R5K
#   Interpreter : PEP
#
#------------------------------------------------------------------------------
~VERSION INFORMATION
VERS. 2.0 : CWLS Log ASCII Standard - version 2.0
WRAP.  NO : One line per depth step
~WELL INFORMATION
#MNEMONIC   .UNIT                                           VALUE :DESCRIPTION
#------------------------------------------------------------------------------
STRT        .M                                           493.6236 :START DEPTH
STOP        .M                                          2733.4463 :STOP DEPTH
STEP        .M                                             0.1524 :STEP
NULL        .                                           -999.2500 :NULL VALUE
COMP        .                                   PEMEX EXPL & PROD :COMPANY
WELL        .                                                2295 :WELL
FLD         .                                           CANTARELL :FIELD
LOC         .                                             UNKNOWN :LOCATION
CNTY        .                                      CD. DEL CARMEN :COUNTY
STAT        .                                            CAMPECHE :STATE
CTRY        .                                              MEXICO :COUNTRY
SRVC        .                                             UNKNOWN :SERVICE COMPANY
DATE        .                                             UNKNOWN :LOG DATE
UWI         .                                          3060000234 :UNIQUE WELL ID
XCOORD      .                                       597311.680000 :SURFACE X
YCOORD      .                                      2143044.130000 :SURFACE Y
LAT         .                                           19.380330 :LATITUDE
LON         .                                          -92.073342 :LONGITUDE
ELEV        .M                                            27.7000 :SURFACE ELEV
ELEV_TYPE   .                                                  KB :ELEV TYPE
~CURVE INFORMATION
#MNEMONIC.UNIT        API CODE       : CURVE DESCRIPTION
#------------------------------------------------------------------------------
DEPTH    .M                          : Measured Depth
CALI     .inches      UNKNOWN        : CALI:Import:r9:MAIN:v1 
DRHO     .g/cm3       UNKNOWN        : DRHO:Import:r9:MAIN:v1 
DT       .us/ft       UNKNOWN        : DT:Import:r9:MAIN:v1 
GR       .API         UNKNOWN        : GR:Import:r9:MAIN:v1 
ILD      .ohm.m       UNKNOWN        : ILD:Import:r9:MAIN:v1 
LLD      .ohm.m       UNKNOWN        : LLD:Import:r9:MAIN:v1 
LLS      .ohm.m       UNKNOWN        : LLS:Import:r9:MAIN:v1 
MSFL     .ohm.m       UNKNOWN        : MSFL:Import:r9:MAIN:v1 
NPHI     .v/v_decimal UNKNOWN        : NPHI:Import:r9:MAIN:v1 
RHOB     .g/cm3       UNKNOWN        : RHOB:Import:r9:MAIN:v1 
SP       .mV          UNKNOWN        : SP:Import:r9:MAIN:v1 
~A     DEPTH         CALI         DRHO           DT           GR          ILD          LLD          LLS         MSFL         NPHI         RHOB           SP
# ...
    715.5180      15.8744       0.0455     122.4603      43.4264       1.5581    -999.2500    -999.2500    -999.2500    -999.2500       2.2460     -28.4504
    715.6704      15.6570       0.0550     121.3560      43.9000       1.5850    -999.2500    -999.2500    -999.2500    -999.2500       2.2600     -28.6000
    715.8228      15.5281       0.0475     119.1714      43.8784       1.6181    -999.2500    -999.2500    -999.2500    -999.2500       2.2590     -29.2517
    715.9752      15.4000       0.0400     117.0000      43.8570       1.6510    -999.2500    -999.2500    -999.2500    -999.2500       2.2580     -29.9000
    716.1276      15.4000       0.0410     117.0000      43.6574       1.6751    -999.2500    -999.2500    -999.2500    -999.2500       2.2490     -29.8779
    716.2800      15.4000       0.0420     117.0000      43.4590       1.6990    -999.2500    -999.2500    -999.2500    -999.2500       2.2400     -29.8560
    716.4324      15.4000       0.0410     117.0000      42.4766       1.7165    -999.2500    -999.2500    -999.2500    -999.2500       2.2410     -29.7668
    716.5848      15.4000       0.0400     117.0000      41.5000       1.7340    -999.2500    -999.2500    -999.2500    -999.2500       2.2420     -29.6780
    716.7372      15.4000       0.0415     117.1108      43.1046       1.7420    -999.2500    -999.2500    -999.2500    -999.2500       2.2470     -29.5838
    716.8896      15.4000       0.0430     117.2210      44.7000       1.7500    -999.2500    -999.2500    -999.2500    -999.2500       2.2520     -29.4900
    717.0420      15.4000       0.0490     117.7224      44.5225       1.7465    -999.2500    -999.2500    -999.2500    -999.2500       2.2560     -29.2615
    717.1944      15.4000       0.0550     118.2210      44.3460       1.7430    -999.2500    -999.2500    -999.2500    -999.2500       2.2600     -29.0340
    717.3468      15.4110       0.0796     119.0605      41.9660       1.7064    -999.2500    -999.2500    -999.2500    -999.2500       2.2550     -28.8496
    717.4992      15.4220       0.1040     119.8950      39.6000       1.6700    -999.2500    -999.2500    -999.2500    -999.2500       2.2500     -28.6660
    717.6516      15.5113       0.1030     121.9538      39.9395       1.6720    -999.2500    -999.2500    -999.2500    -999.2500       2.2500     -28.3307
    717.8040      15.6000       0.1020     124.0000      40.2770       1.6740    -999.2500    -999.2500    -999.2500    -999.2500       2.2500     -27.9970
    717.9564      15.5774       0.0980     123.3210      41.9937       1.6865    -999.2500    -999.2500    -999.2500    -999.2500       2.2600     -27.4666
    718.1088      15.5550       0.0940     122.6460      43.7000       1.6990    -999.2500    -999.2500    -999.2500    -999.2500       2.2700     -26.9390
    718.2612      15.4432       0.0880     117.8088      42.8976       1.7155    -999.2500    -999.2500    -999.2500    -999.2500       2.2675     -26.2949
    718.4136      15.3320       0.0820     113.0000      42.1000       1.7320    -999.2500    -999.2500    -999.2500    -999.2500       2.2650     -25.6540
    718.5660      15.1816       0.0760     113.4568      42.2254       1.7395    -999.2500    -999.2500    -999.2500    -999.2500       2.2525     -25.5768
    718.7184      15.0320       0.0700     113.9110      42.3500       1.7470    -999.2500    -999.2500    -999.2500    -999.2500       2.2400     -25.5000
    718.8708      14.9041       0.0635     116.1528      42.9607       1.7665    -999.2500    -999.2500    -999.2500    -999.2500       2.2410     -25.5922
    719.0232      14.7770       0.0570     118.3820      43.5680       1.7860    -999.2500    -999.2500    -999.2500    -999.2500       2.2420     -25.6840
    719.1756      14.7033       0.0465     120.8137      45.5896       1.8266    -999.2500    -999.2500    -999.2500    -999.2500       2.2711     -26.2253
    719.3280      14.6300       0.0360     123.2320      47.6000       1.8670    -999.2500    -999.2500    -999.2500    -999.2500       2.3000     -26.7640
    719.4804      14.4329       0.0240     123.8503      47.5418       1.9272    -999.2500    -999.2500    -999.2500    -999.2500       2.2950     -28.3139
    719.6328      14.2370       0.0120     124.4650      47.4840       1.9870    -999.2500    -999.2500    -999.2500    -999.2500       2.2900     -29.8560
    719.7852      13.8674       0.0150     125.4695      45.3355       2.0687    -999.2500    -999.2500    -999.2500    -999.2500       2.2950     -33.4550
    719.9376      13.5000       0.0180     126.4680      43.2000       2.1500    -999.2500    -999.2500    -999.2500    -999.2500       2.3000     -37.0350
    720.0900      13.5115       0.0356     127.8235      43.2236       2.1490    -999.2500    -999.2500    -999.2500    -999.2500       2.2499     -41.3786
    720.2424      13.5230       0.0530     129.1710      43.2470       2.1480    -999.2500    -999.2500    -999.2500    -999.2500       2.2000     -45.7000
    720.3948      13.5736       0.0495     131.5665      43.5138       2.1320    -999.2500    -999.2500    -999.2500    -999.2500       2.2025     -45.3556
    720.5472      13.6240       0.0460     133.9480      43.7790       2.1160    -999.2500    -999.2500    -999.2500    -999.2500       2.2050     -45.0130
    720.6996      13.6741       0.0335     138.9883      45.3439       2.0684    -999.2500    -999.2500    -999.2500    -999.2500       2.2426     -43.4848
    720.8520      13.7240       0.0210     144.0000      46.9000       2.0210    -999.2500    -999.2500    -999.2500    -999.2500       2.2800     -41.9640
    721.0044      13.7862       0.0145     141.1250      46.5886       1.9754    -999.2500    -999.2500    -999.2500    -999.2500       2.2750     -40.0540
    721.1568      13.8480       0.0080     138.2660      46.2790       1.9300    -999.2500    -999.2500    -999.2500    -999.2500       2.2700     -38.1530
    721.3092      13.9242       0.0030     122.0859      45.0208       1.9430    -999.2500    -999.2500    -999.2500    -999.2500       2.3001     -36.0928
    721.4616      14.0000      -0.0020     106.0000      43.7700       1.9560    -999.2500    -999.2500    -999.2500    -999.2500       2.3300     -34.0430
    721.6140      14.0120       0.0000     109.0092      42.8823       2.0051    -999.2500    -999.2500    -999.2500    -999.2500       2.3230     -32.8122
    721.7664      14.0240       0.0020     112.0000      42.0000       2.0540    -999.2500    -999.2500    -999.2500    -999.2500       2.3160     -31.5880
    721.9188      14.0987       0.0246     109.4925      42.0853       2.0771    -999.2500    -999.2500    -999.2500    -999.2500       2.2779     -29.0875
    722.0712      14.1730       0.0470     107.0000      42.1700       2.1000    -999.2500    -999.2500    -999.2500    -999.2500       2.2400     -26.6000
    722.2236      14.3370       0.0425     108.5044      44.6422       2.1095    -999.2500    -999.2500    -999.2500    -999.2500       2.2425     -26.6125
    722.3760      14.5000       0.0380     110.0000      47.1000       2.1190    -999.2500    -999.2500    -999.2500    -999.2500       2.2450     -26.6250
    722.5284      14.4754       0.0204     109.7538      46.8784       2.1641    -999.2500    -999.2500    -999.2500    -999.2500       2.2550     -26.7979
    722.6808      14.4510       0.0030     109.5090      46.6580       2.2090    -999.2500    -999.2500    -999.2500    -999.2500       2.2650     -26.9700
    722.8332      14.2750       0.0070     105.2426      45.6422       2.2691    -999.2500    -999.2500    -999.2500    -999.2500       2.2760     -27.6957
    722.9856      14.1000       0.0110     101.0000      44.6320       2.3290    -999.2500    -999.2500    -999.2500    -999.2500       2.2870     -28.4180
    723.1380      14.1125       0.0436     103.1092      43.4124       2.3831    -999.2500    -999.2500    -999.2500    -999.2500       2.3186     -29.4614
    723.2904      14.1250       0.0760     105.2060      42.2000       2.4370    -999.2500    -999.2500    -999.2500    -999.2500       2.3500     -30.5000
