#------------------------------------------------------------------------------
#
#   Created by  : [OpenWorks] Log Export Utility (LEXP)
#   Created on  : 2016-05-19 10:37:47
#   Project     : CANT971
#   User        : R5K
#   Interpreter : PEP
#
#------------------------------------------------------------------------------
~VERSION INFORMATION
VERS. 2.0 : CWLS Log ASCII Standard - version 2.0
WRAP.  NO : One line per depth step
~WELL INFORMATION
#MNEMONIC   .UNIT                                           VALUE :DESCRIPTION
#------------------------------------------------------------------------------
STRT        .M                                           493.6236 :START DEPTH
STOP        .M                                          2733.4463 :STOP DEPTH
STEP        .M                                             0.1524 :STEP
NULL        .                                           -999.2500 :NULL VALUE
COMP        .                                   PEMEX EXPL & PROD :COMPANY
WELL        .                                                2295 :WELL
FLD         .                                           CANTARELL :FIELD
LOC         .                                             UNKNOWN :LOCATION
CNTY        .                                      CD. DEL CARMEN :COUNTY
STAT        .                                            CAMPECHE :STATE
CTRY        .                                              MEXICO :COUNTRY
SRVC        .                                             UNKNOWN :SERVICE COMPANY
DATE        .                                             UNKNOWN :LOG DATE
UWI         .                                          3060000234 :UNIQUE WELL ID
XCOORD      .                                       597311.680000 :SURFACE X
YCOORD      .                                      2143044.130000 :SURFACE Y
LAT         .                                           19.380330 :LATITUDE
LON         .                                          -92.073342 :LONGITUDE
ELEV        .M                                            27.7000 :SURFACE ELEV
ELEV_TYPE   .                                                  KB :ELEV TYPE
~CURVE INFORMATION
#MNEMONIC.UNIT        API CODE       : CURVE DESCRIPTION
#------------------------------------------------------------------------------
DEPTH    .M                          : Measured Depth
CALI     .inches      UNKNOWN        : CALI:Import:r9:MAIN:v1 
DRHO     .g/cm3       UNKNOWN        : DRHO:Import:r9:MAIN:v1 
DT       .us/ft       UNKNOWN        : DT:Import:r9:MAIN:v1 
GR       .API         UNKNOWN        : GR:Import:r9:MAIN:v1 
ILD      .ohm.m       UNKNOWN        : ILD:Import:r9:MAIN:v1 
LLD      .ohm.m       UNKNOWN        : LLD:Import:r9:MAIN:v1 
LLS      .ohm.m       UNKNOWN        : LLS:Import:r9:MAIN:v1 
MSFL     .ohm.m       UNKNOWN        : MSFL:Import:r9:MAIN:v1 
NPHI     .v/v_decimal UNKNOWN        : NPHI:Import:r9:MAIN:v1 
RHOB     .g/cm3       UNKNOWN        : RHOB:Import:r9:MAIN:v1 
SP       .mV          UNKNOWN        : SP:Import:r9:MAIN:v1 
~A     DEPTH         CALI         DRHO           DT           GR          ILD          LLD          LLS         MSFL         NPHI         RHOB           SP
# ...
   2728.4172       5.6414       0.0910      67.5278      29.3984    -999.2500    1034.8732    1629.8250      46.1514       0.0747       2.4839    -999.2500
   2728.5696       5.6160       0.0830      65.5930      29.9040    -999.2500     987.7580    1629.8250      24.2180       0.0754       2.4520    -999.2500
   2728.7219       5.5859       0.0529      59.1912      30.4134    -999.2500     847.0248    1629.8250      38.6655       0.0747       2.4645    -999.2500
   2728.8745       5.5560       0.0230      52.8360      30.9190    -999.2500     707.3150    1629.8250      53.0080       0.0739       2.4770    -999.2500
   2729.0269       5.5560       0.0340      54.4272      31.0153    -999.2500     517.6755    1629.8250     118.9228       0.0743       2.5021    -999.2500
   2729.1792       5.5560       0.0450      56.0070      31.1110    -999.2500     329.3900    1629.8250     184.3670       0.0752       2.5270    -999.2500
   2729.3315       5.5560       0.0555      58.0803      31.6128    -999.2500     225.1159    1629.8250     134.5948       0.0760       2.5395    -999.2500
   2729.4839       5.5560       0.0660      60.1390      32.1110    -999.2500     121.5740    1629.8250      85.1720       0.0765       2.5520    -999.2500
   2729.6365       5.5776       0.0745      56.7200      32.0352    -999.2500      84.4416    1629.8250     105.0134       0.0767       2.5565    -999.2500
   2729.7888       5.5990       0.0830      53.3300      31.9600    -999.2500      47.5650    1629.8250     124.7180       0.0769       2.5610    -999.2500
   2729.9412       5.6256       0.0820      54.2554      31.4027    -999.2500      28.7804    1651.6630     145.1863       0.0775       2.5540    -999.2500
   2730.0935       5.6520       0.0810      55.1730      30.8500    -999.2500      10.1230    1673.3530     165.5160       0.0788       2.5470    -999.2500
   2730.2461       5.6595       0.0790      54.1423      29.3076    -999.2500       6.3510    1718.3337     172.5927       0.0810       2.5214    -999.2500
   2730.3984       5.6670       0.0770      53.1200      27.7780    -999.2500       2.6100    1762.9440     179.6110       0.0830       2.4960    -999.2500
   2730.5508       5.6670       0.0916      54.3535      27.7780    -999.2500       1.8921    1784.2834     185.7705       0.0836       2.4634    -999.2500
   2730.7031       5.6670       0.1060      55.5770      27.7780    -999.2500       1.1800    1805.4500     191.8800       0.0828       2.4310    -999.2500
   2730.8557       5.6670       0.0899      54.9826      27.9532    -999.2500       0.8673    1791.1775     196.1465       0.0801       2.4094    -999.2500
   2731.0081       5.6670       0.0740      54.3930      28.1270    -999.2500       0.5570    1777.0190     200.3790       0.0775       2.3880    -999.2500
   2731.1604       5.6670       0.0770      53.7926      29.3518    -999.2500       0.4340    1754.6943     204.4415       0.0767       2.3644    -999.2500
   2731.3127       5.6670       0.0800      53.1970      30.5670    -999.2500       0.3120    1732.5450     208.4720       0.0767       2.3410    -999.2500
   2731.4651       5.6670       0.0931      54.3505      30.0907    -999.2500       0.2774    1699.1583     209.4899       0.0767       2.3455    -999.2500
   2731.6177       5.6670       0.1060      55.4950      29.6180    -999.2500       0.2430    1666.0300     210.5000       0.0766       2.3500    -999.2500
   2731.7700       5.6670       0.0930      54.1313      28.1369    -999.2500       0.2340    1647.8584     210.5000       0.0763       2.3405    -999.2500
   2731.9224       5.6670       0.0800      52.7780      26.6670    -999.2500       0.2250    1629.8250     210.5000       0.0754       2.3310    -999.2500
   2732.0747       5.6670       0.0835      53.1133      26.6670    -999.2500       0.2200    1629.8250     210.5000       0.0733       2.3335    -999.2500
   2732.2273       5.6670       0.0870      53.4460      26.6670    -999.2500       0.2150    1629.8250     210.5000       0.0701       2.3360    -999.2500
   2732.3796       5.6670       0.0830      53.8073      27.2848    -999.2500       0.2110    1629.8250     210.5000       0.0659       2.3400    -999.2500
   2732.5320       5.6670       0.0790      54.1660      27.8980    -999.2500       0.2070    1629.8250     210.5000       0.0614       2.3440    -999.2500
   2732.6843       5.6670       0.0740      53.9833      29.4225    -999.2500    -999.2500    -999.2500    -999.2500    -999.2500       2.3616    -999.2500
   2732.8369       5.6670       0.0690      53.8020      30.9360    -999.2500    -999.2500    -999.2500    -999.2500    -999.2500       2.3790    -999.2500
   2732.9893       5.6670       0.0590      54.2742      30.2666    -999.2500    -999.2500    -999.2500    -999.2500    -999.2500       2.3765    -999.2500
   2733.1416       5.6670       0.0490      54.7430      29.6020    -999.2500    -999.2500    -999.2500    -999.2500    -999.2500       2.3740    -999.2500
   2733.2939       5.6670       0.0490      55.0666      29.1434    -999.2500    -999.2500    -999.2500    -999.2500    -999.2500       2.3725    -999.2500
   2733.4463       5.6670       0.0490      55.3880      28.6880    -999.2500    -999.2500    -999.2500    -999.2500    -999.2500       2.3710    -999.2500
