#------------------------------------------------------------------------------
#
#   Created by  : [OpenWorks] Log Export Utility (LEXP)
#   Created on  : 2016-05-19 10:37:47
#   Project     : CANT971
#   User        : R5K
#   Interpreter : PEP
#
#------------------------------------------------------------------------------
~VERSION INFORMATION
VERS. 2.0 : CWLS Log ASCII Standard - version 2.0
WRAP.  NO : One line per depth step
~WELL INFORMATION
#MNEMONIC   .UNIT                                           VALUE :DESCRIPTION
#------------------------------------------------------------------------------
STRT        .M                                           493.6236 :START DEPTH
STOP        .M                                          2733.4463 :STOP DEPTH
STEP        .M                                             0.1524 :STEP
NULL        .                                           -999.2500 :NULL VALUE
COMP        .                                   PEMEX EXPL & PROD :COMPANY
WELL        .                                                2295 :WELL
FLD         .                                           CANTARELL :FIELD
LOC         .                                             UNKNOWN :LOCATION
CNTY        .                                      CD. DEL CARMEN :COUNTY
STAT        .                                            CAMPECHE :STATE
CTRY        .                                              MEXICO :COUNTRY
SRVC        .                                             UNKNOWN :SERVICE COMPANY
DATE        .                                             UNKNOWN :LOG DATE
UWI         .                                          3060000234 :UNIQUE WELL ID
XCOORD      .                                       597311.680000 :SURFACE X
YCOORD      .                                      2143044.130000 :SURFACE Y
LAT         .                                           19.380330 :LATITUDE
LON         .                                          -92.073342 :LONGITUDE
ELEV        .M                                            27.7000 :SURFACE ELEV
ELEV_TYPE   .                                                  KB :ELEV TYPE
~CURVE INFORMATION
#MNEMONIC.UNIT        API CODE       : CURVE DESCRIPTION
#------------------------------------------------------------------------------
DEPTH    .M                          : Measured Depth
CALI     .inches      UNKNOWN        : CALI:Import:r9:MAIN:v1 
DRHO     .g/cm3       UNKNOWN        : DRHO:Import:r9:MAIN:v1 
DT       .us/ft       UNKNOWN        : DT:Import:r9:MAIN:v1 
GR       .API         UNKNOWN        : GR:Import:r9:MAIN:v1 
ILD      .ohm.m       UNKNOWN        : ILD:Import:r9:MAIN:v1 
LLD      .ohm.m       UNKNOWN        : LLD:Import:r9:MAIN:v1 
LLS      .ohm.m       UNKNOWN        : LLS:Import:r9:MAIN:v1 
MSFL     .ohm.m       UNKNOWN        : MSFL:Import:r9:MAIN:v1 
NPHI     .v/v_decimal UNKNOWN        : NPHI:Import:r9:MAIN:v1 
RHOB     .g/cm3       UNKNOWN        : RHOB:Import:r9:MAIN:v1 
SP       .mV          UNKNOWN        : SP:Import:r9:MAIN:v1 
~A     DEPTH         CALI         DRHO           DT           GR          ILD          LLD          LLS         MSFL         NPHI         RHOB           SP
# ...
    881.9388      16.0000       0.0641     112.4703      49.6699       2.0905    -999.2500    -999.2500    -999.2500    -999.2500       2.3250     -21.8928
    882.0912      16.0000       0.0820     112.9380      50.4940       2.0810    -999.2500    -999.2500    -999.2500    -999.2500       2.3300     -22.2560
    882.2436      16.1409       0.0690     114.8492      51.0487       2.0615    -999.2500    -999.2500    -999.2500    -999.2500       2.3200     -22.3282
    882.3960      16.2810       0.0560     116.7490      51.6000       2.0420    -999.2500    -999.2500    -999.2500    -999.2500       2.3100     -22.4000
    882.5484      16.3848       0.0455     120.1737      50.1861       2.0220    -999.2500    -999.2500    -999.2500    -999.2500       2.3100     -22.2116
    882.7008      16.4880       0.0350     123.5770      48.7810       2.0020    -999.2500    -999.2500    -999.2500    -999.2500       2.3100     -22.0240
    882.8532      16.4940       0.0400     126.2969      47.2859       1.9910    -999.2500    -999.2500    -999.2500    -999.2500       2.3150     -21.6812
    883.0056      16.5000       0.0450     129.0000      45.8000       1.9800    -999.2500    -999.2500    -999.2500    -999.2500       2.3200     -21.3400
    883.1580      16.4057       0.0545     128.4985      46.2012       1.9845    -999.2500    -999.2500    -999.2500    -999.2500       2.3105     -21.1195
    883.3104      16.3120       0.0640     128.0000      46.6000       1.9890    -999.2500    -999.2500    -999.2500    -999.2500       2.3010     -20.9000
    883.4628      16.2558       0.0615     128.0000      46.1737       1.9895    -999.2500    -999.2500    -999.2500    -999.2500       2.2955     -20.9501
    883.6152      16.2000       0.0590     128.0000      45.7500       1.9900    -999.2500    -999.2500    -999.2500    -999.2500       2.2900     -21.0000
    883.7676      16.2471       0.0595     128.4734      44.8223       1.9614    -999.2500    -999.2500    -999.2500    -999.2500       2.2945     -20.9053
    883.9200      16.2940       0.0600     128.9440      43.9000       1.9330    -999.2500    -999.2500    -999.2500    -999.2500       2.2990     -20.8110
    884.0724      16.3918       0.0595     132.9834      44.3743       1.9029    -999.2500    -999.2500    -999.2500    -999.2500       2.2995     -20.7052
    884.2248      16.4890       0.0590     137.0000      44.8460       1.8730    -999.2500    -999.2500    -999.2500    -999.2500       2.3000     -20.6000
    884.3772      16.5898       0.0545     134.6210      45.9262       1.8479    -999.2500    -999.2500    -999.2500    -999.2500       2.2860     -20.7904
    884.5296      16.6900       0.0500     132.2560      47.0000       1.8230    -999.2500    -999.2500    -999.2500    -999.2500       2.2720     -20.9800
    884.6820      16.8851       0.0430     129.2738      46.9498       1.8025    -999.2500    -999.2500    -999.2500    -999.2500       2.2660     -21.3704
    884.8344      17.0790       0.0360     126.3100      46.9000       1.7820    -999.2500    -999.2500    -999.2500    -999.2500       2.2600     -21.7590
    884.9868      17.1898       0.0250     122.8164      47.0906       1.7665    -999.2500    -999.2500    -999.2500    -999.2500       2.2600     -22.0301
    885.1392      17.3000       0.0140     119.3440      47.2800       1.7510    -999.2500    -999.2500    -999.2500    -999.2500       2.2600     -22.3000
    885.2916      17.2499       0.0165     118.6700      48.1024       1.7455    -999.2500    -999.2500    -999.2500    -999.2500       2.2550     -22.3000
    885.4440      17.2000       0.0190     118.0000      48.9200       1.7400    -999.2500    -999.2500    -999.2500    -999.2500       2.2500     -22.3000
    885.5964      17.2476       0.0210     118.4779      49.1035       1.7400    -999.2500    -999.2500    -999.2500    -999.2500       2.2500     -22.1567
    885.7488      17.2950       0.0230     118.9530      49.2860       1.7400    -999.2500    -999.2500    -999.2500    -999.2500       2.2500     -22.0140
    885.9012      17.2975       0.0215     118.9766      49.3432       1.7450    -999.2500    -999.2500    -999.2500    -999.2500       2.2650     -21.7198
    886.0536      17.3000       0.0200     119.0000      49.4000       1.7500    -999.2500    -999.2500    -999.2500    -999.2500       2.2800     -21.4270
    886.2060      17.3000       0.0155     117.9970      49.2997       1.7550    -999.2500    -999.2500    -999.2500    -999.2500       2.2700     -21.1263
    886.3584      17.3000       0.0110     117.0000      49.2000       1.7600    -999.2500    -999.2500    -999.2500    -999.2500       2.2600     -20.8270
    886.5108      17.3482       0.0105     117.0000      49.9202       1.7745    -999.2500    -999.2500    -999.2500    -999.2500       2.2600     -20.3339
    886.6632      17.3960       0.0100     117.0000      50.6360       1.7890    -999.2500    -999.2500    -999.2500    -999.2500       2.2600     -19.8430
    886.8156      17.3980       0.0135     116.5185      51.2459       1.7990    -999.2500    -999.2500    -999.2500    -999.2500       2.2695     -19.1960
    886.9680      17.4000       0.0170     116.0400      51.8520       1.8090    -999.2500    -999.2500    -999.2500    -999.2500       2.2790     -18.5520
    887.1204      17.3498       0.0210     115.5184      52.2131       1.8145    -999.2500    -999.2500    -999.2500    -999.2500       2.2795     -18.2253
    887.2728      17.3000       0.0250     115.0000      52.5720       1.8200    -999.2500    -999.2500    -999.2500    -999.2500       2.2800     -17.9000
    887.4252      17.3000       0.0305     115.4824      53.8884       1.8295    -999.2500    -999.2500    -999.2500    -999.2500       2.2800     -18.0448
    887.5776      17.3000       0.0360     115.9620      55.1970       1.8390    -999.2500    -999.2500    -999.2500    -999.2500       2.2800     -18.1890
    887.7300      17.2519       0.0450     115.9811      55.2988       1.8585    -999.2500    -999.2500    -999.2500    -999.2500       2.2900     -18.3874
    887.8824      17.2040       0.0540     116.0000      55.4000       1.8780    -999.2500    -999.2500    -999.2500    -999.2500       2.3000     -18.5850
    888.0348      17.0571       0.0430     115.0331      55.2551       1.8935    -999.2500    -999.2500    -999.2500    -999.2500       2.2950     -18.6406
    888.1872      16.9110       0.0320     114.0720      55.1110       1.9090    -999.2500    -999.2500    -999.2500    -999.2500       2.2900     -18.6960
    888.3396      16.7114       0.0385     113.0327      54.6691       1.9145    -999.2500    -999.2500    -999.2500    -999.2500       2.2850     -19.2308
    888.4920      16.5130       0.0450     112.0000      54.2300       1.9200    -999.2500    -999.2500    -999.2500    -999.2500       2.2800     -19.7630
    888.6444      16.4563       0.0616     112.4845      52.7128       1.9441    -999.2500    -999.2500    -999.2500    -999.2500       2.2850     -20.4330
    888.7968      16.4000       0.0780     112.9660      51.2050       1.9680    -999.2500    -999.2500    -999.2500    -999.2500       2.2900     -21.1000
    888.9492      16.4000       0.0635     113.4846      50.6669       2.0031    -999.2500    -999.2500    -999.2500    -999.2500       2.2950     -20.9061
    889.1016      16.4000       0.0490     114.0000      50.1320       2.0380    -999.2500    -999.2500    -999.2500    -999.2500       2.3000     -20.7130
    889.2540      16.3027       0.0299     112.5442      49.6792       2.0681    -999.2500    -999.2500    -999.2500    -999.2500       2.3095     -20.1728
    889.4064      16.2060       0.0110     111.0970      49.2290       2.0980    -999.2500    -999.2500    -999.2500    -999.2500       2.3190     -19.6350
    889.5588      16.0084       0.0100     109.5886      48.0952       2.1381    -999.2500    -999.2500    -999.2500    -999.2500       2.3195     -19.4231
    889.7112      15.8120       0.0090     108.0890      46.9680       2.1780    -999.2500    -999.2500    -999.2500    -999.2500       2.3200     -19.2120
