#------------------------------------------------------------------------------
#
#   Created by  : [OpenWorks] Log Export Utility (LEXP)
#   Created on  : 2016-05-19 10:37:47
#   Project     : CANT971
#   User        : R5K
#   Interpreter : PEP
#
#------------------------------------------------------------------------------
~VERSION INFORMATION
VERS. 2.0 : CWLS Log ASCII Standard - version 2.0
WRAP.  NO : One line per depth step
~WELL INFORMATION
#MNEMONIC   .UNIT                                           VALUE :DESCRIPTION
#------------------------------------------------------------------------------
STRT        .M                                           493.6236 :START DEPTH
STOP        .M                                          2733.4463 :STOP DEPTH
STEP        .M                                             0.1524 :STEP
NULL        .                                           -999.2500 :NULL VALUE
COMP        .                                   PEMEX EXPL & PROD :COMPANY
WELL        .                                                2295 :WELL
FLD         .                                           CANTARELL :FIELD
LOC         .                                             UNKNOWN :LOCATION
CNTY        .                                      CD. DEL CARMEN :COUNTY
STAT        .                                            CAMPECHE :STATE
CTRY        .                                              MEXICO :COUNTRY
SRVC        .                                             UNKNOWN :SERVICE COMPANY
DATE        .                                             UNKNOWN :LOG DATE
UWI         .                                          3060000234 :UNIQUE WELL ID
XCOORD      .                                       597311.680000 :SURFACE X
YCOORD      .                                      2143044.130000 :SURFACE Y
LAT         .                                           19.380330 :LATITUDE
LON         .                                          -92.073342 :LONGITUDE
ELEV        .M                                            27.7000 :SURFACE ELEV
ELEV_TYPE   .                                                  KB :ELEV TYPE
~CURVE INFORMATION
#MNEMONIC.UNIT        API CODE       : CURVE DESCRIPTION
#------------------------------------------------------------------------------
DEPTH    .M                          : Measured Depth
CALI     .inches      UNKNOWN        : CALI:Import:r9:MAIN:v1 
DRHO     .g/cm3       UNKNOWN        : DRHO:Import:r9:MAIN:v1 
DT       .us/ft       UNKNOWN        : DT:Import:r9:MAIN:v1 
GR       .API         UNKNOWN        : GR:Import:r9:MAIN:v1 
ILD      .ohm.m       UNKNOWN        : ILD:Import:r9:MAIN:v1 
LLD      .ohm.m       UNKNOWN        : LLD:Import:r9:MAIN:v1 
LLS      .ohm.m       UNKNOWN        : LLS:Import:r9:MAIN:v1 
MSFL     .ohm.m       UNKNOWN        : MSFL:Import:r9:MAIN:v1 
NPHI     .v/v_decimal UNKNOWN        : NPHI:Import:r9:MAIN:v1 
RHOB     .g/cm3       UNKNOWN        : RHOB:Import:r9:MAIN:v1 
SP       .mV          UNKNOWN        : SP:Import:r9:MAIN:v1 
~A     DEPTH         CALI         DRHO           DT           GR          ILD          LLD          LLS         MSFL         NPHI         RHOB           SP
# ...
   1040.4348      13.0000       0.0215     135.6865      70.7633       1.2400    -999.2500    -999.2500    -999.2500    -999.2500       2.1470     -10.3501
   1040.5872      13.0000       0.0200     135.3750      71.5000       1.2400    -999.2500    -999.2500    -999.2500    -999.2500       2.1400     -10.4000
   1040.7396      12.8997       0.0180     133.6818      71.1859       1.2370    -999.2500    -999.2500    -999.2500    -999.2500       2.1400     -10.4000
   1040.8920      12.8000       0.0160     132.0000      70.8740       1.2340    -999.2500    -999.2500    -999.2500    -999.2500       2.1400     -10.4000
   1041.0444      12.8316       0.0175     132.3145      69.9630       1.2290    -999.2500    -999.2500    -999.2500    -999.2500       2.1400     -10.1300
   1041.1968      12.8630       0.0190     132.6270      69.0580       1.2240    -999.2500    -999.2500    -999.2500    -999.2500       2.1400      -9.8610
   1041.3492      12.9317       0.0195     133.4457      68.4771       1.2190    -999.2500    -999.2500    -999.2500    -999.2500       2.1370      -9.3344
   1041.5016      13.0000       0.0200     134.2590      67.9000       1.2140    -999.2500    -999.2500    -999.2500    -999.2500       2.1340      -8.8100
   1041.6541      12.9498       0.0180     134.6307      67.9632       1.2070    -999.2500    -999.2500    -999.2500    -999.2500       2.1270      -8.3484
   1041.8064      12.9000       0.0160     135.0000      68.0260       1.2000    -999.2500    -999.2500    -999.2500    -999.2500       2.1200      -7.8890
   1041.9587      12.9316       0.0145     134.4984      68.6018       1.2000    -999.2500    -999.2500    -999.2500    -999.2500       2.1200      -7.7091
   1042.1112      12.9630       0.0130     134.0000      69.1740       1.2000    -999.2500    -999.2500    -999.2500    -999.2500       2.1200      -7.5300
   1042.2635      13.0819       0.0145     134.3170      70.1219       1.2030    -999.2500    -999.2500    -999.2500    -999.2500       2.1230      -7.6884
   1042.4160      13.2000       0.0160     134.6320      71.0640       1.2060    -999.2500    -999.2500    -999.2500    -999.2500       2.1260      -7.8460
   1042.5684      13.1684       0.0235     134.8166      71.6237       1.2175    -999.2500    -999.2500    -999.2500    -999.2500       2.1375      -8.1983
   1042.7208      13.1370       0.0310     135.0000      72.1800       1.2290    -999.2500    -999.2500    -999.2500    -999.2500       2.1490      -8.5490
   1042.8732      13.0548       0.0415     133.4956      72.8966       1.2440    -999.2500    -999.2500    -999.2500    -999.2500       2.1645      -8.8752
   1043.0256      12.9730       0.0520     132.0000      73.6090       1.2590    -999.2500    -999.2500    -999.2500    -999.2500       2.1800      -9.2000
   1043.1780      12.8727       0.0585     132.0000      74.9584       1.2710    -999.2500    -999.2500    -999.2500    -999.2500       2.1735      -9.3303
   1043.3304      12.7730       0.0650     132.0000      76.3000       1.2830    -999.2500    -999.2500    -999.2500    -999.2500       2.1670      -9.4600
   1043.4828      12.7043       0.0610     133.9199      75.3719       1.2865    -999.2500    -999.2500    -999.2500    -999.2500       2.1505      -9.3097
   1043.6353      12.6360       0.0570     135.8290      74.4490       1.2900    -999.2500    -999.2500    -999.2500    -999.2500       2.1340      -9.1600
   1043.7876      12.5859       0.0480     137.8781      71.9175       1.2835    -999.2500    -999.2500    -999.2500    -999.2500       2.1119      -8.8509
   1043.9399      12.5360       0.0390     139.9160      69.4000       1.2770    -999.2500    -999.2500    -999.2500    -999.2500       2.0900      -8.5430
   1044.0924      12.4177       0.0320     140.4595      70.0738       1.2670    -999.2500    -999.2500    -999.2500    -999.2500       2.0930      -8.2144
   1044.2448      12.3000       0.0250     141.0000      70.7440       1.2570    -999.2500    -999.2500    -999.2500    -999.2500       2.0960      -7.8870
   1044.3972      12.3321       0.0220     141.6450      72.9933       1.2405    -999.2500    -999.2500    -999.2500    -999.2500       2.0980      -7.5384
   1044.5496      12.3640       0.0190     142.2860      75.2290       1.2240    -999.2500    -999.2500    -999.2500    -999.2500       2.1000      -7.1910
   1044.7020      12.4322       0.0175     143.6125      76.5188       1.2070    -999.2500    -999.2500    -999.2500    -999.2500       2.0950      -6.8474
   1044.8544      12.5000       0.0160     144.9300      77.8000       1.1900    -999.2500    -999.2500    -999.2500    -999.2500       2.0900      -6.5050
   1045.0068      12.4498       0.0150     145.9684      77.2502       1.1900    -999.2500    -999.2500    -999.2500    -999.2500       2.0930      -6.1549
   1045.1592      12.4000       0.0140     147.0000      76.7040       1.1900    -999.2500    -999.2500    -999.2500    -999.2500       2.0960      -5.8060
   1045.3116      12.4000       0.0115     146.4984      75.9997       1.1870    -999.2500    -999.2500    -999.2500    -999.2500       2.0980      -5.5825
   1045.4640      12.4000       0.0090     146.0000      75.3000       1.1840    -999.2500    -999.2500    -999.2500    -999.2500       2.1000      -5.3600
   1045.6165      12.4000       0.0120     146.0000      75.7865       1.1790    -999.2500    -999.2500    -999.2500    -999.2500       2.1050      -5.5414
   1045.7688      12.4000       0.0150     146.0000      76.2700       1.1740    -999.2500    -999.2500    -999.2500    -999.2500       2.1100      -5.7220
   1045.9211      12.4326       0.0185     145.6745      77.5389       1.1670    -999.2500    -999.2500    -999.2500    -999.2500       2.1070      -6.1986
   1046.0736      12.4650       0.0220     145.3510      78.8000       1.1600    -999.2500    -999.2500    -999.2500    -999.2500       2.1040      -6.6730
   1046.2260      12.4826       0.0185     144.5235      78.6696       1.1600    -999.2500    -999.2500    -999.2500    -999.2500       2.0920      -7.1962
   1046.3784      12.5000       0.0150     143.7010      78.5400       1.1600    -999.2500    -999.2500    -999.2500    -999.2500       2.0800      -7.7170
   1046.5308      12.5000       0.0120     142.3695      77.7677       1.1600    -999.2500    -999.2500    -999.2500    -999.2500       2.0800      -7.9089
   1046.6832      12.5000       0.0090     141.0460      77.0000       1.1600    -999.2500    -999.2500    -999.2500    -999.2500       2.0800      -8.1000
   1046.8356      12.5326       0.0110     139.8676      77.5015       1.1600    -999.2500    -999.2500    -999.2500    -999.2500       2.0835      -7.9346
   1046.9880      12.5650       0.0130     138.6960      78.0000       1.1600    -999.2500    -999.2500    -999.2500    -999.2500       2.0870      -7.7700
   1047.1404      12.6151       0.0125     138.0196      77.6395       1.1600    -999.2500    -999.2500    -999.2500    -999.2500       2.0920      -7.7735
   1047.2928      12.6650       0.0120     137.3470      77.2810       1.1600    -999.2500    -999.2500    -999.2500    -999.2500       2.0970      -7.7770
   1047.4452      12.6825       0.0120     136.1862      76.7941       1.1635    -999.2500    -999.2500    -999.2500    -999.2500       2.1020      -7.8036
   1047.5977      12.7000       0.0120     135.0320      76.3100       1.1670    -999.2500    -999.2500    -999.2500    -999.2500       2.1070      -7.8300
   1047.7500      12.6499       0.0135     133.5269      75.9901       1.1750    -999.2500    -999.2500    -999.2500    -999.2500       2.1150      -7.5505
   1047.9023      12.6000       0.0150     132.0300      75.6720       1.1830    -999.2500    -999.2500    -999.2500    -999.2500       2.1230      -7.2720
   1048.0548      12.6000       0.0160     130.5103      75.3350       1.1965    -999.2500    -999.2500    -999.2500    -999.2500       2.1315      -6.6047
   1048.2072      12.6000       0.0170     129.0000      75.0000       1.2100    -999.2500    -999.2500    -999.2500    -999.2500       2.1400      -5.9400
