#------------------------------------------------------------------------------
#
#   Created by  : [OpenWorks] Log Export Utility (LEXP)
#   Created on  : 2016-05-19 10:37:47
#   Project     : CANT971
#   User        : R5K
#   Interpreter : PEP
#
#------------------------------------------------------------------------------
~VERSION INFORMATION
VERS. 2.0 : CWLS Log ASCII Standard - version 2.0
WRAP.  NO : One line per depth step
~WELL INFORMATION
#MNEMONIC   .UNIT                                           VALUE :DESCRIPTION
#------------------------------------------------------------------------------
STRT        .M                                           493.6236 :START DEPTH
STOP        .M                                          2733.4463 :STOP DEPTH
STEP        .M                                             0.1524 :STEP
NULL        .                                           -999.2500 :NULL VALUE
COMP        .                                   PEMEX EXPL & PROD :COMPANY
WELL        .                                                2295 :WELL
FLD         .                                           CANTARELL :FIELD
LOC         .                                             UNKNOWN :LOCATION
CNTY        .                                      CD. DEL CARMEN :COUNTY
STAT        .                                            CAMPECHE :STATE
CTRY        .                                              MEXICO :COUNTRY
SRVC        .                                             UNKNOWN :SERVICE COMPANY
DATE        .                                             UNKNOWN :LOG DATE
UWI         .                                          3060000234 :UNIQUE WELL ID
XCOORD      .                                       597311.680000 :SURFACE X
YCOORD      .                                      2143044.130000 :SURFACE Y
LAT         .                                           19.380330 :LATITUDE
LON         .                                          -92.073342 :LONGITUDE
ELEV        .M                                            27.7000 :SURFACE ELEV
ELEV_TYPE   .                                                  KB :ELEV TYPE
~CURVE INFORMATION
#MNEMONIC.UNIT        API CODE       : CURVE DESCRIPTION
#------------------------------------------------------------------------------
DEPTH    .M                          : Measured Depth
CALI     .inches      UNKNOWN        : CALI:Import:r9:MAIN:v1 
DRHO     .g/cm3       UNKNOWN        : DRHO:Import:r9:MAIN:v1 
DT       .us/ft       UNKNOWN        : DT:Import:r9:MAIN:v1 
GR       .API         UNKNOWN        : GR:Import:r9:MAIN:v1 
ILD      .ohm.m       UNKNOWN        : ILD:Import:r9:MAIN:v1 
LLD      .ohm.m       UNKNOWN        : LLD:Import:r9:MAIN:v1 
LLS      .ohm.m       UNKNOWN        : LLS:Import:r9:MAIN:v1 
MSFL     .ohm.m       UNKNOWN        : MSFL:Import:r9:MAIN:v1 
NPHI     .v/v_decimal UNKNOWN        : NPHI:Import:r9:MAIN:v1 
RHOB     .g/cm3       UNKNOWN        : RHOB:Import:r9:MAIN:v1 
SP       .mV          UNKNOWN        : SP:Import:r9:MAIN:v1 
~A     DEPTH         CALI         DRHO           DT           GR          ILD          LLD          LLS         MSFL         NPHI         RHOB           SP
    493.6236      18.1000       0.0235      40.0000      20.7892       0.2000    -999.2500    -999.2500    -999.2500    -999.2500       2.5950       0.0000
    493.7760      18.1000       0.0160      40.0000      21.3000       0.2000    -999.2500    -999.2500    -999.2500    -999.2500       2.5900       0.0000
    493.9284      18.1000       0.0020      40.0000      21.1340       0.2000    -999.2500    -999.2500    -999.2500    -999.2500       2.5684       0.0000
    494.0808      18.1000      -0.0120      40.0000      20.9690       0.2000    -999.2500    -999.2500    -999.2500    -999.2500       2.5470       0.0000
    494.2332      18.1000      -0.0240      40.0000      20.2324       0.2000    -999.2500    -999.2500    -999.2500    -999.2500       2.5134       0.0000
    494.3856      18.1000      -0.0360      40.0000      19.5000       0.2000    -999.2500    -999.2500    -999.2500    -999.2500       2.4800       0.0000
    494.5380      18.1000      -0.0335      40.0000      19.8740       0.2000    -999.2500    -999.2500    -999.2500    -999.2500       2.4815       0.0000
    494.6904      18.1000      -0.0310      40.0000      20.2460       0.2000    -999.2500    -999.2500    -999.2500    -999.2500       2.4830       0.0000
    494.8428      18.1000      -0.0245      40.0000      21.4765       0.2000    -999.2500    -999.2500    -999.2500    -999.2500       2.4880       0.0000
    494.9952      18.1000      -0.0180      40.0000      22.7000       0.2000    -999.2500    -999.2500    -999.2500    -999.2500       2.4930       0.0000
    495.1476      18.1000      -0.0225      40.0000      22.6479       0.2000    -999.2500    -999.2500    -999.2500    -999.2500       2.4965       0.0000
    495.3000      18.1000      -0.0270      40.0000      22.5960       0.2000    -999.2500    -999.2500    -999.2500    -999.2500       2.5000       0.0000
    495.4524      18.1000      -0.0430      40.0000      22.3689       0.2000    -999.2500    -999.2500    -999.2500    -999.2500       2.5050       0.0000
    495.6048      18.1000      -0.0590      40.0000      22.1430       0.2000    -999.2500    -999.2500    -999.2500    -999.2500       2.5100       0.0000
    495.7572      18.1130      -0.0771      40.0000      21.6702       0.2000    -999.2500    -999.2500    -999.2500    -999.2500       2.5085       0.0000
    495.9096      18.1260      -0.0950      40.0000      21.2000       0.2000    -999.2500    -999.2500    -999.2500    -999.2500       2.5070       0.0000
    496.0620      18.1631      -0.1416      40.0000      21.3003       0.2000    -999.2500    -999.2500    -999.2500    -999.2500       2.4889       0.0000
    496.2144      18.2000      -0.1880      40.0000      21.4000       0.2000    -999.2500    -999.2500    -999.2500    -999.2500       2.4710       0.0000
    496.3668      18.2000      -0.2492      42.2242      21.1493       1.2580    -999.2500    -999.2500    -999.2500    -999.2500       2.4153    -129.3622
    496.5192      18.2000      -0.3100      44.4360      20.9000       2.3100    -999.2500    -999.2500    -999.2500    -999.2500       2.3600    -258.0000
    496.6716      18.2000      -0.3286      50.6114      20.9667    1003.8965    -999.2500    -999.2500    -999.2500    -999.2500       2.3650    -257.4670
    496.8240      18.2000      -0.3470      56.7530      21.0330    2000.0000    -999.2500    -999.2500    -999.2500    -999.2500       2.3700    -256.9370
    496.9764      18.2000      -0.3510      57.1275      22.5708    2000.0000    -999.2500    -999.2500    -999.2500    -999.2500       2.3499    -254.7936
    497.1288      18.2000      -0.3550      57.5000      24.1000    2000.0000    -999.2500    -999.2500    -999.2500    -999.2500       2.3300    -252.6620
    497.2812      18.2135      -0.3660      48.3743      22.5958    2000.0000    -999.2500    -999.2500    -999.2500    -999.2500       2.3445    -249.8857
    497.4336      18.2270      -0.3770      39.3000      21.1000    2000.0000    -999.2500    -999.2500    -999.2500    -999.2500       2.3590    -247.1250
    497.5860      18.2771      -0.3760      39.7202      21.3577    2000.0000    -999.2500    -999.2500    -999.2500    -999.2500       2.4748    -243.1992
    497.7384      18.3270      -0.3750      40.1380      21.6140    2000.0000    -999.2500    -999.2500    -999.2500    -999.2500       2.5900    -239.2950
    497.8908      18.4183      -0.3459      48.4767      22.3907    2000.0000    -999.2500    -999.2500    -999.2500    -999.2500       2.5449    -233.5906
    498.0432      18.5090      -0.3170      56.7690      23.1630    2000.0000    -999.2500    -999.2500    -999.2500    -999.2500       2.5000    -227.9180
    498.1956      18.7778      -0.2172      78.7430      23.3821    2000.0000    -999.2500    -999.2500    -999.2500    -999.2500       2.3280    -218.4834
    498.3480      19.0450      -0.1180     100.5930      23.6000    2000.0000    -999.2500    -999.2500    -999.2500    -999.2500       2.1570    -209.1020
    498.5004      19.5519      -0.0288     114.9647      24.5486    2000.0000    -999.2500    -999.2500    -999.2500    -999.2500       1.9429    -193.0231
    498.6528      20.0560       0.0600     129.2570      25.4920    2000.0000    -999.2500    -999.2500    -999.2500    -999.2500       1.7300    -177.0330
    498.8052      21.1811       0.0585     157.2067      28.2643    1264.3024    -999.2500    -999.2500    -999.2500    -999.2500       1.7325    -154.8138
    498.9576      22.3000       0.0570     185.0000      31.0210     532.7220    -999.2500    -999.2500    -999.2500    -999.2500       1.7350    -132.7190
    499.1100      22.0779       0.0450     184.0277      32.1136     266.1603    -999.2500    -999.2500    -999.2500    -999.2500       1.7495    -107.9242
    499.2624      21.8570       0.0330     183.0610      33.2000       1.1100    -999.2500    -999.2500    -999.2500    -999.2500       1.7640     -83.2700
    499.4148      20.7755       0.0465     175.5096      32.7989       1.1250    -999.2500    -999.2500    -999.2500    -999.2500       1.7821     -70.1942
    499.5672      19.7000       0.0600     168.0000      32.4000       1.1400    -999.2500    -999.2500    -999.2500    -999.2500       1.8000     -57.1910
    499.7196      19.8399       0.0590     168.0000      33.5532       1.0227    -999.2500    -999.2500    -999.2500    -999.2500       1.8501     -53.3487
    499.8720      19.9790       0.0580     168.0000      34.7000       0.9060    -999.2500    -999.2500    -999.2500    -999.2500       1.9000     -49.5280
    500.0244      20.4910       0.0505     172.0114      33.5467       0.9632    -999.2500    -999.2500    -999.2500    -999.2500       1.8950     -47.7845
    500.1768      21.0000       0.0430     176.0000      32.4000       1.0200    -999.2500    -999.2500    -999.2500    -999.2500       1.8900     -46.0510
    500.3292      20.8591       0.0435     174.8729      32.4000       1.0150    -999.2500    -999.2500    -999.2500    -999.2500       1.9000     -45.2628
    500.4816      20.7190       0.0440     173.7520      32.4000       1.0100    -999.2500    -999.2500    -999.2500    -999.2500       1.9100     -44.4790
    500.6340      20.3299       0.0450     170.5836      32.7269       1.0100    -999.2500    -999.2500    -999.2500    -999.2500       1.9030     -43.7530
    500.7864      19.9430       0.0460     167.4330      33.0520       1.0100    -999.2500    -999.2500    -999.2500    -999.2500       1.8960     -43.0310
    500.9388      19.7424       0.0615     165.9994      34.2645       1.0170    -999.2500    -999.2500    -999.2500    -999.2500       1.8629     -42.4354
    501.0912      19.5430       0.0770     164.5740      35.4700       1.0240    -999.2500    -999.2500    -999.2500    -999.2500       1.8300     -41.8430
    501.2436      19.0702       0.0740     161.7797      36.8890       1.0476    -999.2500    -999.2500    -999.2500    -999.2500       1.8385     -41.2629
    501.3960      18.6000       0.0710     159.0010      38.3000       1.0710    -999.2500    -999.2500    -999.2500    -999.2500       1.8470     -40.6860
