#------------------------------------------------------------------------------
#
#   Created by  : [OpenWorks] Log Export Utility (LEXP)
#   Created on  : 2016-05-19 10:37:47
#   Project     : CANT971
#   User        : R5K
#   Interpreter : PEP
#
#------------------------------------------------------------------------------
~VERSION INFORMATION
VERS. 2.0 : CWLS Log ASCII Standard - version 2.0
WRAP.  NO : One line per depth step
~WELL INFORMATION
#MNEMONIC   .UNIT                                           VALUE :DESCRIPTION
#------------------------------------------------------------------------------
STRT        .M                                           493.6236 :START DEPTH
STOP        .M                                          2733.4463 :STOP DEPTH
STEP        .M                                             0.1524 :STEP
NULL        .                                           -999.2500 :NULL VALUE
COMP        .                                   PEMEX EXPL & PROD :COMPANY
WELL        .                                                2295 :WELL
FLD         .                                           CANTARELL :FIELD
LOC         .                                             UNKNOWN :LOCATION
CNTY        .                                      CD. DEL CARMEN :COUNTY
STAT        .                                            CAMPECHE :STATE
CTRY        .                                              MEXICO :COUNTRY
SRVC        .                                             UNKNOWN :SERVICE COMPANY
DATE        .                                             UNKNOWN :LOG DATE
UWI         .                                          3060000234 :UNIQUE WELL ID
XCOORD      .                                       597311.680000 :SURFACE X
YCOORD      .                                      2143044.130000 :SURFACE Y
LAT         .                                           19.380330 :LATITUDE
LON         .                                          -92.073342 :LONGITUDE
ELEV        .M                                            27.7000 :SURFACE ELEV
ELEV_TYPE   .                                                  KB :ELEV TYPE
~CURVE INFORMATION
#MNEMONIC.UNIT        API CODE       : CURVE DESCRIPTION
#------------------------------------------------------------------------------
DEPTH    .M                          : Measured Depth
CALI     .inches      UNKNOWN        : CALI:Import:r9:MAIN:v1 
DRHO     .g/cm3       UNKNOWN        : DRHO:Import:r9:MAIN:v1 
DT       .us/ft       UNKNOWN        : DT:Import:r9:MAIN:v1 
GR       .API         UNKNOWN        : GR:Import:r9:MAIN:v1 
ILD      .ohm.m       UNKNOWN        : ILD:Import:r9:MAIN:v1 
LLD      .ohm.m       UNKNOWN        : LLD:Import:r9:MAIN:v1 
LLS      .ohm.m       UNKNOWN        : LLS:Import:r9:MAIN:v1 
MSFL     .ohm.m       UNKNOWN        : MSFL:Import:r9:MAIN:v1 
NPHI     .v/v_decimal UNKNOWN        : NPHI:Import:r9:MAIN:v1 
RHOB     .g/cm3       UNKNOWN        : RHOB:Import:r9:MAIN:v1 
SP       .mV          UNKNOWN        : SP:Import:r9:MAIN:v1 
~A     DEPTH         CALI         DRHO           DT           GR          ILD          LLD          LLS         MSFL         NPHI         RHOB           SP
# ...
   1095.9084      13.6297       0.0305     138.8649      73.3965       1.1460    -999.2500    -999.2500    -999.2500    -999.2500       2.1145      -7.7454
   1096.0608      13.7000       0.0290     139.0000      71.4000       1.1410    -999.2500    -999.2500    -999.2500    -999.2500       2.1200      -7.7110
   1096.2133      13.6498       0.0245     138.5656      72.0516       1.1360    -999.2500    -999.2500    -999.2500    -999.2500       2.1150      -7.6654
   1096.3656      13.6000       0.0200     138.1340      72.6990       1.1310    -999.2500    -999.2500    -999.2500    -999.2500       2.1100      -7.6200
   1096.5179      13.6000       0.0175     137.5652      73.3515       1.1260    -999.2500    -999.2500    -999.2500    -999.2500       2.1150      -7.7378
   1096.6704      13.6000       0.0150     137.0000      74.0000       1.1210    -999.2500    -999.2500    -999.2500    -999.2500       2.1200      -7.8550
   1096.8228      13.5127       0.0125     137.4358      73.1289       1.1155    -999.2500    -999.2500    -999.2500    -999.2500       2.1155      -7.9176
   1096.9752      13.4260       0.0100     137.8690      72.2630       1.1100    -999.2500    -999.2500    -999.2500    -999.2500       2.1110      -7.9800
   1097.1276      13.2124       0.0075     138.3715      71.5293       1.1100    -999.2500    -999.2500    -999.2500    -999.2500       2.1020      -7.7921
   1097.2800      13.0000       0.0050     138.8710      70.8000       1.1100    -999.2500    -999.2500    -999.2500    -999.2500       2.0930      -7.6050
   1097.4324      13.0000       0.0040     139.9386      71.4113       1.1050    -999.2500    -999.2500    -999.2500    -999.2500       2.0865      -7.2327
   1097.5848      13.0000       0.0030     141.0000      72.0190       1.1000    -999.2500    -999.2500    -999.2500    -999.2500       2.0800      -6.8620
   1097.7372      13.0878       0.0040     140.5623      73.4636       1.1045    -999.2500    -999.2500    -999.2500    -999.2500       2.0800      -6.4251
   1097.8896      13.1750       0.0050     140.1270      74.9000       1.1090    -999.2500    -999.2500    -999.2500    -999.2500       2.0800      -5.9900
   1098.0420      13.3380       0.0075     139.0605      74.6368       1.1095    -999.2500    -999.2500    -999.2500    -999.2500       2.0845      -6.0692
   1098.1943      13.5000       0.0100     138.0000      74.3750       1.1100    -999.2500    -999.2500    -999.2500    -999.2500       2.0890      -6.1480
   1098.3468      13.4559       0.0130     138.0000      74.1368       1.1100    -999.2500    -999.2500    -999.2500    -999.2500       2.0895      -6.5408
   1098.4991      13.4120       0.0160     138.0000      73.9000       1.1100    -999.2500    -999.2500    -999.2500    -999.2500       2.0900      -6.9320
   1098.6516      13.3558       0.0155     138.5015      75.2210       1.1100    -999.2500    -999.2500    -999.2500    -999.2500       2.0850      -7.3909
   1098.8040      13.3000       0.0150     139.0000      76.5340       1.1100    -999.2500    -999.2500    -999.2500    -999.2500       2.0800      -7.8480
   1098.9564      13.3000       0.0155     138.4983      77.9503       1.1100    -999.2500    -999.2500    -999.2500    -999.2500       2.0850      -8.2247
   1099.1088      13.3000       0.0160     138.0000      79.3570       1.1100    -999.2500    -999.2500    -999.2500    -999.2500       2.0900      -8.6000
   1099.2612      13.1676       0.0160     138.0000      81.0742       1.1145    -999.2500    -999.2500    -999.2500    -999.2500       2.0855      -8.5735
   1099.4136      13.0360       0.0160     138.0000      82.7800       1.1190    -999.2500    -999.2500    -999.2500    -999.2500       2.0810      -8.5470
   1099.5660      12.9176       0.0155     139.0033      83.6428       1.1240    -999.2500    -999.2500    -999.2500    -999.2500       2.0755      -8.4639
   1099.7184      12.8000       0.0150     140.0000      84.5000       1.1290    -999.2500    -999.2500    -999.2500    -999.2500       2.0700      -8.3810
   1099.8708      12.8000       0.0195     139.5576      82.9450       1.1340    -999.2500    -999.2500    -999.2500    -999.2500       2.0830      -8.3705
   1100.0232      12.8000       0.0240     139.1180      81.4000       1.1390    -999.2500    -999.2500    -999.2500    -999.2500       2.0960      -8.3600
   1100.1755      12.7498       0.0280     138.1720      81.4441       1.1440    -999.2500    -999.2500    -999.2500    -999.2500       2.1131      -8.2583
   1100.3280      12.7000       0.0320     137.2320      81.4880       1.1490    -999.2500    -999.2500    -999.2500    -999.2500       2.1300      -8.1570
   1100.4803      12.7441       0.0280     136.6141      81.8953       1.1585    -999.2500    -999.2500    -999.2500    -999.2500       2.1210      -7.9355
   1100.6328      12.7880       0.0240     136.0000      82.3000       1.1680    -999.2500    -999.2500    -999.2500    -999.2500       2.1120      -7.7150
   1100.7852      12.8387       0.0210     136.4444      81.2468       1.1735    -999.2500    -999.2500    -999.2500    -999.2500       2.1010      -7.3858
   1100.9376      12.8890       0.0180     136.8860      80.2000       1.1790    -999.2500    -999.2500    -999.2500    -999.2500       2.0900      -7.0580
   1101.0900      12.9838       0.0170     137.3890      80.2446       1.1840    -999.2500    -999.2500    -999.2500    -999.2500       2.0945      -6.7163
   1101.2424      13.0780       0.0160     137.8890      80.2890       1.1890    -999.2500    -999.2500    -999.2500    -999.2500       2.0990      -6.3760
   1101.3948      13.1337       0.0175     137.9447      80.4951       1.1895    -999.2500    -999.2500    -999.2500    -999.2500       2.1085      -6.2327
   1101.5472      13.1890       0.0190     138.0000      80.7000       1.1900    -999.2500    -999.2500    -999.2500    -999.2500       2.1180      -6.0900
   1101.6996      13.1945       0.0185     136.2134      78.7795       1.1945    -999.2500    -999.2500    -999.2500    -999.2500       2.1235      -6.2418
   1101.8521      13.2000       0.0180     134.4370      76.8700       1.1990    -999.2500    -999.2500    -999.2500    -999.2500       2.1290      -6.3930
   1102.0044      13.2892       0.0145     133.2151      74.6694       1.1995    -999.2500    -999.2500    -999.2500    -999.2500       2.1340      -6.7327
   1102.1567      13.3780       0.0110     132.0000      72.4810       1.2000    -999.2500    -999.2500    -999.2500    -999.2500       2.1390      -7.0710
   1102.3092      13.4788       0.0110     132.8958      71.4337       1.1900    -999.2500    -999.2500    -999.2500    -999.2500       2.1445      -7.3961
   1102.4615      13.5790       0.0110     133.7860      70.3930       1.1800    -999.2500    -999.2500    -999.2500    -999.2500       2.1500      -7.7200
   1102.6140      13.5895       0.0110     135.9003      70.0955       1.1845    -999.2500    -999.2500    -999.2500    -999.2500       2.1400      -7.6749
   1102.7664      13.6000       0.0110     138.0000      69.8000       1.1890    -999.2500    -999.2500    -999.2500    -999.2500       2.1300      -7.6300
   1102.9188      13.5102       0.0105     137.1020      70.0508       1.2030    -999.2500    -999.2500    -999.2500    -999.2500       2.1300      -7.5128
   1103.0712      13.4210       0.0100     136.2100      70.3000       1.2170    -999.2500    -999.2500    -999.2500    -999.2500       2.1300      -7.3960
   1103.2236      13.2600       0.0110     132.0522      69.7597       1.2320    -999.2500    -999.2500    -999.2500    -999.2500       2.1616      -7.3559
   1103.3760      13.1000       0.0120     127.9220      69.2230       1.2470    -999.2500    -999.2500    -999.2500    -999.2500       2.1930      -7.3160
   1103.5284      13.1898       0.0115     124.9513      67.2711       1.2711    -999.2500    -999.2500    -999.2500    -999.2500       2.2266      -7.2324
   1103.6808      13.2790       0.0110     122.0000      65.3320       1.2950    -999.2500    -999.2500    -999.2500    -999.2500       2.2600      -7.1490
