#------------------------------------------------------------------------------
#
#   Created by  : [OpenWorks] Log Export Utility (LEXP)
#   Created on  : 2016-05-19 10:37:47
#   Project     : CANT971
#   User        : R5K
#   Interpreter : PEP
#
#------------------------------------------------------------------------------
~VERSION INFORMATION
VERS. 2.0 : CWLS Log ASCII Standard - version 2.0
WRAP.  NO : One line per depth step
~WELL INFORMATION
#MNEMONIC   .UNIT                                           VALUE :DESCRIPTION
#------------------------------------------------------------------------------
STRT        .M                                           493.6236 :START DEPTH
STOP        .M                                          2733.4463 :STOP DEPTH
STEP        .M                                             0.1524 :STEP
NULL        .                                           -999.2500 :NULL VALUE
COMP        .                                   PEMEX EXPL & PROD :COMPANY
WELL        .                                                2295 :WELL
FLD         .                                           CANTARELL :FIELD
LOC         .                                             UNKNOWN :LOCATION
CNTY        .                                      CD. DEL CARMEN :COUNTY
STAT        .                                            CAMPECHE :STATE
CTRY        .                                              MEXICO :COUNTRY
SRVC        .                                             UNKNOWN :SERVICE COMPANY
DATE        .                                             UNKNOWN :LOG DATE
UWI         .                                          3060000234 :UNIQUE WELL ID
XCOORD      .                                       597311.680000 :SURFACE X
YCOORD      .                                      2143044.130000 :SURFACE Y
LAT         .                                           19.380330 :LATITUDE
LON         .                                          -92.073342 :LONGITUDE
ELEV        .M                                            27.7000 :SURFACE ELEV
ELEV_TYPE   .                                                  KB :ELEV TYPE
~CURVE INFORMATION
#MNEMONIC.UNIT        API CODE       : CURVE DESCRIPTION
#------------------------------------------------------------------------------
DEPTH    .M                          : Measured Depth
CALI     .inches      UNKNOWN        : CALI:Import:r9:MAIN:v1 
DRHO     .g/cm3       UNKNOWN        : DRHO:Import:r9:MAIN:v1 
DT       .us/ft       UNKNOWN        : DT:Import:r9:MAIN:v1 
GR       .API         UNKNOWN        : GR:Import:r9:MAIN:v1 
ILD      .ohm.m       UNKNOWN        : ILD:Import:r9:MAIN:v1 
LLD      .ohm.m       UNKNOWN        : LLD:Import:r9:MAIN:v1 
LLS      .ohm.m       UNKNOWN        : LLS:Import:r9:MAIN:v1 
MSFL     .ohm.m       UNKNOWN        : MSFL:Import:r9:MAIN:v1 
NPHI     .v/v_decimal UNKNOWN        : NPHI:Import:r9:MAIN:v1 
RHOB     .g/cm3       UNKNOWN        : RHOB:Import:r9:MAIN:v1 
SP       .mV          UNKNOWN        : SP:Import:r9:MAIN:v1 
~A     DEPTH         CALI         DRHO           DT           GR          ILD          LLD          LLS         MSFL         NPHI         RHOB           SP
# ...
   2672.9436       6.6444       0.0180      89.4640      36.5822    -999.2500     806.4694     994.3532     155.0210       0.1069       2.5745    -999.2500
   2673.0959       6.6230       0.0210      85.7730      36.5100    -999.2500     882.0120     977.0550     215.3560       0.1074       2.5630    -999.2500
   2673.2483       6.5557       0.0165      81.5648      35.4730    -999.2500     870.4149     984.2227     192.4172       0.1084       2.5399    -999.2500
   2673.4009       6.4890       0.0120      77.3890      34.4440    -999.2500     858.8700     991.3580     169.5820       0.1100       2.5170    -999.2500
   2673.5532       6.4107       0.0125      80.2122      34.4440    -999.2500     813.5872    1019.5743     195.5028       0.1119       2.4844    -999.2500
   2673.7056       6.3330       0.0130      83.0140      34.4440    -999.2500     768.5030    1047.6670     221.3100       0.1138       2.4520    -999.2500
   2673.8579       6.3330       0.0130      89.4936      34.2869    -999.2500     808.8981    1037.9879     195.2750       0.1154       2.4721    -999.2500
   2674.0105       6.3330       0.0130      95.9250      34.1310    -999.2500     849.1210    1028.3500     169.3510       0.1163       2.4920    -999.2500
   2674.1628       6.3330       0.0065      91.1530      33.5996    -999.2500    1089.3314    1094.3802      94.0819       0.1166       2.5653    -999.2500
   2674.3152       6.3330       0.0000      86.4160      33.0720    -999.2500    1328.1650    1160.0320      19.1240       0.1162       2.6380    -999.2500
   2674.4675       6.3330       0.0010      76.6478      32.5371    -999.2500    1324.9135    1383.5718      23.7708       0.1150       2.6340    -999.2500
   2674.6201       6.3330       0.0020      66.9500      32.0060    -999.2500    1321.6801    1605.8590      28.3990       0.1138       2.6300    -999.2500
   2674.7725       6.3330       0.0095      74.3878      31.5253    -999.2500    1296.4032    1570.4023      49.2600       0.1136       2.6144    -999.2500
   2674.9248       6.3330       0.0170      81.7730      31.0480    -999.2500    1271.2650    1535.1400      70.0400       0.1141       2.5990    -999.2500
   2675.0771       6.3330       0.0150      79.2879      30.3867    -999.2500    1224.8889    1398.1604     109.0123       0.1151       2.5754    -999.2500
   2675.2295       6.3330       0.0130      76.8200      29.7300    -999.2500    1178.7610    1261.9139     147.8380       0.1168       2.5520    -999.2500
   2675.3821       6.3330       0.0170      71.3841      28.7790    -999.2500    1123.3085    1261.9139     138.1900       0.1195       2.5294    -999.2500
   2675.5344       6.3330       0.0210      65.9940      27.8360    -999.2500    1068.1460    1261.9139     128.5770       0.1242       2.5070    -999.2500
   2675.6868       6.3330       0.0185      70.8466      27.8571    -999.2500     918.6626    1228.4486     135.1255       0.1324       2.4914    -999.2500
   2675.8391       6.3330       0.0160      75.6590      27.8780    -999.2500     769.9420    1195.1541     141.6510       0.1393       2.4760    -999.2500
   2675.9917       6.3330       0.0090      74.4009      28.2922    -999.2500     786.5514    1101.7107     131.4922       0.1398       2.4941    -999.2500
   2676.1440       6.3330       0.0020      73.1530      28.7030    -999.2500     803.0780    1008.7330     121.3840       0.1359       2.5120    -999.2500
   2676.2964       6.3330       0.0030      67.1077      29.8983    -999.2500     865.8503    1019.6084      82.9282       0.1287       2.5793    -999.2500
   2676.4487       6.3330       0.0040      61.1110      31.0840    -999.2500     928.3180    1030.4310      44.6590       0.1200       2.6460    -999.2500
   2676.6011       6.3330       0.0050      70.4826      32.0659    -999.2500     921.7785    1061.6439      48.2675       0.1109       2.6249    -999.2500
   2676.7537       6.3330       0.0060      79.7800      33.0400    -999.2500     915.2700    1092.7090      51.8590       0.1029       2.6040    -999.2500
   2676.9060       6.3330       0.0080      76.7633      33.1936    -999.2500     837.1321    1035.6492     105.9495       0.0977       2.6065    -999.2500
   2677.0583       6.3330       0.0100      73.7700      33.3460    -999.2500     759.3540     978.8520     159.7910       0.0958       2.6090    -999.2500
   2677.2107       6.3330       0.0180      67.4934      33.5433    -999.2500     772.4278     987.2153     136.9323       0.0985       2.5990    -999.2500
   2677.3633       6.3330       0.0260      61.2650      33.7390    -999.2500     785.4430     995.5410     114.1760       0.1019       2.5890    -999.2500
   2677.5156       6.3330       0.0531      59.9781      34.1832    -999.2500     811.8079    1011.9944      65.7822       0.1022       2.6031    -999.2500
   2677.6680       6.3330       0.0800      58.7010      34.6240    -999.2500     838.0160    1028.3500      17.5990       0.1005       2.6170    -999.2500
   2677.8203       6.3330       0.0760      56.5455      35.0917    -999.2500     843.1986    1028.3500      19.8793       0.0975       2.6501    -999.2500
   2677.9729       6.3330       0.0720      54.4060      35.5560    -999.2500     848.3510    1028.3500      22.1500       0.0938       2.6830    -999.2500
   2678.1252       6.3330       0.0625      50.7743      35.3809    -999.2500     890.0048    1081.1926      34.8726       0.0901       2.6710    -999.2500
   2678.2776       6.3330       0.0530      47.1690      35.2070    -999.2500     931.4210    1133.7340      47.5430       0.0867       2.6590    -999.2500
   2678.4299       6.3355       0.0460      52.4926      34.6410    -999.2500    1009.3341    1302.9806      77.2146       0.0842       2.6595    -999.2500
   2678.5823       6.3380       0.0390      57.7780      34.0790    -999.2500    1086.8130    1471.2841     106.7680       0.0815       2.6600    -999.2500
   2678.7349       6.3661       0.0300      57.0193      33.1472    -999.2500    1111.5238    1466.8931      95.5003       0.0777       2.6690    -999.2500
   2678.8872       6.3940       0.0210      56.2660      32.2220    -999.2500    1136.1000    1462.5260      84.2760       0.0745       2.6780    -999.2500
   2679.0396       6.4442       0.0230      56.9494      32.2220    -999.2500    1217.6996    1450.6444      91.0331       0.0737       2.6760    -999.2500
   2679.1919       6.4940       0.0250      57.6280      32.2220    -999.2500    1298.8650    1438.8260      97.7650       0.0746       2.6740    -999.2500
   2679.3445       6.4699       0.0235      67.2313      32.5263    -999.2500    1286.1313    1584.9696     119.4429       0.0767       2.6645    -999.2500
   2679.4968       6.4460       0.0220      76.7540      32.8280    -999.2500    1273.4640    1730.3530     141.0080       0.0803       2.6550    -999.2500
   2679.6492       6.3893       0.0361      67.5836      35.3012    -999.2500    1206.3578    1697.3097     135.9196       0.0861       2.6349    -999.2500
   2679.8015       6.3330       0.0500      58.4890      37.7540    -999.2500    1139.5920    1664.4340     130.8570       0.0929       2.6150    -999.2500
   2679.9541       6.3330       0.0495      63.1781      37.2083    -999.2500    1227.1282    1510.9705     112.6614       0.0999       2.5859    -999.2500
   2680.1064       6.3330       0.0490      67.8290      36.6670    -999.2500    1314.2310    1358.2670      94.5560       0.1062       2.5570    -999.2500
   2680.2588       6.3330       0.0415      81.4099      36.6670    -999.2500    1290.4120    1370.0133      62.2336       0.1108       2.5269    -999.2500
   2680.4111       6.3330       0.0340      94.8820      36.6670    -999.2500    1266.7080    1381.7030      30.0670       0.1137       2.4970    -999.2500
   2680.5635       6.3330       0.0375     113.7625      36.9245    -999.2500    1187.3700    1329.7855      34.5586       0.1149       2.4694    -999.2500
   2680.7161       6.3330       0.0410     132.4940      37.1800    -999.2500    1108.4050    1278.1121      39.0290       0.1164       2.4420    -999.2500
