#------------------------------------------------------------------------------
#
#   Created by  : [OpenWorks] Log Export Utility (LEXP)
#   Created on  : 2016-05-19 10:37:47
#   Project     : CANT971
#   User        : R5K
#   Interpreter : PEP
#
#------------------------------------------------------------------------------
~VERSION INFORMATION
VERS. 2.0 : CWLS Log ASCII Standard - version 2.0
WRAP.  NO : One line per depth step
~WELL INFORMATION
#MNEMONIC   .UNIT                                           VALUE :DESCRIPTION
#------------------------------------------------------------------------------
STRT        .M                                           493.6236 :START DEPTH
STOP        .M                                          2733.4463 :STOP DEPTH
STEP        .M                                             0.1524 :STEP
NULL        .                                           -999.2500 :NULL VALUE
COMP        .                                   PEMEX EXPL & PROD :COMPANY
WELL        .                                                2295 :WELL
FLD         .                                           CANTARELL :FIELD
LOC         .                                             UNKNOWN :LOCATION
CNTY        .                                      CD. DEL CARMEN :COUNTY
STAT        .                                            CAMPECHE :STATE
CTRY        .                                              MEXICO :COUNTRY
SRVC        .                                             UNKNOWN :SERVICE COMPANY
DATE        .                                             UNKNOWN :LOG DATE
UWI         .                                          3060000234 :UNIQUE WELL ID
XCOORD      .                                       597311.680000 :SURFACE X
YCOORD      .                                      2143044.130000 :SURFACE Y
LAT         .                                           19.380330 :LATITUDE
LON         .                                          -92.073342 :LONGITUDE
ELEV        .M                                            27.7000 :SURFACE ELEV
ELEV_TYPE   .                                                  KB :ELEV TYPE
~CURVE INFORMATION
#MNEMONIC.UNIT        API CODE       : CURVE DESCRIPTION
#------------------------------------------------------------------------------
DEPTH    .M                          : Measured Depth
CALI     .inches      UNKNOWN        : CALI:Import:r9:MAIN:v1 
DRHO     .g/cm3       UNKNOWN        : DRHO:Import:r9:MAIN:v1 
DT       .us/ft       UNKNOWN        : DT:Import:r9:MAIN:v1 
GR       .API         UNKNOWN        : GR:Import:r9:MAIN:v1 
ILD      .ohm.m       UNKNOWN        : ILD:Import:r9:MAIN:v1 
LLD      .ohm.m       UNKNOWN        : LLD:Import:r9:MAIN:v1 
LLS      .ohm.m       UNKNOWN        : LLS:Import:r9:MAIN:v1 
MSFL     .ohm.m       UNKNOWN        : MSFL:Import:r9:MAIN:v1 
NPHI     .v/v_decimal UNKNOWN        : NPHI:Import:r9:MAIN:v1 
RHOB     .g/cm3       UNKNOWN        : RHOB:Import:r9:MAIN:v1 
SP       .mV          UNKNOWN        : SP:Import:r9:MAIN:v1 
~A     DEPTH         CALI         DRHO           DT           GR          ILD          LLD          LLS         MSFL         NPHI         RHOB           SP
# ...
    770.9916      15.1831       0.0921     118.1137      48.9588       1.8243    -999.2500    -999.2500    -999.2500    -999.2500       2.2464     -27.7549
    771.1440      15.3740       0.1290     122.4780      52.3480       1.7640    -999.2500    -999.2500    -999.2500    -999.2500       2.2270     -30.1000
    771.2964      15.6523       0.1130     126.7511      54.2955       1.7219    -999.2500    -999.2500    -999.2500    -999.2500       2.1984     -29.8935
    771.4488      15.9290       0.0970     131.0000      56.2320       1.6800    -999.2500    -999.2500    -999.2500    -999.2500       2.1700     -29.6880
    771.6012      16.1652       0.0729     128.4710      56.6672       1.6870    -999.2500    -999.2500    -999.2500    -999.2500       2.1886     -28.9147
    771.7536      16.4000       0.0490     125.9560      57.1000       1.6940    -999.2500    -999.2500    -999.2500    -999.2500       2.2070     -28.1450
    771.9060      16.3539       0.0500     119.4592      56.6161       1.7181    -999.2500    -999.2500    -999.2500    -999.2500       2.2436     -27.4058
    772.0584      16.3080       0.0510     113.0000      56.1350       1.7420    -999.2500    -999.2500    -999.2500    -999.2500       2.2800     -26.6700
    772.2108      16.1616       0.0555     113.2312      55.2147       1.7746    -999.2500    -999.2500    -999.2500    -999.2500       2.2730     -26.4886
    772.3632      16.0160       0.0600     113.4610      54.3000       1.8070    -999.2500    -999.2500    -999.2500    -999.2500       2.2660     -26.3080
    772.5156      15.8074       0.0675     115.2358      54.6510       1.8306    -999.2500    -999.2500    -999.2500    -999.2500       2.2535     -25.8027
    772.6680      15.6000       0.0750     117.0000      55.0000       1.8540    -999.2500    -999.2500    -999.2500    -999.2500       2.2410     -25.3000
    772.8204      15.6000       0.0740     116.7673      54.5341       1.8690    -999.2500    -999.2500    -999.2500    -999.2500       2.2255     -25.7511
    772.9728      15.6000       0.0730     116.5360      54.0710       1.8840    -999.2500    -999.2500    -999.2500    -999.2500       2.2100     -26.2000
    773.1252      15.5534       0.0685     113.2587      51.8547       1.8990    -999.2500    -999.2500    -999.2500    -999.2500       2.2401     -25.7990
    773.2776      15.5070       0.0640     110.0000      49.6510       1.9140    -999.2500    -999.2500    -999.2500    -999.2500       2.2700     -25.4000
    773.4300      15.2528       0.0595     110.0000      47.2187       1.9220    -999.2500    -999.2500    -999.2500    -999.2500       2.2650     -25.4236
    773.5824      15.0000       0.0550     110.0000      44.8000       1.9300    -999.2500    -999.2500    -999.2500    -999.2500       2.2600     -25.4470
    773.7348      15.0466       0.0871     111.1714      45.4559       1.9275    -999.2500    -999.2500    -999.2500    -999.2500       2.2650     -25.8715
    773.8872      15.0930       0.1190     112.3360      46.1080       1.9250    -999.2500    -999.2500    -999.2500    -999.2500       2.2700     -26.2940
    774.0396      15.2645       0.1040     114.8502      46.9270       1.8964    -999.2500    -999.2500    -999.2500    -999.2500       2.2675     -27.1990
    774.1920      15.4350       0.0890     117.3490      47.7410       1.8680    -999.2500    -999.2500    -999.2500    -999.2500       2.2650     -28.1000
    774.3444      15.6386       0.0514     119.1504      48.1041       1.8003    -999.2500    -999.2500    -999.2500    -999.2500       2.2555     -27.9998
    774.4968      15.8410       0.0140     120.9410      48.4650       1.7330    -999.2500    -999.2500    -999.2500    -999.2500       2.2460     -27.9000
    774.6492      15.9443       0.0140     122.1816      49.2348       1.6363    -999.2500    -999.2500    -999.2500    -999.2500       2.2259     -28.0183
    774.8016      16.0470       0.0140     123.4150      50.0000       1.5400    -999.2500    -999.2500    -999.2500    -999.2500       2.2060     -28.1360
    774.9540      16.1237       0.0200     127.7199      49.9288       1.5400    -999.2500    -999.2500    -999.2500    -999.2500       2.1779     -28.3185
    775.1064      16.2000       0.0260     132.0000      49.8580       1.5400    -999.2500    -999.2500    -999.2500    -999.2500       2.1500     -28.5000
    775.2588      16.1524       0.0340     131.0498      48.9710       1.5445    -999.2500    -999.2500    -999.2500    -999.2500       2.1620     -28.0013
    775.4112      16.1050       0.0420     130.1050      48.0890       1.5490    -999.2500    -999.2500    -999.2500    -999.2500       2.1740     -27.5050
    775.5636      15.8518       0.0540     124.5361      46.9411       1.5640    -999.2500    -999.2500    -999.2500    -999.2500       2.2071     -26.6169
    775.7160      15.6000       0.0660     119.0000      45.8000       1.5790    -999.2500    -999.2500    -999.2500    -999.2500       2.2400     -25.7330
    775.8684      15.6000       0.0775     119.0000      46.0874       1.6131    -999.2500    -999.2500    -999.2500    -999.2500       2.2300     -25.3657
    776.0208      15.6000       0.0890     119.0000      46.3730       1.6470    -999.2500    -999.2500    -999.2500    -999.2500       2.2200     -25.0000
    776.1732      15.6241       0.0980     119.2397      46.9272       1.6886    -999.2500    -999.2500    -999.2500    -999.2500       2.2200     -25.1198
    776.3256      15.6480       0.1070     119.4780      47.4780       1.7300    -999.2500    -999.2500    -999.2500    -999.2500       2.2200     -25.2390
    776.4780      15.7222       0.1040     120.2207      47.9404       1.7155    -999.2500    -999.2500    -999.2500    -999.2500       2.2050     -25.4180
    776.6304      15.7960       0.1010     120.9590      48.4000       1.7010    -999.2500    -999.2500    -999.2500    -999.2500       2.1900     -25.5960
    776.7828      15.9484       0.0860     122.9854      47.8945       1.6704    -999.2500    -999.2500    -999.2500    -999.2500       2.1900     -25.7684
    776.9352      16.1000       0.0710     125.0000      47.3920       1.6400    -999.2500    -999.2500    -999.2500    -999.2500       2.1900     -25.9400
    777.0876      16.0499       0.0840     123.7891      46.1926       1.6400    -999.2500    -999.2500    -999.2500    -999.2500       2.1950     -26.4332
    777.2400      16.0000       0.0970     122.5850      45.0000       1.6400    -999.2500    -999.2500    -999.2500    -999.2500       2.2000     -26.9240
    777.3924      16.0501       0.0950     120.7875      45.0000       1.6300    -999.2500    -999.2500    -999.2500    -999.2500       2.2050     -27.4132
    777.5448      16.1000       0.0930     119.0000      45.0000       1.6200    -999.2500    -999.2500    -999.2500    -999.2500       2.2100     -27.9000
    777.6972      16.0759       0.0845     119.5015      44.6841       1.6295    -999.2500    -999.2500    -999.2500    -999.2500       2.2150     -27.6995
    777.8496      16.0520       0.0760     120.0000      44.3700       1.6390    -999.2500    -999.2500    -999.2500    -999.2500       2.2200     -27.5000
    778.0020      15.9256       0.0680     119.2688      43.6197       1.6666    -999.2500    -999.2500    -999.2500    -999.2500       2.2300     -28.0512
    778.1544      15.8000       0.0600     118.5420      42.8740       1.6940    -999.2500    -999.2500    -999.2500    -999.2500       2.2400     -28.6000
    778.3068      15.8000       0.0645     117.2672      42.0846       1.7171    -999.2500    -999.2500    -999.2500    -999.2500       2.2450     -28.5268
    778.4592      15.8000       0.0690     116.0000      41.3000       1.7400    -999.2500    -999.2500    -999.2500    -999.2500       2.2500     -28.4540
    778.6116      15.8491       0.0775     116.4909      41.7012       1.7570    -999.2500    -999.2500    -999.2500    -999.2500       2.2550     -28.1557
    778.7640      15.8980       0.0860     116.9790      42.1000       1.7740    -999.2500    -999.2500    -999.2500    -999.2500       2.2600     -27.8590
