#------------------------------------------------------------------------------
#
#   Created by  : [OpenWorks] Log Export Utility (LEXP)
#   Created on  : 2016-05-19 16:57:42
#   Project     : CANT971
#   User        : R5K
#   Interpreter : PEP
#
#------------------------------------------------------------------------------
~VERSION INFORMATION
VERS. 2.0 : CWLS Log ASCII Standard - version 2.0
WRAP.  NO : One line per depth step
~WELL INFORMATION
#MNEMONIC   .UNIT                                           VALUE :DESCRIPTION
#------------------------------------------------------------------------------
STRT        .M                                           501.3956 :START DEPTH
STOP        .M                                          2574.3403 :STOP DEPTH
STEP        .M                                             0.1524 :STEP
NULL        .                                           -999.2500 :NULL VALUE
COMP        .                                   PEMEX EXPL & PROD :COMPANY
WELL        .                                                 239 :WELL
FLD         .                                           CANTARELL :FIELD
LOC         .                                             UNKNOWN :LOCATION
CNTY        .                                      CD. DEL CARMEN :COUNTY
STAT        .                                            CAMPECHE :STATE
CTRY        .                                              MEXICO :COUNTRY
SRVC        .                                             UNKNOWN :SERVICE COMPANY
DATE        .                                             UNKNOWN :LOG DATE
UWI         .                                          3060000480 :UNIQUE WELL ID
XCOORD      .                                       596453.420000 :SURFACE X
YCOORD      .                                      2145877.560000 :SURFACE Y
LAT         .                                           19.405976 :LATITUDE
LON         .                                          -92.081371 :LONGITUDE
ELEV        .M                                            27.4000 :SURFACE ELEV
ELEV_TYPE   .                                                  KB :ELEV TYPE
~CURVE INFORMATION
#MNEMONIC.UNIT        API CODE       : CURVE DESCRIPTION
#------------------------------------------------------------------------------
DEPTH    .M                          : Measured Depth
CALI     .inches      UNKNOWN        : CALI:Import:rC:NONE:v0 (auto-composite)
DT       .us/ft       UNKNOWN        : DT:Import:rC:NONE:v0 (auto-composite)
GR       .API         UNKNOWN        : GR:Import:rC:NONE:v0 (auto-composite)
ILD      .ohm.m       UNKNOWN        : ILD:Import:rC:NONE:v0 (auto-composite)
LLD      .ohm.m       UNKNOWN        : LLD:Import:rC:NONE:v0 (auto-composite)
LLS      .ohm.m       UNKNOWN        : LLS:Import:rC:NONE:v0 (auto-composite)
MSFL     .ohm.m       UNKNOWN        : MSFL:Import:rC:NONE:v0 (auto-composite)
NPHI     .v/v_decimal UNKNOWN        : NPHI:Import:rC:NONE:v0 (auto-composite)
RHOB     .g/cm3       UNKNOWN        : RHOB:Import:rC:NONE:v0 (auto-composite)
~A     DEPTH         CALI           DT           GR          ILD          LLD          LLS         MSFL         NPHI         RHOB
# ...
   2466.7461       9.6670      61.5220      47.5580    -999.2500      12.9690      14.1200      25.3540       0.1154       2.6480
   2466.8984       9.6670      59.3280      46.3309    -999.2500      21.8758      17.5198      35.5742       0.1153       2.6375
   2467.0508       9.6670      57.1310      45.1080    -999.2500      30.7520      20.9080      45.7430       0.1205       2.6270
   2467.2031       9.6670      58.3356      42.6619    -999.2500      26.9928      17.8384      33.5040       0.1266       2.6130
   2467.3557       9.6670      59.5420      40.2240    -999.2500      23.2460      14.7790      21.3250       0.1321       2.5990
   2467.5081       9.6670      61.8821      38.8924    -999.2500      17.7955      15.3795      29.2525       0.1359       2.5910
   2467.6604       9.6670      64.2260      37.5650    -999.2500      12.3710      15.9780      37.1420       0.1386       2.5830
   2467.8127       9.6670      64.2075      38.7789    -999.2500      12.7514      15.6775      30.9666       0.1411       2.5770
   2467.9651       9.6670      64.1890      39.9890    -999.2500      13.1300      15.3780      24.8200       0.1422       2.5710
   2468.1177       9.6480      63.4551      41.9464    -999.2500      15.7985      17.1176      18.0907       0.1410       2.5760
   2468.2700       9.6290      62.7210      43.8980    -999.2500      18.4550      18.8520      11.3920       0.1373       2.5810
   2468.4224       9.6014      61.6202      46.8211    -999.2500      23.2616      27.1081      12.1271       0.1308       2.6106
   2468.5747       9.5740      60.5190      49.7360    -999.2500      28.0470      35.3410      12.8590       0.1225       2.6400
   2468.7273       9.5630      59.4663      52.8442    -999.2500      38.5550      33.8946      35.7275       0.1133       2.6666
   2468.8796       9.5520      58.4130      55.9440    -999.2500      49.0180      32.4520      58.4980       0.1070       2.6930
   2469.0320       9.4979      58.6509      50.4935    -999.2500      43.1638      30.2477      42.5434       0.1071       2.6885
   2469.1843       9.4440      58.8890      45.0570    -999.2500      37.3340      28.0490      26.6550       0.1117       2.6840
   2469.3369       9.4440      59.5193      45.9874    -999.2500      29.8920      23.0614      31.3209       0.1188       2.6750
   2469.4893       9.4440      60.1500      46.9140    -999.2500      22.4800      18.0940      35.9680       0.1281       2.6660
   2469.6416       9.4440      61.8657      55.6816    -999.2500      17.1761      14.0631      32.8539       0.1389       2.6755
   2469.7939       9.4440      63.5830      64.4150    -999.2500      11.8930      10.0480      29.7520       0.1455       2.6850
   2469.9463       9.4440      60.5960      64.1866    -999.2500      14.1954      11.4907      22.9035       0.1418       2.6815
   2470.0989       9.4440      57.6060      63.9590    -999.2500      16.4890      12.9280      16.0810       0.1309       2.6780
   2470.2512       9.4490      60.2240      58.4875    -999.2500      24.7215      21.6845      20.9247       0.1159       2.6635
   2470.4036       9.4540      62.8450      53.0360    -999.2500      32.9240      30.4090      25.7430       0.1057       2.6490
   2470.5559       9.4841      67.0064      46.3702    -999.2500      43.4361      45.2893      44.8931       0.1099       2.6360
   2470.7085       9.5140      71.1730      39.7280    -999.2500      53.9110      60.1170      63.9450       0.1247       2.6230
   2470.8608       9.5350      70.1432      40.4803    -999.2500      39.0783      36.0230      37.0397       0.1465       2.6365
   2471.0132       9.5560      69.1120      41.2300    -999.2500      24.2960      12.0110      10.2690       0.1648       2.6500
   2471.1655       9.5560      65.1288      43.1877    -999.2500      15.6398      12.8118      11.3341       0.1689       2.6410
   2471.3181       9.5560      61.1460      45.1390    -999.2500       7.0120      13.6100      12.3940       0.1638       2.6320
   2471.4705       9.5560      61.3900      43.9852    -999.2500       9.6798      19.0170      32.2757       0.1547       2.6185
   2471.6228       9.5560      61.6340      42.8350    -999.2500      12.3350      24.4070      52.0630       0.1442       2.6050
   2471.7751       9.5485      61.0261      40.7859    -999.2500      18.6832      22.0765      37.8401       0.1351       2.5940
   2471.9275       9.5410      60.4180      38.7430    -999.2500      25.0020      19.7530      23.6830       0.1309       2.5830
   2472.0801       9.5184      61.8228      36.5904    -999.2500      31.9211      20.9673      26.4557       0.1353       2.5885
   2472.2324       9.4960      63.2280      34.4440    -999.2500      38.8090      22.1780      29.2160       0.1450       2.5940
   2472.3848       9.5130      68.8513      35.9631    -999.2500      36.1086      22.0143      27.9277       0.1568       2.5930
   2472.5371       9.5300      74.4770      37.4780    -999.2500      33.4200      21.8510      26.6450       0.1679       2.5920
   2472.6897       9.5430      81.6885      36.7470    -999.2500      25.2531      21.8760      21.9230       0.1756       2.5820
   2472.8420       9.5560      88.9040      36.0180    -999.2500      17.1210      21.9010      17.2210       0.1802       2.5720
   2472.9944       9.4999      93.6109      33.3301    -999.2500      19.4017      23.7283      15.0385       0.1824       2.5540
   2473.1467       9.4440      98.3210      30.6490    -999.2500      21.6730      25.5510      12.8650       0.1832       2.5360
   2473.2993       9.4440     101.0169      27.5403    -999.2500      19.5653      21.0896      14.2007       0.1839       2.5440
   2473.4517       9.4440     103.7150      24.4440    -999.2500      17.4660      16.6460      15.5310       0.1841       2.5520
   2473.6040       9.4440     102.8639      25.1429    -999.2500      17.5587      20.1458      15.4648       0.1835       2.5730
   2473.7563       9.4440     102.0120      25.8390    -999.2500      17.6510      23.6320      15.3990       0.1810       2.5940
   2473.9087       9.4440      94.5019      28.1583    -999.2500      20.5294      32.4525      15.5825       0.1755       2.6281
   2474.0613       9.4440      86.9840      30.4690    -999.2500      23.3970      41.2400      15.7650       0.1669       2.6620
   2474.2136       9.4440      77.8829      33.4409    -999.2500      31.4376      53.0274      13.6029       0.1554       2.6415
   2474.3660       9.4440      68.7710      36.4020    -999.2500      39.4490      64.7720      11.4520       0.1430       2.6210
   2474.5183       9.4440      64.7376      39.7594    -999.2500      46.6150      57.3350      26.5755       0.1316       2.6030
   2474.6709       9.4440      60.6990      43.1050    -999.2500      53.7560      49.9240      41.6220       0.1256       2.5850
   2474.8232       9.4440      64.3114      42.5816    -999.2500      45.9679      38.9450      35.4522       0.1294       2.5795
   2474.9756       9.4440      67.9290      42.0600    -999.2500      38.2060      28.0030      29.3130       0.1394       2.5740
   2475.1279       9.4440      81.2458      41.3844    -999.2500      29.8294      21.3973      20.6946       0.1523       2.5595
   2475.2805       9.4440      94.5620      40.7110    -999.2500      21.4800      14.8130      12.1180       0.1666       2.5450
   2475.4329       9.4440      94.5035      40.8267    -999.2500      18.0364      17.7716      14.5036       0.1807       2.5475
   2475.5852       9.4440      94.4450      40.9420    -999.2500      14.6090      20.7210      16.8780       0.1878       2.5500
   2475.7375       9.4415      86.7123      41.0507    -999.2500      18.3511      29.3379      12.8528       0.1811       2.5946
   2475.8899       9.4390      78.9780      41.1590    -999.2500      22.0760      37.9290       8.8460       0.1656       2.6390
   2476.0425       9.4074      72.0131      41.5691    -999.2500      31.2149      48.7440      14.0221       0.1466       2.6826
