#------------------------------------------------------------------------------
#
#   Created by  : [OpenWorks] Log Export Utility (LEXP)
#   Created on  : 2016-05-19 16:57:42
#   Project     : CANT971
#   User        : R5K
#   Interpreter : PEP
#
#------------------------------------------------------------------------------
~VERSION INFORMATION
VERS. 2.0 : CWLS Log ASCII Standard - version 2.0
WRAP.  NO : One line per depth step
~WELL INFORMATION
#MNEMONIC   .UNIT                                           VALUE :DESCRIPTION
#------------------------------------------------------------------------------
STRT        .M                                           501.3956 :START DEPTH
STOP        .M                                          2574.3403 :STOP DEPTH
STEP        .M                                             0.1524 :STEP
NULL        .                                           -999.2500 :NULL VALUE
COMP        .                                   PEMEX EXPL & PROD :COMPANY
WELL        .                                                 239 :WELL
FLD         .                                           CANTARELL :FIELD
LOC         .                                             UNKNOWN :LOCATION
CNTY        .                                      CD. DEL CARMEN :COUNTY
STAT        .                                            CAMPECHE :STATE
CTRY        .                                              MEXICO :COUNTRY
SRVC        .                                             UNKNOWN :SERVICE COMPANY
DATE        .                                             UNKNOWN :LOG DATE
UWI         .                                          3060000480 :UNIQUE WELL ID
XCOORD      .                                       596453.420000 :SURFACE X
YCOORD      .                                      2145877.560000 :SURFACE Y
LAT         .                                           19.405976 :LATITUDE
LON         .                                          -92.081371 :LONGITUDE
ELEV        .M                                            27.4000 :SURFACE ELEV
ELEV_TYPE   .                                                  KB :ELEV TYPE
~CURVE INFORMATION
#MNEMONIC.UNIT        API CODE       : CURVE DESCRIPTION
#------------------------------------------------------------------------------
DEPTH    .M                          : Measured Depth
CALI     .inches      UNKNOWN        : CALI:Import:rC:NONE:v0 (auto-composite)
DT       .us/ft       UNKNOWN        : DT:Import:rC:NONE:v0 (auto-composite)
GR       .API         UNKNOWN        : GR:Import:rC:NONE:v0 (auto-composite)
ILD      .ohm.m       UNKNOWN        : ILD:Import:rC:NONE:v0 (auto-composite)
LLD      .ohm.m       UNKNOWN        : LLD:Import:rC:NONE:v0 (auto-composite)
LLS      .ohm.m       UNKNOWN        : LLS:Import:rC:NONE:v0 (auto-composite)
MSFL     .ohm.m       UNKNOWN        : MSFL:Import:rC:NONE:v0 (auto-composite)
NPHI     .v/v_decimal UNKNOWN        : NPHI:Import:rC:NONE:v0 (auto-composite)
RHOB     .g/cm3       UNKNOWN        : RHOB:Import:rC:NONE:v0 (auto-composite)
~A     DEPTH         CALI           DT           GR          ILD          LLD          LLS         MSFL         NPHI         RHOB
# ...
   2145.4868       9.2220      53.2340      25.6180    -999.2500     246.1490     169.3650     153.6160       0.0138       2.6900
   2145.6392       9.2220      55.2261      25.6801    -999.2500     245.6067     167.0191     152.4118       0.0154       2.6980
   2145.7915       9.2220      57.2220      25.7420    -999.2500     245.0660     164.6800     151.2130       0.0174       2.7060
   2145.9441       9.2220      57.1586      27.0348    -999.2500     235.6717     143.1016     132.6504       0.0211       2.7050
   2146.0964       9.2220      57.0950      28.3240    -999.2500     226.3030     121.5820     114.1680       0.0247       2.7040
   2146.2488       9.2220      55.7710      28.2129    -999.2500     192.2772     104.8698     117.5716       0.0249       2.6915
   2146.4011       9.2220      54.4440      28.1020    -999.2500     158.3400      88.2010     120.9610       0.0247       2.6790
   2146.5537       9.2220      54.4685      28.4549    -999.2500     152.3951      88.8073     105.9509       0.0226       2.6620
   2146.7061       9.2220      54.4930      28.8070    -999.2500     146.4650      89.4120      91.0020       0.0204       2.6450
   2146.8584       9.2220      54.7317      28.7344    -999.2500     138.9647      96.9113      92.6963       0.0204       2.6455
   2147.0107       9.2220      54.9710      28.6620    -999.2500     131.4820     104.3930      94.3840       0.0206       2.6460
   2147.1631       9.2220      55.2631      26.7519    -999.2500     134.1745     121.2502     139.7537       0.0219       2.6590
   2147.3157       9.2220      55.5560      24.8460    -999.2500     136.8610     138.0700     184.9500       0.0232       2.6720
   2147.4680       9.2220      55.5240      24.9771    -999.2500     172.4779     172.5827     183.5199       0.0232       2.6715
   2147.6204       9.2220      55.4920      25.1080    -999.2500     208.0200     207.0230     182.0950       0.0231       2.6710
   2147.7727       9.2220      54.7475      28.3313    -999.2500     276.4720     260.9156     164.1424       0.0219       2.6580
   2147.9253       9.2220      54.0020      31.5430    -999.2500     344.7890     314.7020     146.2540       0.0205       2.6450
   2148.0776       9.2220      54.5007      31.3487    -999.2500     449.4467     361.4482     147.4791       0.0170       2.6460
   2148.2300       9.2220      55.0000      31.1550    -999.2500     553.9110     408.1080     148.6980       0.0136       2.6470
   2148.3823       9.2220      54.9800      28.1806    -999.2500     540.8157     401.5433     172.3235       0.0133       2.6560
   2148.5349       9.2220      54.9600      25.2160    -999.2500     527.7430     394.9900     195.8330       0.0133       2.6650
   2148.6873       9.2220      54.6937      26.4990    -999.2500     393.7629     308.9257     176.9152       0.0133       2.6880
   2148.8396       9.2220      54.4270      27.7780    -999.2500     259.9970     222.9990     158.0880       0.0130       2.7110
   2148.9919       9.2220      53.5403      27.6603    -999.2500     261.6602     224.8724     171.0036       0.0116       2.7105
   2149.1443       9.2220      52.6520      27.5430    -999.2500     263.3210     226.7400     183.8590       0.0101       2.7100
   2149.2969       9.2220      51.8502      26.4344    -999.2500     282.4354     247.8060     161.6044       0.0100       2.6925
   2149.4492       9.2220      51.0470      25.3290    -999.2500     301.5240     268.8100     139.4510       0.0100       2.6750
   2149.6016       9.2220      51.1139      23.5560    -999.2500     347.9059     311.3825     144.5488       0.0100       2.6770
   2149.7539       9.2220      51.1810      21.7880    -999.2500     394.1570     353.8350     149.6240       0.0100       2.6790
   2149.9065       9.2220      51.7569      22.1986    -999.2500     562.7075     463.1022     229.7785       0.0100       2.7000
   2150.0588       9.2220      52.3340      22.6080    -999.2500     730.8040     572.0750     309.5890       0.0100       2.7210
   2150.2112       9.2220      52.5887      26.1085    -999.2500     728.9781     565.5041     307.9416       0.0100       2.7185
   2150.3635       9.2220      52.8440      29.6000    -999.2500     727.1570     558.9500     306.3010       0.0100       2.7160
   2150.5161       9.2220      53.1851      31.8883    -999.2500     711.5334     509.0656     293.0582       0.0101       2.6925
   2150.6685       9.2220      53.5270      34.1710    -999.2500     695.9480     459.3030     279.8690       0.0104       2.6690
   2150.8208       9.2220      54.2626      34.0629    -999.2500     668.9186     435.5700     269.2432       0.0118       2.6695
   2150.9731       9.2220      55.0000      33.9550    -999.2500     641.9520     411.8920     258.6590       0.0135       2.6700
   2151.1255       9.2220      54.9940      31.3141    -999.2500     530.9103     376.3280     223.6952       0.0168       2.6770
   2151.2781       9.2220      54.9880      28.6790    -999.2500     420.1120     340.8420     188.8640       0.0200       2.6840
   2151.4304       9.2220      54.8756      28.6805    -999.2500     358.8917     297.0287     175.7114       0.0218       2.6840
   2151.5828       9.2220      54.7630      28.6820    -999.2500     297.7980     253.3060     162.6280       0.0232       2.6840
   2151.7351       9.2220      54.2478      28.6474    -999.2500     256.1846     195.0765     145.0374       0.0233       2.6810
   2151.8877       9.2220      53.7320      28.6130    -999.2500     214.6520     136.9600     127.5370       0.0233       2.6780
   2152.0400       9.2220      53.5766      28.7878    -999.2500     214.9588     141.2384     101.5283       0.0228       2.6675
   2152.1924       9.2220      53.4210      28.9620    -999.2500     215.2650     145.5090      75.6500       0.0220       2.6570
   2152.3447       9.2220      53.8827      30.6423    -999.2500     224.9227     189.5102      78.8202       0.0185       2.6460
   2152.4973       9.2220      54.3450      32.3170    -999.2500     234.5640     233.4370      81.9750       0.0148       2.6350
   2152.6497       9.2220      53.4852      35.6137    -999.2500     312.3705     266.0115     168.5652       0.0123       2.6510
   2152.8020       9.2220      52.6240      38.9000    -999.2500     390.0550     298.5350     254.7430       0.0102       2.6670
   2152.9543       9.2220      52.7014      43.8961    -999.2500     456.7515     337.9334     254.5581       0.0101       2.6665
   2153.1067       9.2220      52.7790      48.8770    -999.2500     523.3520     377.2120     254.3740       0.0103       2.6660
   2153.2593       9.2220      55.9445      48.7483    -999.2500     679.2696     492.0984     239.2895       0.0115       2.6615
   2153.4116       9.2220      59.1160      48.6200    -999.2500     834.9820     606.6500     224.2730       0.0130       2.6570
   2153.5640       9.2220      59.0106      47.6456    -999.2500     809.2616     595.0599     239.6387       0.0170       2.6510
   2153.7163       9.2220      58.9050      46.6740    -999.2500     783.6130     583.5020     254.9370       0.0215       2.6450
   2153.8689       9.2300      57.8816      45.9085    -999.2500     481.7255     479.6432     237.9388       0.0282       2.6380
   2154.0212       9.2380      56.8560      45.1450    -999.2500     180.6420     376.0610     221.0130       0.0344       2.6310
   2154.1736       9.3001      54.7928      41.1034    -999.2500     182.7056     244.1945     127.8469       0.0346       2.6335
   2154.3259       9.3620      52.7250      37.0720    -999.2500     184.7640     112.6630      35.0660       0.0335       2.6360
   2154.4785       9.4030      52.5197      37.4590    -999.2500     208.7304     116.9166      38.0821       0.0292       2.6575
   2154.6309       9.4440      52.3140      37.8450    -999.2500     232.6390     121.1600      41.0860       0.0243       2.6790
   2154.7832       9.4380      52.7674      43.5951    -999.2500     314.9467     160.4455      82.1392       0.0189       2.6665
