#------------------------------------------------------------------------------
#
#   Created by  : [OpenWorks] Log Export Utility (LEXP)
#   Created on  : 2016-05-19 16:57:42
#   Project     : CANT971
#   User        : R5K
#   Interpreter : PEP
#
#------------------------------------------------------------------------------
~VERSION INFORMATION
VERS. 2.0 : CWLS Log ASCII Standard - version 2.0
WRAP.  NO : One line per depth step
~WELL INFORMATION
#MNEMONIC   .UNIT                                           VALUE :DESCRIPTION
#------------------------------------------------------------------------------
STRT        .M                                           501.3956 :START DEPTH
STOP        .M                                          2574.3403 :STOP DEPTH
STEP        .M                                             0.1524 :STEP
NULL        .                                           -999.2500 :NULL VALUE
COMP        .                                   PEMEX EXPL & PROD :COMPANY
WELL        .                                                 239 :WELL
FLD         .                                           CANTARELL :FIELD
LOC         .                                             UNKNOWN :LOCATION
CNTY        .                                      CD. DEL CARMEN :COUNTY
STAT        .                                            CAMPECHE :STATE
CTRY        .                                              MEXICO :COUNTRY
SRVC        .                                             UNKNOWN :SERVICE COMPANY
DATE        .                                             UNKNOWN :LOG DATE
UWI         .                                          3060000480 :UNIQUE WELL ID
XCOORD      .                                       596453.420000 :SURFACE X
YCOORD      .                                      2145877.560000 :SURFACE Y
LAT         .                                           19.405976 :LATITUDE
LON         .                                          -92.081371 :LONGITUDE
ELEV        .M                                            27.4000 :SURFACE ELEV
ELEV_TYPE   .                                                  KB :ELEV TYPE
~CURVE INFORMATION
#MNEMONIC.UNIT        API CODE       : CURVE DESCRIPTION
#------------------------------------------------------------------------------
DEPTH    .M                          : Measured Depth
CALI     .inches      UNKNOWN        : CALI:Import:rC:NONE:v0 (auto-composite)
DT       .us/ft       UNKNOWN        : DT:Import:rC:NONE:v0 (auto-composite)
GR       .API         UNKNOWN        : GR:Import:rC:NONE:v0 (auto-composite)
ILD      .ohm.m       UNKNOWN        : ILD:Import:rC:NONE:v0 (auto-composite)
LLD      .ohm.m       UNKNOWN        : LLD:Import:rC:NONE:v0 (auto-composite)
LLS      .ohm.m       UNKNOWN        : LLS:Import:rC:NONE:v0 (auto-composite)
MSFL     .ohm.m       UNKNOWN        : MSFL:Import:rC:NONE:v0 (auto-composite)
NPHI     .v/v_decimal UNKNOWN        : NPHI:Import:rC:NONE:v0 (auto-composite)
RHOB     .g/cm3       UNKNOWN        : RHOB:Import:rC:NONE:v0 (auto-composite)
~A     DEPTH         CALI           DT           GR          ILD          LLD          LLS         MSFL         NPHI         RHOB
# ...
   1965.9596       9.4210     107.0080      48.7100    -999.2500     320.6340   27717.8438      30.4360       0.1085       2.6130
   1966.1119       9.3260     110.1916      49.5390    -999.2500     673.4614   36772.9688      42.2753       0.0959       2.6395
   1966.2644       9.2310     113.3830      50.3660    -999.2500    1026.0291   45806.9492      54.0680       0.0847       2.6660
   1966.4167       9.2340     119.8326      52.3767    -999.2500    3359.3098  490785.8750     105.6141       0.0840       2.6570
   1966.5692       9.2370     126.2990      54.3830    -999.2500    5691.1660  934781.3125     156.9640       0.0886       2.6480
   1966.7216       9.2845     125.2429      58.2215    -999.2500    9045.7432  933818.9375     132.5496       0.0970       2.6185
   1966.8740       9.3320     124.1840      62.0520    -999.2500   12398.6934  932858.5625     108.2250       0.1068       2.5890
   1967.0264       9.4675     118.1671      64.7597    -999.2500   12194.1514  885390.5625      62.0799       0.1163       2.5585
   1967.1788       9.6030     112.1330      67.4620    -999.2500   11989.6836  838015.6250      16.0990       0.1231       2.5280
   1967.3312       9.7026     114.4810      68.4034    -999.2500   11989.6836  838015.6250      18.3002       0.1232       2.5300
   1967.4836       9.8020     116.8360      69.3430    -999.2500   11989.6836  838015.6250      20.4920       0.1169       2.5320
   1967.6360       9.7815     123.7952      70.7042    -999.2500   11989.6836  838015.6250      48.0541       0.1004       2.5405
   1967.7885       9.7610     130.7760      72.0630    -999.2500   11989.6836  838015.6250      75.4810       0.0848       2.5490
   1967.9408       9.6684     134.5264      73.3596    -999.2500   11989.6836  838015.6250      61.6650       0.0820       2.5615
   1968.0931       9.5760     138.2890      74.6530    -999.2500   11989.6836  838015.6250      47.9150       0.0856       2.5740
   1968.2456       9.3678     138.8658      76.7577    -999.2500   11989.6836  838015.6250      31.2953       0.0936       2.5935
   1968.3979       9.1600     139.4440      78.8560    -999.2500   11989.6836  838015.6250      14.7530       0.1005       2.6130
   1968.5504       9.1920     139.4440      80.8855    -999.2500   11989.6836  833754.5000      12.6392       0.1000       2.6520
   1968.7028       9.2240     139.4440      82.9090    -999.2500   11989.6836  829499.0625      10.5350       0.0980       2.6910
   1968.8552       9.3226     139.4440      86.3188    -999.2500   11989.6836  812846.6250      14.4662       0.0994       2.6860
   1969.0076       9.4210     139.4440      89.7190    -999.2500   11989.6836  796214.2500      18.3800       0.1037       2.6810
   1969.1600       9.5010     139.5299      86.5217    -999.2500   11989.6836  796214.2500     105.3189       0.1126       2.6590
   1969.3124       9.5810     139.6160      83.3330    -999.2500   11989.6836  796214.2500     191.8860       0.1237       2.6370
   1969.4648       9.6345     139.8078      83.4396    -999.2500   11989.6836  796214.2500     187.0790       0.1360       2.5990
   1969.6172       9.6880     140.0000      83.5460    -999.2500   11989.6836  796214.2500     182.2920       0.1471       2.5610
   1969.7697       9.7540     140.0000      83.9665    -999.2500   11892.0371  796214.2500     139.6476       0.1544       2.5255
   1969.9220       9.8200     140.0000      84.3860    -999.2500   11794.4717  796214.2500      97.1750       0.1598       2.4900
   1970.0743       9.9295     140.0000      83.7012    -999.2500   10430.1533  786927.2500      51.0615       0.1646       2.4710
   1970.2268      10.0390     140.0000      83.0180    -999.2500    9066.7969  777661.6875       5.1280       0.1700       2.4520
   1970.3792      10.0750     140.0000      81.1730    -999.2500    5841.3423  707680.6875       7.0702       0.1777       2.4370
   1970.5316      10.1110     140.0000      79.3320    -999.2500    2617.7581  637852.1875       9.0050       0.1844       2.4220
   1970.6840      10.1665     140.0000      78.3305    -999.2500    1349.6875  472135.8438      27.9651       0.1858       2.3975
   1970.8364      10.2220     140.0000      77.3310    -999.2500      82.1930  306759.8750      46.8560       0.1842       2.3730
   1970.9888      10.2080     140.0000      76.4396    -999.2500      87.1253  187559.6094      26.0370       0.1802       2.3430
   1971.1412      10.1940     140.0000      75.5500    -999.2500      92.0560   68589.2422       5.3080       0.1741       2.3130
   1971.2936      10.1320     140.0000      74.3424    -999.2500     172.7370   40841.6758       6.4920       0.1653       2.2965
   1971.4460      10.0700     140.0000      73.1370    -999.2500     253.3370   13144.1523       7.6700       0.1561       2.2800
   1971.5984       9.9644     140.0000      71.5666    -999.2500     235.9249    8378.2168       6.4896       0.1485       2.2690
   1971.7509       9.8590     140.0000      70.0000    -999.2500     218.5420    3620.2791       5.3150       0.1403       2.2580
   1971.9032       9.7074     140.0000      71.0306    -999.2500     185.0770    5622.2432       7.0140       0.1293       2.2775
   1972.0555       9.5560     140.0000      72.0580    -999.2500     151.6640    7621.0991       8.7050       0.1200       2.2970
   1972.2080       9.5560     140.0000      70.4711    -999.2500     138.6042   42889.3984       8.1793       0.1183       2.3495
   1972.3604       9.5560     140.0000      68.8890    -999.2500     125.5630   78107.3594       7.6560       0.1203       2.4020
   1972.5128       9.5560     140.0000      69.1584    -999.2500     222.7713  277491.7500       5.5372       0.1242       2.4335
   1972.6652       9.5560     140.0000      69.4270    -999.2500     319.8530  476616.5938       3.4280       0.1292       2.4650
   1972.8176       9.5560     140.0000      69.3935    -999.2500    1941.4629  616639.6875       3.7848       0.1353       2.4535
   1972.9700       9.5560     140.0000      69.3600    -999.2500    3561.1650  756498.0000       4.1400       0.1420       2.4420
   1973.1224       9.5560     140.0000      69.0686    -999.2500    6900.0601  756498.0000       5.4558       0.1494       2.3845
   1973.2748       9.5560     140.0000      68.7780    -999.2500   10235.4463  756498.0000       6.7660       0.1566       2.3270
   1973.4272       9.5610     140.0000      67.7973    -999.2500   11473.3164  730311.6875       9.2917       0.1628       2.3340
   1973.5796       9.5660     140.0000      66.8190    -999.2500   12710.0410  704191.5000      11.8070       0.1670       2.3410
   1973.7321       9.6210     139.2864      67.2991    -999.2500   12627.8350  750003.1875     106.5703       0.1670       2.3650
   1973.8844       9.6760     138.5710      67.7780    -999.2500   12545.6943  795704.9375     200.9550       0.1647       2.3890
   1974.0367       9.8381     132.9786      67.5673    -999.2500   11784.6162  778849.0625     197.8309       0.1608       2.4115
   1974.1892      10.0000     127.3720      67.3570    -999.2500   11024.0508  762031.5000     194.7190       0.1556       2.4340
   1974.3416       9.9855     116.3202      66.7729    -999.2500    9650.2100  666446.6875     140.7113       0.1489       2.4510
   1974.4940       9.9710     105.2390      66.1900    -999.2500    8277.1230  571067.3125      86.9060       0.1406       2.4680
   1974.6464       9.9005     110.9296      65.6860    -999.2500    7027.9551  390814.3438      51.5520       0.1296       2.5030
   1974.7988       9.8300     116.6360      65.1830    -999.2500    5779.3159  210926.0781      16.3260       0.1182       2.5380
   1974.9512       9.7254     128.0234      64.5404    -999.2500    3809.9065  110428.7734      13.6247       0.1084       2.5800
   1975.1036       9.6210     139.4440      63.8990    -999.2500    1842.6610   10122.2207      10.9350       0.1015       2.6220
   1975.2560       9.5449     139.4854      63.0758    -999.2500    1008.1838   10325.4385       8.2433       0.1003       2.6440
