#------------------------------------------------------------------------------
#
#   Created by  : [OpenWorks] Log Export Utility (LEXP)
#   Created on  : 2016-05-19 16:57:42
#   Project     : CANT971
#   User        : R5K
#   Interpreter : PEP
#
#------------------------------------------------------------------------------
~VERSION INFORMATION
VERS. 2.0 : CWLS Log ASCII Standard - version 2.0
WRAP.  NO : One line per depth step
~WELL INFORMATION
#MNEMONIC   .UNIT                                           VALUE :DESCRIPTION
#------------------------------------------------------------------------------
STRT        .M                                           501.3956 :START DEPTH
STOP        .M                                          2574.3403 :STOP DEPTH
STEP        .M                                             0.1524 :STEP
NULL        .                                           -999.2500 :NULL VALUE
COMP        .                                   PEMEX EXPL & PROD :COMPANY
WELL        .                                                 239 :WELL
FLD         .                                           CANTARELL :FIELD
LOC         .                                             UNKNOWN :LOCATION
CNTY        .                                      CD. DEL CARMEN :COUNTY
STAT        .                                            CAMPECHE :STATE
CTRY        .                                              MEXICO :COUNTRY
SRVC        .                                             UNKNOWN :SERVICE COMPANY
DATE        .                                             UNKNOWN :LOG DATE
UWI         .                                          3060000480 :UNIQUE WELL ID
XCOORD      .                                       596453.420000 :SURFACE X
YCOORD      .                                      2145877.560000 :SURFACE Y
LAT         .                                           19.405976 :LATITUDE
LON         .                                          -92.081371 :LONGITUDE
ELEV        .M                                            27.4000 :SURFACE ELEV
ELEV_TYPE   .                                                  KB :ELEV TYPE
~CURVE INFORMATION
#MNEMONIC.UNIT        API CODE       : CURVE DESCRIPTION
#------------------------------------------------------------------------------
DEPTH    .M                          : Measured Depth
CALI     .inches      UNKNOWN        : CALI:Import:rC:NONE:v0 (auto-composite)
DT       .us/ft       UNKNOWN        : DT:Import:rC:NONE:v0 (auto-composite)
GR       .API         UNKNOWN        : GR:Import:rC:NONE:v0 (auto-composite)
ILD      .ohm.m       UNKNOWN        : ILD:Import:rC:NONE:v0 (auto-composite)
LLD      .ohm.m       UNKNOWN        : LLD:Import:rC:NONE:v0 (auto-composite)
LLS      .ohm.m       UNKNOWN        : LLS:Import:rC:NONE:v0 (auto-composite)
MSFL     .ohm.m       UNKNOWN        : MSFL:Import:rC:NONE:v0 (auto-composite)
NPHI     .v/v_decimal UNKNOWN        : NPHI:Import:rC:NONE:v0 (auto-composite)
RHOB     .g/cm3       UNKNOWN        : RHOB:Import:rC:NONE:v0 (auto-composite)
~A     DEPTH         CALI           DT           GR          ILD          LLD          LLS         MSFL         NPHI         RHOB
# ...
   2050.9988       9.2220      55.8990      13.8470    -999.2500    4953.5098    1908.1780     244.5820       0.0454       2.7500
   2051.1511       9.2220      55.8795      13.0241    -999.2500    4585.3623    1559.0818     220.0275       0.0497       2.7395
   2051.3037       9.2220      55.8600      12.2040    -999.2500    4217.8550    1210.5920     195.5940       0.0547       2.7290
   2051.4561       9.2220      54.9482      11.7267    -999.2500    4829.1128    1258.3435     186.4245       0.0594       2.7165
   2051.6084       9.2220      54.0350      11.2510    -999.2500    5439.3848    1306.0179     177.2990       0.0640       2.7040
   2051.7607       9.2220      52.9469      10.6245    -999.2500    6539.4019    1635.5179     173.1137       0.0686       2.6920
   2051.9131       9.2220      51.8570      10.0000    -999.2500    7637.7832    1964.5280     168.9480       0.0732       2.6800
   2052.0657       9.2120      53.1648      10.2048    -999.2500    8792.5449    3191.7437     169.3424       0.0776       2.6750
   2052.2180       9.2020      54.4750      10.4090    -999.2500    9945.7324    4417.2871     169.7350       0.0809       2.6700
   2052.3704       9.1565      55.5784      11.8646    -999.2500   10821.0684    6531.9951     199.8026       0.0818       2.6820
   2052.5227       9.1110      56.6840      13.3160    -999.2500   11695.3232    8640.7051     229.7370       0.0807       2.6940
   2052.6753       9.1110      55.7750      13.0912    -999.2500   11322.5449   10018.0283     226.8508       0.0769       2.7100
   2052.8276       9.1110      54.8640      12.8670    -999.2500   10950.1807   11391.6211     223.9770       0.0721       2.7260
   2052.9800       9.1110      53.6843      13.3446    -999.2500    9390.2939   11212.4160     239.0280       0.0676       2.7530
   2053.1323       9.1110      52.5020      13.8210    -999.2500    7831.9448   11033.6748     254.0160       0.0654       2.7800
   2053.2849       9.1110      50.2631      14.6896    -999.2500    5557.1792    8048.2847     275.0121       0.0683       2.7525
   2053.4373       9.1110      48.0190      15.5560    -999.2500    3284.3711    5070.2339     295.9230       0.0733       2.7250
   2053.5896       9.1110      49.0452      15.4193    -999.2500    2483.4485    3325.0920     235.0168       0.0782       2.6865
   2053.7419       9.1110      50.0740      15.2830    -999.2500    1684.3960    1584.0250     174.3500       0.0810       2.6480
   2053.8943       9.1110      52.0694      14.8630    -999.2500    1454.6523    1073.4078     120.8492       0.0783       2.6590
   2054.0469       9.1110      54.0700      14.4440    -999.2500    1225.4160     563.9180      67.5520       0.0734       2.6700
   2054.1992       9.1110      56.2326      14.7458    -999.2500    1350.6956     610.1837      42.5149       0.0684       2.6925
   2054.3516       9.1110      58.4010      15.0470    -999.2500    1475.7140     656.3530      17.5700       0.0644       2.7150
   2054.5039       9.1115      62.4288      15.3017    -999.2500    1678.3854     792.8321      23.8467       0.0633       2.7020
   2054.6565       9.1120      66.4680      15.5560    -999.2500    1880.6600     929.0440      30.1010       0.0637       2.6890
   2054.8088       9.1495      61.3931      15.4679    -999.2500    1332.5865     909.6657      39.5117       0.0648       2.6895
   2054.9612       9.1870      56.3030      15.3800    -999.2500     785.5180     890.3230      48.8750       0.0664       2.6900
   2055.1135       9.2045      59.2025      14.7044    -999.2500     558.6509     701.6349      76.8204       0.0688       2.7035
   2055.2661       9.2220      62.1110      14.0310    -999.2500     332.1710     513.2690     104.6290       0.0707       2.7170
   2055.4185       9.2220      58.9276      13.1251    -999.2500     258.2740     348.9895     100.5728       0.0706       2.7075
   2055.5708       9.2220      55.7390      12.2220    -999.2500     184.4940     184.9700      96.5360       0.0694       2.6980
   2055.7231       9.2220      57.3346      13.6998    -999.2500     244.3030     234.3394     134.7984       0.0675       2.7035
   2055.8755       9.2220      58.9330      15.1730    -999.2500     304.0250     283.6370     172.8830       0.0642       2.7090
   2056.0281       9.2220      54.9327      14.8650    -999.2500     540.5950     414.9940     139.0028       0.0577       2.7280
   2056.1804       9.2220      50.9250      14.5580    -999.2500     776.8500     546.1760     105.2760       0.0516       2.7470
   2056.3328       9.2220      55.4465      14.8795    -999.2500    1223.1064     688.1677     120.8007       0.0500       2.7615
   2056.4851       9.2220      59.9770      15.2000    -999.2500    1668.8250     829.7610     136.2570       0.0500       2.7760
   2056.6377       9.2220      56.5961      14.5226    -999.2500    1911.2625     776.8481     155.2797       0.0500       2.7755
   2056.7900       9.2220      53.2080      13.8470    -999.2500    2153.4380     724.0770     174.2210       0.0500       2.7750
   2056.9424       9.2220      51.6797      14.0097    -999.2500    2099.7354     682.6741     230.9868       0.0500       2.7650
   2057.0947       9.2220      50.1480      14.1720    -999.2500    2046.0840     641.3770     287.5170       0.0500       2.7550
   2057.2473       9.2220      51.9738      13.2264    -999.2500    1956.3813     599.7044     245.0560       0.0500       2.7440
   2057.3997       9.2220      53.8040      12.2830    -999.2500    1866.7531     558.1330     202.7660       0.0500       2.7330
   2057.5520       9.2220      55.6832      12.4086    -999.2500    1730.0620     538.7897     223.1828       0.0500       2.7515
   2057.7043       9.2220      57.5670      12.5340    -999.2500    1593.6860     519.4910     243.5200       0.0500       2.7700
   2057.8567       9.2220      57.0961      13.4900    -999.2500    1449.9580     485.6952     220.3483       0.0500       2.7690
   2058.0093       9.2220      56.6240      14.4440    -999.2500    1306.5430     451.9730     197.2640       0.0500       2.7680
   2058.1616       9.2220      56.3109      14.2013    -999.2500    1194.3258     408.5995     242.6198       0.0500       2.7730
   2058.3140       9.2220      55.9970      13.9590    -999.2500    1082.3390     365.3150     287.8100       0.0500       2.7780
   2058.4663       9.2220      53.9500      13.1772    -999.2500    1152.8289     377.3526     326.1341       0.0500       2.7730
   2058.6189       9.2220      51.8970      12.3970    -999.2500    1223.1830     389.3670     364.3230       0.0508       2.7680
   2058.7712       9.2220      54.5576      12.7718    -999.2500    1322.0090     407.4438     378.6292       0.0536       2.7520
   2058.9236       9.2220      57.2220      13.1460    -999.2500    1420.6570     425.4880     392.8640       0.0575       2.7360
   2059.0759       9.2220      57.0057      13.8892    -999.2500    1474.1774     463.5569     387.4955       0.0620       2.7085
   2059.2285       9.2220      56.7890      14.6300    -999.2500    1527.6080     501.5620     382.1530       0.0668       2.6810
   2059.3809       9.2220      55.7579      13.4241    -999.2500    1368.7231     476.1438     276.7624       0.0717       2.6545
   2059.5332       9.2220      54.7250      12.2220    -999.2500    1210.0850     450.7650     171.8720       0.0751       2.6280
   2059.6855       9.2220      56.4375      12.7803    -999.2500    1007.0388     420.3744     145.0155       0.0742       2.6395
   2059.8379       9.2220      58.1530      13.3370    -999.2500     804.2820     390.0270     118.2830       0.0713       2.6510
   2059.9905       9.2220      60.9408      13.8913    -999.2500     664.8943     327.8976     219.4354       0.0676       2.6835
   2060.1428       9.2220      63.7340      14.4440    -999.2500     525.6880     265.8490     320.1330       0.0644       2.7160
   2060.2952       9.2220      59.1956      13.2068    -999.2500     451.4934     225.4620     259.2961       0.0637       2.7470
