#------------------------------------------------------------------------------
#
#   Created by  : [OpenWorks] Log Export Utility (LEXP)
#   Created on  : 2016-05-19 16:57:42
#   Project     : CANT971
#   User        : R5K
#   Interpreter : PEP
#
#------------------------------------------------------------------------------
~VERSION INFORMATION
VERS. 2.0 : CWLS Log ASCII Standard - version 2.0
WRAP.  NO : One line per depth step
~WELL INFORMATION
#MNEMONIC   .UNIT                                           VALUE :DESCRIPTION
#------------------------------------------------------------------------------
STRT        .M                                           501.3956 :START DEPTH
STOP        .M                                          2574.3403 :STOP DEPTH
STEP        .M                                             0.1524 :STEP
NULL        .                                           -999.2500 :NULL VALUE
COMP        .                                   PEMEX EXPL & PROD :COMPANY
WELL        .                                                 239 :WELL
FLD         .                                           CANTARELL :FIELD
LOC         .                                             UNKNOWN :LOCATION
CNTY        .                                      CD. DEL CARMEN :COUNTY
STAT        .                                            CAMPECHE :STATE
CTRY        .                                              MEXICO :COUNTRY
SRVC        .                                             UNKNOWN :SERVICE COMPANY
DATE        .                                             UNKNOWN :LOG DATE
UWI         .                                          3060000480 :UNIQUE WELL ID
XCOORD      .                                       596453.420000 :SURFACE X
YCOORD      .                                      2145877.560000 :SURFACE Y
LAT         .                                           19.405976 :LATITUDE
LON         .                                          -92.081371 :LONGITUDE
ELEV        .M                                            27.4000 :SURFACE ELEV
ELEV_TYPE   .                                                  KB :ELEV TYPE
~CURVE INFORMATION
#MNEMONIC.UNIT        API CODE       : CURVE DESCRIPTION
#------------------------------------------------------------------------------
DEPTH    .M                          : Measured Depth
CALI     .inches      UNKNOWN        : CALI:Import:rC:NONE:v0 (auto-composite)
DT       .us/ft       UNKNOWN        : DT:Import:rC:NONE:v0 (auto-composite)
GR       .API         UNKNOWN        : GR:Import:rC:NONE:v0 (auto-composite)
ILD      .ohm.m       UNKNOWN        : ILD:Import:rC:NONE:v0 (auto-composite)
LLD      .ohm.m       UNKNOWN        : LLD:Import:rC:NONE:v0 (auto-composite)
LLS      .ohm.m       UNKNOWN        : LLS:Import:rC:NONE:v0 (auto-composite)
MSFL     .ohm.m       UNKNOWN        : MSFL:Import:rC:NONE:v0 (auto-composite)
NPHI     .v/v_decimal UNKNOWN        : NPHI:Import:rC:NONE:v0 (auto-composite)
RHOB     .g/cm3       UNKNOWN        : RHOB:Import:rC:NONE:v0 (auto-composite)
~A     DEPTH         CALI           DT           GR          ILD          LLD          LLS         MSFL         NPHI         RHOB
# ...
   1871.4716       8.6700      62.2740      64.9780    -999.2500      13.9430      36.4250    -999.2500       0.2616       2.6730
   1871.6240       8.7180      59.2045      66.2573    -999.2500      51.6460      33.0374    -999.2500       0.2634       2.6800
   1871.7764       8.7660      56.1240      67.5330    -999.2500      89.3330      29.6540    -999.2500       0.2649       2.6870
   1871.9288       8.7720      56.8589      67.6557    -999.2500      74.8481      43.6807    -999.2500       0.2674       2.6885
   1872.0812       8.7780      57.5960      67.7780    -999.2500      60.3790      57.6920       0.1850       0.2688       2.6900
   1872.2336       8.7780      61.3263      65.7604    -999.2500      35.0782      38.7258       0.1990       0.2589       2.7160
   1872.3860       8.7780      65.0650      63.7480    -999.2500       9.8020      19.7780       0.2130       0.2479       2.7420
   1872.5385       8.7780      64.8687      61.6554    -999.2500       5.6652      12.2813       0.2481       0.2372       2.7390
   1872.6908       8.7780      64.6720      59.5680    -999.2500       1.5320       4.7910       0.2830       0.2268       2.7360
   1872.8431       8.7780      67.8900      59.2922    -999.2500       2.3018       4.2416       0.4859       0.2175       2.7230
   1872.9956       8.7780      71.1160      59.0170    -999.2500       3.0710       3.6930       0.6880       0.2075       2.7100
   1873.1479       8.7615      78.8304      59.5090    -999.2500      18.2270       2.9907       1.7640       0.1882       2.6850
   1873.3004       8.7450      86.5650      60.0000    -999.2500      33.3740       2.2900       2.8360       0.1677       2.6600
   1873.4528       8.7060      87.7534      58.9059    -999.2500     136.7768      52.3943       6.7457       0.1442       2.6255
   1873.6052       8.6670      88.9450      57.8140    -999.2500     240.1310     102.3950      10.6410       0.1214       2.5910
   1873.7576       8.6670      77.8299      55.2585    -999.2500     534.8777     477.6633      21.5168       0.1079       2.5985
   1873.9100       8.6670      66.6830      52.7080    -999.2500     829.5230     852.2020      32.3540       0.0958       2.6060
   1874.0624       8.7160      64.7788      49.7178    -999.2500    1181.0204    1044.4828      25.7972       0.0878       2.6195
   1874.2148       8.7650      62.8690      46.7330    -999.2500    1532.4410    1236.4139      19.2680       0.0810       2.6330
   1874.3672       8.8815      62.3593      51.9224    -999.2500    1642.9042    1459.6360      27.4049       0.0831       2.6290
   1874.5197       8.9980      61.8480      57.1030    -999.2500    1753.3571    1682.4800      35.5020       0.0853       2.6250
   1874.6720       9.0500      57.9473      66.7821    -999.2500    1618.3228    1390.1178      34.7292       0.0804       2.6450
   1874.8243       9.1020      54.0340      76.4460    -999.2500    1483.2841    1098.2140      33.9600       0.0744       2.6650
   1874.9768       9.1065      54.1623      83.5319    -999.2500    1356.7346     965.0699      64.9508       0.0642       2.6785
   1875.1292       9.1110      54.2910      90.6020    -999.2500    1230.1650     832.1180      95.7980       0.0541       2.6920
   1875.2816       9.1110      49.8203      95.4621    -999.2500    1021.7672     799.4820     114.8540       0.0487       2.6845
   1875.4340       9.1110      45.3340     100.3080    -999.2500     813.4770     766.8890     133.8240       0.0459       2.6770
   1875.5864       9.1110      45.3600     100.1688    -999.2500     574.4976     568.2852     126.5776       0.0651       2.6665
   1875.7388       9.1110      45.3860     100.0300    -999.2500     335.8030     369.9180     119.3630       0.0871       2.6560
   1875.8912       9.1110      55.4607      98.4053    -999.2500     252.7387     298.6465      97.2003       0.1176       2.6345
   1876.0436       9.1110      65.5570      96.7850    -999.2500     169.7630     227.4510      75.1320       0.1481       2.6130
   1876.1960       9.1110      72.1006      88.3238    -999.2500     129.7242     185.9220      45.1986       0.1709       2.5790
   1876.3484       9.1110      78.6590      79.8840    -999.2500      89.7230     144.4320      15.3890       0.1922       2.5450
   1876.5009       9.1110      82.5449      71.5099    -999.2500      72.4945     111.3323      12.2873       0.2053       2.5320
   1876.6532       9.1110      86.4400      63.1560    -999.2500      55.2800      78.2860       9.1980       0.2177       2.5190
   1876.8055       9.1110      90.5264      61.0201    -999.2500     125.9179      73.1862       7.2412       0.2315       2.5155
   1876.9580       9.1110      94.6230      58.8890    -999.2500     196.5070      68.0980       5.2920       0.2437       2.5120
   1877.1104       9.1190      90.9189      64.9170    -999.2500     416.4696     127.0773      15.8549       0.2363       2.5015
   1877.2628       9.1270      87.2050      70.9320    -999.2500     636.3080     185.9290      26.3780       0.2256       2.4910
   1877.4152       9.1705      73.1335      69.5471    -999.2500     787.8273     250.8522      50.9522       0.1966       2.4935
   1877.5676       9.2140      59.0230      68.1650    -999.2500     939.2800     315.6430      75.4370       0.1663       2.4960
   1877.7200       9.2180      62.0306      65.2422    -999.2500     578.5090     249.2845      51.6502       0.1385       2.5440
   1877.8724       9.2220      65.0470      62.3250    -999.2500     217.8510     183.0530      27.9470       0.1122       2.5920
   1878.0248       9.2220      68.4114      58.3424    -999.2500     151.9218     128.3611      18.7112       0.1006       2.6095
   1878.1772       9.2220      71.7860      54.3670    -999.2500      86.0050      73.7670       9.5140       0.0922       2.6270
   1878.3296       9.2220      72.1070      51.2394    -999.2500     108.0912     110.1067      10.8177       0.1082       2.5825
   1878.4821       9.2220      72.4290      48.1170    -999.2500     130.1760     146.3860      12.1150       0.1244       2.5380
   1878.6344       9.2095      67.8166      45.0101    -999.2500     155.6862     151.8422      24.1936       0.1176       2.5400
   1878.7867       9.1970      63.1890      41.9080    -999.2500     181.1980     157.2900      36.2150       0.1091       2.5420
   1878.9392       9.1540      64.5736      41.4350    -999.2500     128.7715     105.3013      25.8261       0.1006       2.5895
   1879.0916       9.1110      65.9630      40.9630    -999.2500      76.3350      53.3860      15.4850       0.0919       2.6370
   1879.2440       9.1110      64.3134      42.7541    -999.2500      57.7255      41.5414      15.4850       0.0812       2.6335
   1879.3964       9.1110      62.6580      44.5400    -999.2500      39.1250      29.7120      15.4850       0.0701       2.6300
   1879.5488       9.1110      60.3468      45.4833    -999.2500      35.4909      26.5732      18.2245       0.0560       2.6385
   1879.7012       9.1110      58.0290      46.4240    -999.2500      31.8610      23.4380      20.9520       0.0419       2.6470
   1879.8536       9.1110      56.0277      46.8360    -999.2500      32.6224      35.9970      25.5232       0.0325       2.6680
   1880.0060       9.1110      54.0220      47.2470    -999.2500      33.3830      48.5430      30.0750       0.0240       2.6890
   1880.1584       9.1110      54.8186      45.0903    -999.2500      60.0481      57.4345      48.0143       0.0254       2.7010
   1880.3108       9.1110      55.6170      42.9390    -999.2500      86.6890      66.3180      65.8800       0.0278       2.7130
   1880.4633       9.1110      56.7911      40.9371    -999.2500     123.6615      97.5553      79.6449       0.0343       2.7025
   1880.6156       9.1110      57.9680      38.9400    -999.2500     160.6050     128.7430      93.3550       0.0410       2.6920
   1880.7679       9.1110      59.4991      37.8022    -999.2500     194.6087     189.9722     111.8131       0.0461       2.6795
