#------------------------------------------------------------------------------
#
#   Created by  : [OpenWorks] Log Export Utility (LEXP)
#   Created on  : 2016-05-19 16:57:42
#   Project     : CANT971
#   User        : R5K
#   Interpreter : PEP
#
#------------------------------------------------------------------------------
~VERSION INFORMATION
VERS. 2.0 : CWLS Log ASCII Standard - version 2.0
WRAP.  NO : One line per depth step
~WELL INFORMATION
#MNEMONIC   .UNIT                                           VALUE :DESCRIPTION
#------------------------------------------------------------------------------
STRT        .M                                           501.3956 :START DEPTH
STOP        .M                                          2574.3403 :STOP DEPTH
STEP        .M                                             0.1524 :STEP
NULL        .                                           -999.2500 :NULL VALUE
COMP        .                                   PEMEX EXPL & PROD :COMPANY
WELL        .                                                 239 :WELL
FLD         .                                           CANTARELL :FIELD
LOC         .                                             UNKNOWN :LOCATION
CNTY        .                                      CD. DEL CARMEN :COUNTY
STAT        .                                            CAMPECHE :STATE
CTRY        .                                              MEXICO :COUNTRY
SRVC        .                                             UNKNOWN :SERVICE COMPANY
DATE        .                                             UNKNOWN :LOG DATE
UWI         .                                          3060000480 :UNIQUE WELL ID
XCOORD      .                                       596453.420000 :SURFACE X
YCOORD      .                                      2145877.560000 :SURFACE Y
LAT         .                                           19.405976 :LATITUDE
LON         .                                          -92.081371 :LONGITUDE
ELEV        .M                                            27.4000 :SURFACE ELEV
ELEV_TYPE   .                                                  KB :ELEV TYPE
~CURVE INFORMATION
#MNEMONIC.UNIT        API CODE       : CURVE DESCRIPTION
#------------------------------------------------------------------------------
DEPTH    .M                          : Measured Depth
CALI     .inches      UNKNOWN        : CALI:Import:rC:NONE:v0 (auto-composite)
DT       .us/ft       UNKNOWN        : DT:Import:rC:NONE:v0 (auto-composite)
GR       .API         UNKNOWN        : GR:Import:rC:NONE:v0 (auto-composite)
ILD      .ohm.m       UNKNOWN        : ILD:Import:rC:NONE:v0 (auto-composite)
LLD      .ohm.m       UNKNOWN        : LLD:Import:rC:NONE:v0 (auto-composite)
LLS      .ohm.m       UNKNOWN        : LLS:Import:rC:NONE:v0 (auto-composite)
MSFL     .ohm.m       UNKNOWN        : MSFL:Import:rC:NONE:v0 (auto-composite)
NPHI     .v/v_decimal UNKNOWN        : NPHI:Import:rC:NONE:v0 (auto-composite)
RHOB     .g/cm3       UNKNOWN        : RHOB:Import:rC:NONE:v0 (auto-composite)
~A     DEPTH         CALI           DT           GR          ILD          LLD          LLS         MSFL         NPHI         RHOB
# ...
   2287.2188       9.5560      60.9400      52.2220    -999.2500    3308.9470     663.5750     212.7910       0.0986       2.6310
   2287.3711       9.5385      64.1777      51.5327    -999.2500    2682.0813     597.0535     212.5931       0.0941       2.6565
   2287.5237       9.5210      67.4190      50.8460    -999.2500    2057.5481     530.6730     212.3960       0.0871       2.6820
   2287.6760       9.4824      62.7138      48.6095    -999.2500    1703.6138     481.1275     233.9209       0.0784       2.6960
   2287.8284       9.4440      58.0030      46.3810    -999.2500    1350.9510     431.6810     255.3340       0.0733       2.7100
   2287.9807       9.4440      52.6111      42.9405    -999.2500    1097.8915     362.2661     187.4562       0.0797       2.6960
   2288.1333       9.4440      47.2120      39.5120    -999.2500     845.7100     293.0920     119.9220       0.0904       2.6820
   2288.2856       9.4440      50.2083      39.7254    -999.2500     675.3894     221.5289     120.9571       0.1011       2.6540
   2288.4380       9.4440      53.2090      39.9380    -999.2500     505.6380     150.2050     121.9870       0.1106       2.6260
   2288.5903       9.4440      56.8476      47.2237    -999.2500     400.0645     118.3738      98.9370       0.1166       2.6520
   2288.7429       9.4440      60.4920      54.4860    -999.2500     294.8310      86.6450      75.9980       0.1205       2.6780
   2288.8953       9.4440      60.4006      64.4404    -999.2500     229.0238      75.0811      64.8238       0.1223       2.7040
   2289.0476       9.4440      60.3090      74.3640    -999.2500     163.4200      63.5530      53.7020       0.1223       2.7300
   2289.2000       9.4440      59.3294      80.4951    -999.2500     174.2316      72.7747      74.7265       0.1199       2.7080
   2289.3523       9.4440      58.3480      86.6080    -999.2500     185.0110      81.9690      95.6550       0.1165       2.6860
   2289.5049       9.4440      57.2616      88.3064    -999.2500     211.4445      90.5267      86.4871       0.1127       2.6895
   2289.6572       9.4440      56.1730      90.0000    -999.2500     237.8030      99.0600      77.3600       0.1086       2.6930
   2289.8096       9.4510      55.6366      86.5738    -999.2500     265.1632     107.4754      88.5156       0.1037       2.6865
   2289.9619       9.4580      55.0990      83.1570    -999.2500     292.4490     115.8680      99.6230       0.0988       2.6800
   2290.1145       9.4855      54.6745      77.3039    -999.2500     319.9466     121.0362     132.6823       0.0945       2.6980
   2290.2668       9.5130      54.2490      71.4660    -999.2500     347.3730     126.1910     165.6030       0.0908       2.7160
   2290.4192       9.4785      53.6247      64.5515    -999.2500     343.8772     120.8985     146.0763       0.0881       2.7310
   2290.5715       9.4440      53.0000      57.6540    -999.2500     340.3900     115.6190     126.6290       0.0860       2.7460
   2290.7241       9.4440      53.0865      53.3169    -999.2500     304.6582     105.7399     106.5815       0.0845       2.7535
   2290.8765       9.4440      53.1730      48.9900    -999.2500     269.0100      95.8840      86.6130       0.0838       2.7610
   2291.0288       9.4440      62.6049      47.9053    -999.2500     287.2002      92.1198      70.1131       0.0846       2.7500
   2291.1812       9.4440      72.0460      46.8230    -999.2500     305.3500      88.3640      53.6760       0.0857       2.7390
   2291.3335       9.4440      70.7702      48.7415    -999.2500     337.5193      92.5243      71.8130       0.0866       2.7240
   2291.4861       9.4440      69.4930      50.6530    -999.2500     369.5700      96.6760      89.8830       0.0874       2.7090
   2291.6384       9.4440      68.3657      52.4337    -999.2500     361.1029     109.7794     126.2022       0.0886       2.7115
   2291.7908       9.4440      67.2370      54.2080    -999.2500     352.6660     122.8570     162.3340       0.0895       2.7140
   2291.9431       9.4440      62.0940      54.8832    -999.2500     359.7607     120.2986     125.1966       0.0891       2.7030
   2292.0957       9.4440      56.9440      55.5560    -999.2500     366.8310     117.7490      88.2460       0.0878       2.6920
   2292.2480       9.4821      57.7579      52.9061    -999.2500     407.1803     129.8591      64.0491       0.0853       2.6820
   2292.4004       9.5200      58.5730      50.2650    -999.2500     447.3960     141.9290      39.9710       0.0824       2.6720
   2292.5527       9.5365      57.0252      48.1196    -999.2500     420.7906     165.4320      69.0766       0.0795       2.6725
   2292.7051       9.5530      55.4750      45.9810    -999.2500     394.2700     188.8600      98.0430       0.0773       2.6730
   2292.8577       9.5545      53.0176      44.3165    -999.2500     340.3430     182.3460     136.4129       0.0767       2.6775
   2293.0100       9.5560      50.5560      42.6570    -999.2500     286.5810     175.8520     174.6040       0.0767       2.6820
   2293.1624       9.5560      50.5560      41.5038    -999.2500     316.1264     172.5141     163.8266       0.0767       2.6940
   2293.3147       9.5560      50.5560      40.3540    -999.2500     345.5850     169.1860     153.0980       0.0769       2.7060
   2293.4673       9.5230      52.0220      39.4137    -999.2500     458.8657     244.5634     144.1899       0.0780       2.7205
   2293.6196       9.4900      53.4910      38.4760    -999.2500     571.8280     319.7290     135.3210       0.0788       2.7350
   2293.7720       9.4670      55.8995      35.9166    -999.2500     784.1168     446.7562     225.7160       0.0783       2.7285
   2293.9243       9.4440      58.3130      33.3640    -999.2500     995.8350     573.4420     315.7240       0.0773       2.7220
   2294.0769       9.4440      57.5109      36.2001    -999.2500    1228.2706     795.5378     279.1885       0.0762       2.7120
   2294.2292       9.4440      56.7070      39.0290    -999.2500    1460.1110    1017.0650     242.8050       0.0744       2.7020
   2294.3816       9.4440      55.4240      47.1679    -999.2500    2294.1355    1437.4077     176.2408       0.0707       2.7165
   2294.5339       9.4440      54.1400      55.2870    -999.2500    3126.1270    1856.7260     109.9450       0.0662       2.7310
   2294.6863       9.4440      53.1814      59.4208    -999.2500    4444.7422    2603.9080     120.1219       0.0610       2.7370
   2294.8389       9.4440      52.2220      63.5450    -999.2500    5760.3110    3349.3640     130.2590       0.0577       2.7430
   2294.9912       9.4440      52.4049      59.2588    -999.2500    5142.9775    2980.2549     186.2739       0.0603       2.7305
   2295.1436       9.4440      52.5880      54.9820    -999.2500    4526.9941    2611.9529     242.0770       0.0639       2.7180
   2295.2959       9.4440      53.1327      52.1633    -999.2500    3548.0649    2116.2324     205.4620       0.0646       2.6985
   2295.4485       9.4440      53.6780      49.3550    -999.2500    2572.7180    1621.5330     168.9810       0.0660       2.6790
   2295.6008       9.4570      54.7268      46.4268    -999.2500    2873.1860    2614.0066     171.3300       0.0722       2.6605
   2295.7532       9.4700      55.7770      43.5090    -999.2500    3172.5930    3604.5591     173.6670       0.0810       2.6420
   2295.9055       9.5041      58.1259      41.1179    -999.2500    4779.1050    5830.5435     249.8655       0.0934       2.6270
   2296.0581       9.5380      60.4780      38.7350    -999.2500    6380.1401    8048.9399     325.6830       0.1058       2.6120
   2296.2104       9.5470      63.8100      38.1375    -999.2500    9124.0762   10173.7461     277.5040       0.1151       2.6000
   2296.3628       9.5560      67.1470      37.5420    -999.2500   11859.0098   12291.5811     229.5600       0.1214       2.5880
   2296.5151       9.5560      64.3093      36.6025    -999.2500    9927.6797   11752.4824     253.9825       0.1221       2.6025
