#------------------------------------------------------------------------------
#
#   Created by  : [OpenWorks] Log Export Utility (LEXP)
#   Created on  : 2016-05-19 16:57:42
#   Project     : CANT971
#   User        : R5K
#   Interpreter : PEP
#
#------------------------------------------------------------------------------
~VERSION INFORMATION
VERS. 2.0 : CWLS Log ASCII Standard - version 2.0
WRAP.  NO : One line per depth step
~WELL INFORMATION
#MNEMONIC   .UNIT                                           VALUE :DESCRIPTION
#------------------------------------------------------------------------------
STRT        .M                                           501.3956 :START DEPTH
STOP        .M                                          2574.3403 :STOP DEPTH
STEP        .M                                             0.1524 :STEP
NULL        .                                           -999.2500 :NULL VALUE
COMP        .                                   PEMEX EXPL & PROD :COMPANY
WELL        .                                                 239 :WELL
FLD         .                                           CANTARELL :FIELD
LOC         .                                             UNKNOWN :LOCATION
CNTY        .                                      CD. DEL CARMEN :COUNTY
STAT        .                                            CAMPECHE :STATE
CTRY        .                                              MEXICO :COUNTRY
SRVC        .                                             UNKNOWN :SERVICE COMPANY
DATE        .                                             UNKNOWN :LOG DATE
UWI         .                                          3060000480 :UNIQUE WELL ID
XCOORD      .                                       596453.420000 :SURFACE X
YCOORD      .                                      2145877.560000 :SURFACE Y
LAT         .                                           19.405976 :LATITUDE
LON         .                                          -92.081371 :LONGITUDE
ELEV        .M                                            27.4000 :SURFACE ELEV
ELEV_TYPE   .                                                  KB :ELEV TYPE
~CURVE INFORMATION
#MNEMONIC.UNIT        API CODE       : CURVE DESCRIPTION
#------------------------------------------------------------------------------
DEPTH    .M                          : Measured Depth
CALI     .inches      UNKNOWN        : CALI:Import:rC:NONE:v0 (auto-composite)
DT       .us/ft       UNKNOWN        : DT:Import:rC:NONE:v0 (auto-composite)
GR       .API         UNKNOWN        : GR:Import:rC:NONE:v0 (auto-composite)
ILD      .ohm.m       UNKNOWN        : ILD:Import:rC:NONE:v0 (auto-composite)
LLD      .ohm.m       UNKNOWN        : LLD:Import:rC:NONE:v0 (auto-composite)
LLS      .ohm.m       UNKNOWN        : LLS:Import:rC:NONE:v0 (auto-composite)
MSFL     .ohm.m       UNKNOWN        : MSFL:Import:rC:NONE:v0 (auto-composite)
NPHI     .v/v_decimal UNKNOWN        : NPHI:Import:rC:NONE:v0 (auto-composite)
RHOB     .g/cm3       UNKNOWN        : RHOB:Import:rC:NONE:v0 (auto-composite)
~A     DEPTH         CALI           DT           GR          ILD          LLD          LLS         MSFL         NPHI         RHOB
# ...
   2239.9749       9.0000      50.5560      25.0110    -999.2500    8053.0552    8134.5112     226.3480       0.0674       2.7110
   2240.1272       9.0000      50.9618      24.3337    -999.2500    8465.3291    8492.0762     263.1639       0.0713       2.6885
   2240.2795       9.0000      51.3680      23.6580    -999.2500    8876.6279    8848.7949     299.8340       0.0759       2.6660
   2240.4319       9.0000      52.3160      23.8402    -999.2500    9162.2705    9291.9629     277.0924       0.0807       2.6340
   2240.5845       9.0000      53.2650      24.0220    -999.2500    9447.2734    9734.1387     254.4380       0.0856       2.6020
   2240.7368       9.0000      54.3704      24.6261    -999.2500    9829.1631    9725.4990     209.8461       0.0907       2.6105
   2240.8892       9.0000      55.4770      25.2290    -999.2500   10210.2441    9716.8779     165.4910       0.0940       2.6190
   2241.0415       9.0000      55.1967      26.4802    -999.2500    9990.1777    9499.8096     197.6834       0.0939       2.6535
   2241.1941       9.0000      54.9160      27.7270    -999.2500    9770.5498    9283.1729     229.7090       0.0921       2.6880
   2241.3464       9.0000      53.9646      29.0313    -999.2500    9770.5498    9283.1729     224.2532       0.0904       2.6845
   2241.4988       9.0000      53.0120      30.3310    -999.2500    9770.5498    9283.1729     218.8250       0.0896       2.6810
   2241.6511       9.0000      53.7590      31.2856    -999.2500    9576.3936    9098.7051     223.1346       0.0910       2.6570
   2241.8037       9.0000      54.5070      32.2370    -999.2500    9382.8857    8914.8535     227.4230       0.0945       2.6330
   2241.9561       9.0000      55.8454      33.3353    -999.2500    9570.8691    9012.3633     264.3839       0.1000       2.6445
   2242.1084       9.0000      57.1860      34.4300    -999.2500    9758.2490    9109.5605     301.1670       0.1038       2.6560
   2242.2607       9.0000      56.3647      33.9387    -999.2500    9505.1973    9384.3145     294.9023       0.1020       2.6530
   2242.4131       9.0000      55.5420      33.4490    -999.2500    9252.9268    9658.2207     288.6670       0.0967       2.6500
   2242.5657       9.0000      54.2667      32.2202    -999.2500    8937.5039    9267.8457     253.5369       0.0897       2.6545
   2242.7180       9.0000      52.9890      30.9950    -999.2500    8623.0146    8878.6260     218.5670       0.0825       2.6590
   2242.8704       9.0000      52.1703      31.6094    -999.2500    8636.2109    8905.6807     160.2543       0.0763       2.6700
   2243.0227       9.0000      51.3500      32.2220    -999.2500    8649.3701    8932.6582     102.2000       0.0712       2.6810
   2243.1753       9.0000      50.9534      31.4404    -999.2500    8916.5576    9323.6348     121.3332       0.0670       2.6975
   2243.3276       9.0000      50.5560      30.6610    -999.2500    9183.0215    9713.5518     140.3840       0.0642       2.7140
   2243.4800       9.0000      50.8806      29.2141    -999.2500    9660.2803    9091.4639     170.7600       0.0633       2.7125
   2243.6323       9.0000      51.2060      27.7710    -999.2500   10136.3057    8470.9854     201.0090       0.0633       2.7110
   2243.7849       9.0000      51.9911      26.3838    -999.2500    9695.2217    8603.9521     257.2231       0.0633       2.7120
   2243.9373       9.0000      52.7780      25.0000    -999.2500    9255.2217    8736.5918     313.2090       0.0635       2.7130
   2244.0896       9.0000      52.4601      23.8031    -999.2500    8570.7363    8298.4385     313.1098       0.0638       2.7160
   2244.2419       9.0000      52.1420      22.6090    -999.2500    7887.8491    7861.3091     313.0110       0.0645       2.7190
   2244.3943       9.0000      50.7217      21.9788    -999.2500    7405.5864    7283.0181     261.6577       0.0658       2.7140
   2244.5469       9.0000      49.3000      21.3500    -999.2500    6924.3882    6706.0039     210.5000       0.0677       2.7090
   2244.6992       9.0000      49.3345      20.6908    -999.2500    6399.5356    6285.7129     254.6219       0.0703       2.7030
   2244.8516       9.0000      49.3690      20.0330    -999.2500    5875.7769    5866.2979     298.5110       0.0720       2.6970
   2245.0039       9.0000      49.7862      20.0806    -999.2500    6353.3950    6300.9424     256.5324       0.0713       2.6935
   2245.1565       9.0000      50.2040      20.1280    -999.2500    6829.3140    6734.7358     214.7700       0.0699       2.6900
   2245.3088       9.0000      50.7616      20.5347    -999.2500    8356.0791    7597.1812     237.8270       0.0697       2.6910
   2245.4612       9.0000      51.3200      20.9400    -999.2500    9877.6084    8458.0449     260.7680       0.0705       2.6920
   2245.6135       9.0000      51.1796      21.6181    -999.2500    9732.0361    8871.2920     237.3000       0.0720       2.7065
   2245.7661       9.0000      51.0390      22.2940    -999.2500    9586.9453    9283.1729     213.9470       0.0738       2.7210
   2245.9185       9.0000      51.4627      22.9726    -999.2500    9751.7510    9283.1729     140.0359       0.0753       2.7145
   2246.0708       9.0000      51.8870      23.6490    -999.2500    9916.0322    9283.1729      66.4780       0.0763       2.7080
   2246.2231       9.0000      52.3181      25.0026    -999.2500   10100.0498    9512.9912      86.8904       0.0767       2.6985
   2246.3755       9.0000      52.7500      26.3520    -999.2500   10283.5059    9742.1064     107.2080       0.0772       2.6890
   2246.5281       9.0000      53.8245      29.6613    -999.2500   10244.7441    9615.4170     227.1530       0.0784       2.6725
   2246.6804       9.0000      54.9010      32.9610    -999.2500   10206.0967    9489.0986     346.5550       0.0795       2.6560
   2246.8328       9.0000      59.3795      40.6318    -999.2500    9939.5146    8702.8672     304.0049       0.0795       2.6610
   2246.9851       9.0000      63.8670      48.2810    -999.2500    9673.6797    7918.8418     261.6420       0.0787       2.6660
   2247.1377       9.0000      59.9756      58.4406    -999.2500    7595.3008    5829.7451     214.6305       0.0770       2.6775
   2247.2900       9.0000      56.0760      68.5730    -999.2500    5522.4878    3746.2439     167.8200       0.0740       2.6890
   2247.4424       9.0516      59.4058      78.9818    -999.2500    3803.7202    2593.8513     145.7026       0.0693       2.7050
   2247.5947       9.1030      62.7430      89.3640    -999.2500    2089.3440    1444.4030     123.6770       0.0653       2.7210
   2247.7473       9.0514      74.9095      89.1813    -999.2500    1623.1576     971.8153      97.7232       0.0641       2.7140
   2247.8997       9.0000      87.1050      88.9990    -999.2500    1158.1030     500.3750      71.8740       0.0650       2.7070
   2248.0520       9.0000      79.1631      86.3059    -999.2500     996.6976     383.4543      76.6944       0.0673       2.6975
   2248.2043       9.0000      71.2140      83.6190    -999.2500     835.6640     266.8030      81.4960       0.0703       2.6880
   2248.3567       9.0000      72.2505      78.4382    -999.2500     759.2037     249.1298      73.5089       0.0734       2.7030
   2248.5093       9.0000      73.2880      73.2770    -999.2500     682.9100     231.4950      65.5520       0.0753       2.7180
   2248.6616       9.0000      71.0593      65.8820    -999.2500     682.9100     215.1232      57.7636       0.0745       2.7325
   2248.8140       9.0000      68.8280      58.5140    -999.2500     682.9100     198.7850      50.0160       0.0717       2.7470
   2248.9663       9.0000      63.0287      52.2154    -999.2500     654.5174     181.0850      45.4659       0.0678       2.7350
   2249.1189       9.0000      57.2220      45.9390    -999.2500     626.2250     163.4190      40.9390       0.0644       2.7230
   2249.2712       9.0000      57.6927      42.5287    -999.2500     581.3352     173.2068      41.5400       0.0633       2.7395
