#------------------------------------------------------------------------------
#
#   Created by  : [OpenWorks] Log Export Utility (LEXP)
#   Created on  : 2016-05-19 16:57:42
#   Project     : CANT971
#   User        : R5K
#   Interpreter : PEP
#
#------------------------------------------------------------------------------
~VERSION INFORMATION
VERS. 2.0 : CWLS Log ASCII Standard - version 2.0
WRAP.  NO : One line per depth step
~WELL INFORMATION
#MNEMONIC   .UNIT                                           VALUE :DESCRIPTION
#------------------------------------------------------------------------------
STRT        .M                                           501.3956 :START DEPTH
STOP        .M                                          2574.3403 :STOP DEPTH
STEP        .M                                             0.1524 :STEP
NULL        .                                           -999.2500 :NULL VALUE
COMP        .                                   PEMEX EXPL & PROD :COMPANY
WELL        .                                                 239 :WELL
FLD         .                                           CANTARELL :FIELD
LOC         .                                             UNKNOWN :LOCATION
CNTY        .                                      CD. DEL CARMEN :COUNTY
STAT        .                                            CAMPECHE :STATE
CTRY        .                                              MEXICO :COUNTRY
SRVC        .                                             UNKNOWN :SERVICE COMPANY
DATE        .                                             UNKNOWN :LOG DATE
UWI         .                                          3060000480 :UNIQUE WELL ID
XCOORD      .                                       596453.420000 :SURFACE X
YCOORD      .                                      2145877.560000 :SURFACE Y
LAT         .                                           19.405976 :LATITUDE
LON         .                                          -92.081371 :LONGITUDE
ELEV        .M                                            27.4000 :SURFACE ELEV
ELEV_TYPE   .                                                  KB :ELEV TYPE
~CURVE INFORMATION
#MNEMONIC.UNIT        API CODE       : CURVE DESCRIPTION
#------------------------------------------------------------------------------
DEPTH    .M                          : Measured Depth
CALI     .inches      UNKNOWN        : CALI:Import:rC:NONE:v0 (auto-composite)
DT       .us/ft       UNKNOWN        : DT:Import:rC:NONE:v0 (auto-composite)
GR       .API         UNKNOWN        : GR:Import:rC:NONE:v0 (auto-composite)
ILD      .ohm.m       UNKNOWN        : ILD:Import:rC:NONE:v0 (auto-composite)
LLD      .ohm.m       UNKNOWN        : LLD:Import:rC:NONE:v0 (auto-composite)
LLS      .ohm.m       UNKNOWN        : LLS:Import:rC:NONE:v0 (auto-composite)
MSFL     .ohm.m       UNKNOWN        : MSFL:Import:rC:NONE:v0 (auto-composite)
NPHI     .v/v_decimal UNKNOWN        : NPHI:Import:rC:NONE:v0 (auto-composite)
RHOB     .g/cm3       UNKNOWN        : RHOB:Import:rC:NONE:v0 (auto-composite)
~A     DEPTH         CALI           DT           GR          ILD          LLD          LLS         MSFL         NPHI         RHOB
# ...
   2513.9900       8.7780      57.2220      85.7650    -999.2500     149.1910     129.1770      49.6700       0.0667       2.7350
   2514.1423       8.7780      56.6840      83.1854    -999.2500      97.6471      87.5089      40.7697       0.0714       2.7300
   2514.2947       8.7780      56.1460      80.6140    -999.2500      46.3500      45.9740      31.9120       0.0742       2.7250
   2514.4473       8.7780      56.5475      77.9048    -999.2500      39.3777      40.9253      50.0328       0.0754       2.7345
   2514.5996       8.7780      56.9490      75.2040    -999.2500      32.4380      35.8920      68.0690       0.0747       2.7440
   2514.7520       8.8291      56.4921      69.5832    -999.2500      28.8388      30.7900      47.7619       0.0706       2.7585
   2514.9043       8.8800      56.0350      63.9790    -999.2500      25.2560      25.7030      27.5470       0.0638       2.7730
   2515.0569       8.8289      53.7594      57.5119    -999.2500      32.8097      33.3347      39.2634       0.0535       2.7875
   2515.2092       8.7780      51.4830      51.0630    -999.2500      40.3300      40.9450      50.9280       0.0461       2.8020
   2515.3616       8.7780      50.7302      54.9427    -999.2500      69.3302      65.8050     120.0722       0.0493       2.7875
   2515.5139       8.7780      49.9770      58.8120    -999.2500      98.2060      90.5980     188.9200       0.0582       2.7730
   2515.6665       8.7539      52.8416      60.7576    -999.2500      66.6423      71.4742     133.1474       0.0705       2.7530
   2515.8188       8.7300      55.7080      62.6950    -999.2500      35.2100      52.4300      77.6070       0.0806       2.7330
   2515.9712       8.6984      57.5753      57.5817    -999.2500      26.6152      36.7980      44.0959       0.0815       2.7155
   2516.1235       8.6670      59.4440      52.4890    -999.2500      18.0550      21.2290      10.7200       0.0776       2.6980
   2516.2759       8.6670      56.6717      49.5873    -999.2500      28.8311      24.4889      18.1636       0.0710       2.7155
   2516.4285       8.6670      53.8970      46.6970    -999.2500      39.5650      27.7360      25.5780       0.0655       2.7330
   2516.5808       8.6670      54.0794      48.8551    -999.2500      70.9364      37.9523      42.1972       0.0655       2.7320
   2516.7332       8.6670      54.2620      51.0050    -999.2500     102.1890      48.1300      58.7270       0.0679       2.7310
   2516.8855       8.6670      54.4339      54.4513    -999.2500      80.3089      60.0739      68.5779       0.0712       2.7460
   2517.0381       8.6670      54.6060      57.8850    -999.2500      58.5090      71.9740      78.3770       0.0750       2.7610
   2517.1904       8.6670      57.4722      59.8800    -999.2500      43.0939      48.9553      67.0028       0.0791       2.7485
   2517.3428       8.6670      60.3420      61.8680    -999.2500      27.7580      26.0180      55.6870       0.0848       2.7360
   2517.4951       8.6670      60.1030      57.0979    -999.2500      24.2106      21.3165      30.7260       0.0940       2.7215
   2517.6477       8.6670      59.8640      52.3440    -999.2500      20.6810      16.6310       5.8900       0.1016       2.7070
   2517.8000       8.7096      59.0675      49.2750    -999.2500      37.4615      25.0558      15.4579       0.1014       2.7190
   2517.9524       8.7520      58.2710      46.2160    -999.2500      54.1600      33.4530      24.9790       0.0984       2.7310
   2518.1047       8.7650      57.5780      44.4332    -999.2500      82.0017      56.5766      32.3410       0.0958       2.7250
   2518.2571       8.7780      56.8850      42.6560    -999.2500     109.7110      79.6270      39.6680       0.0934       2.7190
   2518.4097       8.7780      55.1256      40.9985    -999.2500     119.0321     108.4963      66.2972       0.0916       2.7250
   2518.5620       8.7780      53.3660      39.3460    -999.2500     128.3100     137.2780      92.8030       0.0906       2.7310
   2518.7144       8.7780      54.5268      39.7020    -999.2500     130.3526     131.4290     107.2551       0.0912       2.7210
   2518.8667       8.7780      55.6880      40.0570    -999.2500     132.3860     125.5970     121.6420       0.0920       2.7110
   2519.0193       8.7780      58.0140      44.2183    -999.2500     139.6429     122.9343     130.2764       0.0916       2.6955
   2519.1716       8.7780      60.3410      48.3680    -999.2500     146.8680     120.2790     138.8730       0.0908       2.6800
   2519.3240       8.7780      61.7096      52.3203    -999.2500     122.1770     116.3913     133.6529       0.0903       2.6730
   2519.4763       8.7780      63.0790      56.2620    -999.2500      97.5910     112.5140     128.4550       0.0900       2.6660
   2519.6289       8.7780      60.6373      53.6576    -999.2500      76.6808      90.2289      91.4450       0.0895       2.6625
   2519.7812       8.7780      58.1940      51.0640    -999.2500      55.8570      68.0360      54.5880       0.0877       2.6590
   2519.9336       8.7780      54.8018      46.3901    -999.2500      50.1411      53.5054      34.1681       0.0825       2.6785
   2520.0859       8.7780      51.4070      41.7350    -999.2500      44.4480      39.0330      13.8300       0.0751       2.6980
   2520.2383       8.7419      51.7973      38.8574    -999.2500      60.6815      60.4100      25.3323       0.0655       2.7075
   2520.3909       8.7060      52.1880      35.9910    -999.2500      76.8520      81.7040      36.7900       0.0579       2.7170
   2520.5432       8.6865      53.1355      33.4983    -999.2500     114.1285     118.0863      76.6993       0.0583       2.7380
   2520.6956       8.6670      54.0840      31.0150    -999.2500     151.2650     154.3320     116.3950       0.0614       2.7590
   2520.8479       8.6670      55.2248      29.6936    -999.2500     200.1719     185.0904      86.4864       0.0641       2.7390
   2521.0005       8.6670      56.3670      28.3770    -999.2500     248.9010     215.7370      56.7340       0.0666       2.7190
   2521.1528       8.6881      55.7329      29.6487    -999.2500     241.9387     205.4199      45.6487       0.0687       2.7200
   2521.3052       8.7090      55.0980      30.9160    -999.2500     235.0120     195.1390      34.6200       0.0706       2.7210
   2521.4575       8.7376      54.2799      34.3964    -999.2500     254.4118     201.7827      47.7627       0.0720       2.7225
   2521.6101       8.7660      53.4620      37.8650    -999.2500     273.7150     208.4040      60.8400       0.0715       2.7240
   2521.7625       8.7720      52.0955      49.0222    -999.2500     358.5178     301.7595      98.2318       0.0661       2.7310
   2521.9148       8.7780      50.7290      60.1430    -999.2500     442.9090     394.8110     135.4420       0.0597       2.7380
   2522.0671       8.7780      51.3110      71.7246    -999.2500     364.6671     349.8731     133.0158       0.0556       2.7295
   2522.2195       8.7780      51.8930      83.2700    -999.2500     286.7950     305.0760     130.6010       0.0549       2.7210
   2522.3721       8.7780      54.4193      70.6185    -999.2500     177.8387     196.6396      95.6270       0.0613       2.7160
   2522.5244       8.7780      56.9460      58.0050    -999.2500      69.3840      88.5290      60.8140       0.0704       2.7110
   2522.6768       8.7780      56.7975      50.4827    -999.2500      44.5780      56.9885      37.3520       0.0801       2.6990
   2522.8291       8.7780      56.6490      42.9820    -999.2500      19.8830      25.5390      13.9950       0.0862       2.6870
   2522.9817       8.7780      55.2473      39.7365    -999.2500      27.5883      40.3865      16.3301       0.0816       2.6710
   2523.1340       8.7780      53.8450      36.5000    -999.2500      35.2600      55.1930      18.6550       0.0733       2.6550
   2523.2864       8.7775      53.3386      34.6731    -999.2500      84.2440     101.5730      41.7994       0.0649       2.6926
