#------------------------------------------------------------------------------
#
#   Created by  : [OpenWorks] Log Export Utility (LEXP)
#   Created on  : 2016-05-19 16:57:42
#   Project     : CANT971
#   User        : R5K
#   Interpreter : PEP
#
#------------------------------------------------------------------------------
~VERSION INFORMATION
VERS. 2.0 : CWLS Log ASCII Standard - version 2.0
WRAP.  NO : One line per depth step
~WELL INFORMATION
#MNEMONIC   .UNIT                                           VALUE :DESCRIPTION
#------------------------------------------------------------------------------
STRT        .M                                           501.3956 :START DEPTH
STOP        .M                                          2574.3403 :STOP DEPTH
STEP        .M                                             0.1524 :STEP
NULL        .                                           -999.2500 :NULL VALUE
COMP        .                                   PEMEX EXPL & PROD :COMPANY
WELL        .                                                 239 :WELL
FLD         .                                           CANTARELL :FIELD
LOC         .                                             UNKNOWN :LOCATION
CNTY        .                                      CD. DEL CARMEN :COUNTY
STAT        .                                            CAMPECHE :STATE
CTRY        .                                              MEXICO :COUNTRY
SRVC        .                                             UNKNOWN :SERVICE COMPANY
DATE        .                                             UNKNOWN :LOG DATE
UWI         .                                          3060000480 :UNIQUE WELL ID
XCOORD      .                                       596453.420000 :SURFACE X
YCOORD      .                                      2145877.560000 :SURFACE Y
LAT         .                                           19.405976 :LATITUDE
LON         .                                          -92.081371 :LONGITUDE
ELEV        .M                                            27.4000 :SURFACE ELEV
ELEV_TYPE   .                                                  KB :ELEV TYPE
~CURVE INFORMATION
#MNEMONIC.UNIT        API CODE       : CURVE DESCRIPTION
#------------------------------------------------------------------------------
DEPTH    .M                          : Measured Depth
CALI     .inches      UNKNOWN        : CALI:Import:rC:NONE:v0 (auto-composite)
DT       .us/ft       UNKNOWN        : DT:Import:rC:NONE:v0 (auto-composite)
GR       .API         UNKNOWN        : GR:Import:rC:NONE:v0 (auto-composite)
ILD      .ohm.m       UNKNOWN        : ILD:Import:rC:NONE:v0 (auto-composite)
LLD      .ohm.m       UNKNOWN        : LLD:Import:rC:NONE:v0 (auto-composite)
LLS      .ohm.m       UNKNOWN        : LLS:Import:rC:NONE:v0 (auto-composite)
MSFL     .ohm.m       UNKNOWN        : MSFL:Import:rC:NONE:v0 (auto-composite)
NPHI     .v/v_decimal UNKNOWN        : NPHI:Import:rC:NONE:v0 (auto-composite)
RHOB     .g/cm3       UNKNOWN        : RHOB:Import:rC:NONE:v0 (auto-composite)
~A     DEPTH         CALI           DT           GR          ILD          LLD          LLS         MSFL         NPHI         RHOB
# ...
   2334.4629       9.5560      60.6840      25.7240    -999.2500     745.7040     609.8410      51.6350       0.0956       2.6350
   2334.6152       9.5560      61.3011      27.0653    -999.2500     529.9791     398.8935      36.8445       0.1064       2.6175
   2334.7676       9.5560      61.9190      28.4020    -999.2500     315.0040     188.6790      22.1290       0.1152       2.6000
   2334.9199       9.5560      57.2604      31.4902    -999.2500     262.3808     134.8728      94.5671       0.1121       2.6411
   2335.0725       9.5560      52.5950      34.5680    -999.2500     209.9340      81.2470     166.6470       0.1069       2.6820
   2335.2249       9.5560      53.6257      37.3094    -999.2500     220.8105      71.7151     210.3830       0.0957       2.7130
   2335.3772       9.5560      54.6580      40.0420    -999.2500     231.6520      62.2140     253.9080       0.0844       2.7440
   2335.5295       9.5560      52.6162      41.5759    -999.2500     214.0512      64.7559     163.6612       0.0791       2.7440
   2335.6819       9.5560      50.5710      43.1050    -999.2500     196.5050      67.2900      73.8380       0.0742       2.7440
   2335.8345       9.5560      50.5890      36.3324    -999.2500     208.1774      73.9900     102.0806       0.0672       2.7285
   2335.9868       9.5560      50.6070      29.5800    -999.2500     219.8150      80.6700     130.1940       0.0609       2.7130
   2336.1392       9.5440      52.8653      26.8807    -999.2500     227.3753     171.2241     183.4318       0.0623       2.7100
   2336.2915       9.5320      55.1280      24.1890    -999.2500     234.9140     261.5200     236.4330       0.0648       2.7070
   2336.4441       9.4879      55.0935      24.2546    -999.2500     330.7100     304.8100     172.2914       0.0686       2.7300
   2336.5964       9.4440      55.0590      24.3200    -999.2500     426.2450     347.9820     108.4270       0.0724       2.7530
   2336.7488       9.4440      55.9962      27.0200    -999.2500     479.7566     325.9799     123.3949       0.0745       2.7435
   2336.9011       9.4440      56.9340      29.7130    -999.2500     533.1290     304.0350     138.3000       0.0763       2.7340
   2337.0537       9.4440      57.1434      32.4414    -999.2500     785.4664     333.1650     194.3932       0.0766       2.6960
   2337.2061       9.4440      57.3530      35.1630    -999.2500    1036.7760     362.2230     250.2580       0.0762       2.6580
   2337.3584       9.4440      54.7876      31.3180    -999.2500    1476.3625     512.4816     248.4630       0.0715       2.6750
   2337.5107       9.4440      52.2200      27.4820    -999.2500    1914.2150     662.3870     246.6750       0.0669       2.6920
   2337.6631       9.4440      54.3675      24.6436    -999.2500    2190.8982     767.7942     189.9821       0.0669       2.7196
   2337.8157       9.4440      56.5170      21.8160    -999.2500    2466.5239     872.9670     133.5060       0.0678       2.7470
   2337.9680       9.4154      55.4621      21.9808    -999.2500    2134.5132     733.7744     113.8455       0.0712       2.7625
   2338.1204       9.3870      54.4060      22.1450    -999.2500    1803.7290     594.8740      94.2890       0.0742       2.7780
   2338.2727       9.3209      55.1590      21.2474    -999.2500    1481.5560     544.1890      85.4387       0.0705       2.7565
   2338.4253       9.2550      55.9130      20.3530    -999.2500    1160.5341     493.6850      76.6340       0.0663       2.7350
   2338.5776       9.2385      56.2897      20.1762    -999.2500    1416.0120     462.9360      91.2599       0.0631       2.7135
   2338.7300       9.2220      56.6670      20.0000    -999.2500    1670.6100     432.2930     105.8120       0.0605       2.6920
   2338.8823       9.2220      55.4869      20.5344    -999.2500    3351.4500     527.8207     150.7840       0.0617       2.6760
   2339.0349       9.2220      54.3050      21.0670    -999.2500    5026.7061     623.0310     195.5350       0.0631       2.6600
   2339.1873       9.2220      54.9570      21.0890    -999.2500    7100.2480     962.7025     210.7901       0.0633       2.6730
   2339.3396       9.2220      55.6100      21.1110    -999.2500    9167.1670    1301.2889     225.9720       0.0633       2.6860
   2339.4919       9.2220      55.9832      21.7785    -999.2500   10504.0234    1649.4261     271.8931       0.0633       2.6995
   2339.6443       9.2220      56.3570      22.4440    -999.2500   11836.7734    1996.4940     317.6000       0.0631       2.7130
   2339.7969       9.2220      57.6748      22.8892    -999.2500   12228.5352    2440.9824     283.9631       0.0606       2.7245
   2339.9492       9.2220      58.9950      23.3330    -999.2500   12619.1436    2884.1621     250.4790       0.0580       2.7360
   2340.1016       9.2786      59.0760      21.6276    -999.2500   11733.0283    2485.4255     176.3464       0.0556       2.7150
   2340.2539       9.3350      59.1570      19.9270    -999.2500   10849.4131    2087.8140     102.5410       0.0535       2.6940
   2340.4065       9.3590      57.4884      18.0475    -999.2500   10645.9414    2154.8914     113.8062       0.0538       2.6835
   2340.5588       9.3830      55.8190      16.1730    -999.2500   10443.0176    2221.7881     125.0230       0.0544       2.6730
   2340.7112       9.3024      57.9048      15.8556    -999.2500    9670.8975    2476.1799     142.8261       0.0570       2.6715
   2340.8635       9.2220      59.9920      15.5390    -999.2500    8900.7617    2729.9180     160.5550       0.0598       2.6700
   2341.0161       9.2220      59.6911      17.2376    -999.2500    7046.8535    2388.4824     138.0575       0.0627       2.6935
   2341.1685       9.2220      59.3900      18.9320    -999.2500    5200.4399    2047.8810     115.6510       0.0651       2.7170
   2341.3208       9.2220      57.3944      19.4666    -999.2500    5933.0327    1558.7892     140.6915       0.0602       2.7455
   2341.4731       9.2220      55.3970      20.0000    -999.2500    6662.7578    1070.8320     165.6340       0.0549       2.7740
   2341.6255       9.2841      54.3875      19.7641    -999.2500    6036.8960     981.2018     172.8898       0.0523       2.7950
   2341.7781       9.3460      53.3770      19.5290    -999.2500    5413.4072     891.7680     180.1180       0.0502       2.8160
   2341.9304       9.3941      51.4881      18.7005    -999.2500    4901.2075     742.0972     242.6535       0.0500       2.8290
   2342.0828       9.4420      49.5970      17.8750    -999.2500    4390.8848     592.7360     304.8600       0.0500       2.8420
   2342.2351       9.4430      49.7234      19.5440    -999.2500    4681.7373     521.4337     295.4639       0.0500       2.8290
   2342.3877       9.4440      49.8500      21.2070    -999.2500    4971.5601     450.3840     286.1160       0.0500       2.8160
   2342.5400       9.4440      50.6454      22.6029    -999.2500    4503.5483     652.4749     186.9565       0.0500       2.8045
   2342.6924       9.4440      51.4420      23.9940    -999.2500    4037.1340     853.8760      88.2940       0.0500       2.7930
   2342.8447       9.4440      50.7255      23.1010    -999.2500    2843.0496    1023.0659      96.2088       0.0501       2.7690
   2342.9973       9.4440      50.0080      22.2110    -999.2500    1652.8950    1191.6990     104.0850       0.0506       2.7450
   2343.1497       9.4440      50.5296      20.1983    -999.2500    1308.9464     925.1298     160.0648       0.0566       2.7285
   2343.3020       9.4440      51.0520      18.1920    -999.2500     966.0860     659.4040     215.7780       0.0627       2.7120
   2343.4543       9.4440      52.6341      16.8720    -999.2500     869.1206     511.1100     197.8976       0.0639       2.7095
   2343.6067       9.4440      54.2190      15.5560    -999.2500     772.4500     363.2670     180.1000       0.0650       2.7070
   2343.7593       9.4440      56.2416      15.9210    -999.2500     969.1620     305.3551     141.9935       0.0691       2.7345
