#------------------------------------------------------------------------------
#
#   Created by  : [OpenWorks] Log Export Utility (LEXP)
#   Created on  : 2016-05-19 16:57:42
#   Project     : CANT971
#   User        : R5K
#   Interpreter : PEP
#
#------------------------------------------------------------------------------
~VERSION INFORMATION
VERS. 2.0 : CWLS Log ASCII Standard - version 2.0
WRAP.  NO : One line per depth step
~WELL INFORMATION
#MNEMONIC   .UNIT                                           VALUE :DESCRIPTION
#------------------------------------------------------------------------------
STRT        .M                                           501.3956 :START DEPTH
STOP        .M                                          2574.3403 :STOP DEPTH
STEP        .M                                             0.1524 :STEP
NULL        .                                           -999.2500 :NULL VALUE
COMP        .                                   PEMEX EXPL & PROD :COMPANY
WELL        .                                                 239 :WELL
FLD         .                                           CANTARELL :FIELD
LOC         .                                             UNKNOWN :LOCATION
CNTY        .                                      CD. DEL CARMEN :COUNTY
STAT        .                                            CAMPECHE :STATE
CTRY        .                                              MEXICO :COUNTRY
SRVC        .                                             UNKNOWN :SERVICE COMPANY
DATE        .                                             UNKNOWN :LOG DATE
UWI         .                                          3060000480 :UNIQUE WELL ID
XCOORD      .                                       596453.420000 :SURFACE X
YCOORD      .                                      2145877.560000 :SURFACE Y
LAT         .                                           19.405976 :LATITUDE
LON         .                                          -92.081371 :LONGITUDE
ELEV        .M                                            27.4000 :SURFACE ELEV
ELEV_TYPE   .                                                  KB :ELEV TYPE
~CURVE INFORMATION
#MNEMONIC.UNIT        API CODE       : CURVE DESCRIPTION
#------------------------------------------------------------------------------
DEPTH    .M                          : Measured Depth
CALI     .inches      UNKNOWN        : CALI:Import:rC:NONE:v0 (auto-composite)
DT       .us/ft       UNKNOWN        : DT:Import:rC:NONE:v0 (auto-composite)
GR       .API         UNKNOWN        : GR:Import:rC:NONE:v0 (auto-composite)
ILD      .ohm.m       UNKNOWN        : ILD:Import:rC:NONE:v0 (auto-composite)
LLD      .ohm.m       UNKNOWN        : LLD:Import:rC:NONE:v0 (auto-composite)
LLS      .ohm.m       UNKNOWN        : LLS:Import:rC:NONE:v0 (auto-composite)
MSFL     .ohm.m       UNKNOWN        : MSFL:Import:rC:NONE:v0 (auto-composite)
NPHI     .v/v_decimal UNKNOWN        : NPHI:Import:rC:NONE:v0 (auto-composite)
RHOB     .g/cm3       UNKNOWN        : RHOB:Import:rC:NONE:v0 (auto-composite)
~A     DEPTH         CALI           DT           GR          ILD          LLD          LLS         MSFL         NPHI         RHOB
# ...
   2098.2429       9.4440      50.5100      15.6740    -999.2500   12591.2539    7943.5898     276.8130       0.0586       2.7200
   2098.3953       9.4440      50.5330      16.4437    -999.2500   12605.2090    9352.1992     267.8339       0.0620       2.7045
   2098.5476       9.4440      50.5560      17.2110    -999.2500   12619.1436   10758.7012     258.8970       0.0650       2.6890
   2098.7000       9.4715      51.0191      17.9626    -999.2500   12619.1436   11052.6777     203.7823       0.0684       2.6895
   2098.8523       9.4990      51.4830      18.7120    -999.2500   12619.1436   11345.7812     148.9190       0.0712       2.6900
   2099.0049       9.5245      51.2407      18.8006    -999.2500   12619.1436   11368.7334     165.6777       0.0691       2.7075
   2099.1572       9.5500      50.9980      18.8890    -999.2500   12619.1436   11391.6211     182.3620       0.0659       2.7250
   2099.3096       9.5530      50.7992      17.4280    -999.2500   12619.1436   11391.6211     213.8163       0.0599       2.7430
   2099.4619       9.5560      50.6000      15.9710    -999.2500   12619.1436   11391.6211     245.1350       0.0543       2.7610
   2099.6145       9.5000      50.1260      15.7632    -999.2500   12619.1436   11391.6211     224.9026       0.0552       2.7550
   2099.7668       9.4440      49.6510      15.5560    -999.2500   12619.1436   11391.6211     204.7550       0.0569       2.7490
   2099.9192       9.4440      49.9072      15.5560    -999.2500   12619.1436   11391.6211     200.2398       0.0589       2.7380
   2100.0715       9.4440      50.1640      15.5560    -999.2500   12619.1436   11391.6211     195.7430       0.0612       2.7270
   2100.2241       9.4440      52.1845      15.5560    -999.2500   12619.1436   11391.6211     233.8566       0.0649       2.7185
   2100.3765       9.4440      54.2100      15.5560    -999.2500   12619.1436   11391.6211     271.8200       0.0688       2.7100
   2100.5288       9.4440      53.4090      15.5560    -999.2500   12619.1436   11391.6211     232.0757       0.0725       2.6925
   2100.6812       9.4440      52.6060      15.5560    -999.2500   12619.1436   11391.6211     192.4830       0.0752       2.6750
   2100.8335       9.4941      53.7135      14.9994    -999.2500   12619.1436   11391.6211     129.6045       0.0704       2.6865
   2100.9861       9.5440      54.8240      14.4440    -999.2500   12619.1436   11391.6211      66.9580       0.0649       2.6980
   2101.1384       9.5500      53.5458      14.4440    -999.2500   12619.1436   11391.6211      47.1303       0.0623       2.7015
   2101.2908       9.5560      52.2660      14.4440    -999.2500   12619.1436   11391.6211      27.4050       0.0605       2.7050
   2101.4431       9.5560      50.8480      14.9549    -999.2500   12619.1436   11391.6211      49.4730       0.0631       2.7170
   2101.5957       9.5560      49.4280      15.4640    -999.2500   12619.1436   11391.6211      71.4300       0.0661       2.7290
   2101.7480       9.5560      50.3778      16.7366    -999.2500   12619.1436   11391.6211     148.2381       0.0694       2.7255
   2101.9004       9.5560      51.3290      18.0050    -999.2500   12619.1436   11391.6211     224.6690       0.0725       2.7220
   2102.0527       9.5085      50.9848      18.4477    -999.2500   12619.1436   11391.6211     202.5351       0.0744       2.7005
   2102.2051       9.4610      50.6400      18.8890    -999.2500   12619.1436   11391.6211     180.5070       0.0761       2.6790
   2102.3577       9.4445      51.2255      17.8083    -999.2500   12619.1436   11391.6211     143.5359       0.0769       2.6705
   2102.5100       9.4280      51.8120      16.7310    -999.2500   12619.1436   11391.6211     106.7370       0.0780       2.6620
   2102.6624       9.3660      55.8532      15.8061    -999.2500   12619.1436   11110.7275      67.3833       0.0819       2.6675
   2102.8147       9.3040      59.9020      14.8840    -999.2500   12619.1436   10830.6602      28.2080       0.0862       2.6730
   2102.9673       9.2965      62.8960      14.7773    -999.2500   12619.1436    8822.9766      35.9731       0.0908       2.6440
   2103.1196       9.2890      65.8960      14.6710    -999.2500   12619.1436    6820.9370      43.7040       0.0944       2.6150
   2103.2720       9.3501      60.6456      15.1141    -999.2500   12619.1436    4875.0601      70.2899       0.0898       2.6090
   2103.4243       9.4110      55.3840      15.5560    -999.2500   12619.1436    2934.4141      96.7620       0.0842       2.6030
   2103.5769       9.4275      56.2196      15.5375    -999.2500   12619.1436    2167.5662     136.9421       0.0788       2.6455
   2103.7292       9.4440      57.0570      15.5190    -999.2500   12619.1436    1402.6820     176.9550       0.0741       2.6880
   2103.8816       9.4310      54.7083      14.9808    -999.2500   12619.1436    2532.3667     123.8494       0.0753       2.6785
   2104.0339       9.4180      52.3540      14.4440    -999.2500   12619.1436    3659.2981      70.9580       0.0771       2.6690
   2104.1863       9.3554      54.4009      14.6818    -999.2500   12619.1436    5334.7500     112.6750       0.0784       2.6545
   2104.3389       9.2930      56.4530      14.9190    -999.2500   12619.1436    7006.3311     154.2290       0.0797       2.6400
   2104.4912       9.2575      61.9932      15.2103    -999.2500   12619.1436    8455.4229     198.9696       0.0799       2.6570
   2104.6436       9.2220      67.5480      15.5010    -999.2500   12619.1436    9901.3467     243.5410       0.0800       2.6740
   2104.7959       9.2220      63.3852      15.9860    -999.2500   12619.1436   10565.3477     212.0163       0.0800       2.7020
   2104.9485       9.2220      59.2110      16.4700    -999.2500   12619.1436   11227.9814     180.6070       0.0798       2.7300
   2105.1008       9.2220      57.1408      17.5741    -999.2500   12619.1436   11307.4619     117.6290       0.0781       2.7335
   2105.2532       9.2220      55.0680      18.6760    -999.2500   12619.1436   11386.7881      54.9740       0.0760       2.7370
   2105.4055       9.2220      56.3996      18.7827    -999.2500   12619.1436   11389.2070      70.4667       0.0723       2.7270
   2105.5581       9.2220      57.7330      18.8890    -999.2500   12619.1436   11391.6211      85.8820       0.0685       2.7170
   2105.7104       9.2220      55.8100      18.0371    -999.2500   12619.1436   11391.6211      94.5777       0.0650       2.7055
   2105.8628       9.2220      53.8840      17.1880    -999.2500   12619.1436   11391.6211     103.2310       0.0618       2.6940
   2106.0151       9.2220      53.3315      16.0397    -999.2500   12619.1436   11391.6211     137.8923       0.0620       2.7015
   2106.1675       9.2220      52.7780      14.8950    -999.2500   12619.1436   11391.6211     172.3890       0.0625       2.7090
   2106.3201       9.2220      52.7780      14.6692    -999.2500   12619.1436   11391.6211     186.2265       0.0629       2.7200
   2106.4724       9.2220      52.7780      14.4440    -999.2500   12619.1436   11391.6211     200.0000       0.0636       2.7310
   2106.6248       9.2220      52.6316      14.8826    -999.2500   12619.1436   11391.6211     147.8912       0.0682       2.7335
   2106.7771       9.2220      52.4850      15.3200    -999.2500   12619.1436   11391.6211      96.0170       0.0729       2.7360
   2106.9297       9.2440      52.3252      14.9174    -999.2500   12619.1436   11391.6211     146.0486       0.0749       2.7145
   2107.0820       9.2660      52.1650      14.5160    -999.2500   12619.1436   11391.6211     195.8610       0.0764       2.6930
   2107.2344       9.3301      51.3614      14.1200    -999.2500   12619.1436   11391.6211     224.9213       0.0757       2.6885
   2107.3867       9.3940      50.5560      13.7250    -999.2500   12619.1436   11391.6211     253.8580       0.0744       2.6840
   2107.5393       9.4175      51.7556      13.9868    -999.2500   12619.1436   11391.6211     281.5151       0.0697       2.7060
