#------------------------------------------------------------------------------
#
#   Created by  : [OpenWorks] Log Export Utility (LEXP)
#   Created on  : 2016-05-19 16:57:42
#   Project     : CANT971
#   User        : R5K
#   Interpreter : PEP
#
#------------------------------------------------------------------------------
~VERSION INFORMATION
VERS. 2.0 : CWLS Log ASCII Standard - version 2.0
WRAP.  NO : One line per depth step
~WELL INFORMATION
#MNEMONIC   .UNIT                                           VALUE :DESCRIPTION
#------------------------------------------------------------------------------
STRT        .M                                           501.3956 :START DEPTH
STOP        .M                                          2574.3403 :STOP DEPTH
STEP        .M                                             0.1524 :STEP
NULL        .                                           -999.2500 :NULL VALUE
COMP        .                                   PEMEX EXPL & PROD :COMPANY
WELL        .                                                 239 :WELL
FLD         .                                           CANTARELL :FIELD
LOC         .                                             UNKNOWN :LOCATION
CNTY        .                                      CD. DEL CARMEN :COUNTY
STAT        .                                            CAMPECHE :STATE
CTRY        .                                              MEXICO :COUNTRY
SRVC        .                                             UNKNOWN :SERVICE COMPANY
DATE        .                                             UNKNOWN :LOG DATE
UWI         .                                          3060000480 :UNIQUE WELL ID
XCOORD      .                                       596453.420000 :SURFACE X
YCOORD      .                                      2145877.560000 :SURFACE Y
LAT         .                                           19.405976 :LATITUDE
LON         .                                          -92.081371 :LONGITUDE
ELEV        .M                                            27.4000 :SURFACE ELEV
ELEV_TYPE   .                                                  KB :ELEV TYPE
~CURVE INFORMATION
#MNEMONIC.UNIT        API CODE       : CURVE DESCRIPTION
#------------------------------------------------------------------------------
DEPTH    .M                          : Measured Depth
CALI     .inches      UNKNOWN        : CALI:Import:rC:NONE:v0 (auto-composite)
DT       .us/ft       UNKNOWN        : DT:Import:rC:NONE:v0 (auto-composite)
GR       .API         UNKNOWN        : GR:Import:rC:NONE:v0 (auto-composite)
ILD      .ohm.m       UNKNOWN        : ILD:Import:rC:NONE:v0 (auto-composite)
LLD      .ohm.m       UNKNOWN        : LLD:Import:rC:NONE:v0 (auto-composite)
LLS      .ohm.m       UNKNOWN        : LLS:Import:rC:NONE:v0 (auto-composite)
MSFL     .ohm.m       UNKNOWN        : MSFL:Import:rC:NONE:v0 (auto-composite)
NPHI     .v/v_decimal UNKNOWN        : NPHI:Import:rC:NONE:v0 (auto-composite)
RHOB     .g/cm3       UNKNOWN        : RHOB:Import:rC:NONE:v0 (auto-composite)
~A     DEPTH         CALI           DT           GR          ILD          LLD          LLS         MSFL         NPHI         RHOB
# ...
   2192.7307       9.1110      56.2800      81.1110    -999.2500     282.1560     301.8850     142.9220       0.0383       2.6670
   2192.8833       9.1110      56.7065      80.2734    -999.2500     213.4615     249.2389      97.7385       0.0420       2.6555
   2193.0356       9.1110      57.1340      79.4380    -999.2500     144.9460     196.7300      52.7450       0.0482       2.6440
   2193.1880       9.1110      58.2532      77.1927    -999.2500      98.2510     132.8627      56.2451       0.0593       2.6245
   2193.3403       9.1110      59.3750      74.9530    -999.2500      51.6720      69.1540      59.7310       0.0727       2.6050
   2193.4929       9.1110      64.3264      75.6673    -999.2500      38.7673      49.2380      58.3633       0.0877       2.5845
   2193.6453       9.1110      69.2900      76.3800    -999.2500      25.8930      29.3690      57.0010       0.1032       2.5640
   2193.7976       9.1110      68.0976      74.2947    -999.2500      19.4198      27.2261      51.2911       0.1187       2.5760
   2193.9500       9.1110      66.9040      72.2140    -999.2500      12.9610      25.0880      45.6030       0.1344       2.5880
   2194.1023       9.0960      67.0769      66.0275    -999.2500      13.6572      18.3889      32.8679       0.1511       2.5855
   2194.2549       9.0810      67.2500      59.8540    -999.2500      14.3520      11.7040      20.1800       0.1644       2.5830
   2194.4072       9.0405      68.5297      54.6884    -999.2500      17.3305      12.0804      21.1340       0.1668       2.5640
   2194.5596       9.0000      69.8110      49.5330    -999.2500      20.3030      12.4560      22.0830       0.1651       2.5450
   2194.7119       9.0000      73.7718      43.9854    -999.2500      24.6545      13.9939      21.9381       0.1622       2.5480
   2194.8645       9.0000      77.7380      38.4570    -999.2500      28.9980      15.5290      21.7940       0.1588       2.5510
   2195.0168       9.0000      77.3538      32.2512    -999.2500      34.1164      19.4454      24.3428       0.1553       2.5625
   2195.1692       9.0000      76.9690      26.0660    -999.2500      39.2260      23.3550      26.8790       0.1500       2.5740
   2195.3215       9.0000      72.4081      26.1947    -999.2500      46.1972      37.5472      36.8394       0.1397       2.5890
   2195.4741       9.0000      67.8400      26.3230    -999.2500      53.1460      51.6940      46.7520       0.1261       2.6040
   2195.6265       9.0000      68.0004      28.0822    -999.2500      61.6626      45.5781      34.1936       0.1087       2.6130
   2195.7788       9.0000      68.1610      29.8360    -999.2500      70.1530      39.4810      21.6940       0.0913       2.6220
   2195.9312       9.0030      67.0875      36.7793    -999.2500      79.4693      42.8780     119.9093       0.0774       2.6290
   2196.0835       9.0060      66.0120      43.7020    -999.2500      88.7580      46.2650     217.6780       0.0646       2.6360
   2196.2361       9.0270      60.5569      43.5898    -999.2500      83.8200      86.2846     201.6180       0.0514       2.6590
   2196.3884       9.0480      55.0910      43.4780    -999.2500      78.8960     126.1910     185.6290       0.0417       2.6820
   2196.5408       9.0901      55.2908      41.5148    -999.2500      65.3867     121.7926     148.5614       0.0424       2.6725
   2196.6931       9.1320      55.4910      39.5570    -999.2500      51.9140     117.4060     111.6530       0.0499       2.6630
   2196.8457       9.1771      57.5842      40.2339    -999.2500      40.6950      91.9762      79.7008       0.0659       2.6250
   2196.9980       9.2220      59.6820      40.9090    -999.2500      29.5050      66.6120      47.8820       0.0896       2.5870
   2197.1504       9.2040      65.7733      40.0985    -999.2500      20.9205      39.7350      29.0118       0.1267       2.5424
   2197.3027       9.1860      71.8790      39.2900    -999.2500      12.3570      12.9240      10.2180       0.1556       2.4980
   2197.4551       9.1440      81.4546      41.4896    -999.2500      14.1891      14.5294      11.9444       0.1484       2.4705
   2197.6077       9.1020      91.0540      43.6840    -999.2500      16.0170      16.1310      13.6640       0.1327       2.4430
   2197.7600       9.0509      88.6967      50.2052    -999.2500      31.2543      23.9421      21.5670       0.1293       2.4070
   2197.9124       9.0000      86.3370      56.7120    -999.2500      46.4580      31.7360      29.4400       0.1327       2.3710
   2198.0647       9.0250      78.8827      62.0503    -999.2500      42.5149      41.0897      36.6502       0.1429       2.3865
   2198.2173       9.0500      71.4200      67.3690    -999.2500      38.5800      50.4240      43.8340       0.1608       2.4020
   2198.3696       9.1131      80.5483      71.3265    -999.2500      28.4096      43.0363      38.2206       0.1929       2.3695
   2198.5220       9.1760      89.6880      75.2700    -999.2500      18.2590      35.6630      32.6360       0.2317       2.3370
   2198.6743       9.2401      76.8129      81.0474    -999.2500      12.3421      24.2156      22.0114       0.2746       2.2404
   2198.8269       9.3040      63.9200      86.8050    -999.2500       6.4360      12.7890      11.4400       0.3173       2.1440
   2198.9792       9.4391      69.8026      86.2110    -999.2500       4.6995       7.9229       7.9339       0.3559       2.0719
   2199.1316       9.5740      75.6940      85.6190    -999.2500       2.9660       3.0650       4.4450       0.3828       2.0000
   2199.2839       9.7553      90.5554      82.7505    -999.2500       2.4322       3.0955       4.2355       0.3825       2.0135
   2199.4363       9.9360     105.4410      79.8910    -999.2500       1.9000       3.1260       4.0270       0.3690       2.0270
   2199.5889      10.1684     102.3212      76.0887    -999.2500       1.9531       3.0424       3.4266       0.3471       2.1181
   2199.7412      10.4000      99.1960      72.2980    -999.2500       2.0060       2.9590       2.8290       0.3291       2.2090
   2199.8936      10.6999     101.0867      70.9420    -999.2500       2.2809       2.2960       3.0816       0.3296       2.1780
   2200.0459      10.9990     102.9810      69.5900    -999.2500       2.5550       1.6350       3.3330       0.3397       2.1470
   2200.1985      10.9830     108.7342      67.8476    -999.2500       3.1068       1.8047       3.1651       0.3570       2.0734
   2200.3508      10.9670     114.4990      66.1100    -999.2500       3.6570       1.9740       2.9980       0.3758       2.0000
   2200.5032      10.8448     112.2249      62.9313    -999.2500       3.5819       2.9333       3.3367       0.3915       2.0000
   2200.6555      10.7230     109.9460      59.7610    -999.2500       3.5070       3.8900       3.6740       0.4024       2.0000
   2200.8081      10.4517     105.4301      52.7165    -999.2500       3.0124       3.7518       3.5492       0.4035       2.0000
   2200.9604      10.1810     100.9040      45.6900    -999.2500       2.5190       3.6140       3.4250       0.3974       2.0000
   2201.1128       9.9427     110.5695      46.2707    -999.2500       2.6261       2.9001       3.4581       0.3826       2.0335
   2201.2651       9.7050     120.2580      46.8500    -999.2500       2.7330       2.1880       3.4910       0.3584       2.0670
   2201.4175       9.5744     117.0815      48.9059    -999.2500       3.7567       2.7536       4.1909       0.3180       2.3028
   2201.5701       9.4440     113.8970      50.9570    -999.2500       4.7780       3.3180       4.8880       0.2705       2.5380
   2201.7224       9.4500     101.7648      53.4252    -999.2500      10.1719       7.5161      21.6801       0.2200       2.5335
   2201.8748       9.4560      89.6200      55.8880    -999.2500      15.5540      11.7050      38.4090       0.1751       2.5290
   2202.0271       9.4770      77.4460      55.6260    -999.2500      28.5503      23.4145      33.0132       0.1479       2.5085
