#------------------------------------------------------------------------------
#
#   Created by  : [OpenWorks] Log Export Utility (LEXP)
#   Created on  : 2016-05-19 16:57:42
#   Project     : CANT971
#   User        : R5K
#   Interpreter : PEP
#
#------------------------------------------------------------------------------
~VERSION INFORMATION
VERS. 2.0 : CWLS Log ASCII Standard - version 2.0
WRAP.  NO : One line per depth step
~WELL INFORMATION
#MNEMONIC   .UNIT                                           VALUE :DESCRIPTION
#------------------------------------------------------------------------------
STRT        .M                                           501.3956 :START DEPTH
STOP        .M                                          2574.3403 :STOP DEPTH
STEP        .M                                             0.1524 :STEP
NULL        .                                           -999.2500 :NULL VALUE
COMP        .                                   PEMEX EXPL & PROD :COMPANY
WELL        .                                                 239 :WELL
FLD         .                                           CANTARELL :FIELD
LOC         .                                             UNKNOWN :LOCATION
CNTY        .                                      CD. DEL CARMEN :COUNTY
STAT        .                                            CAMPECHE :STATE
CTRY        .                                              MEXICO :COUNTRY
SRVC        .                                             UNKNOWN :SERVICE COMPANY
DATE        .                                             UNKNOWN :LOG DATE
UWI         .                                          3060000480 :UNIQUE WELL ID
XCOORD      .                                       596453.420000 :SURFACE X
YCOORD      .                                      2145877.560000 :SURFACE Y
LAT         .                                           19.405976 :LATITUDE
LON         .                                          -92.081371 :LONGITUDE
ELEV        .M                                            27.4000 :SURFACE ELEV
ELEV_TYPE   .                                                  KB :ELEV TYPE
~CURVE INFORMATION
#MNEMONIC.UNIT        API CODE       : CURVE DESCRIPTION
#------------------------------------------------------------------------------
DEPTH    .M                          : Measured Depth
CALI     .inches      UNKNOWN        : CALI:Import:rC:NONE:v0 (auto-composite)
DT       .us/ft       UNKNOWN        : DT:Import:rC:NONE:v0 (auto-composite)
GR       .API         UNKNOWN        : GR:Import:rC:NONE:v0 (auto-composite)
ILD      .ohm.m       UNKNOWN        : ILD:Import:rC:NONE:v0 (auto-composite)
LLD      .ohm.m       UNKNOWN        : LLD:Import:rC:NONE:v0 (auto-composite)
LLS      .ohm.m       UNKNOWN        : LLS:Import:rC:NONE:v0 (auto-composite)
MSFL     .ohm.m       UNKNOWN        : MSFL:Import:rC:NONE:v0 (auto-composite)
NPHI     .v/v_decimal UNKNOWN        : NPHI:Import:rC:NONE:v0 (auto-composite)
RHOB     .g/cm3       UNKNOWN        : RHOB:Import:rC:NONE:v0 (auto-composite)
~A     DEPTH         CALI           DT           GR          ILD          LLD          LLS         MSFL         NPHI         RHOB
# ...
   2013.2036       9.1350      58.3770      39.9750    -999.2500   12619.1436  838015.6250      12.4720       0.0810       2.6450
   2013.3560       9.1785      67.8676      38.8563    -999.2500   10853.0264  824685.5000      12.7195       0.0764       2.6440
   2013.5084       9.2220      77.3840      37.7400    -999.2500    9089.1934  811383.3125      12.9660       0.0773       2.6430
   2013.6608       9.1980      92.6403      36.7255    -999.2500    5783.3032  717450.4375      11.5218       0.0775       2.6330
   2013.8132       9.1740     107.9400      35.7130    -999.2500    2483.9160  623702.3750      10.0840       0.0767       2.6230
   2013.9656       9.1184     115.5707      36.1479    -999.2500    1465.5492  402195.7500      11.1828       0.0746       2.6470
   2014.1180       9.0630     123.2240      36.5820    -999.2500     449.0580  181097.0938      12.2760       0.0713       2.6710
   2014.2704       9.0150     126.2593      36.3958    -999.2500     300.6967   94465.5234      14.8538       0.0673       2.6980
   2014.4229       8.9670     129.3040      36.2100    -999.2500     152.5900    7982.6470      17.4190       0.0624       2.7250
   2014.5752       8.9110     131.7476      36.7519    -999.2500     163.8024    9017.1963      17.2872       0.0564       2.7140
   2014.7275       8.8550     134.1970      37.2920    -999.2500     174.9970   10050.0986      17.1560       0.0516       2.7030
   2014.8800       8.7960     136.0274      38.5765    -999.2500     189.4361   19440.6895      21.2285       0.0500       2.7055
   2015.0323       8.7370     137.8610      39.8570    -999.2500     203.8540   28817.5176      25.2820       0.0500       2.7080
   2015.1848       8.7020     138.5414      42.6226    -999.2500     331.4240   20636.3672      18.0085       0.0500       2.7200
   2015.3372       8.6670     139.2230      45.3800    -999.2500     458.8230   12466.1807      10.7680       0.0510       2.7320
   2015.4896       8.6670     139.3334      45.2844    -999.2500    1616.9855   17391.2715      13.3181       0.0538       2.7195
   2015.6420       8.6670     139.4440      45.1890    -999.2500    2773.7410   22306.4355      15.8570       0.0583       2.7070
   2015.7944       8.6780     139.4440      44.0575    -999.2500    6053.7949   34457.1875      20.7239       0.0642       2.6750
   2015.9468       8.6890     139.4440      42.9290    -999.2500    9330.2754   46575.2734      25.5700       0.0682       2.6430
   2016.0992       8.7340     139.4440      41.0656    -999.2500   10786.6191   38432.5625      33.8958       0.0672       2.6140
   2016.2516       8.7790     139.4440      39.2070    -999.2500   12241.5596   30310.7227      42.1870       0.0617       2.5850
   2016.4041       8.8700     139.4440      37.9174    -999.2500   10188.2334   22757.1328      34.7194       0.0527       2.6210
   2016.5564       8.9610     139.4440      36.6310    -999.2500    8136.6289   15221.9561      27.2820       0.0451       2.6570
   2016.7087       9.0340     139.4390      35.8446    -999.2500    5281.8564   13002.5625      29.3270       0.0440       2.6470
   2016.8612       9.1070     139.4340      35.0600    -999.2500    2429.1189   10788.3018      31.3640       0.0466       2.6370
   2017.0135       9.0650     138.8198      34.3818    -999.2500    1623.9622    7634.4497      26.6110       0.0501       2.5995
   2017.1660       9.0230     138.2040      33.7050    -999.2500     819.9230    4487.4951      21.8760       0.0536       2.5620
   2017.3184       8.9269     131.8093      33.2986    -999.2500     673.2913    2616.5498      22.0859       0.0562       2.4915
   2017.4708       8.8310     125.3970      32.8930    -999.2500     526.9620     749.4620      22.2950       0.0573       2.4210
   2017.6232       8.7489     127.4026      32.7729    -999.2500     448.0661     484.1596      22.9670       0.0562       2.4315
   2017.7756       8.6670     129.4140      32.6530    -999.2500     369.3230     219.3710      23.6360       0.0530       2.4420
   2017.9280       8.6670     122.7410      31.9959    -999.2500     382.9488     171.2329      28.7653       0.0479       2.4930
   2018.0804       8.6670     116.0480      31.3400    -999.2500     396.5500     123.1820      33.8690       0.0420       2.5440
   2018.2328       8.6670      87.9152      30.1816    -999.2500     444.2012      98.2415      68.4809       0.0363       2.6071
   2018.3853       8.6670      59.7170      29.0260    -999.2500     491.7720      73.3430     102.9240       0.0327       2.6700
   2018.5376       8.6670      63.2496      29.4802    -999.2500     539.2240      75.9330      63.8601       0.0329       2.6930
   2018.6899       8.6670      66.7880      29.9330    -999.2500     586.6020      78.5190      24.9820       0.0356       2.7160
   2018.8424       8.6670      76.0223      30.8940    -999.2500     573.5692      77.7334      44.1499       0.0391       2.7275
   2018.9948       8.6670      85.2730      31.8520    -999.2500     560.5550      76.9490      63.2290       0.0429       2.7390
   2019.1472       8.6670      96.1777      32.7047    -999.2500     573.1503      82.0854      62.3089       0.0459       2.7380
   2019.2996       8.6670     107.1030      33.5550    -999.2500     585.7290      87.2150      61.3930       0.0483       2.7370
   2019.4520       8.6670     116.1723      33.9410    -999.2500     529.1825      81.9648      45.0387       0.0502       2.7325
   2019.6044       8.6670     125.2600      34.3260    -999.2500     472.7030      76.7250      28.7560       0.0537       2.7280
   2019.7568       8.6730     130.2362      34.5027    -999.2500     371.6745      59.3359      21.2711       0.0611       2.7180
   2019.9092       8.6790     135.2230      34.6790    -999.2500     270.7530      41.9930      13.8180       0.0738       2.7080
   2020.0616       8.7080     136.6968      34.6590    -999.2500     203.7457      30.7052      12.5143       0.0929       2.6640
   2020.2140       8.7370     138.1740      34.6390    -999.2500     136.8010      19.4460      11.2160       0.1166       2.6200
   2020.3665       8.7955     138.6599      33.7094    -999.2500     136.9396      15.3361       9.7972       0.1429       2.5560
   2020.5188       8.8540     139.1470      32.7820    -999.2500     137.0780      11.2360       8.3840       0.1684       2.4920
   2020.6711       8.9600     139.2953      30.9089    -999.2500     144.8056      11.6775       7.0579       0.1900       2.4370
   2020.8236       9.0660     139.4440      29.0400    -999.2500     152.5280      12.1180       5.7370       0.2062       2.3820
   2020.9760       9.2506     139.4440      29.5205    -999.2500     161.0258      13.3984       6.4719       0.2159       2.3910
   2021.1284       9.4350     139.4440      30.0000    -999.2500     169.5120      14.6760       7.2040       0.2189       2.4000
   2021.2808       9.3990     139.4884      29.9109    -999.2500     173.6012      16.0319      11.7312       0.2152       2.4280
   2021.4332       9.3630     139.5330      29.8220    -999.2500     177.6820      17.3850      16.2420       0.2053       2.4560
   2021.5856       9.2924     139.6758      29.3816    -999.2500     199.9697      19.3349      14.5729       0.1897       2.4875
   2021.7380       9.2220     139.8190      28.9420    -999.2500     222.2150      21.2810      12.9110       0.1729       2.5190
   2021.8904       9.2440     139.9094      28.3595    -999.2500     220.6751      23.0256      11.3847       0.1600       2.5065
   2022.0428       9.2660     140.0000      27.7780    -999.2500     219.1380      24.7670       9.8660       0.1528       2.4940
   2022.1952       9.3526     140.0000      27.7780    -999.2500     209.8153      26.2017       8.5744       0.1535       2.4700
   2022.3477       9.4390     140.0000      27.7780    -999.2500     200.5080      27.6340       7.2890       0.1590       2.4460
   2022.5000       9.4250     140.0000      26.6653    -999.2500     217.9628      34.5748       8.4407       0.1662       2.4330
