#------------------------------------------------------------------------------
#
#   Created by  : [OpenWorks] Log Export Utility (LEXP)
#   Created on  : 2016-05-19 16:57:42
#   Project     : CANT971
#   User        : R5K
#   Interpreter : PEP
#
#------------------------------------------------------------------------------
~VERSION INFORMATION
VERS. 2.0 : CWLS Log ASCII Standard - version 2.0
WRAP.  NO : One line per depth step
~WELL INFORMATION
#MNEMONIC   .UNIT                                           VALUE :DESCRIPTION
#------------------------------------------------------------------------------
STRT        .M                                           501.3956 :START DEPTH
STOP        .M                                          2574.3403 :STOP DEPTH
STEP        .M                                             0.1524 :STEP
NULL        .                                           -999.2500 :NULL VALUE
COMP        .                                   PEMEX EXPL & PROD :COMPANY
WELL        .                                                 239 :WELL
FLD         .                                           CANTARELL :FIELD
LOC         .                                             UNKNOWN :LOCATION
CNTY        .                                      CD. DEL CARMEN :COUNTY
STAT        .                                            CAMPECHE :STATE
CTRY        .                                              MEXICO :COUNTRY
SRVC        .                                             UNKNOWN :SERVICE COMPANY
DATE        .                                             UNKNOWN :LOG DATE
UWI         .                                          3060000480 :UNIQUE WELL ID
XCOORD      .                                       596453.420000 :SURFACE X
YCOORD      .                                      2145877.560000 :SURFACE Y
LAT         .                                           19.405976 :LATITUDE
LON         .                                          -92.081371 :LONGITUDE
ELEV        .M                                            27.4000 :SURFACE ELEV
ELEV_TYPE   .                                                  KB :ELEV TYPE
~CURVE INFORMATION
#MNEMONIC.UNIT        API CODE       : CURVE DESCRIPTION
#------------------------------------------------------------------------------
DEPTH    .M                          : Measured Depth
CALI     .inches      UNKNOWN        : CALI:Import:rC:NONE:v0 (auto-composite)
DT       .us/ft       UNKNOWN        : DT:Import:rC:NONE:v0 (auto-composite)
GR       .API         UNKNOWN        : GR:Import:rC:NONE:v0 (auto-composite)
ILD      .ohm.m       UNKNOWN        : ILD:Import:rC:NONE:v0 (auto-composite)
LLD      .ohm.m       UNKNOWN        : LLD:Import:rC:NONE:v0 (auto-composite)
LLS      .ohm.m       UNKNOWN        : LLS:Import:rC:NONE:v0 (auto-composite)
MSFL     .ohm.m       UNKNOWN        : MSFL:Import:rC:NONE:v0 (auto-composite)
NPHI     .v/v_decimal UNKNOWN        : NPHI:Import:rC:NONE:v0 (auto-composite)
RHOB     .g/cm3       UNKNOWN        : RHOB:Import:rC:NONE:v0 (auto-composite)
~A     DEPTH         CALI           DT           GR          ILD          LLD          LLS         MSFL         NPHI         RHOB
# ...
   2561.2339       9.2290      53.4180      46.6490    -999.2500     209.8630     156.8010     198.0990       0.0868       2.7390
   2561.3865       9.2255      52.4321      46.5499    -999.2500     148.6303     162.7368     189.0464       0.0828       2.7300
   2561.5388       9.2220      51.4460      46.4510    -999.2500      87.6760     168.6550     180.0350       0.0798       2.7210
   2561.6912       9.2220      52.4238      45.5698    -999.2500      76.7258     122.0001     174.0493       0.0839       2.7225
   2561.8435       9.2220      53.4020      44.6910    -999.2500      65.8240      75.4770     168.0900       0.0886       2.7240
   2561.9961       9.2220      54.4532      43.6563    -999.2500      77.2375      72.4510     120.4491       0.0901       2.7235
   2562.1484       9.2220      55.5050      42.6260    -999.2500      88.6020      69.4380      73.0130       0.0905       2.7230
   2562.3008       9.2220      55.1101      43.8496    -999.2500      97.3102      77.6100      84.2945       0.0865       2.7295
   2562.4531       9.2220      54.7150      45.0680    -999.2500     105.9820      85.7480      95.5290       0.0820       2.7360
   2562.6057       9.2220      54.0043      43.6817    -999.2500     101.3321      94.3088      88.7839       0.0792       2.7235
   2562.7581       9.2220      53.2930      42.3010    -999.2500      96.7010     102.8350      82.0660       0.0772       2.7110
   2562.9104       9.2220      53.4324      43.1141    -999.2500      86.2966      97.9815      87.4674       0.0785       2.7025
   2563.0627       9.2220      53.5720      43.9240    -999.2500      75.9330      93.1470      92.8390       0.0807       2.6940
   2563.2151       9.2220      54.9853      44.4595    -999.2500      67.5641      77.8545      64.8952       0.0851       2.6900
   2563.3677       9.2220      56.4000      44.9930    -999.2500      59.2270      62.6200      37.1020       0.0892       2.6860
   2563.5200       9.2220      56.2081      43.9416    -999.2500      51.8842      54.7561      44.1440       0.0899       2.6935
   2563.6724       9.2220      56.0160      42.8940    -999.2500      44.5800      46.9210      51.1490       0.0900       2.7010
   2563.8247       9.2220      56.5556      42.5654    -999.2500      37.6477      41.2409      70.3619       0.0900       2.7185
   2563.9773       9.2220      57.0950      42.2380    -999.2500      30.7510      35.5810      89.4760       0.0900       2.7360
   2564.1296       9.1664      57.2155      38.7510    -999.2500      34.8784      41.2943      92.8379       0.0900       2.7495
   2564.2820       9.1110      57.3360      35.2760    -999.2500      38.9850      46.9880      96.1830       0.0900       2.7630
   2564.4343       9.1316      56.4820      47.4661    -999.2500      40.3398      45.7334      95.2312       0.0900       2.7580
   2564.5869       9.1520      55.6280      59.6160    -999.2500      41.6880      44.4830      94.2840       0.0900       2.7530
   2564.7393       9.1871      56.4590      75.0209    -999.2500      43.7259      29.2083      74.8542       0.0900       2.7264
   2564.8916       9.2220      57.2900      90.3770    -999.2500      45.7540      13.9820      55.5170       0.0900       2.7000
   2565.0439       9.1769      57.9704      94.2494    -999.2500      47.7221       8.1201      53.9439       0.0900       2.6855
   2565.1963       9.1320      58.6510      98.1100    -999.2500      49.6810       2.2760      52.3780       0.0900       2.6710
   2565.3489       9.1771      59.0234      99.0399    -999.2500      49.9601       1.2365      65.8970       0.0900       2.6610
   2565.5012       9.2220      59.3960      99.9670    -999.2500      50.2380       0.2000      79.3550       0.0900       2.6510
   2565.6536       9.2085      57.9958      99.9835    -999.2500      49.9338       0.2000      88.5377       0.0900       2.6710
   2565.8059       9.1950      56.5950     100.0000    -999.2500      49.6310       0.2000      97.6800       0.0900       2.6910
   2565.9585       9.1790      54.5580    -999.2500    -999.2500      49.2622    -999.2500     125.8346       0.0900       2.7090
   2566.1108       9.1630      52.5200    -999.2500    -999.2500      48.8950    -999.2500     153.8690       0.0900       2.7270
   2566.2632       9.1926      52.5600    -999.2500    -999.2500      49.5574    -999.2500     149.6879       0.0900       2.7405
   2566.4155       9.2220      52.6000    -999.2500    -999.2500      50.2170    -999.2500     145.5240       0.0882       2.7540
   2566.5681       9.1729      61.7994    -999.2500    -999.2500      50.2275    -999.2500     141.6963       0.0723       2.7575
   2566.7205       9.1240      71.0060    -999.2500    -999.2500      50.2380    -999.2500     137.8840       0.0545       2.7610
   2566.8728       9.0498      91.2188    -999.2500    -999.2500      50.2380    -999.2500     111.4204       0.0361       2.7389
   2567.0251       8.9760     111.4500    -999.2500    -999.2500      50.2380    -999.2500      85.1020       0.0183       2.7170
   2567.1775       8.8592     122.3694    -999.2500    -999.2500      50.2380    -999.2500      86.4230       0.0051       2.7005
   2567.3301       8.7430     133.3000    -999.2500    -999.2500      50.2380    -999.2500      87.7370      -0.0073       2.6840
   2567.4824       8.6748     136.2748    -999.2500    -999.2500      50.2380    -999.2500      88.3682      -0.0176       2.6740
   2567.6348       8.6070     139.2530    -999.2500    -999.2500      50.2380    -999.2500      88.9960      -0.0218       2.6640
   2567.7871       8.5388    -999.2500    -999.2500    -999.2500      50.2380    -999.2500      62.9139       0.0238       2.6304
   2567.9397       8.4710    -999.2500    -999.2500    -999.2500      50.2380    -999.2500      36.9650       0.0800       2.5970
   2568.0920       8.4575    -999.2500    -999.2500    -999.2500      50.2380    -999.2500      32.1304       0.1760       2.5684
   2568.2444       8.4440    -999.2500    -999.2500    -999.2500      50.2380    -999.2500      27.3200       0.2717       2.5400
   2568.3967       8.3773    -999.2500    -999.2500    -999.2500      50.2380    -999.2500      26.3216       0.3275       2.5195
   2568.5493       8.3110    -999.2500    -999.2500    -999.2500      50.2380    -999.2500      25.3280       0.3756       2.4990
   2568.7017       8.2664    -999.2500    -999.2500    -999.2500      50.2380    -999.2500      24.0795       0.4007       2.4925
   2568.8540       8.2220    -999.2500    -999.2500    -999.2500      50.2380    -999.2500      22.8370       0.4220       2.4860
   2569.0063       8.2220    -999.2500    -999.2500    -999.2500      50.2380    -999.2500      22.4952       0.4341       2.5081
   2569.1587       8.2220    -999.2500    -999.2500    -999.2500      50.2380    -999.2500      22.1550       0.4443       2.5300
   2569.3113       8.2220    -999.2500    -999.2500    -999.2500      50.2380    -999.2500      22.1550       0.4476       2.5255
   2569.4636       8.2220    -999.2500    -999.2500    -999.2500      50.2380    -999.2500      22.1550       0.4498       2.5210
   2569.6160       8.2220    -999.2500    -999.2500    -999.2500      42.2711    -999.2500      22.7378       0.4500       2.5145
   2569.7683       8.2220    -999.2500    -999.2500    -999.2500      34.3390    -999.2500      23.3180       0.4500       2.5080
   2569.9209       8.2220    -999.2500    -999.2500    -999.2500      17.8285    -999.2500      23.3175       0.4500       2.4900
   2570.0732       8.2220    -999.2500    -999.2500    -999.2500       1.3880    -999.2500      23.3170       0.4500       2.4720
   2570.2256       8.2220    -999.2500    -999.2500    -999.2500       0.8474    -999.2500      22.7348       0.4500       2.4920
   2570.3779       8.2220    -999.2500    -999.2500    -999.2500       0.3090    -999.2500      22.1550       0.4500       2.5120
   2570.5305       8.2220    -999.2500    -999.2500    -999.2500       0.2669    -999.2500      22.1550       0.4500       2.6017
