#------------------------------------------------------------------------------
#
#   Created by  : [OpenWorks] Log Export Utility (LEXP)
#   Created on  : 2016-05-19 16:57:42
#   Project     : CANT971
#   User        : R5K
#   Interpreter : PEP
#
#------------------------------------------------------------------------------
~VERSION INFORMATION
VERS. 2.0 : CWLS Log ASCII Standard - version 2.0
WRAP.  NO : One line per depth step
~WELL INFORMATION
#MNEMONIC   .UNIT                                           VALUE :DESCRIPTION
#------------------------------------------------------------------------------
STRT        .M                                           501.3956 :START DEPTH
STOP        .M                                          2574.3403 :STOP DEPTH
STEP        .M                                             0.1524 :STEP
NULL        .                                           -999.2500 :NULL VALUE
COMP        .                                   PEMEX EXPL & PROD :COMPANY
WELL        .                                                 239 :WELL
FLD         .                                           CANTARELL :FIELD
LOC         .                                             UNKNOWN :LOCATION
CNTY        .                                      CD. DEL CARMEN :COUNTY
STAT        .                                            CAMPECHE :STATE
CTRY        .                                              MEXICO :COUNTRY
SRVC        .                                             UNKNOWN :SERVICE COMPANY
DATE        .                                             UNKNOWN :LOG DATE
UWI         .                                          3060000480 :UNIQUE WELL ID
XCOORD      .                                       596453.420000 :SURFACE X
YCOORD      .                                      2145877.560000 :SURFACE Y
LAT         .                                           19.405976 :LATITUDE
LON         .                                          -92.081371 :LONGITUDE
ELEV        .M                                            27.4000 :SURFACE ELEV
ELEV_TYPE   .                                                  KB :ELEV TYPE
~CURVE INFORMATION
#MNEMONIC.UNIT        API CODE       : CURVE DESCRIPTION
#------------------------------------------------------------------------------
DEPTH    .M                          : Measured Depth
CALI     .inches      UNKNOWN        : CALI:Import:rC:NONE:v0 (auto-composite)
DT       .us/ft       UNKNOWN        : DT:Import:rC:NONE:v0 (auto-composite)
GR       .API         UNKNOWN        : GR:Import:rC:NONE:v0 (auto-composite)
ILD      .ohm.m       UNKNOWN        : ILD:Import:rC:NONE:v0 (auto-composite)
LLD      .ohm.m       UNKNOWN        : LLD:Import:rC:NONE:v0 (auto-composite)
LLS      .ohm.m       UNKNOWN        : LLS:Import:rC:NONE:v0 (auto-composite)
MSFL     .ohm.m       UNKNOWN        : MSFL:Import:rC:NONE:v0 (auto-composite)
NPHI     .v/v_decimal UNKNOWN        : NPHI:Import:rC:NONE:v0 (auto-composite)
RHOB     .g/cm3       UNKNOWN        : RHOB:Import:rC:NONE:v0 (auto-composite)
~A     DEPTH         CALI           DT           GR          ILD          LLD          LLS         MSFL         NPHI         RHOB
# ...
   2381.7068       9.4440      83.4190      32.8630    -999.2500     618.0710     524.7860     177.7930       0.0868       2.5460
   2381.8591       9.4525      82.7315      32.6146    -999.2500     358.0379     315.3107      99.2980       0.0871       2.5545
   2382.0117       9.4610      82.0430      32.3670    -999.2500      98.8460     106.5130      21.1820       0.0847       2.5630
   2382.1641       9.5086      78.0034      30.6388    -999.2500     106.0417     191.4219      86.9197       0.0692       2.6151
   2382.3164       9.5560      73.9570      28.9160    -999.2500     113.2150     276.0670     152.3480       0.0538       2.6670
   2382.4688       9.5560      71.9467      26.1203    -999.2500     273.9268     275.2067     151.8459       0.0529       2.6995
   2382.6211       9.5560      69.9360      23.3330    -999.2500     434.1590     274.3490     151.3460       0.0533       2.7320
   2382.7737       9.5495      61.6594      23.3976    -999.2500     432.4340     267.4236      86.1613       0.0525       2.7455
   2382.9260       9.5430      53.3800      23.4620    -999.2500     430.7140     260.5180      21.2670       0.0510       2.7590
   2383.0784       9.4934      53.6049      23.9537    -999.2500     409.8144     236.0821      77.3058       0.0441       2.7770
   2383.2307       9.4440      53.8300      24.4440    -999.2500     388.9720     211.7130     133.1020       0.0373       2.7950
   2383.3833       9.4440      53.5426      24.2528    -999.2500     425.4803     217.6542      98.4136       0.0367       2.7905
   2383.5356       9.4440      53.2550      24.0620    -999.2500     461.8350     223.5800      63.8710       0.0368       2.7860
   2383.6880       9.4440      51.3907      24.5376    -999.2500     808.5313     277.7413      67.8085       0.0377       2.7599
   2383.8403       9.4440      49.5250      25.0120    -999.2500    1153.8140     331.7680      71.7300       0.0385       2.7340
   2383.9929       9.4440      50.3731      27.9618    -999.2500    1251.6100     534.6916     128.5253       0.0377       2.7370
   2384.1453       9.4440      51.2220      30.9000    -999.2500    1349.0190     737.1370     185.0960       0.0368       2.7400
   2384.2976       9.4440      51.1460      33.9764    -999.2500    1517.2300     713.9572     128.4082       0.0367       2.7580
   2384.4500       9.4440      51.0700      37.0410    -999.2500    1684.7970     690.8290      72.0280       0.0367       2.7760
   2384.6023       9.4535      50.5353      42.3814    -999.2500    1657.6853     522.0323      76.7701       0.0372       2.7875
   2384.7549       9.4630      50.0000      47.7020    -999.2500    1630.6740     353.8610      81.4870       0.0380       2.7990
   2384.9072       9.5096      50.0000      47.2617    -999.2500    1465.0938     382.3880     164.0953       0.0410       2.7955
   2385.0596       9.5560      50.0000      46.8230    -999.2500    1300.1060     410.8130     246.2760       0.0440       2.7920
   2385.2119       9.5515      50.0220      43.6064    -999.2500    1080.1670     398.4752     243.0378       0.0460       2.7514
   2385.3645       9.5470      50.0440      40.4010    -999.2500     860.9880     386.1800     239.8160       0.0479       2.7110
   2385.5168       9.4954      50.1779      32.3757    -999.2500     656.5329     320.4181     223.2763       0.0492       2.7130
   2385.6692       9.4440      50.3120      24.3770    -999.2500     452.7580     254.8750     206.8180       0.0506       2.7150
   2385.8215       9.4440      51.1868      25.3641    -999.2500     285.4169     172.9232     194.5912       0.0534       2.7295
   2385.9741       9.4440      52.0630      26.3480    -999.2500     118.6120      91.2340     182.4230       0.0560       2.7440
   2386.1265       9.4440      51.8177      26.2198    -999.2500     131.7142     109.0118     135.3259       0.0557       2.7430
   2386.2788       9.4440      51.5720      26.0920    -999.2500     144.7760     126.7350      88.4490       0.0548       2.7420
   2386.4312       9.4440      49.7692      25.0244    -999.2500     611.3156     499.7890     158.8165       0.0514       2.7455
   2386.5835       9.4440      47.9660      23.9600    -999.2500    1076.4771     871.7410     228.8640       0.0476       2.7490
   2386.7361       9.4440      48.3044      21.7308    -999.2500    1017.0926     563.5029     223.1509       0.0422       2.7790
   2386.8884       9.4440      48.6430      19.5080    -999.2500     957.8760     256.1360     217.4630       0.0372       2.8090
   2387.0408       9.4440      48.5880      20.1849    -999.2500     701.0418     259.7248     184.9792       0.0367       2.8065
   2387.1931       9.4440      48.5330      20.8600    -999.2500     444.9020     263.3040     152.6350       0.0367       2.8040
   2387.3457       9.4440      47.6048      20.4340    -999.2500     464.8431     291.3166     181.3720       0.0367       2.7905
   2387.4980       9.4440      46.6760      20.0090    -999.2500     484.7010     319.2570     209.9890       0.0367       2.7770
   2387.6504       9.4400      46.9069      20.0711    -999.2500     632.8738     377.6581     208.1337       0.0369       2.7685
   2387.8027       9.4360      47.1380      20.1330    -999.2500     780.4470     435.9160     206.2860       0.0374       2.7600
   2387.9551       9.4009      48.2860      21.9736    -999.2500    1176.9626     471.0799     183.0354       0.0399       2.7560
   2388.1077       9.3660      49.4350      23.8070    -999.2500    1571.9220     506.1620     159.8760       0.0434       2.7520
   2388.2600       9.2874      50.2416      23.8000    -999.2500    1564.9703     741.8680     171.8714       0.0522       2.7370
   2388.4124       9.2090      51.0490      23.7930    -999.2500    1558.0450     977.0550     183.8020       0.0619       2.7220
   2388.5647       9.1599      58.1645      23.5470    -999.2500    1451.2733     921.1543     159.5777       0.0738       2.6834
   2388.7173       9.1110      65.2880      23.3020    -999.2500    1344.8940     865.4590     135.4810       0.0869       2.6450
   2388.8696       9.1220      58.5257      22.2932    -999.2500     859.0004     553.4617      71.5581       0.1077       2.6114
   2389.0220       9.1330      51.7550      21.2880    -999.2500     374.8300     242.5710       7.9640       0.1269       2.5780
   2389.1743       9.2497      52.0048      21.7268    -999.2500     405.9237     259.9478      10.5174       0.1274       2.5910
   2389.3269       9.3660      52.2550      22.1640    -999.2500     436.9110     277.2650      13.0580       0.1241       2.6040
   2389.4792       9.3625      55.5775      25.0978    -999.2500     699.5198     581.3787      74.8387       0.1119       2.6771
   2389.6316       9.3590      58.9050      28.0220    -999.2500     961.2630     884.4900     136.3170       0.0976       2.7500
   2389.7839       9.2904      58.4928      33.1366    -999.2500    1363.7186     857.9999     226.5290       0.0772       2.7500
   2389.9363       9.2220      58.0800      38.2350    -999.2500    1764.8970     831.5940     316.3110       0.0573       2.7500
   2390.0889       9.2220      55.8994      41.4193    -999.2500    1634.6902     899.8810     350.5129       0.0463       2.7340
   2390.2412       9.2220      53.7150      44.5940    -999.2500    1504.8800     967.9600     384.5560       0.0379       2.7180
   2390.3936       9.2220      51.2104      45.1688    -999.2500    1083.0404     902.5820     373.2179       0.0377       2.7225
   2390.5459       9.2220      48.7050      45.7420    -999.2500     662.4340     837.3950     361.9310       0.0392       2.7270
   2390.6985       9.2220      48.9270      45.7070    -999.2500     489.9600     526.5515     305.9465       0.0444       2.7480
   2390.8508       9.2220      49.1490      45.6720    -999.2500     318.2440     216.5770     250.2080       0.0493       2.7690
   2391.0032       9.2220      50.0733      44.8679    -999.2500     325.0109     219.4829     201.8298       0.0494       2.7840
