#------------------------------------------------------------------------------
#
#   Created by  : [OpenWorks] Log Export Utility (LEXP)
#   Created on  : 2016-05-19 16:57:42
#   Project     : CANT971
#   User        : R5K
#   Interpreter : PEP
#
#------------------------------------------------------------------------------
~VERSION INFORMATION
VERS. 2.0 : CWLS Log ASCII Standard - version 2.0
WRAP.  NO : One line per depth step
~WELL INFORMATION
#MNEMONIC   .UNIT                                           VALUE :DESCRIPTION
#------------------------------------------------------------------------------
STRT        .M                                           501.3956 :START DEPTH
STOP        .M                                          2574.3403 :STOP DEPTH
STEP        .M                                             0.1524 :STEP
NULL        .                                           -999.2500 :NULL VALUE
COMP        .                                   PEMEX EXPL & PROD :COMPANY
WELL        .                                                 239 :WELL
FLD         .                                           CANTARELL :FIELD
LOC         .                                             UNKNOWN :LOCATION
CNTY        .                                      CD. DEL CARMEN :COUNTY
STAT        .                                            CAMPECHE :STATE
CTRY        .                                              MEXICO :COUNTRY
SRVC        .                                             UNKNOWN :SERVICE COMPANY
DATE        .                                             UNKNOWN :LOG DATE
UWI         .                                          3060000480 :UNIQUE WELL ID
XCOORD      .                                       596453.420000 :SURFACE X
YCOORD      .                                      2145877.560000 :SURFACE Y
LAT         .                                           19.405976 :LATITUDE
LON         .                                          -92.081371 :LONGITUDE
ELEV        .M                                            27.4000 :SURFACE ELEV
ELEV_TYPE   .                                                  KB :ELEV TYPE
~CURVE INFORMATION
#MNEMONIC.UNIT        API CODE       : CURVE DESCRIPTION
#------------------------------------------------------------------------------
DEPTH    .M                          : Measured Depth
CALI     .inches      UNKNOWN        : CALI:Import:rC:NONE:v0 (auto-composite)
DT       .us/ft       UNKNOWN        : DT:Import:rC:NONE:v0 (auto-composite)
GR       .API         UNKNOWN        : GR:Import:rC:NONE:v0 (auto-composite)
ILD      .ohm.m       UNKNOWN        : ILD:Import:rC:NONE:v0 (auto-composite)
LLD      .ohm.m       UNKNOWN        : LLD:Import:rC:NONE:v0 (auto-composite)
LLS      .ohm.m       UNKNOWN        : LLS:Import:rC:NONE:v0 (auto-composite)
MSFL     .ohm.m       UNKNOWN        : MSFL:Import:rC:NONE:v0 (auto-composite)
NPHI     .v/v_decimal UNKNOWN        : NPHI:Import:rC:NONE:v0 (auto-composite)
RHOB     .g/cm3       UNKNOWN        : RHOB:Import:rC:NONE:v0 (auto-composite)
~A     DEPTH         CALI           DT           GR          ILD          LLD          LLS         MSFL         NPHI         RHOB
# ...
   1918.7156       9.2220      59.2490      54.4760    -999.2500     248.4560     270.7470     346.8690       0.0818       2.6910
   1918.8680       9.1665      58.2366      54.5962    -999.2500     277.2011     310.9607     234.9890       0.0805       2.7210
   1919.0204       9.1110      57.2220      54.7160    -999.2500     305.9180     351.1350     123.5760       0.0809       2.7510
   1919.1729       9.1110      57.2220      55.9445    -999.2500     274.6361     348.0209     124.0986       0.0830       2.7505
   1919.3252       9.1110      57.2220      57.1700    -999.2500     243.3810     344.9120     124.6190       0.0853       2.7500
   1919.4775       9.1075      57.0492      57.6145    -999.2500     243.9297     266.2975     132.3988       0.0884       2.7430
   1919.6300       9.1040      56.8760      58.0580    -999.2500     244.4780     187.8660     140.1480       0.0914       2.7360
   1919.7823       9.0520      57.0003      58.5971    -999.2500     242.6685     206.3684     139.2032       0.0928       2.7175
   1919.9348       9.0000      57.1250      59.1350    -999.2500     240.8600     224.8300     138.2620       0.0945       2.6990
   1920.0872       9.0000      58.4212      61.1381    -999.2500     213.8306     206.2202     109.7276       0.0994       2.6895
   1920.2396       9.0000      59.7210      63.1370    -999.2500     186.8140     187.6490      81.2980       0.1068       2.6800
   1920.3920       9.0015      69.7627      62.9673    -999.2500     203.0714     207.7376     119.3470       0.1325       2.5940
   1920.5444       9.0030      79.8330      62.7980    -999.2500     219.3230     227.7870     157.2610       0.1576       2.5080
   1920.6968       9.0210      79.4091      61.2040    -999.2500    3240.2966    3445.7502     153.9450       0.1600       2.5100
   1920.8492       9.0390      78.9840      59.6130    -999.2500    6260.5869    6657.8359     150.6430       0.1593       2.5120
   1921.0016       9.1145      71.8276      59.1311    -999.2500    6197.1328    6636.7979     120.3614       0.1550       2.5800
   1921.1541       9.1900      64.6490      58.6500    -999.2500    6133.6851    6615.7959      90.2280       0.1489       2.6480
   1921.3064       9.1865      68.0345      56.5840    -999.2500    5044.2915    6094.2549      92.4182       0.1304       2.6480
   1921.4587       9.1830      71.4310      54.5230    -999.2500    3955.7429    5573.5361      94.5980       0.1125       2.6480
   1921.6112       9.1495      71.0566      54.6933    -999.2500    2017.5400    3719.4551     130.8211       0.1106       2.6420
   1921.7635       9.1160      70.6810      54.8630    -999.2500      82.1480    1868.0630     166.8760       0.1110       2.6360
   1921.9160       9.0580      66.3843      57.0257    -999.2500      84.1648    1312.6095     164.7417       0.1125       2.6380
   1922.0684       9.0000      62.0760      59.1820    -999.2500      86.1790     757.8920     162.6170       0.1141       2.6400
   1922.2208       9.0000      62.3198      66.1437    -999.2500     145.2950     921.2264     143.7255       0.1154       2.6550
   1922.3732       9.0000      62.5640      73.0860    -999.2500     204.3400    1084.3650     124.9170       0.1165       2.6700
   1922.5256       9.0000      64.7562      82.6388    -999.2500     203.3325  102422.8828     125.6100       0.1167       2.6945
   1922.6780       9.0000      66.9530      92.1660    -999.2500     202.3260  203652.5625     126.3000       0.1167       2.7190
   1922.8304       9.0000      69.0057      95.8892    -999.2500     183.3550  192111.2969     144.4797       0.1174       2.7175
   1922.9828       9.0000      71.0630      99.6030    -999.2500     164.4020  180590.2188     162.5840       0.1187       2.7160
   1923.1353       9.0000      70.8722      99.8017    -999.2500     193.3854   97847.8125     159.9532       0.1241       2.6740
   1923.2876       9.0000      70.6810     100.0000    -999.2500     222.3450   15305.8467     157.3330       0.1297       2.6320
   1923.4399       9.0000      71.4146      99.7757    -999.2500     216.0743   15384.2305     133.2907       0.1330       2.6325
   1923.5924       9.0000      72.1500      99.5520    -999.2500     209.8080   15462.4336     109.3420       0.1357       2.6330
   1923.7448       9.0000      81.3409      96.8165    -999.2500     159.9442   20652.3496      70.6020       0.1359       2.6355
   1923.8972       9.0000      90.5560      94.0870    -999.2500     110.1090   25830.9941      32.0080       0.1356       2.6380
   1924.0496       9.0000      89.4905      85.6834    -999.2500     112.6816   24502.8711      33.9085       0.1337       2.6420
   1924.2020       9.0000      88.4220      77.2970    -999.2500     115.2530   23177.4648      35.8020       0.1305       2.6460
   1924.3544       9.0000      79.7600      65.9766    -999.2500     142.4439   15629.7305      77.6253       0.1195       2.6575
   1924.5068       9.0000      71.0730      54.6780    -999.2500     169.6260    8096.4951     119.2680       0.1078       2.6690
   1924.6592       9.0020      64.7216      54.8777    -999.2500     195.5525    8295.9775     118.6234       0.0987       2.6945
   1924.8116       9.0040      58.3510      55.0770    -999.2500     221.4740    8495.1016     117.9820       0.0910       2.7200
   1924.9640       9.0245      58.6730      56.9806    -999.2500     249.7425   10393.3506     111.8235       0.0900       2.7200
   1925.1165       9.0450      58.9960      58.8810    -999.2500     278.0090   12288.4287     105.6950       0.0900       2.7200
   1925.2688       9.0780      62.0919      65.8637    -999.2500     274.3371   15039.5283      90.8533       0.0903       2.6995
   1925.4211       9.1110      65.1980      72.8300    -999.2500     270.6680   17786.3770      76.0820       0.0913       2.6790
   1925.5736       9.1110      71.7409      72.4039    -999.2500     243.6643   17188.5254      44.3328       0.0969       2.6790
   1925.7260       9.1110      78.3060      71.9790    -999.2500     216.6990   16591.5234      12.7300       0.1024       2.6790
   1925.8784       9.1095      69.6038      68.4799    -999.2500     190.1183   13103.4170      33.7777       0.1031       2.6900
   1926.0308       9.1080      60.8780      64.9910    -999.2500     163.5720    9619.8242      54.7310       0.1029       2.7010
   1926.1832       9.0540      61.8915      60.8232    -999.2500     167.3227    7768.0840      40.2494       0.1021       2.6985
   1926.3356       9.0000      62.9070      56.6670    -999.2500     171.0690    5918.5078      25.8310       0.1010       2.6960
   1926.4880       9.0000      62.8591      56.6670    -999.2500     205.6660    6087.0332      26.8827       0.0981       2.6750
   1926.6404       9.0000      62.8110      56.6670    -999.2500     240.2270    6255.3828      27.9300       0.0953       2.6540
   1926.7928       9.0000      61.2578      56.1964    -999.2500     263.0735    8139.4966      38.6380       0.0940       2.6550
   1926.9452       9.0000      59.7010      55.7270    -999.2500     285.8990   10020.3730      49.3020       0.0929       2.6560
   1927.0977       9.0000      59.7929      55.9463    -999.2500     335.6982    9466.0283      55.8280       0.0911       2.6645
   1927.2500       9.0000      59.8850      56.1650    -999.2500     385.4580    8913.0098      62.3280       0.0888       2.6730
   1927.4023       9.0020      61.0086      59.4402    -999.2500     381.5637    9085.8076      93.1666       0.0842       2.6835
   1927.5548       9.0040      62.1350      62.7080    -999.2500     377.6720    9258.2139     123.8860       0.0796       2.6940
   1927.7072       9.0230      62.0691      61.3540    -999.2500     347.3173   10805.6816     141.4293       0.0771       2.6940
   1927.8596       9.0420      62.0030      60.0030    -999.2500     316.9790   12349.8369     158.9070       0.0753       2.6940
   1928.0120       9.0765      61.1811      60.0340    -999.2500     320.1342   10070.7646     150.1261       0.0751       2.6965
