#------------------------------------------------------------------------------
#
#   Created by  : [OpenWorks] Log Export Utility (LEXP)
#   Created on  : 2016-05-19 16:57:42
#   Project     : CANT971
#   User        : R5K
#   Interpreter : PEP
#
#------------------------------------------------------------------------------
~VERSION INFORMATION
VERS. 2.0 : CWLS Log ASCII Standard - version 2.0
WRAP.  NO : One line per depth step
~WELL INFORMATION
#MNEMONIC   .UNIT                                           VALUE :DESCRIPTION
#------------------------------------------------------------------------------
STRT        .M                                           501.3956 :START DEPTH
STOP        .M                                          2574.3403 :STOP DEPTH
STEP        .M                                             0.1524 :STEP
NULL        .                                           -999.2500 :NULL VALUE
COMP        .                                   PEMEX EXPL & PROD :COMPANY
WELL        .                                                 239 :WELL
FLD         .                                           CANTARELL :FIELD
LOC         .                                             UNKNOWN :LOCATION
CNTY        .                                      CD. DEL CARMEN :COUNTY
STAT        .                                            CAMPECHE :STATE
CTRY        .                                              MEXICO :COUNTRY
SRVC        .                                             UNKNOWN :SERVICE COMPANY
DATE        .                                             UNKNOWN :LOG DATE
UWI         .                                          3060000480 :UNIQUE WELL ID
XCOORD      .                                       596453.420000 :SURFACE X
YCOORD      .                                      2145877.560000 :SURFACE Y
LAT         .                                           19.405976 :LATITUDE
LON         .                                          -92.081371 :LONGITUDE
ELEV        .M                                            27.4000 :SURFACE ELEV
ELEV_TYPE   .                                                  KB :ELEV TYPE
~CURVE INFORMATION
#MNEMONIC.UNIT        API CODE       : CURVE DESCRIPTION
#------------------------------------------------------------------------------
DEPTH    .M                          : Measured Depth
CALI     .inches      UNKNOWN        : CALI:Import:rC:NONE:v0 (auto-composite)
DT       .us/ft       UNKNOWN        : DT:Import:rC:NONE:v0 (auto-composite)
GR       .API         UNKNOWN        : GR:Import:rC:NONE:v0 (auto-composite)
ILD      .ohm.m       UNKNOWN        : ILD:Import:rC:NONE:v0 (auto-composite)
LLD      .ohm.m       UNKNOWN        : LLD:Import:rC:NONE:v0 (auto-composite)
LLS      .ohm.m       UNKNOWN        : LLS:Import:rC:NONE:v0 (auto-composite)
MSFL     .ohm.m       UNKNOWN        : MSFL:Import:rC:NONE:v0 (auto-composite)
NPHI     .v/v_decimal UNKNOWN        : NPHI:Import:rC:NONE:v0 (auto-composite)
RHOB     .g/cm3       UNKNOWN        : RHOB:Import:rC:NONE:v0 (auto-composite)
~A     DEPTH         CALI           DT           GR          ILD          LLD          LLS         MSFL         NPHI         RHOB
# ...
   2419.5020       8.7780      55.4630      55.5560    -999.2500      86.7530      91.3030      50.2380       0.0822       2.7120
   2419.6543       8.7780      55.7588      54.8237    -999.2500     112.6712     111.9320      66.1595       0.0854       2.7130
   2419.8069       8.7780      56.0550      54.0940    -999.2500     138.4940     132.4850      81.9970       0.0884       2.7140
   2419.9592       8.7780      55.8251      52.1921    -999.2500     129.6508     130.6167      74.5002       0.0899       2.7200
   2420.1116       8.7780      55.5950      50.2970    -999.2500     120.8390     128.7550      67.0420       0.0911       2.7260
   2420.2639       8.7780      55.6844      51.5146    -999.2500     124.3180     119.8572      90.6999       0.0932       2.7180
   2420.4165       8.7780      55.7740      52.7280    -999.2500     127.7850     110.9900     114.2390       0.0959       2.7100
   2420.5688       8.7780      56.0273      52.6248    -999.2500     138.8703     113.5377     105.8048       0.0997       2.6915
   2420.7212       8.7780      56.2810      52.5220    -999.2500     149.9190     116.0770      97.4120       0.1035       2.6730
   2420.8735       8.7780      56.8670      50.2794    -999.2500     160.7462     138.3614     131.4151       0.1069       2.6765
   2421.0259       8.7780      57.4540      48.0440    -999.2500     171.5390     160.5750     165.2560       0.1092       2.6800
   2421.1785       8.7780      58.4521      48.7576    -999.2500     168.2986     159.0917     148.4178       0.1090       2.7070
   2421.3308       8.7780      59.4520      49.4690    -999.2500     165.0680     157.6130     131.6580       0.1086       2.7340
   2421.4832       8.7780      60.9243      52.3132    -999.2500     155.4139     150.9713      95.5599       0.1099       2.7210
   2421.6355       8.7780      62.3970      55.1490    -999.2500     145.7880     144.3490      59.6250       0.1128       2.7080
   2421.7881       8.7780      72.9894      58.7460    -999.2500     131.0972     135.4465      87.3620       0.1194       2.7105
   2421.9404       8.7780      83.5860      62.3330    -999.2500     116.4710     126.5690     114.9770       0.1253       2.7130
   2422.0928       8.7780      83.2041      65.9383    -999.2500     125.4361     120.2340     112.4446       0.1254       2.6985
   2422.2451       8.7780      82.8220      69.5340    -999.2500     134.3630     113.9160     109.9230       0.1220       2.6840
   2422.3977       8.7970      71.1543      68.6664    -999.2500     131.7601     119.8791      91.9768       0.1135       2.6895
   2422.5500       8.8160      59.4790      67.8010    -999.2500     129.1680     125.8270      74.1050       0.1053       2.6950
   2422.7024       8.8716      61.8711      64.0915    -999.2500     115.0221     115.5225      42.1432       0.1033       2.7211
   2422.8547       8.9270      64.2650      60.3910    -999.2500     100.9330     105.2430      10.3100       0.1033       2.7470
   2423.0071       8.9636      64.0241      64.2109    -999.2500      81.2521      79.1977      11.0394       0.1031       2.7400
   2423.1597       9.0000      63.7830      68.0160    -999.2500      61.6480      53.2540      11.7660       0.1026       2.7330
   2423.3120       9.0000      62.5471      67.7921    -999.2500      63.5626      55.0624      17.3460       0.1013       2.7080
   2423.4644       9.0000      61.3100      67.5690    -999.2500      65.4700      56.8640      22.8960       0.0991       2.6830
   2423.6167       8.9023      58.8134      62.5834    -999.2500      80.5109      75.7424      42.1304       0.0951       2.6840
   2423.7693       8.8050      56.3140      57.6160    -999.2500      95.4970      94.5520      61.2640       0.0917       2.6850
   2423.9216       8.8215      56.5069      58.6508    -999.2500      94.8113      92.4127      81.5890       0.0921       2.6995
   2424.0740       8.8380      56.7000      59.6820    -999.2500      94.1280      90.2810     101.8100       0.0943       2.7140
   2424.2263       8.9191      58.1580      58.8601    -999.2500      91.3478      82.9325      84.5379       0.0978       2.7060
   2424.3789       9.0000      59.6180      58.0410    -999.2500      88.5770      75.6090      67.3520       0.1012       2.6980
   2424.5312       8.9900      59.5311      55.5109    -999.2500      92.7012      78.5673      48.2580       0.1033       2.7015
   2424.6836       8.9800      59.4440      52.9890    -999.2500      96.8120      81.5160      29.2570       0.1043       2.7050
   2424.8359       8.9369      58.7106      50.6007    -999.2500     113.2128      91.9534      59.1754       0.1033       2.7025
   2424.9883       8.8940      57.9760      48.2200    -999.2500     129.5620     102.3580      88.9520       0.1009       2.7000
   2425.1409       8.8359      55.1495      46.5049    -999.2500     126.8287     114.2925      70.4578       0.0959       2.6945
   2425.2932       8.7780      52.3180      44.7950    -999.2500     124.1080     126.1910      52.0490       0.0918       2.6890
   2425.4456       8.7780      53.1334      43.1541    -999.2500     115.6575     108.6596      54.9034       0.0924       2.6905
   2425.5979       8.7780      53.9490      41.5180    -999.2500     107.2450      91.1790      57.7450       0.0951       2.6920
   2425.7505       8.7780      55.6216      42.8729    -999.2500     108.1059      92.8188      71.8774       0.0990       2.6970
   2425.9028       8.7780      57.2950      44.2240    -999.2500     108.9630      94.4540      85.9480       0.1029       2.7020
   2426.0552       8.7780      57.6019      44.0948    -999.2500     114.3199     105.0966      84.6758       0.1054       2.7085
   2426.2075       8.7780      57.9090      43.9660    -999.2500     119.6540     115.7110      83.4090       0.1066       2.7150
   2426.3601       8.7780      57.8195      43.0075    -999.2500     128.0538     150.6901      89.7891       0.1054       2.7145
   2426.5125       8.7780      57.7300      42.0530    -999.2500     136.4190     185.5810      96.1430       0.1025       2.7140
   2426.6648       8.7800      57.1182      39.5029    -999.2500     139.5417     176.5792      88.6485       0.0968       2.6975
   2426.8171       8.7820      56.5060      36.9630    -999.2500     142.6520     167.5990      81.1840       0.0918       2.6810
   2426.9695       8.8236      54.8683      37.9614    -999.2500     153.9979     150.7429      70.4016       0.0917       2.6439
   2427.1221       8.8650      53.2290      38.9560    -999.2500     165.3000     133.9520      59.6610       0.0948       2.6070
   2427.2744       8.9421      53.7392      40.7909    -999.2500     161.1783     123.6482      84.2125       0.1024       2.5825
   2427.4268       9.0190      54.2500      42.6190    -999.2500     157.0720     113.3830     108.6330       0.1165       2.5580
   2427.5791       9.1042      55.8905      43.0267    -999.2500     121.9259      91.3817      82.0217       0.1447       2.4874
   2427.7317       9.1890      57.5330      43.4330    -999.2500      86.9070      69.4600      55.5490       0.1704       2.4170
   2427.8840       9.1765      60.3462      45.5242    -999.2500      94.4131      72.9476      91.1080       0.1750       2.4415
   2428.0364       9.1640      63.1630      47.6080    -999.2500     101.8930      76.4230     126.4860       0.1700       2.4660
   2428.1887       9.1199      63.0516      47.0040    -999.2500     130.8533     112.4151      99.3798       0.1590       2.5336
   2428.3413       9.0760      62.9400      46.4020    -999.2500     159.7160     148.2860      72.4080       0.1451       2.6010
   2428.4937       9.0234      60.2616      45.0233    -999.2500     155.4200     139.3746      78.9162       0.1289       2.6546
   2428.6460       8.9710      57.5790      43.6490    -999.2500     151.1380     130.4920      85.3930       0.1143       2.7080
   2428.7983       8.8743      58.0405      42.6985    -999.2500     141.2841     114.6213      84.9394       0.1060       2.7065
