#------------------------------------------------------------------------------
#
#   Created by  : [OpenWorks] Log Export Utility (LEXP)
#   Created on  : 2016-05-19 11:01:21
#   Project     : CANT971
#   User        : R5K
#   Interpreter : PEP
#
#------------------------------------------------------------------------------
~VERSION INFORMATION
VERS. 2.0 : CWLS Log ASCII Standard - version 2.0
WRAP.  NO : One line per depth step
~WELL INFORMATION
#MNEMONIC   .UNIT                                           VALUE :DESCRIPTION
#------------------------------------------------------------------------------
STRT        .M                                          1238.0980 :START DEPTH
STOP        .M                                          2410.9685 :STOP DEPTH
STEP        .M                                             0.1524 :STEP
NULL        .                                           -999.2500 :NULL VALUE
COMP        .                                   PEMEX EXPL & PROD :COMPANY
WELL        .                                                247D :WELL
FLD         .                                           CANTARELL :FIELD
LOC         .                                             UNKNOWN :LOCATION
CNTY        .                                      CD. DEL CARMEN :COUNTY
STAT        .                                            CAMPECHE :STATE
CTRY        .                                              MEXICO :COUNTRY
SRVC        .                                             UNKNOWN :SERVICE COMPANY
DATE        .                                             UNKNOWN :LOG DATE
UWI         .                                          3060000586 :UNIQUE WELL ID
XCOORD      .                                       597310.050000 :SURFACE X
YCOORD      .                                      2143045.730000 :SURFACE Y
LAT         .                                           19.380345 :LATITUDE
LON         .                                          -92.073358 :LONGITUDE
ELEV        .M                                            27.7000 :SURFACE ELEV
ELEV_TYPE   .                                                  KB :ELEV TYPE
~CURVE INFORMATION
#MNEMONIC.UNIT        API CODE       : CURVE DESCRIPTION
#------------------------------------------------------------------------------
DEPTH    .M                          : Measured Depth
CALI     .inches      UNKNOWN        : CALI:Import:rC:NONE:v0 (auto-composite)
CGR      .API         UNKNOWN        : CGR:Import:rC:NONE:v0 (auto-composite)
DRHO     .g/cm3       UNKNOWN        : DRHO:Import:rC:NONE:v0 (auto-composite)
DT       .us/ft       UNKNOWN        : DT:Import:rC:NONE:v0 (auto-composite)
GR       .API         UNKNOWN        : GR:Import:rC:NONE:v0 (auto-composite)
ILD      .ohm.m       UNKNOWN        : ILD:Import:rC:NONE:v0 (auto-composite)
ILM      .ohm.m       UNKNOWN        : ILM:Import:rC:NONE:v0 (auto-composite)
LLD      .ohm.m       UNKNOWN        : LLD:Import:rC:NONE:v0 (auto-composite)
LLS      .ohm.m       UNKNOWN        : LLS:Import:rC:NONE:v0 (auto-composite)
MSFL     .ohm.m       UNKNOWN        : MSFL:Import:rC:NONE:v0 (auto-composite)
NPHI     .v/v_decimal UNKNOWN        : NPHI:Import:rC:NONE:v0 (auto-composite)
PEF      .b/elec      UNKNOWN        : PEF:Import:rC:NONE:v0 (auto-composite)
POTA     .wtpercent   UNKNOWN        : POTA:Import:rC:NONE:v0 (auto-composite)
RHOB     .g/cm3       UNKNOWN        : RHOB:Import:rC:NONE:v0 (auto-composite)
SP       .mV          UNKNOWN        : SP:Import:rC:NONE:v0 (auto-composite)
THOR     .ppm         UNKNOWN        : THOR:Import:rC:NONE:v0 (auto-composite)
URAN     .ppm         UNKNOWN        : URAN:Import:rC:NONE:v0 (auto-composite)
~A     DEPTH         CALI          CGR         DRHO           DT           GR          ILD          ILM          LLD          LLS         MSFL         NPHI          PEF         POTA         RHOB           SP         THOR         URAN
# ...
   2336.9021       7.5140       0.4100       0.0220      58.0700      37.6930    -999.2500    -999.2500     723.4960     545.7430      49.6560       0.0645       3.2200       0.0002       2.7960    -299.2930       0.0240       4.1170
   2337.0544       7.4406       0.4779       0.0225      58.7174      46.5071    -999.2500    -999.2500     756.0819     571.8425     103.1838       0.0619       3.0547       0.0002       2.7625    -305.8226       0.0255       5.0923
   2337.2068       7.3670       0.5460       0.0230      59.3670      55.3520    -999.2500    -999.2500     788.7290     597.9910     156.8120       0.0650       2.8890       0.0002       2.7290    -312.3750       0.0270       6.0710
   2337.3591       7.3775       0.5450       0.0280      61.3300      54.5744    -999.2500    -999.2500    1067.0791     866.2446     146.4689       0.0661       2.8935       0.0002       2.7455    -312.2857       0.0415       5.9852
   2337.5117       7.3880       0.5440       0.0330      63.3000      53.7940    -999.2500    -999.2500    1345.9871    1135.0360     136.1050       0.0651       2.8980       0.0002       2.7620    -312.1960       0.0560       5.8990
   2337.6641       7.4529       0.5255       0.0320      63.0575      47.1799    -999.2500    -999.2500    1436.1975    1127.9102      92.2242       0.0621       3.1862       0.0002       2.7615    -311.4294       0.0295       5.1759
   2337.8164       7.5180       0.5070       0.0310      62.8140      40.5410    -999.2500    -999.2500    1526.6000    1120.7690      48.2500       0.0594       3.4750       0.0002       2.7610    -310.6600       0.0030       4.4500
   2337.9688       7.5250       0.4267       0.0250      56.5691      40.9935    -999.2500    -999.2500    1519.7297    1079.5845      56.5531       0.0587       3.4455       0.0002       2.7245    -309.1962       0.0030       4.5004
   2338.1213       7.5320       0.3460       0.0190      50.3000      41.4470    -999.2500    -999.2500    1512.8440    1038.3070      64.8750       0.0612       3.4160       0.0002       2.6880    -307.7290       0.0030       4.5510
   2338.2737       7.6174       0.3480      -0.0070      50.6029      45.0008    -999.2500    -999.2500    1210.3105     724.6883      64.2282       0.0682       2.8901       0.0002       2.2495    -305.3049       0.0040       4.9437
   2338.4260       7.7030       0.3500      -0.0330      50.9070      48.5630    -999.2500    -999.2500     907.0570     410.3230      63.5810       0.0868       2.3630       0.0002       1.8100    -302.8750       0.0050       5.3380
   2338.5784       7.6171       0.3640      -0.0310      52.8171      48.5161    -999.2500    -999.2500    4003.5176    2022.6819      55.5131       0.1259       2.3920       0.0002       1.8330    -303.9986       0.0070       5.3325
   2338.7307       7.5310       0.3780      -0.0290      54.7350      48.4690    -999.2500    -999.2500    7107.7451    3639.0850      47.4380       0.1596       2.4210       0.0002       1.8560    -305.1250       0.0090       5.3270
   2338.8833       7.5934       0.3845      -0.0165      55.5059      48.1734    -999.2500    -999.2500    6615.3643    3508.5498      48.4095       0.1656       2.6098       0.0002       2.3054    -305.0876       0.0110       5.2935
   2339.0356       7.6560       0.3910      -0.0040      56.2800      47.8770    -999.2500    -999.2500    6121.6870    3377.6709      49.3820       0.1496       2.7990       0.0002       2.7560    -305.0500       0.0130       5.2600
   2339.1880       7.5861       0.3940       0.0085      57.3377      46.5109    -999.2500    -999.2500    4247.5288    2655.6997      72.2403       0.1110       2.9218       0.0002       2.7545    -303.4647       0.0145       5.1072
   2339.3403       7.5160       0.3970       0.0210      58.4000      45.1410    -999.2500    -999.2500    2368.1980    1931.7360      95.1250       0.0761       3.0450       0.0002       2.7530    -301.8750       0.0160       4.9540
   2339.4929       7.5510       0.4135       0.0235      54.1096      45.1889    -999.2500    -999.2500    1668.5284    1226.2640      69.7977       0.0668       3.0840       0.0002       2.7425    -305.6196       0.0210       4.9550
   2339.6453       7.5860       0.4300       0.0260      49.8000      45.2370    -999.2500    -999.2500     967.9630     519.8890      44.4380       0.0676       3.1230       0.0002       2.7320    -309.3750       0.0260       4.9560
   2339.7976       7.5510       0.6641       0.0475      49.9997      42.1821    -999.2500    -999.2500    1723.9309    1032.8796      50.0591       0.0678       3.0491       0.0002       2.7115    -305.6306       0.1024       4.5955
   2339.9500       7.5160       0.8990       0.0690      50.2000      39.1180    -999.2500    -999.2500    2480.9609    1546.5909      55.6880       0.0668       2.9750       0.0002       2.6910    -301.8750       0.1790       4.2340
   2340.1025       7.5275       0.7857       0.0595      48.1033      40.1494    -999.2500    -999.2500    2121.0667    1244.8086      37.9746       0.0645       2.9785       0.0002       2.7110    -305.9935       0.1431       4.3608
   2340.2549       7.5390       0.6720       0.0500      46.0000      41.1840    -999.2500    -999.2500    1760.6210     942.5640      20.2340       0.0603       2.9820       0.0002       2.7310    -310.1250       0.1070       4.4880
   2340.4072       7.4531       0.7384       0.0510      47.2979      40.7752    -999.2500    -999.2500    2491.8030    1308.7512      21.3536       0.0532       3.0010       0.0002       2.7305    -310.1060       0.1280       4.4735
   2340.5596       7.3670       0.8050       0.0520      48.6000      40.3650    -999.2500    -999.2500    3224.1960    1675.5450      22.4750       0.0475       3.0200       0.0002       2.7300    -310.0870       0.1490       4.4590
   2340.7119       7.4489       1.4105       0.0600      40.3639      40.3979    -999.2500    -999.2500    2647.0999    1386.6141      31.9800       0.0468       3.0450       0.0002       2.7130    -309.7671       0.3432       4.3771
   2340.8645       7.5310       2.0180       0.0680      32.1000      40.4310    -999.2500    -999.2500    2068.9741    1097.1680      41.5020       0.0509       3.0700       0.0002       2.6960    -309.4460       0.5380       4.2950
   2341.0168       7.5205       2.0135       0.0880      32.4639      40.6247    -999.2500    -999.2500    5258.4512    2994.2607      55.5816       0.0606       2.9062       0.0002       2.5671    -307.8813       0.5365       4.2970
   2341.1692       7.5100       2.0090       0.1080      32.8290      40.8190    -999.2500    -999.2500    8454.0137    4894.9731      69.6880       0.0747       2.7420       0.0002       2.4380    -306.3110       0.5350       4.2990
   2341.3215       7.4326       1.3577       0.1335      35.7113      41.3225    -999.2500    -999.2500    7995.1670    4668.1860      67.9083       0.0936       2.7510       0.0002       2.4580    -302.9714       0.3229       4.4273
   2341.4741       7.3550       0.7040       0.1590      38.6040      41.8270    -999.2500    -999.2500    7535.3862    4440.9370      66.1250       0.1085       2.7600       0.0002       2.4780    -299.6250       0.1100       4.5560
   2341.6265       7.3670       0.7300       0.1520      43.5846      41.7496    -999.2500    -999.2500    5716.2612    3533.0857      66.2094       0.1110       2.8219       0.0002       2.6268    -299.6649       0.1180       4.5296
   2341.7788       7.3790       0.7560       0.1450      48.5840      41.6720    -999.2500    -999.2500    3893.2080    2623.2739      66.2940       0.1053       2.8840       0.0002       2.7760    -299.7050       0.1260       4.5030
   2341.9312       7.5118       1.4742       0.1060      52.4844      42.5330    -999.2500    -999.2500    3178.2561    2251.4927      80.6930       0.0923       2.9634       0.0002       2.7545    -302.7865       0.3557       4.5879
   2342.0837       7.6450       2.1940       0.0670      56.4000      43.3960    -999.2500    -999.2500    2461.6689    1878.8610      95.1250       0.0786       3.0430       0.0002       2.7330    -305.8750       0.5860       4.6730
