#------------------------------------------------------------------------------
#
#   Created by  : [OpenWorks] Log Export Utility (LEXP)
#   Created on  : 2016-05-19 11:01:21
#   Project     : CANT971
#   User        : R5K
#   Interpreter : PEP
#
#------------------------------------------------------------------------------
~VERSION INFORMATION
VERS. 2.0 : CWLS Log ASCII Standard - version 2.0
WRAP.  NO : One line per depth step
~WELL INFORMATION
#MNEMONIC   .UNIT                                           VALUE :DESCRIPTION
#------------------------------------------------------------------------------
STRT        .M                                          1238.0980 :START DEPTH
STOP        .M                                          2410.9685 :STOP DEPTH
STEP        .M                                             0.1524 :STEP
NULL        .                                           -999.2500 :NULL VALUE
COMP        .                                   PEMEX EXPL & PROD :COMPANY
WELL        .                                                247D :WELL
FLD         .                                           CANTARELL :FIELD
LOC         .                                             UNKNOWN :LOCATION
CNTY        .                                      CD. DEL CARMEN :COUNTY
STAT        .                                            CAMPECHE :STATE
CTRY        .                                              MEXICO :COUNTRY
SRVC        .                                             UNKNOWN :SERVICE COMPANY
DATE        .                                             UNKNOWN :LOG DATE
UWI         .                                          3060000586 :UNIQUE WELL ID
XCOORD      .                                       597310.050000 :SURFACE X
YCOORD      .                                      2143045.730000 :SURFACE Y
LAT         .                                           19.380345 :LATITUDE
LON         .                                          -92.073358 :LONGITUDE
ELEV        .M                                            27.7000 :SURFACE ELEV
ELEV_TYPE   .                                                  KB :ELEV TYPE
~CURVE INFORMATION
#MNEMONIC.UNIT        API CODE       : CURVE DESCRIPTION
#------------------------------------------------------------------------------
DEPTH    .M                          : Measured Depth
CALI     .inches      UNKNOWN        : CALI:Import:rC:NONE:v0 (auto-composite)
CGR      .API         UNKNOWN        : CGR:Import:rC:NONE:v0 (auto-composite)
DRHO     .g/cm3       UNKNOWN        : DRHO:Import:rC:NONE:v0 (auto-composite)
DT       .us/ft       UNKNOWN        : DT:Import:rC:NONE:v0 (auto-composite)
GR       .API         UNKNOWN        : GR:Import:rC:NONE:v0 (auto-composite)
ILD      .ohm.m       UNKNOWN        : ILD:Import:rC:NONE:v0 (auto-composite)
ILM      .ohm.m       UNKNOWN        : ILM:Import:rC:NONE:v0 (auto-composite)
LLD      .ohm.m       UNKNOWN        : LLD:Import:rC:NONE:v0 (auto-composite)
LLS      .ohm.m       UNKNOWN        : LLS:Import:rC:NONE:v0 (auto-composite)
MSFL     .ohm.m       UNKNOWN        : MSFL:Import:rC:NONE:v0 (auto-composite)
NPHI     .v/v_decimal UNKNOWN        : NPHI:Import:rC:NONE:v0 (auto-composite)
PEF      .b/elec      UNKNOWN        : PEF:Import:rC:NONE:v0 (auto-composite)
POTA     .wtpercent   UNKNOWN        : POTA:Import:rC:NONE:v0 (auto-composite)
RHOB     .g/cm3       UNKNOWN        : RHOB:Import:rC:NONE:v0 (auto-composite)
SP       .mV          UNKNOWN        : SP:Import:rC:NONE:v0 (auto-composite)
THOR     .ppm         UNKNOWN        : THOR:Import:rC:NONE:v0 (auto-composite)
URAN     .ppm         UNKNOWN        : URAN:Import:rC:NONE:v0 (auto-composite)
~A     DEPTH         CALI          CGR         DRHO           DT           GR          ILD          ILM          LLD          LLS         MSFL         NPHI          PEF         POTA         RHOB           SP         THOR         URAN
# ...
   2251.5581       8.6720      33.5370       0.0940      74.9000      65.4980    -999.2500    -999.2500      37.6450      62.2200      34.9060       0.1283       3.3750       0.0185       2.5590    -280.3750       1.0850       3.5410
   2251.7104       9.0936      34.6076       0.1170      75.5488      65.9421    -999.2500    -999.2500      60.7689     108.0158      36.3432       0.1280       3.3810       0.0188       2.4706    -279.5633       1.2667       3.4711
   2251.8628       9.5160      35.6820       0.1400      76.2000      66.3870    -999.2500    -999.2500      83.9380     153.9010      37.7810       0.1329       3.3870       0.0191       2.3820    -278.7500       1.4490       3.4010
   2252.0151       9.4141      37.4597       0.2254      76.7969      67.5023    -999.2500    -999.2500     123.7536     185.8797      32.1183       0.1462       3.3485       0.0195       2.4609    -278.0542       1.8972       3.3147
   2252.1677       9.3120      39.2440       0.3110      77.3960      68.6200    -999.2500    -999.2500     163.6520     217.9250      26.4530       0.1633       3.3100       0.0198       2.5400    -277.3570       2.3470       3.2280
   2252.3201       9.3750      40.5430       0.2915      83.5363      69.6923    -999.2500    -999.2500     179.6953     237.9479      97.0492       0.1824       3.2880       0.0205       2.4730    -277.1163       2.3390       3.2355
   2252.4724       9.4380      41.8470       0.2720      89.7000      70.7670    -999.2500    -999.2500     195.7740     258.0150     167.6880       0.2020       3.2660       0.0212       2.4060    -276.8750       2.3310       3.2430
   2252.6248       9.3420      40.8991       0.2370      84.1110      73.1223    -999.2500    -999.2500     143.2358     198.6862     104.1176       0.2209       3.4604       0.0208       2.4420    -277.6241       2.2376       3.5891
   2252.7773       9.2460      39.9490       0.2020      78.5000      75.4830    -999.2500    -999.2500      90.5750     139.2190      40.5010       0.2304       3.6550       0.0203       2.4780    -278.3750       2.1440       3.9360
   2252.9297       9.0741      38.7270       0.1505      80.2963      76.8673    -999.2500    -999.2500      51.2558      74.4226      26.3930       0.2190       4.0014       0.0185       2.5370    -277.7508       2.6788       4.2496
   2253.0820       8.9020      37.5020       0.0990      82.1000      78.2550    -999.2500    -999.2500      11.8400       9.4670      12.2730       0.2007       4.3480       0.0166       2.5960    -277.1250       3.2150       4.5640
   2253.2344       8.8500      37.2648       0.0720      80.4654      75.8631    -999.2500    -999.2500       9.8061       9.5214      18.4400       0.1838       4.1931       0.0177       2.6180    -279.6218       2.6078       4.3003
   2253.3867       8.7980      37.0270       0.0450      78.8240      73.4650    -999.2500    -999.2500       7.7670       9.5760      24.6130       0.1729       4.0380       0.0189       2.6400    -282.1250       1.9990       4.0360
   2253.5393       8.6801      37.6457       0.0330      78.0941      71.8272    -999.2500    -999.2500      11.4775      11.9837      26.7338       0.1734       3.8901       0.0211       2.6460    -280.2525       1.0293       3.7594
   2253.6917       8.5620      38.2660       0.0210      77.3610      70.1850    -999.2500    -999.2500      15.1980      14.3980      28.8570       0.1739       3.7420       0.0233       2.6520    -278.3750       0.0570       3.4820
   2253.8440       8.5620      32.9540       0.0135      76.7888      66.9900    -999.2500    -999.2500      15.0817      16.2743      34.9093       0.1654       3.5221       0.0200       2.6645    -278.7495       0.0695       3.6717
   2253.9963       8.5620      27.6270       0.0060      76.2150      63.7860    -999.2500    -999.2500      14.9650      18.1560      40.9690       0.1529       3.3020       0.0167       2.6770    -279.1250       0.0820       3.8620
   2254.1489       8.5525      28.9670       0.0075      73.7237      61.3271    -999.2500    -999.2500      19.7508      26.4589      44.4531       0.1392       3.1511       0.0176       2.7090    -279.1250       0.0885       3.5390
   2254.3013       8.5430      30.3110       0.0090      71.2250      58.8610    -999.2500    -999.2500      24.5430      34.7730      47.9420       0.1267       3.0000       0.0184       2.7410    -279.1250       0.0950       3.2150
   2254.4536       8.4611      26.7021       0.0110      67.2686      53.9101    -999.2500    -999.2500      21.0386      28.5426      52.8579       0.1178       3.0764       0.0153       2.7580    -278.6258       0.6521       3.0178
   2254.6060       8.3790      23.0820       0.0130      63.3000      48.9440    -999.2500    -999.2500      17.5290      22.3030      57.7810       0.1140       3.1530       0.0122       2.7750    -278.1250       1.2110       2.8200
   2254.7583       8.3031      21.7731       0.0150      79.2743      47.5717    -999.2500    -999.2500      16.7961      22.4449      43.8862       0.1179       3.2140       0.0113       2.7650    -278.9986       1.1621       2.8355
   2254.9109       8.2270      20.4600       0.0170      95.3000      46.1950    -999.2500    -999.2500      16.0620      22.5870      29.9690       0.1228       3.2750       0.0104       2.7550    -279.8750       1.1130       2.8510
   2255.0632       8.2365      18.6720       0.0165      95.0943      45.9215    -999.2500    -999.2500      19.8562      28.9610      32.5133       0.1233       3.2190       0.0097       2.7475    -278.7519       0.9163       3.0187
   2255.2156       8.2460      16.8780       0.0160      94.8880      45.6470    -999.2500    -999.2500      23.6570      35.3460      35.0620       0.1215       3.1630       0.0090       2.7400    -277.6250       0.7190       3.1870
   2255.3679       8.4478      18.3050       0.0485      77.5241      45.8948    -999.2500    -999.2500      25.4753      38.4241      28.1859       0.1180       3.0156       0.0093       2.5777    -278.4992       0.9691       3.0622
   2255.5205       8.6500      19.7370       0.0810      60.1000      46.1430    -999.2500    -999.2500      27.2970      41.5080      21.2970       0.1204       2.8680       0.0096       2.4150    -279.3750       1.2200       2.9370
   2255.6729       8.8343      18.7118       0.1399      63.5373      49.1275    -999.2500    -999.2500     198.8348     323.8927     395.4520       0.1365       2.8141       0.0089       2.3061    -278.3760       1.2964       3.3752
   2255.8252       9.0190      17.6830       0.1990      66.9870      52.1180    -999.2500    -999.2500     370.7130     606.8380     769.7500       0.1641       2.7600       0.0082       2.1970    -277.3750       1.3730       3.8150
   2255.9775       9.5345      13.5013       0.2395      75.3579      54.0125    -999.2500    -999.2500     219.0052     356.6782     428.3441       0.2056       2.7805       0.0060       2.2779    -278.7485       1.1609       4.4878
   2256.1301      10.0510       9.3040       0.2800      83.7600      55.9110    -999.2500    -999.2500      66.9770     105.9900      86.7650       0.2532       2.8010       0.0038       2.3590    -280.1250       0.9480       5.1630
   2256.2825      11.5405       6.8587       0.2195      95.9565      59.7048    -999.2500    -999.2500    1914.6968    2055.4524      47.9338       0.3029       2.8250       0.0021       2.3230    -279.3758       1.0498       5.8232
   2256.4348      13.0310       4.4040       0.1590     108.2000      63.5070    -999.2500    -999.2500    3766.5491    4009.2749       9.0780       0.3501       2.8490       0.0004       2.2870    -278.6250       1.1520       6.4860
   2256.5872      12.8526       8.3893       0.1035      94.8465      70.0533    -999.2500    -999.2500   12740.9004   18423.9551      25.0799       0.3905       2.8530       0.0008       2.2420    -280.9972       2.4824       6.8006
   2256.7395      12.6740      12.3840       0.0480      81.4400      76.6150    -999.2500    -999.2500   21736.4707   32872.7148      41.0940       0.4066       2.8570       0.0012       2.1970    -283.3750       3.8160       7.1160
