#------------------------------------------------------------------------------
#
#   Created by  : [OpenWorks] Log Export Utility (LEXP)
#   Created on  : 2016-05-19 11:01:21
#   Project     : CANT971
#   User        : R5K
#   Interpreter : PEP
#
#------------------------------------------------------------------------------
~VERSION INFORMATION
VERS. 2.0 : CWLS Log ASCII Standard - version 2.0
WRAP.  NO : One line per depth step
~WELL INFORMATION
#MNEMONIC   .UNIT                                           VALUE :DESCRIPTION
#------------------------------------------------------------------------------
STRT        .M                                          1238.0980 :START DEPTH
STOP        .M                                          2410.9685 :STOP DEPTH
STEP        .M                                             0.1524 :STEP
NULL        .                                           -999.2500 :NULL VALUE
COMP        .                                   PEMEX EXPL & PROD :COMPANY
WELL        .                                                247D :WELL
FLD         .                                           CANTARELL :FIELD
LOC         .                                             UNKNOWN :LOCATION
CNTY        .                                      CD. DEL CARMEN :COUNTY
STAT        .                                            CAMPECHE :STATE
CTRY        .                                              MEXICO :COUNTRY
SRVC        .                                             UNKNOWN :SERVICE COMPANY
DATE        .                                             UNKNOWN :LOG DATE
UWI         .                                          3060000586 :UNIQUE WELL ID
XCOORD      .                                       597310.050000 :SURFACE X
YCOORD      .                                      2143045.730000 :SURFACE Y
LAT         .                                           19.380345 :LATITUDE
LON         .                                          -92.073358 :LONGITUDE
ELEV        .M                                            27.7000 :SURFACE ELEV
ELEV_TYPE   .                                                  KB :ELEV TYPE
~CURVE INFORMATION
#MNEMONIC.UNIT        API CODE       : CURVE DESCRIPTION
#------------------------------------------------------------------------------
DEPTH    .M                          : Measured Depth
CALI     .inches      UNKNOWN        : CALI:Import:rC:NONE:v0 (auto-composite)
CGR      .API         UNKNOWN        : CGR:Import:rC:NONE:v0 (auto-composite)
DRHO     .g/cm3       UNKNOWN        : DRHO:Import:rC:NONE:v0 (auto-composite)
DT       .us/ft       UNKNOWN        : DT:Import:rC:NONE:v0 (auto-composite)
GR       .API         UNKNOWN        : GR:Import:rC:NONE:v0 (auto-composite)
ILD      .ohm.m       UNKNOWN        : ILD:Import:rC:NONE:v0 (auto-composite)
ILM      .ohm.m       UNKNOWN        : ILM:Import:rC:NONE:v0 (auto-composite)
LLD      .ohm.m       UNKNOWN        : LLD:Import:rC:NONE:v0 (auto-composite)
LLS      .ohm.m       UNKNOWN        : LLS:Import:rC:NONE:v0 (auto-composite)
MSFL     .ohm.m       UNKNOWN        : MSFL:Import:rC:NONE:v0 (auto-composite)
NPHI     .v/v_decimal UNKNOWN        : NPHI:Import:rC:NONE:v0 (auto-composite)
PEF      .b/elec      UNKNOWN        : PEF:Import:rC:NONE:v0 (auto-composite)
POTA     .wtpercent   UNKNOWN        : POTA:Import:rC:NONE:v0 (auto-composite)
RHOB     .g/cm3       UNKNOWN        : RHOB:Import:rC:NONE:v0 (auto-composite)
SP       .mV          UNKNOWN        : SP:Import:rC:NONE:v0 (auto-composite)
THOR     .ppm         UNKNOWN        : THOR:Import:rC:NONE:v0 (auto-composite)
URAN     .ppm         UNKNOWN        : URAN:Import:rC:NONE:v0 (auto-composite)
~A     DEPTH         CALI          CGR         DRHO           DT           GR          ILD          ILM          LLD          LLS         MSFL         NPHI          PEF         POTA         RHOB           SP         THOR         URAN
# ...
   2235.5559       8.4774      28.6628       0.0840      80.7293      61.7400    -999.2500    -999.2500       5.8788       6.8714      18.1491       0.1434       3.9255       0.0174       2.6105    -275.3779       0.0650       3.6351
   2235.7085       8.5470      28.4510       0.0930      83.3000      63.8830    -999.2500    -999.2500       6.0860       6.9920      12.8050       0.1335       3.9310       0.0173       2.6190    -273.6250       0.0800       3.8500
   2235.8608       8.4886      26.1674       0.0965      81.8750      63.2720    -999.2500    -999.2500      38.2945      48.3152      18.0114       0.1255       4.1233       0.0155       2.6155    -275.3720       0.4529       4.0502
   2236.0132       8.4300      23.8760       0.1000      80.4450      62.6590    -999.2500    -999.2500      70.5620      89.7140      23.2190       0.1178       4.3160       0.0137       2.6120    -277.1250       0.8270       4.2510
   2236.1655       8.4565      24.6761       0.1325      62.9037      59.2359    -999.2500    -999.2500      40.4225      52.6443      20.0791       0.1094       4.1107       0.0128       2.6280    -276.8752       1.4120       3.8278
   2236.3181       8.4830      25.4790       0.1650      45.3000      55.8060    -999.2500    -999.2500      10.2240      15.5020      16.9380       0.1079       3.9050       0.0118       2.6440    -276.6250       1.9990       3.4030
   2236.4705       8.5889      24.1959       0.1645      45.3374      52.8101    -999.2500    -999.2500      13.5395      20.0383      20.7111       0.1264       3.7766       0.0118       2.6110    -277.1894       1.6786       3.1919
   2236.6228       8.6950      22.9080       0.1640      45.3750      49.8080    -999.2500    -999.2500      16.8620      24.5840      24.4860       0.1519       3.6480       0.0118       2.5780    -277.7550       1.3570       2.9800
   2236.7751       8.6286      26.6264       0.1495      58.7026      57.2163    -999.2500    -999.2500      86.1829     121.6907      30.2103       0.1795       3.6495       0.0145       2.5390    -278.5062       1.0686       3.4890
   2236.9277       8.5620      30.3590       0.1350      72.0810      64.6410    -999.2500    -999.2500     155.6570     219.0120      35.9380       0.2005       3.6510       0.0171       2.5000    -279.2590       0.7790       4.0000
   2237.0801       8.6170      29.6439       0.1235      77.0806      67.0876    -999.2500    -999.2500      89.7879     126.7996      31.5131       0.2023       3.9034       0.0164       2.5040    -283.6868       0.9392       4.2510
   2237.2324       8.6720      28.9260       0.1120      82.1000      69.5400    -999.2500    -999.2500      23.7650      34.3720      27.0850       0.1979       4.1560       0.0156       2.5080    -288.1250       1.1000       4.5030
   2237.3848       8.6485      32.1276       0.1550      59.2964      70.9982    -999.2500    -999.2500     377.1230     631.4301      23.8019       0.1922       4.0960       0.0176       2.5230    -285.7604       1.0990       4.3077
   2237.5371       8.6250      35.3370       0.1980      36.4000      72.4600    -999.2500    -999.2500     731.3510    1229.9580      20.5160       0.1870       4.0360       0.0195       2.5380    -283.3900       1.0980       4.1120
   2237.6897       8.6755      37.7269       0.2605      37.6130      73.8822    -999.2500    -999.2500     373.6260     626.8074     661.1932       0.1839       3.8041       0.0210       2.5755    -281.4006       1.0905       4.0046
   2237.8420       8.7260      40.1230       0.3230      38.8310      75.3080    -999.2500    -999.2500      14.9760      22.0970    1302.5000       0.1867       3.5720       0.0225       2.6130    -279.4060       1.0830       3.8970
   2237.9944       8.9289      43.0056       0.2800      55.4776      76.3955    -999.2500    -999.2500      61.3820      88.9383     690.9641       0.2040       3.0198       0.0238       2.4676    -277.6429       1.4270       3.6778
   2238.1467       9.1320      45.8960       0.2370      72.1960      77.4860    -999.2500    -999.2500     107.9140     155.9610      78.7510       0.2297       2.4670       0.0250       2.3220    -275.8750       1.7720       3.4580
   2238.2993       9.4048      47.1852       0.1690      81.3676      77.3801    -999.2500    -999.2500     614.0104     935.8680      55.0151       0.2658       2.5639       0.0259       2.2206    -279.7445       1.6662       3.3242
   2238.4517       9.6780      48.4780       0.1010      90.5800      77.2740    -999.2500    -999.2500    1121.5430    1717.9880      31.2500       0.2933       2.6610       0.0268       2.1190    -283.6250       1.5600       3.1900
   2238.6040       9.9638      45.3332       0.1225      92.0878      78.6065    -999.2500    -999.2500    2281.9397    4103.0239      37.8395       0.2894       2.9018       0.0255       2.1934    -281.4388       1.4312       3.6858
   2238.7563      10.2500      42.1790       0.1440      93.6000      79.9430    -999.2500    -999.2500    3445.7781    6495.1338      44.4380       0.2744       3.1430       0.0242       2.2680    -279.2460       1.3020       4.1830
   2238.9089       9.9487      42.9653       0.1540      65.2283      79.3739    -999.2500    -999.2500    1950.2655    3583.3025      31.4786       0.2561       3.3503       0.0234       2.3065    -278.3120       1.8422       4.0537
   2239.0613       9.6470      43.7540       0.1640      36.7690      78.8030    -999.2500    -999.2500     452.5310     667.1450      18.5000       0.2391       3.5580       0.0225       2.3450    -277.3750       2.3840       3.9240
   2239.2136       9.2928      40.7783       0.1700      27.5493      75.6346    -999.2500    -999.2500     479.0412     716.7321      31.2243       0.2274       3.9172       0.0206       2.4679    -278.2486       2.3516       3.8816
   2239.3660       8.9380      37.7930       0.1760      18.3000      72.4560    -999.2500    -999.2500     505.5940     766.3990      43.9690       0.2150       4.2770       0.0187       2.5910    -279.1250       2.3190       3.8390
   2239.5183       9.0009      35.0700       0.1545      25.3762      69.2084    -999.2500    -999.2500     686.6842    1049.2698      43.0173       0.1967       3.8778       0.0179       2.5835    -278.2644       1.8418       3.8415
   2239.6709       9.0640      32.3380       0.1330      32.4760      65.9500    -999.2500    -999.2500     868.0890    1332.6320      42.0640       0.1784       3.4780       0.0171       2.5760    -277.4010       1.3630       3.8440
   2239.8232       9.1184      31.2644       0.1390      36.8978      66.2709    -999.2500    -999.2500     561.3580     842.4138      33.9551       0.1654       3.2587       0.0171       2.5021    -277.0137       1.0535       3.9254
   2239.9756       9.1730      30.1870       0.1450      41.3350      66.5930    -999.2500    -999.2500     254.0560     351.2830      25.8440       0.1600       3.0390       0.0172       2.4280    -276.6250       0.7430       4.0070
   2240.1279       9.2309      30.2793       0.1830      57.5184      66.8967    -999.2500    -999.2500     161.3112     226.3587      26.6238       0.1700       3.2808       0.0175       2.4660    -278.2484       0.5748       4.0474
   2240.2805       9.2890      30.3720       0.2210      73.7600      67.2010    -999.2500    -999.2500      68.3820     101.1860      27.4040       0.1843       3.5230       0.0177       2.5040    -279.8750       0.4060       4.0880
   2240.4329       9.2500      33.0126       0.2490      79.2198      68.1969    -999.2500    -999.2500      47.4686      77.0690     262.7045       0.1968       3.6908       0.0191       2.5235    -279.5863       0.6191       3.8460
   2240.5852       9.2110      35.6630       0.2770      84.7000      69.1950    -999.2500    -999.2500      26.5110      52.9010     498.1250       0.2076       3.8590       0.0204       2.5430    -279.2970       0.8330       3.6030
   2240.7375       9.2849      37.9077       0.2181      82.9035      70.9495    -999.2500    -999.2500      19.5083      36.3046     310.9345       0.2154       3.6737       0.0218       2.4681    -278.6332       0.8026       3.6045
