#------------------------------------------------------------------------------
#
#   Created by  : [OpenWorks] Log Export Utility (LEXP)
#   Created on  : 2016-05-19 11:01:21
#   Project     : CANT971
#   User        : R5K
#   Interpreter : PEP
#
#------------------------------------------------------------------------------
~VERSION INFORMATION
VERS. 2.0 : CWLS Log ASCII Standard - version 2.0
WRAP.  NO : One line per depth step
~WELL INFORMATION
#MNEMONIC   .UNIT                                           VALUE :DESCRIPTION
#------------------------------------------------------------------------------
STRT        .M                                          1238.0980 :START DEPTH
STOP        .M                                          2410.9685 :STOP DEPTH
STEP        .M                                             0.1524 :STEP
NULL        .                                           -999.2500 :NULL VALUE
COMP        .                                   PEMEX EXPL & PROD :COMPANY
WELL        .                                                247D :WELL
FLD         .                                           CANTARELL :FIELD
LOC         .                                             UNKNOWN :LOCATION
CNTY        .                                      CD. DEL CARMEN :COUNTY
STAT        .                                            CAMPECHE :STATE
CTRY        .                                              MEXICO :COUNTRY
SRVC        .                                             UNKNOWN :SERVICE COMPANY
DATE        .                                             UNKNOWN :LOG DATE
UWI         .                                          3060000586 :UNIQUE WELL ID
XCOORD      .                                       597310.050000 :SURFACE X
YCOORD      .                                      2143045.730000 :SURFACE Y
LAT         .                                           19.380345 :LATITUDE
LON         .                                          -92.073358 :LONGITUDE
ELEV        .M                                            27.7000 :SURFACE ELEV
ELEV_TYPE   .                                                  KB :ELEV TYPE
~CURVE INFORMATION
#MNEMONIC.UNIT        API CODE       : CURVE DESCRIPTION
#------------------------------------------------------------------------------
DEPTH    .M                          : Measured Depth
CALI     .inches      UNKNOWN        : CALI:Import:rC:NONE:v0 (auto-composite)
CGR      .API         UNKNOWN        : CGR:Import:rC:NONE:v0 (auto-composite)
DRHO     .g/cm3       UNKNOWN        : DRHO:Import:rC:NONE:v0 (auto-composite)
DT       .us/ft       UNKNOWN        : DT:Import:rC:NONE:v0 (auto-composite)
GR       .API         UNKNOWN        : GR:Import:rC:NONE:v0 (auto-composite)
ILD      .ohm.m       UNKNOWN        : ILD:Import:rC:NONE:v0 (auto-composite)
ILM      .ohm.m       UNKNOWN        : ILM:Import:rC:NONE:v0 (auto-composite)
LLD      .ohm.m       UNKNOWN        : LLD:Import:rC:NONE:v0 (auto-composite)
LLS      .ohm.m       UNKNOWN        : LLS:Import:rC:NONE:v0 (auto-composite)
MSFL     .ohm.m       UNKNOWN        : MSFL:Import:rC:NONE:v0 (auto-composite)
NPHI     .v/v_decimal UNKNOWN        : NPHI:Import:rC:NONE:v0 (auto-composite)
PEF      .b/elec      UNKNOWN        : PEF:Import:rC:NONE:v0 (auto-composite)
POTA     .wtpercent   UNKNOWN        : POTA:Import:rC:NONE:v0 (auto-composite)
RHOB     .g/cm3       UNKNOWN        : RHOB:Import:rC:NONE:v0 (auto-composite)
SP       .mV          UNKNOWN        : SP:Import:rC:NONE:v0 (auto-composite)
THOR     .ppm         UNKNOWN        : THOR:Import:rC:NONE:v0 (auto-composite)
URAN     .ppm         UNKNOWN        : URAN:Import:rC:NONE:v0 (auto-composite)
~A     DEPTH         CALI          CGR         DRHO           DT           GR          ILD          ILM          LLD          LLS         MSFL         NPHI          PEF         POTA         RHOB           SP         THOR         URAN
# ...
   2262.2261       7.5310       1.7410       0.0170      52.6000      43.8150    -999.2500    -999.2500    1427.8660    1601.9640      83.0000       0.0845       3.5120       0.0002       2.7290    -286.9560       0.4450       4.6610
   2262.3784       7.5465       1.7395       0.0135      52.3439      43.1735    -999.2500    -999.2500    2208.8142    2791.8457      61.1758       0.0843       3.4336       0.0002       2.7155    -286.4164       0.4435       4.5781
   2262.5308       7.5620       1.7380       0.0100      52.0870      42.5300    -999.2500    -999.2500    2990.9680    3983.5640      39.3180       0.0831       3.3550       0.0002       2.7020    -285.8750       0.4420       4.4950
   2262.6831       7.5485       1.2723       0.0125      46.4517      42.0678    -999.2500    -999.2500    1923.5576    2514.4167      26.5916       0.0822       3.2051       0.0002       2.7020    -288.3709       0.2932       4.5055
   2262.8357       7.5350       0.8050       0.0150      40.7980      41.6040    -999.2500    -999.2500     854.3640    1042.8149      13.8440       0.0815       3.0550       0.0002       2.7020    -290.8750       0.1440       4.5160
   2262.9880       7.5255       1.0416       0.0145      38.8523      42.8274    -999.2500    -999.2500     703.8921     868.5454      17.6970       0.0810       3.0875       0.0002       2.7050    -289.2527       0.2204       4.6268
   2263.1404       7.5160       1.2790       0.0140      36.9000      44.0550    -999.2500    -999.2500     553.1500     693.9630      21.5570       0.0815       3.1200       0.0002       2.7080    -287.6250       0.2970       4.7380
   2263.2927       7.5160       1.3369       0.0125      44.0409      45.1050    -999.2500    -999.2500     473.3262     614.3596      26.1321       0.0839       3.1500       0.0002       2.6955    -288.8018       0.3125       4.8483
   2263.4453       7.5160       1.3950       0.0110      51.2070      46.1570    -999.2500    -999.2500     393.3490     534.6030      30.7160       0.0873       3.1800       0.0002       2.6830    -289.9810       0.3280       4.9590
   2263.5977       7.5235       0.9713       0.0055      53.1729      43.9772    -999.2500    -999.2500     484.3689     614.0722      32.0137       0.0911       3.1061       0.0002       2.6620    -290.7137       0.1888       4.7579
   2263.7500       7.5310       0.5460       0.0000      55.1460      41.7930    -999.2500    -999.2500     575.5750     693.7040      33.3120       0.0945       3.0320       0.0002       2.6410    -291.4480       0.0490       4.5560
   2263.9023       7.4431       0.6957       0.0055      55.8317      41.2676    -999.2500    -999.2500     554.2103     692.3440      30.0944       0.0966       2.9506       0.0002       2.6435    -292.5353       0.0984       4.4901
   2264.0549       7.3550       0.8460       0.0110      56.5200      40.7410    -999.2500    -999.2500     532.7990     690.9810      26.8750       0.0993       2.8690       0.0002       2.6460    -293.6250       0.1480       4.4240
   2264.2073       7.4245       0.6319       0.0155      58.7556      40.0982    -999.2500    -999.2500     670.2091     800.3783      28.4275       0.1046       2.9060       0.0002       2.6480    -293.6250       0.0796       4.3711
   2264.3596       7.4940       0.4170       0.0200      61.0000      39.4540    -999.2500    -999.2500     807.9350     910.0270      29.9810       0.1106       2.9430       0.0002       2.6500    -293.6250       0.0110       4.3180
   2264.5120       7.5115       0.4200       0.0205      60.7006      38.9791    -999.2500    -999.2500     600.7588     662.5128      73.3477       0.1155       3.0495       0.0002       2.6485    -293.3753       0.0125       4.2681
   2264.6643       7.5290       0.4230       0.0210      60.4000      38.5030    -999.2500    -999.2500     393.0800     414.3980     116.7500       0.1184       3.1560       0.0002       2.6470    -293.1250       0.0140       4.2180
   2264.8169       7.5495       0.4375       0.0110      61.0487      39.0937    -999.2500    -999.2500    1319.6792    1436.2207      74.5510       0.1176       3.0885       0.0002       2.6240    -294.1237       0.0185       4.2824
   2264.9692       7.5700       0.4520       0.0010      61.7000      39.6860    -999.2500    -999.2500    2248.6411    2460.6489      32.3120       0.1163       3.0210       0.0002       2.6010    -295.1250       0.0230       4.3470
   2265.1216       7.5505       0.6442       0.0055      59.3550      40.2168    -999.2500    -999.2500    1514.4092    1662.7059      84.9718       0.1164       3.0045       0.0002       2.6060    -295.0172       0.0799       4.3810
   2265.2739       7.5310       0.8370       0.0100      57.0000      40.7490    -999.2500    -999.2500     778.2110     862.6260     137.6880       0.1173       2.9880       0.0002       2.6110    -294.9090       0.1370       4.4150
   2265.4265       7.6269       1.2799       0.0105      57.5987      39.3095    -999.2500    -999.2500     709.8268     762.1937      91.9974       0.1186       2.8806       0.0002       2.6235    -293.9204       0.2853       4.1848
   2265.5789       7.7230       1.7240       0.0110      58.2000      37.8660    -999.2500    -999.2500     641.2510     661.4800      46.2520       0.1190       2.7730       0.0002       2.6360    -292.9290       0.4340       3.9540
   2265.7312       7.6271       1.1878       0.0120      57.6808      37.4646    -999.2500    -999.2500     633.9417     651.7438      38.2483       0.1168       2.8909       0.0002       2.6530    -292.1531       0.2618       3.9884
   2265.8835       7.5310       0.6500       0.0130      57.1600      37.0620    -999.2500    -999.2500     626.6110     641.9790      30.2340       0.1138       3.0090       0.0002       2.6700    -291.3750       0.0890       4.0230
   2266.0361       7.5310       0.6635       0.0110      55.5325      38.9656    -999.2500    -999.2500     662.3511     709.5295      43.9975       0.1109       3.0320       0.0002       2.6620    -292.4573       0.0965       4.2377
   2266.1885       7.5310       0.6770       0.0090      53.9000      40.8750    -999.2500    -999.2500     698.1430     777.1780      57.7810       0.1089       3.0550       0.0002       2.6540    -293.5430       0.1040       4.4530
   2266.3408       7.6169       0.6845       0.0105      53.9434      41.7167    -999.2500    -999.2500     561.5350     581.4855      46.9460       0.1076       3.0420       0.0002       2.6370    -293.9259       0.1075       4.5454
   2266.4932       7.7030       0.6920       0.0120      53.9870      42.5610    -999.2500    -999.2500     424.7120     385.4850      36.0940       0.1076       3.0290       0.0002       2.6200    -294.3100       0.1110       4.6380
   2266.6455       7.5411       1.3674       0.0210      55.4411      44.2567    -999.2500    -999.2500     542.6297     481.8720      37.9189       0.1089       3.0630       0.0002       2.6420    -295.3408       0.3336       4.7513
   2266.7981       7.3790       2.0450       0.0300      56.9000      45.9580    -999.2500    -999.2500     660.7480     578.4230      39.7470       0.1091       3.0970       0.0002       2.6640    -296.3750       0.5570       4.8650
   2266.9504       7.4384       1.2723       0.0245      56.4218      41.3549    -999.2500    -999.2500    1222.9282    1032.2882      57.9928       0.1058       3.1030       0.0002       2.6725    -296.2662       0.3009       4.4407
   2267.1028       7.4980       0.4970       0.0190      55.9420      36.7360    -999.2500    -999.2500    1786.1350    1486.9821      76.2720       0.1011       3.1090       0.0002       2.6810    -296.1570       0.0440       4.0150
   2267.2551       7.6004       0.5055       0.0220      55.5717      36.8319    -999.2500    -999.2500    1966.1768    1640.2363      94.1810       0.0966       3.1355       0.0002       2.6805    -295.8913       0.0460       4.0245
   2267.4077       7.7030       0.5140       0.0250      55.2000      36.9280    -999.2500    -999.2500    2146.5701    1793.7900     112.1250       0.0950       3.1620       0.0002       2.6800    -295.6250       0.0480       4.0340
