#------------------------------------------------------------------------------
#
#   Created by  : [OpenWorks] Log Export Utility (LEXP)
#   Created on  : 2016-05-19 11:01:21
#   Project     : CANT971
#   User        : R5K
#   Interpreter : PEP
#
#------------------------------------------------------------------------------
~VERSION INFORMATION
VERS. 2.0 : CWLS Log ASCII Standard - version 2.0
WRAP.  NO : One line per depth step
~WELL INFORMATION
#MNEMONIC   .UNIT                                           VALUE :DESCRIPTION
#------------------------------------------------------------------------------
STRT        .M                                          1238.0980 :START DEPTH
STOP        .M                                          2410.9685 :STOP DEPTH
STEP        .M                                             0.1524 :STEP
NULL        .                                           -999.2500 :NULL VALUE
COMP        .                                   PEMEX EXPL & PROD :COMPANY
WELL        .                                                247D :WELL
FLD         .                                           CANTARELL :FIELD
LOC         .                                             UNKNOWN :LOCATION
CNTY        .                                      CD. DEL CARMEN :COUNTY
STAT        .                                            CAMPECHE :STATE
CTRY        .                                              MEXICO :COUNTRY
SRVC        .                                             UNKNOWN :SERVICE COMPANY
DATE        .                                             UNKNOWN :LOG DATE
UWI         .                                          3060000586 :UNIQUE WELL ID
XCOORD      .                                       597310.050000 :SURFACE X
YCOORD      .                                      2143045.730000 :SURFACE Y
LAT         .                                           19.380345 :LATITUDE
LON         .                                          -92.073358 :LONGITUDE
ELEV        .M                                            27.7000 :SURFACE ELEV
ELEV_TYPE   .                                                  KB :ELEV TYPE
~CURVE INFORMATION
#MNEMONIC.UNIT        API CODE       : CURVE DESCRIPTION
#------------------------------------------------------------------------------
DEPTH    .M                          : Measured Depth
CALI     .inches      UNKNOWN        : CALI:Import:rC:NONE:v0 (auto-composite)
CGR      .API         UNKNOWN        : CGR:Import:rC:NONE:v0 (auto-composite)
DRHO     .g/cm3       UNKNOWN        : DRHO:Import:rC:NONE:v0 (auto-composite)
DT       .us/ft       UNKNOWN        : DT:Import:rC:NONE:v0 (auto-composite)
GR       .API         UNKNOWN        : GR:Import:rC:NONE:v0 (auto-composite)
ILD      .ohm.m       UNKNOWN        : ILD:Import:rC:NONE:v0 (auto-composite)
ILM      .ohm.m       UNKNOWN        : ILM:Import:rC:NONE:v0 (auto-composite)
LLD      .ohm.m       UNKNOWN        : LLD:Import:rC:NONE:v0 (auto-composite)
LLS      .ohm.m       UNKNOWN        : LLS:Import:rC:NONE:v0 (auto-composite)
MSFL     .ohm.m       UNKNOWN        : MSFL:Import:rC:NONE:v0 (auto-composite)
NPHI     .v/v_decimal UNKNOWN        : NPHI:Import:rC:NONE:v0 (auto-composite)
PEF      .b/elec      UNKNOWN        : PEF:Import:rC:NONE:v0 (auto-composite)
POTA     .wtpercent   UNKNOWN        : POTA:Import:rC:NONE:v0 (auto-composite)
RHOB     .g/cm3       UNKNOWN        : RHOB:Import:rC:NONE:v0 (auto-composite)
SP       .mV          UNKNOWN        : SP:Import:rC:NONE:v0 (auto-composite)
THOR     .ppm         UNKNOWN        : THOR:Import:rC:NONE:v0 (auto-composite)
URAN     .ppm         UNKNOWN        : URAN:Import:rC:NONE:v0 (auto-composite)
~A     DEPTH         CALI          CGR         DRHO           DT           GR          ILD          ILM          LLD          LLS         MSFL         NPHI          PEF         POTA         RHOB           SP         THOR         URAN
# ...
   2320.8999       7.5300       2.4411       0.0105      49.0759      25.5593    -999.2500    -999.2500     294.8585     267.2477      38.6059       0.0471       2.8840       0.0015       2.7745    -299.8451       0.0060       2.5615
   2321.0525       7.5440       2.3890       0.0140      49.4530      25.6750    -999.2500    -999.2500     347.1700     345.1040      43.0940       0.0527       2.8910       0.0014       2.7440    -299.8150       0.0060       2.5800
   2321.2048       7.8158       1.3662       0.0545      55.1669      27.1256    -999.2500    -999.2500     376.8420     388.3316      36.5917       0.0643       2.8765       0.0008       2.4288    -299.4112       0.0090       2.8106
   2321.3572       8.0880       0.3400       0.0950      60.9000      28.5810    -999.2500    -999.2500     406.5660     431.6350      30.0780       0.0788       2.8620       0.0002       2.1130    -299.0060       0.0120       3.0420
   2321.5095       9.4292       0.3400       0.1599      60.5092      30.1283    -999.2500    -999.2500   25127.2559   29760.8398      30.1230       0.0944       2.4414       0.0002       2.1155    -295.0724       0.0130       3.2566
   2321.6621      10.7730       0.3400       0.2250      60.1170      31.6810    -999.2500    -999.2500   49894.4531   59145.2188      30.1680       0.1204       2.0200       0.0002       2.1180    -291.1250       0.0140       3.4720
   2321.8145      11.2920       0.4298       0.2215      47.4314      34.2099    -999.2500    -999.2500   48995.6250   58364.4688     191.3599       0.1647       2.0370       0.0002       2.1630    -293.3709       0.0370       3.7420
   2321.9668      11.8120       0.5200       0.2180      34.7000      36.7480    -999.2500    -999.2500   48094.9961   57582.1562     352.8750       0.2022       2.0540       0.0002       2.2080    -295.6250       0.0600       4.0130
   2322.1191      11.6397       0.4975       0.1730      45.7793      36.3709    -999.2500    -999.2500   36910.8750   30289.1074     319.2524       0.2127       2.4651       0.0002       2.3733    -294.5012       0.0570       3.9741
   2322.2717      11.4670       0.4750       0.1280      56.9000      35.9930    -999.2500    -999.2500   25702.8945    2937.8411     285.5580       0.1930       2.8770       0.0002       2.5390    -293.3750       0.0540       3.9350
   2322.4241       9.5856       0.4790       0.0716      56.8291      36.6003    -999.2500    -999.2500   14099.2705    3629.6008     148.9137       0.1408       2.8291       0.0002       2.6459    -293.5103       0.0545       4.0019
   2322.5764       7.7000       0.4830       0.0150      56.7580      37.2090    -999.2500    -999.2500    2469.4551    4322.9219      12.1800       0.0924       2.7810       0.0002       2.7530    -293.6460       0.0550       4.0690
   2322.7288       7.6156       0.5294       0.0075      53.4855      50.5046    -999.2500    -999.2500    2389.4409    4192.0674      13.1721       0.0757       2.7895       0.0002       2.7525    -295.4019       0.0615       5.5328
   2322.8811       7.5310       0.5760       0.0000      50.2000      63.8320    -999.2500    -999.2500    2309.2361    4060.9009      14.1650       0.0748       2.7980       0.0002       2.7520    -297.1620       0.0680       7.0000
   2323.0337       7.5310       0.6249       0.0005      50.2574      63.6258    -999.2500    -999.2500    1398.7871    2276.3330      43.7891       0.0763       3.0791       0.0002       2.7435    -301.2633       0.0805       6.9770
   2323.1860       7.5310       0.6740       0.0010      50.3150      63.4190    -999.2500    -999.2500     486.0540     487.2880      73.4400       0.0796       3.3610       0.0002       2.7350    -305.3750       0.0930       6.9540
   2323.3384       7.5300       0.5592       0.0060      51.0110      60.7685    -999.2500    -999.2500     686.1237     735.8438     168.9833       0.0854       3.3595       0.0002       2.7260    -303.3776       0.0615       6.6599
   2323.4907       7.5290       0.4440       0.0110      51.7100      58.1110    -999.2500    -999.2500     886.7210     985.0550     264.6250       0.0903       3.3580       0.0002       2.7170    -301.3750       0.0300       6.3650
   2323.6433       7.5065       0.5953       0.0215      52.8026      52.4333    -999.2500    -999.2500     853.1134     945.0812     246.7998       0.0912       3.3300       0.0002       2.6031    -301.4089       0.0804       5.7464
   2323.7957       7.4840       0.7470       0.0320      53.9000      46.7400    -999.2500    -999.2500     819.4130     904.9970     228.9540       0.0909       3.3020       0.0002       2.4890    -301.4430       0.1310       5.1260
   2323.9480       7.4905       0.7375       0.0625      53.1012      41.5924    -999.2500    -999.2500     588.4042     626.0429     127.8543       0.0918       3.1731       0.0002       2.4925    -303.1565       0.1280       4.5523
   2324.1003       7.4970       0.7280       0.0930      52.3000      36.4300    -999.2500    -999.2500     356.7280     346.2830      26.6250       0.0927       3.0440       0.0002       2.4960    -304.8750       0.1250       3.9770
   2324.2529       7.5630       0.6257       0.0930      52.4997      36.6901    -999.2500    -999.2500     482.4879     457.2099      28.2049       0.0924       2.9411       0.0002       2.5385    -301.2555       0.0945       4.0060
   2324.4053       7.6290       0.5230       0.0930      52.7000      36.9510    -999.2500    -999.2500     608.4250     568.2930      29.7870       0.0892       2.8380       0.0002       2.5810    -297.6250       0.0640       4.0350
   2324.5576       7.6230       0.5280       0.0630      52.3006      39.6293    -999.2500    -999.2500     601.7011     561.2959      72.8605       0.0817       2.7940       0.0002       2.6724    -297.7518       0.0650       4.3315
   2324.7100       7.6170       0.5330       0.0330      51.9000      42.3160    -999.2500    -999.2500     594.9670     554.2880     116.0000       0.0734       2.7500       0.0002       2.7640    -297.8790       0.0660       4.6290
   2324.8623       7.5600       0.7641       0.0480      53.6471      43.8001    -999.2500    -999.2500     518.1617     449.7893      63.7114       0.0669       2.7615       0.0002       2.7805    -299.1604       0.1314       4.7857
   2325.0149       7.5030       0.9960       0.0630      55.4000      45.2890    -999.2500    -999.2500     441.2290     345.1170      11.3360       0.0657       2.7730       0.0002       2.7970    -300.4460       0.1970       4.9430
   2325.1672       7.4965       0.9765       0.0475      55.2592      47.9016    -999.2500    -999.2500     562.5717     409.6324      11.5603       0.0731       2.9643       0.0002       2.7485    -301.7832       0.1910       5.2370
   2325.3196       7.4900       0.9570       0.0320      55.1180      50.5230    -999.2500    -999.2500     684.1310     474.2630      11.7850       0.0809       3.1560       0.0002       2.7000    -303.1250       0.1850       5.5320
   2325.4719       7.4226       0.7154       0.0330      53.4619      48.2794    -999.2500    -999.2500     602.6269     470.0520      16.1428       0.0834       3.1425       0.0002       2.7330    -300.8789       0.1176       5.2899
   2325.6245       7.3550       0.4730       0.0340      51.8000      46.0280    -999.2500    -999.2500     520.9670     465.8330      20.5090       0.0804       3.1290       0.0002       2.7660    -298.6250       0.0500       5.0470
   2325.7769       7.3610       0.5079       0.0250      53.1475      50.4824    -999.2500    -999.2500     676.5446     473.0986      80.1628       0.0722       2.9562       0.0002       2.7585    -298.6375       0.0600       5.5017
   2325.9292       7.3670       0.5430       0.0160      54.5000      54.9530    -999.2500    -999.2500     832.4390     480.3790     139.9380       0.0651       2.7830       0.0002       2.7510    -298.6500       0.0700       5.9580
   2326.0815       7.3610       1.3475       0.0185      54.4361      54.9016    -999.2500    -999.2500     830.0431     559.3001     127.4200       0.0644       2.7860       0.0002       2.7515    -300.7602       0.3160       5.8457
