#------------------------------------------------------------------------------
#
#   Created by  : [OpenWorks] Log Export Utility (LEXP)
#   Created on  : 2016-05-19 11:01:21
#   Project     : CANT971
#   User        : R5K
#   Interpreter : PEP
#
#------------------------------------------------------------------------------
~VERSION INFORMATION
VERS. 2.0 : CWLS Log ASCII Standard - version 2.0
WRAP.  NO : One line per depth step
~WELL INFORMATION
#MNEMONIC   .UNIT                                           VALUE :DESCRIPTION
#------------------------------------------------------------------------------
STRT        .M                                          1238.0980 :START DEPTH
STOP        .M                                          2410.9685 :STOP DEPTH
STEP        .M                                             0.1524 :STEP
NULL        .                                           -999.2500 :NULL VALUE
COMP        .                                   PEMEX EXPL & PROD :COMPANY
WELL        .                                                247D :WELL
FLD         .                                           CANTARELL :FIELD
LOC         .                                             UNKNOWN :LOCATION
CNTY        .                                      CD. DEL CARMEN :COUNTY
STAT        .                                            CAMPECHE :STATE
CTRY        .                                              MEXICO :COUNTRY
SRVC        .                                             UNKNOWN :SERVICE COMPANY
DATE        .                                             UNKNOWN :LOG DATE
UWI         .                                          3060000586 :UNIQUE WELL ID
XCOORD      .                                       597310.050000 :SURFACE X
YCOORD      .                                      2143045.730000 :SURFACE Y
LAT         .                                           19.380345 :LATITUDE
LON         .                                          -92.073358 :LONGITUDE
ELEV        .M                                            27.7000 :SURFACE ELEV
ELEV_TYPE   .                                                  KB :ELEV TYPE
~CURVE INFORMATION
#MNEMONIC.UNIT        API CODE       : CURVE DESCRIPTION
#------------------------------------------------------------------------------
DEPTH    .M                          : Measured Depth
CALI     .inches      UNKNOWN        : CALI:Import:rC:NONE:v0 (auto-composite)
CGR      .API         UNKNOWN        : CGR:Import:rC:NONE:v0 (auto-composite)
DRHO     .g/cm3       UNKNOWN        : DRHO:Import:rC:NONE:v0 (auto-composite)
DT       .us/ft       UNKNOWN        : DT:Import:rC:NONE:v0 (auto-composite)
GR       .API         UNKNOWN        : GR:Import:rC:NONE:v0 (auto-composite)
ILD      .ohm.m       UNKNOWN        : ILD:Import:rC:NONE:v0 (auto-composite)
ILM      .ohm.m       UNKNOWN        : ILM:Import:rC:NONE:v0 (auto-composite)
LLD      .ohm.m       UNKNOWN        : LLD:Import:rC:NONE:v0 (auto-composite)
LLS      .ohm.m       UNKNOWN        : LLS:Import:rC:NONE:v0 (auto-composite)
MSFL     .ohm.m       UNKNOWN        : MSFL:Import:rC:NONE:v0 (auto-composite)
NPHI     .v/v_decimal UNKNOWN        : NPHI:Import:rC:NONE:v0 (auto-composite)
PEF      .b/elec      UNKNOWN        : PEF:Import:rC:NONE:v0 (auto-composite)
POTA     .wtpercent   UNKNOWN        : POTA:Import:rC:NONE:v0 (auto-composite)
RHOB     .g/cm3       UNKNOWN        : RHOB:Import:rC:NONE:v0 (auto-composite)
SP       .mV          UNKNOWN        : SP:Import:rC:NONE:v0 (auto-composite)
THOR     .ppm         UNKNOWN        : THOR:Import:rC:NONE:v0 (auto-composite)
URAN     .ppm         UNKNOWN        : URAN:Import:rC:NONE:v0 (auto-composite)
~A     DEPTH         CALI          CGR         DRHO           DT           GR          ILD          ILM          LLD          LLS         MSFL         NPHI          PEF         POTA         RHOB           SP         THOR         URAN
# ...
   2406.2441       7.1840       1.7187       0.0155    -999.2500      23.2894    -999.2500    -999.2500    3143.0339    1987.1907       1.4210       0.0858       2.9125       0.0002       2.8060    -333.1250       0.4466       2.3959
   2406.3965       7.1840       1.5770       0.0090    -999.2500      23.9760    -999.2500    -999.2500    3115.9861    1992.1379       1.4210       0.0858       2.8570       0.0003       2.7940    -333.1250       0.3870       2.4810
   2406.5488       7.1840       0.9875       0.0095    -999.2500      24.6055    -999.2500    -999.2500    3134.4741    1986.5187       1.4210       0.0858       2.8780       0.0003       2.7980    -333.1250       0.2083       2.5908
   2406.7012       7.1840       0.3960       0.0100    -999.2500      25.2370    -999.2500    -999.2500    3152.9929    1980.8900       1.4210       0.0858       2.8990       0.0003       2.8020    -333.1250       0.0290       2.7010
   2406.8535       7.1840       0.4060       0.0165    -999.2500      26.4664    -999.2500    -999.2500    3138.9751    1983.7924       1.4210       0.0858       3.0773       0.0002       2.8170    -333.1250       0.0325       2.8597
   2407.0061       7.1840       0.4160       0.0230    -999.2500      27.7000    -999.2500    -999.2500    3124.9319    1986.7000       1.4210       0.0858       3.2560       0.0002       2.8320    -333.1250       0.0360       3.0190
   2407.1584       7.1840       0.5607       0.0220    -999.2500      25.9516    -999.2500    -999.2500    3154.0488    1991.9189       1.4210       0.0858       3.2180       0.0002       2.8170    -333.1250       0.0849       2.9252
   2407.3108       7.1840       0.7060       0.0210    -999.2500      24.1970    -999.2500    -999.2500    3183.2219    1997.1479       1.4210       0.0858       3.1800       0.0002       2.8020    -333.1250       0.1340       2.8310
   2407.4631       7.1840       2.0955       0.0185    -999.2500      25.7327    -999.2500    -999.2500    3172.3872    1996.0985       1.4210       0.0858       3.0821       0.0014       2.8025    -333.1250       0.3247       2.6329
   2407.6157       7.1840       3.4900       0.0160    -999.2500      27.2740    -999.2500    -999.2500    3161.5300    1995.0470       1.4210       0.0858       2.9840       0.0026       2.8030    -333.1250       0.5160       2.4340
   2407.7681       7.1840       5.3545       0.0135    -999.2500      27.2575    -999.2500    -999.2500    3136.1387    1991.5168       1.4210       0.0858       3.1054       0.0025       2.8050    -333.1250       0.7735       2.3357
   2407.9204       7.1840       7.2260       0.0110    -999.2500      27.2410    -999.2500    -999.2500    3110.6919    1987.9790       1.4210       0.0858       3.2270       0.0025       2.8070    -333.1250       1.0320       2.2370
   2408.0728       7.1840       6.5118       0.0100    -999.2500      26.1667    -999.2500    -999.2500    3080.9182    1992.2590       1.4210       0.0858       3.2050       0.0022       2.8055    -333.1250       1.0025       2.1871
   2408.2253       7.1840       5.7960       0.0090    -999.2500      25.0900    -999.2500    -999.2500    3051.0759    1996.5490       1.4210       0.0858       3.1830       0.0019       2.8040    -333.1250       0.9730       2.1370
   2408.3777       7.1840       6.1700       0.0090    -999.2500      26.3689    -999.2500    -999.2500    3065.9333    1996.2504       1.4210       0.0858       3.1490       0.0029       2.7990    -333.1250       0.6674       2.1789
   2408.5300       7.1840       6.5450       0.0090    -999.2500      27.6510    -999.2500    -999.2500    3080.8269    1995.9510       1.4210       0.0858       3.1150       0.0040       2.7940    -333.1250       0.3610       2.2210
   2408.6824       7.1840       8.6273       0.0115    -999.2500      27.4697    -999.2500    -999.2500    3102.5417    1994.8280       1.4210       0.0858       3.0795       0.0025       2.7965    -333.1250       1.6479       2.0008
   2408.8347       7.1840      10.7150       0.0140    -999.2500      27.2880    -999.2500    -999.2500    3124.3120    1993.7020       1.4210       0.0858       3.0440       0.0010       2.7990    -333.1250       2.9380       1.7800
   2408.9873       7.1840       8.9658       0.0130    -999.2500      26.4102    -999.2500    -999.2500    3131.9946    1991.4701       1.4210       0.0858       2.9791       0.0012       2.8020    -333.1250       2.5695       1.8319
   2409.1396       7.1840       7.2120       0.0120    -999.2500      25.5300    -999.2500    -999.2500    3139.6980    1989.2321       1.4210       0.0858       2.9140       0.0015       2.8050    -333.1250       2.2000       1.8840
   2409.2920       7.1840       7.3992       0.0090    -999.2500      25.7277    -999.2500    -999.2500    3149.4832    1989.2321       1.4210       0.0858       2.9140       0.0021       2.8040    -333.1250       1.6458       1.9569
   2409.4443       7.1840       7.5870       0.0060    -999.2500      25.9260    -999.2500    -999.2500    3159.2959    1989.2321       1.4210    -999.2500       2.9140       0.0028       2.8030    -333.1250       1.0900       2.0300
   2409.5969       7.1840       7.0143       0.0010    -999.2500      25.5356    -999.2500    -999.2500    -999.2500    -999.2500    -999.2500    -999.2500       2.9140       0.0025       2.7990    -333.1250       1.0146       2.0759
   2409.7493       7.1840       6.4400      -0.0040    -999.2500      25.1440    -999.2500    -999.2500    -999.2500    -999.2500    -999.2500    -999.2500       2.9140       0.0022       2.7950    -999.2500       0.9390       2.1220
   2409.9016       7.1840       4.1380      -0.0040    -999.2500      25.2269    -999.2500    -999.2500    -999.2500    -999.2500    -999.2500    -999.2500       2.9140       0.0015       2.7950    -999.2500       0.7668       2.3741
   2410.0540       7.1840       1.8290      -0.0040    -999.2500      25.3100    -999.2500    -999.2500    -999.2500    -999.2500    -999.2500    -999.2500       2.9140       0.0008       2.7950    -999.2500       0.5940       2.6270
   2410.2065    -999.2500       2.5489    -999.2500    -999.2500      26.0269    -999.2500    -999.2500    -999.2500    -999.2500    -999.2500    -999.2500    -999.2500       0.0013    -999.2500    -999.2500       0.3025       2.6140
   2410.3589    -999.2500       3.2710    -999.2500    -999.2500      26.7460    -576.8290    -576.8290    -999.2500    -999.2500    -999.2500    -999.2500    -999.2500       0.0018    -999.2500    -576.8290       0.0100       2.6010
   2410.5112    -999.2500       5.0076    -999.2500    -999.2500      27.7868    -288.8918    -288.8918    -999.2500    -999.2500    -999.2500    -999.2500    -999.2500       0.0029    -999.2500    -288.8918       0.0140       2.5236
   2410.6636    -999.2500       6.7500    -999.2500    -999.2500      28.8310       0.0000       0.0000    -999.2500    -999.2500    -999.2500    -999.2500    -999.2500       0.0041    -999.2500       0.0000       0.0180       2.4460
   2410.8159    -999.2500       8.4885    -999.2500    -999.2500      29.2508       0.0000       0.0000    -999.2500    -999.2500    -999.2500    -999.2500    -999.2500       0.0056    -999.2500       0.0000       0.0664       2.2923
   2410.9685    -999.2500      10.2330    -999.2500    -999.2500      29.6720       0.0000       0.0000    -999.2500    -999.2500    -999.2500    -999.2500    -999.2500    -999.2500    -999.2500       0.0000       0.1150       2.1380
