#------------------------------------------------------------------------------
#
#   Created by  : [OpenWorks] Log Export Utility (LEXP)
#   Created on  : 2016-05-19 11:01:21
#   Project     : CANT971
#   User        : R5K
#   Interpreter : PEP
#
#------------------------------------------------------------------------------
~VERSION INFORMATION
VERS. 2.0 : CWLS Log ASCII Standard - version 2.0
WRAP.  NO : One line per depth step
~WELL INFORMATION
#MNEMONIC   .UNIT                                           VALUE :DESCRIPTION
#------------------------------------------------------------------------------
STRT        .M                                          1238.0980 :START DEPTH
STOP        .M                                          2410.9685 :STOP DEPTH
STEP        .M                                             0.1524 :STEP
NULL        .                                           -999.2500 :NULL VALUE
COMP        .                                   PEMEX EXPL & PROD :COMPANY
WELL        .                                                247D :WELL
FLD         .                                           CANTARELL :FIELD
LOC         .                                             UNKNOWN :LOCATION
CNTY        .                                      CD. DEL CARMEN :COUNTY
STAT        .                                            CAMPECHE :STATE
CTRY        .                                              MEXICO :COUNTRY
SRVC        .                                             UNKNOWN :SERVICE COMPANY
DATE        .                                             UNKNOWN :LOG DATE
UWI         .                                          3060000586 :UNIQUE WELL ID
XCOORD      .                                       597310.050000 :SURFACE X
YCOORD      .                                      2143045.730000 :SURFACE Y
LAT         .                                           19.380345 :LATITUDE
LON         .                                          -92.073358 :LONGITUDE
ELEV        .M                                            27.7000 :SURFACE ELEV
ELEV_TYPE   .                                                  KB :ELEV TYPE
~CURVE INFORMATION
#MNEMONIC.UNIT        API CODE       : CURVE DESCRIPTION
#------------------------------------------------------------------------------
DEPTH    .M                          : Measured Depth
CALI     .inches      UNKNOWN        : CALI:Import:rC:NONE:v0 (auto-composite)
CGR      .API         UNKNOWN        : CGR:Import:rC:NONE:v0 (auto-composite)
DRHO     .g/cm3       UNKNOWN        : DRHO:Import:rC:NONE:v0 (auto-composite)
DT       .us/ft       UNKNOWN        : DT:Import:rC:NONE:v0 (auto-composite)
GR       .API         UNKNOWN        : GR:Import:rC:NONE:v0 (auto-composite)
ILD      .ohm.m       UNKNOWN        : ILD:Import:rC:NONE:v0 (auto-composite)
ILM      .ohm.m       UNKNOWN        : ILM:Import:rC:NONE:v0 (auto-composite)
LLD      .ohm.m       UNKNOWN        : LLD:Import:rC:NONE:v0 (auto-composite)
LLS      .ohm.m       UNKNOWN        : LLS:Import:rC:NONE:v0 (auto-composite)
MSFL     .ohm.m       UNKNOWN        : MSFL:Import:rC:NONE:v0 (auto-composite)
NPHI     .v/v_decimal UNKNOWN        : NPHI:Import:rC:NONE:v0 (auto-composite)
PEF      .b/elec      UNKNOWN        : PEF:Import:rC:NONE:v0 (auto-composite)
POTA     .wtpercent   UNKNOWN        : POTA:Import:rC:NONE:v0 (auto-composite)
RHOB     .g/cm3       UNKNOWN        : RHOB:Import:rC:NONE:v0 (auto-composite)
SP       .mV          UNKNOWN        : SP:Import:rC:NONE:v0 (auto-composite)
THOR     .ppm         UNKNOWN        : THOR:Import:rC:NONE:v0 (auto-composite)
URAN     .ppm         UNKNOWN        : URAN:Import:rC:NONE:v0 (auto-composite)
~A     DEPTH         CALI          CGR         DRHO           DT           GR          ILD          ILM          LLD          LLS         MSFL         NPHI          PEF         POTA         RHOB           SP         THOR         URAN
# ...
   2192.8840    -999.2500      14.6270    -999.2500    -999.2500      35.6504       2.7015      10.2350    -999.2500    -999.2500    -999.2500    -999.2500    -999.2500       0.0071    -999.2500     453.1263       0.8097       2.2639
   2193.0364    -999.2500      12.5270    -999.2500    -999.2500      34.8150       2.7010      10.2300    -999.2500    -999.2500    -999.2500    -999.2500    -999.2500       0.0075    -999.2500     452.3750       0.1030       2.3390
   2193.1887    -999.2500      12.8005    -999.2500    -999.2500      33.4428       2.7005      10.2350    -999.2500    -999.2500    -999.2500    -999.2500    -999.2500       0.0074    -999.2500     453.2492       0.2213       2.2002
   2193.3413    -999.2500      13.0750    -999.2500    -999.2500      32.0680       2.7000      10.2400    -999.2500    -999.2500    -999.2500    -999.2500    -999.2500       0.0074    -999.2500     454.1250       0.3400       2.0610
   2193.4937    -999.2500      13.4199    -999.2500    -999.2500      32.6359       2.7000      10.2340    -999.2500    -999.2500    -999.2500    -999.2500    -999.2500       0.0068    -999.2500     453.3757       0.6340       2.1394
   2193.6460    -999.2500      13.7660    -999.2500    -999.2500      33.2050       2.7000      10.2280    -999.2500    -999.2500    -999.2500    -999.2500    -999.2500       0.0062    -999.2500     452.6250       0.9290       2.2180
   2193.7983    -999.2500      14.1373    -999.2500    -999.2500      33.9447       2.7000      10.2190    -999.2500    -999.2500    -999.2500    -999.2500    -999.2500       0.0064    -999.2500     452.9946       1.0977       2.2110
   2193.9509    -999.2500      14.5100    -999.2500    -999.2500      34.6860       2.7000      10.2100    -999.2500    -999.2500    -999.2500    -999.2500    -999.2500       0.0066    -999.2500     453.3650       1.2670       2.2040
   2194.1033    -999.2500      15.6648    -999.2500    -999.2500      33.6547       2.7010      10.2160    -999.2500    -999.2500    -999.2500    -999.2500    -999.2500       0.0065    -999.2500     453.6936       1.7216       1.8986
   2194.2556    -999.2500      16.8240    -999.2500    -999.2500      32.6210       2.7020      10.2220    -999.2500    -999.2500    -999.2500    -999.2500    -999.2500       0.0064    -999.2500     454.0230       2.1780       1.5920
   2194.4080    -999.2500      15.8497    -999.2500    -999.2500      31.1203       2.7010      10.2260    -999.2500    -999.2500    -999.2500    -999.2500    -999.2500       0.0062    -999.2500     454.8231       1.9188       1.6125
   2194.5603    -999.2500      14.8730    -999.2500    -999.2500      29.6160       2.7000      10.2300    -999.2500    -999.2500    -999.2500    -999.2500    -999.2500       0.0059    -999.2500     455.6250       1.6590       1.6330
   2194.7129    -999.2500      13.0253    -999.2500    -999.2500      28.4280       2.7005      10.2200    -999.2500    -999.2500    -999.2500    -999.2500    -999.2500       0.0054    -999.2500     455.1256       1.3764       1.7064
   2194.8652    -999.2500      11.1730    -999.2500    -999.2500      27.2370       2.7010      10.2100    -999.2500    -999.2500    -999.2500    -999.2500    -999.2500       0.0048    -999.2500     454.6250       1.0930       1.7800
   2195.0176    -999.2500       7.1528    -999.2500    -999.2500      25.1817       2.7010      10.2100    -999.2500    -999.2500    -999.2500    -999.2500    -999.2500       0.0025    -999.2500     454.6994       0.9996       1.9972
   2195.1699    -999.2500       3.1220    -999.2500    -999.2500      23.1210       2.7010      10.2100    -999.2500    -999.2500    -999.2500    -999.2500    -999.2500       0.0002    -999.2500     454.7740       0.9060       2.2150
   2195.3225    -999.2500       4.6184    -999.2500    -999.2500      24.6005       2.7015      10.2100    -999.2500    -999.2500    -999.2500    -999.2500    -999.2500       0.0007    -999.2500     455.0741       1.1432       2.2130
   2195.4749    -999.2500       6.1190    -999.2500    -999.2500      26.0840       2.7020      10.2100    -999.2500    -999.2500    -999.2500    -999.2500    -999.2500       0.0011    -999.2500     455.3750       1.3810       2.2110
   2195.6272    -999.2500       9.5386    -999.2500    -999.2500      28.6528       2.7020      10.2100    -999.2500    -999.2500    -999.2500    -999.2500    -999.2500       0.0028    -999.2500     -68.9329       1.6022       2.1171
   2195.7795    -999.2500      12.9680    -999.2500    -999.2500      31.2290    -999.2500    -999.2500      89.0000   76222.8750    -999.2500    -999.2500    -999.2500       0.0045    -999.2500    -594.7500       1.8240       2.0230
   2195.9321    -999.2500       9.4343    -999.2500    -999.2500      30.5725    -999.2500    -999.2500      89.0000   75990.4141    -999.2500    -999.2500    -999.2500       0.0030    -999.2500    -590.4205       1.4496       2.3415
   2196.0845    -999.2500       5.8900    -999.2500    -999.2500      29.9140    -999.2500    -999.2500    -999.2500   75757.6250       0.1700    -999.2500    -999.2500       0.0016    -999.2500    -586.0780       1.0740       2.6610
   2196.2368    -999.2500       8.2293    -999.2500    -999.2500      30.3628    -999.2500    -999.2500    -999.2500   74746.5547       0.5080    -999.2500    -999.2500       0.0025    -999.2500    -562.9502       1.5088       2.4518
   2196.3892    -999.2500      10.5760    -999.2500    -999.2500      30.8130    -999.2500    -999.2500    -999.2500   73733.9453       0.8460    -999.2500    -999.2500       0.0034    -999.2500    -539.7500       1.9450       2.2420
   2196.5415    -999.2500      12.3866    -999.2500    -999.2500      31.2327    -999.2500    -999.2500    -999.2500   59047.2852       0.8015    -999.2500    -999.2500       0.0045    -999.2500    -553.7385       1.8691       2.0962
   2196.6941    -999.2500      14.2030    -999.2500    -999.2500      31.6530    -999.2500    -999.2500    -999.2500   44336.3906       0.7570    -999.2500    -999.2500       0.0055    -999.2500    -567.7500       1.7930       1.9500
   2196.8464    -999.2500      13.0809    -999.2500    -999.2500      32.1281    -999.2500    -999.2500    -999.2500   59720.8438       0.7250    -999.2500    -999.2500       0.0053    -999.2500    -557.5091       1.4451       2.1182
   2196.9988    -999.2500      11.9550    -999.2500    -999.2500      32.6040    -999.2500    -999.2500    -999.2500   75132.5938       0.6930    -999.2500    -999.2500       0.0051    -999.2500    -547.2500       1.0960       2.2870
   2197.1511    -999.2500      10.3343    -999.2500    -999.2500      32.9926    -999.2500    -999.2500    -999.2500   73381.2031       0.3935    -999.2500    -999.2500       0.0051    -999.2500    -554.4931       0.5864       2.5191
   2197.3037    -391.2440       8.7080    -396.2540    -999.2500      33.3820    -999.2500    -999.2500    -999.2500   71626.4844       0.0940    -999.2500    -379.5860       0.0051    -394.3470    -561.7500       0.0750       2.7520
   2197.4561    -191.9866      11.4345    -198.6303    -999.2500      35.9249    -999.2500    -999.2500    -999.2500   44387.1133       0.0965      -1.7166    -172.1649       0.0065    -196.1004    -558.0038       0.1973       2.7340
   2197.6084       7.3550      14.1710      -0.9230    -999.2500      38.4730    -999.2500    -999.2500    -999.2500   17092.5508       0.0990       0.1069      35.3440       0.0078       2.2300    -554.2500       0.3200       2.7160
   2197.7607       7.3550      14.0427      -0.9255    -999.2500      37.6139    -999.2500    -999.2500    -999.2500   46644.6875       0.8823       0.3342      34.9221       0.0075       2.2350    -556.4976       0.4747       2.6232
   2197.9133       7.3550      13.9140      -0.9280    -999.2500      36.7530    -999.2500    -999.2500    -999.2500   76260.4688       1.6660       0.3365      34.5000       0.0073       2.2400    -558.7500       0.6300       2.5300
   2198.0657       7.3550      13.4185      -0.9360    -999.2500      35.7147    -999.2500    -999.2500    -999.2500   76247.2109       1.1827       0.3265     210.8780       0.0068       2.2330    -556.0031       0.7413       2.4522
