#------------------------------------------------------------------------------
#
#   Created by  : [OpenWorks] Log Export Utility (LEXP)
#   Created on  : 2016-05-19 11:01:21
#   Project     : CANT971
#   User        : R5K
#   Interpreter : PEP
#
#------------------------------------------------------------------------------
~VERSION INFORMATION
VERS. 2.0 : CWLS Log ASCII Standard - version 2.0
WRAP.  NO : One line per depth step
~WELL INFORMATION
#MNEMONIC   .UNIT                                           VALUE :DESCRIPTION
#------------------------------------------------------------------------------
STRT        .M                                          1238.0980 :START DEPTH
STOP        .M                                          2410.9685 :STOP DEPTH
STEP        .M                                             0.1524 :STEP
NULL        .                                           -999.2500 :NULL VALUE
COMP        .                                   PEMEX EXPL & PROD :COMPANY
WELL        .                                                247D :WELL
FLD         .                                           CANTARELL :FIELD
LOC         .                                             UNKNOWN :LOCATION
CNTY        .                                      CD. DEL CARMEN :COUNTY
STAT        .                                            CAMPECHE :STATE
CTRY        .                                              MEXICO :COUNTRY
SRVC        .                                             UNKNOWN :SERVICE COMPANY
DATE        .                                             UNKNOWN :LOG DATE
UWI         .                                          3060000586 :UNIQUE WELL ID
XCOORD      .                                       597310.050000 :SURFACE X
YCOORD      .                                      2143045.730000 :SURFACE Y
LAT         .                                           19.380345 :LATITUDE
LON         .                                          -92.073358 :LONGITUDE
ELEV        .M                                            27.7000 :SURFACE ELEV
ELEV_TYPE   .                                                  KB :ELEV TYPE
~CURVE INFORMATION
#MNEMONIC.UNIT        API CODE       : CURVE DESCRIPTION
#------------------------------------------------------------------------------
DEPTH    .M                          : Measured Depth
CALI     .inches      UNKNOWN        : CALI:Import:rC:NONE:v0 (auto-composite)
CGR      .API         UNKNOWN        : CGR:Import:rC:NONE:v0 (auto-composite)
DRHO     .g/cm3       UNKNOWN        : DRHO:Import:rC:NONE:v0 (auto-composite)
DT       .us/ft       UNKNOWN        : DT:Import:rC:NONE:v0 (auto-composite)
GR       .API         UNKNOWN        : GR:Import:rC:NONE:v0 (auto-composite)
ILD      .ohm.m       UNKNOWN        : ILD:Import:rC:NONE:v0 (auto-composite)
ILM      .ohm.m       UNKNOWN        : ILM:Import:rC:NONE:v0 (auto-composite)
LLD      .ohm.m       UNKNOWN        : LLD:Import:rC:NONE:v0 (auto-composite)
LLS      .ohm.m       UNKNOWN        : LLS:Import:rC:NONE:v0 (auto-composite)
MSFL     .ohm.m       UNKNOWN        : MSFL:Import:rC:NONE:v0 (auto-composite)
NPHI     .v/v_decimal UNKNOWN        : NPHI:Import:rC:NONE:v0 (auto-composite)
PEF      .b/elec      UNKNOWN        : PEF:Import:rC:NONE:v0 (auto-composite)
POTA     .wtpercent   UNKNOWN        : POTA:Import:rC:NONE:v0 (auto-composite)
RHOB     .g/cm3       UNKNOWN        : RHOB:Import:rC:NONE:v0 (auto-composite)
SP       .mV          UNKNOWN        : SP:Import:rC:NONE:v0 (auto-composite)
THOR     .ppm         UNKNOWN        : THOR:Import:rC:NONE:v0 (auto-composite)
URAN     .ppm         UNKNOWN        : URAN:Import:rC:NONE:v0 (auto-composite)
~A     DEPTH         CALI          CGR         DRHO           DT           GR          ILD          ILM          LLD          LLS         MSFL         NPHI          PEF         POTA         RHOB           SP         THOR         URAN
# ...
   2219.5540       8.5790       6.0870       0.1570      26.6130      26.0720    -999.2500    -999.2500      50.1760      67.8060      29.8590       0.1839       3.4200       0.0017       2.4120    -279.6250       1.0520       2.1820
   2219.7065       8.6644       9.6848       0.1715      45.4310      32.2272    -999.2500    -999.2500      64.1579      94.8881      39.0472       0.2054       3.1487       0.0030       2.4430    -280.9978       1.5602       2.4815
   2219.8589       8.7500      13.2940       0.1860      64.3090      38.4020    -999.2500    -999.2500      78.1620     122.0130      48.2500       0.2176       2.8770       0.0042       2.4740    -282.3750       2.0700       2.7820
   2220.0112       8.8394      18.2343       0.1575      79.4793      46.9079    -999.2500    -999.2500      62.1422     104.0413      27.2471       0.2052       2.9909       0.0066       2.5130    -281.8578       2.4019       3.1768
   2220.1636       8.9290      23.1910       0.1290      94.7000      55.4420    -999.2500    -999.2500      46.0950      86.0390       6.2420       0.1934       3.1050       0.0090       2.5520    -281.3390       2.7350       3.5730
   2220.3159       9.1658      25.5140       0.0990      79.3764      59.6002    -999.2500    -999.2500   18519.9121   25536.0781       6.2810       0.2057       3.0076       0.0100       2.4656    -280.2330       2.9791       3.7492
   2220.4685       9.4030      27.8450       0.0690      64.0000      63.7660    -999.2500    -999.2500   37027.6289   51032.8203       6.3200       0.2248       2.9100       0.0109       2.3790    -279.1250       3.2240       3.9260
   2220.6208       9.5878      24.3647       0.1025      69.1323      63.0652    -999.2500    -999.2500   18929.4160   26106.5430      16.3847       0.2465       3.0698       0.0094       2.4015    -279.4996       3.0069       4.1666
   2220.7732       9.7730      20.8720       0.1360      74.2830      62.3630    -999.2500    -999.2500     795.7420    1131.4260      26.4530       0.2609       3.2300       0.0078       2.4240    -279.8750       2.7890       4.4080
   2220.9255       9.2950      21.8088       0.1305      89.1640      64.4338    -999.2500    -999.2500     436.0798     613.8441      23.4797       0.2456       4.0127       0.0092       2.4665    -279.2666       2.0648       4.5822
   2221.0781       8.8160      22.7490       0.1250     104.1000      66.5090    -999.2500    -999.2500      75.6670      95.1820      20.5050       0.2162       4.7970       0.0107       2.5090    -278.6570       1.3380       4.7570
   2221.2305       8.5216      26.1151       0.1635      89.9855      65.3453    -999.2500    -999.2500      48.1214      67.0096      16.2538       0.1610       4.2097       0.0123       2.6255    -278.1416       1.7298       4.4002
   2221.3828       8.2270      29.4940       0.2020      75.8170      64.1790    -999.2500    -999.2500      20.5150      38.7750      12.0000       0.1185       3.6220       0.0140       2.7420    -277.6250       2.1230       4.0420
   2221.5352       8.4584      25.4757       0.1780      51.3567      57.5827    -999.2500    -999.2500      12.6652      22.8871      39.3025       0.1446       3.0152       0.0129       2.5651    -278.4086       1.1466       3.5571
   2221.6877       8.6900      21.4480       0.1540      26.8000      50.9710    -999.2500    -999.2500       4.7970       6.9620      66.6250       0.1853       2.4080       0.0117       2.3880    -279.1940       0.1680       3.0710
   2221.8401       9.2353      17.0145       0.1310      34.2269      45.3539    -999.2500    -999.2500       7.5186      10.8402      53.0413       0.2196       2.6559       0.0095       2.2915    -279.9086       0.2089       3.1389
   2221.9924       9.7810      12.5700       0.1080      41.6840      39.7230    -999.2500    -999.2500      10.2470      14.7280      39.4460       0.2523       2.9040       0.0073       2.1950    -280.6250       0.2500       3.2070
   2222.1448       9.1488      10.6959       0.0810      67.7872      45.8381    -999.2500    -999.2500    2766.8079    4315.6816      21.3784       0.2861       2.7391       0.0063       2.1585    -278.8773       0.1701       3.9690
   2222.2971       8.5160       8.8170       0.0540      94.0000      51.9690    -999.2500    -999.2500    5530.5098    8627.7773       3.2930       0.3107       2.5740       0.0052       2.1220    -277.1250       0.0900       4.7330
   2222.4497       8.7579       9.6434       0.0275      73.2708      57.0516    -999.2500    -999.2500    2999.5564    4685.4824       7.1094       0.3013       3.2691       0.0057       2.1505    -277.3871       0.1200       5.2283
   2222.6021       9.0000      10.4720       0.0010      52.4520      62.1480    -999.2500    -999.2500     461.7330     732.4870      10.9300       0.2674       3.9650       0.0061       2.1790    -277.6500       0.1500       5.7250
   2222.7544       8.6097       9.9497       0.0210      41.4901      60.9981    -999.2500    -999.2500     269.0843     431.0724     918.6542       0.1750       4.5232       0.0053       2.3829    -278.3745       0.3253       5.6381
   2222.9067       8.2190       9.4260       0.0410      30.4970      59.8450    -999.2500    -999.2500      75.8880     128.8010    1827.5000       0.0923       5.0820       0.0046       2.5870    -279.1010       0.5010       5.5510
   2223.0593       8.2300      10.8828       0.0830       6.1346      50.9073    -999.2500    -999.2500      41.8397      68.1983     921.5002       0.0949       4.3775       0.0050       2.5440    -280.1115       0.7451       4.4167
   2223.2117       8.2410      12.3440       0.1250     -18.3000      41.9430    -999.2500    -999.2500       7.7450       7.5130      14.2660       0.1327       3.6720       0.0054       2.5010    -281.1250       0.9900       3.2790
   2223.3640       9.0769      12.3235       0.1445      17.5051      42.0728    -999.2500    -999.2500      15.6032      18.8021      58.7249       0.2191       3.3557       0.0049       2.3501    -280.7506       1.2511       3.2950
   2223.5164       9.9140      12.3030       0.1640      53.4210      42.2030    -999.2500    -999.2500      23.4730      30.1080     103.2500       0.2985       3.0390       0.0044       2.1990    -280.3750       1.5130       3.3110
   2223.6687       9.8975      18.6168       0.1485      74.7262      50.4882    -999.2500    -999.2500     802.1690    1256.1985      57.2361       0.3113       3.0055       0.0065       2.2370    -281.1238       2.5229       3.7358
   2223.8213       9.8810      24.9510       0.1330      96.1000      58.8000    -999.2500    -999.2500    1582.1219    2484.2681      11.1480       0.3051       2.9720       0.0086       2.2750    -281.8750       3.5360       4.1620
   2223.9736       9.7057      24.3006       0.1145      90.7704      62.2258    -999.2500    -999.2500     988.2542    1540.3051      17.9330       0.2905       2.9455       0.0082       2.2450    -280.7279       3.4546       4.4375
   2224.1260       9.5300      23.6480       0.0960      85.4230      65.6630    -999.2500    -999.2500     393.3540     594.7010      24.7190       0.2734       2.9190       0.0079       2.2150    -279.5770       3.3730       4.7140
   2224.2783       9.1514      23.3311       0.1070      83.1799      64.0885    -999.2500    -999.2500    3210.7305    4189.4907      21.0160       0.2550       2.7916       0.0092       2.2360    -278.8517       2.6063       4.5433
   2224.4309       8.7720      23.0130       0.1180      80.9290      62.5110    -999.2500    -999.2500    6033.3638    7790.9878      17.3120       0.2317       2.6640       0.0106       2.2570    -278.1250       1.8370       4.3720
   2224.5833       8.6386      23.9453       0.1175      77.6704      60.7537    -999.2500    -999.2500    3544.1672    4603.3423      17.3565       0.1926       3.1081       0.0119       2.3509    -279.4986       1.4921       4.0256
   2224.7356       8.5050      24.8810       0.1170      74.4000      58.9930    -999.2500    -999.2500    1050.0170    1409.3530      17.4010       0.1546       3.5530       0.0131       2.4450    -280.8750       1.1460       3.6780
