#------------------------------------------------------------------------------
#
#   Created by  : [OpenWorks] Log Export Utility (LEXP)
#   Created on  : 2016-05-19 11:01:21
#   Project     : CANT971
#   User        : R5K
#   Interpreter : PEP
#
#------------------------------------------------------------------------------
~VERSION INFORMATION
VERS. 2.0 : CWLS Log ASCII Standard - version 2.0
WRAP.  NO : One line per depth step
~WELL INFORMATION
#MNEMONIC   .UNIT                                           VALUE :DESCRIPTION
#------------------------------------------------------------------------------
STRT        .M                                          1238.0980 :START DEPTH
STOP        .M                                          2410.9685 :STOP DEPTH
STEP        .M                                             0.1524 :STEP
NULL        .                                           -999.2500 :NULL VALUE
COMP        .                                   PEMEX EXPL & PROD :COMPANY
WELL        .                                                247D :WELL
FLD         .                                           CANTARELL :FIELD
LOC         .                                             UNKNOWN :LOCATION
CNTY        .                                      CD. DEL CARMEN :COUNTY
STAT        .                                            CAMPECHE :STATE
CTRY        .                                              MEXICO :COUNTRY
SRVC        .                                             UNKNOWN :SERVICE COMPANY
DATE        .                                             UNKNOWN :LOG DATE
UWI         .                                          3060000586 :UNIQUE WELL ID
XCOORD      .                                       597310.050000 :SURFACE X
YCOORD      .                                      2143045.730000 :SURFACE Y
LAT         .                                           19.380345 :LATITUDE
LON         .                                          -92.073358 :LONGITUDE
ELEV        .M                                            27.7000 :SURFACE ELEV
ELEV_TYPE   .                                                  KB :ELEV TYPE
~CURVE INFORMATION
#MNEMONIC.UNIT        API CODE       : CURVE DESCRIPTION
#------------------------------------------------------------------------------
DEPTH    .M                          : Measured Depth
CALI     .inches      UNKNOWN        : CALI:Import:rC:NONE:v0 (auto-composite)
CGR      .API         UNKNOWN        : CGR:Import:rC:NONE:v0 (auto-composite)
DRHO     .g/cm3       UNKNOWN        : DRHO:Import:rC:NONE:v0 (auto-composite)
DT       .us/ft       UNKNOWN        : DT:Import:rC:NONE:v0 (auto-composite)
GR       .API         UNKNOWN        : GR:Import:rC:NONE:v0 (auto-composite)
ILD      .ohm.m       UNKNOWN        : ILD:Import:rC:NONE:v0 (auto-composite)
ILM      .ohm.m       UNKNOWN        : ILM:Import:rC:NONE:v0 (auto-composite)
LLD      .ohm.m       UNKNOWN        : LLD:Import:rC:NONE:v0 (auto-composite)
LLS      .ohm.m       UNKNOWN        : LLS:Import:rC:NONE:v0 (auto-composite)
MSFL     .ohm.m       UNKNOWN        : MSFL:Import:rC:NONE:v0 (auto-composite)
NPHI     .v/v_decimal UNKNOWN        : NPHI:Import:rC:NONE:v0 (auto-composite)
PEF      .b/elec      UNKNOWN        : PEF:Import:rC:NONE:v0 (auto-composite)
POTA     .wtpercent   UNKNOWN        : POTA:Import:rC:NONE:v0 (auto-composite)
RHOB     .g/cm3       UNKNOWN        : RHOB:Import:rC:NONE:v0 (auto-composite)
SP       .mV          UNKNOWN        : SP:Import:rC:NONE:v0 (auto-composite)
THOR     .ppm         UNKNOWN        : THOR:Import:rC:NONE:v0 (auto-composite)
URAN     .ppm         UNKNOWN        : URAN:Import:rC:NONE:v0 (auto-composite)
~A     DEPTH         CALI          CGR         DRHO           DT           GR          ILD          ILM          LLD          LLS         MSFL         NPHI          PEF         POTA         RHOB           SP         THOR         URAN
# ...
   2363.5720       7.4551       0.3725       0.0220      50.2665      55.0006    -999.2500    -999.2500    1931.4346    1013.5148      64.8316       0.0773       2.8274       0.0002       2.7625    -336.5925       0.0020       6.0516
   2363.7244       7.3790       0.3700       0.0270      49.3000      54.2820    -999.2500    -999.2500    1722.1370     788.2810      35.7190       0.0779       2.8910       0.0002       2.8000    -339.1130       0.0030       5.9720
   2363.8767       7.3975       0.3585       0.0250      49.4463      50.8013    -999.2500    -999.2500   20347.3262   12797.7695      53.8749       0.0794       2.7856       0.0002       2.7660    -342.7380       0.0040       5.5871
   2364.0293       7.4160       0.3470       0.0230      49.5930      47.3090    -999.2500    -999.2500   39004.4922   24827.8770      72.0620       0.0804       2.6800       0.0002       2.7320    -346.3750       0.0050       5.2010
   2364.1816       7.4734       5.7207       0.0270      50.2913      43.3004    -999.2500    -999.2500   30576.9863   18757.1406      47.8268       0.0791       2.8264       0.0035       2.7620    -345.9148       0.0065       4.1269
   2364.3340       7.5310      11.1130       0.0310      50.9920      39.2780    -999.2500    -999.2500   22133.9629   12675.2285      23.5470       0.0760       2.9730       0.0068       2.7920    -345.4530       0.0080       3.0490
   2364.4863       7.4646       5.7496       0.0465      52.0940      37.9064    -999.2500    -999.2500   11999.3730    6704.2051      47.7806       0.0694       2.9435       0.0035       2.7840    -343.9801       0.0105       3.1703
   2364.6389       7.3980       0.3670       0.0620      53.2000      36.5300    -999.2500    -999.2500    1844.8330     721.4270      72.0620       0.0639       2.9140       0.0002       2.7760    -342.5020       0.0130       3.2920
   2364.7913       7.4095       0.3690       0.0820      52.7793      32.9202    -999.2500    -999.2500    2012.8197     795.7372      39.2159       0.0650       2.7452       0.0002       2.7146    -341.1380       0.0190       3.2476
   2364.9436       7.4210       0.3710       0.1020      52.3570      29.2970    -999.2500    -999.2500    2181.1580     870.2030       6.3010       0.0704       2.5760       0.0002       2.6530    -339.7690       0.0250       3.2030
   2365.0959       7.4914       0.4314       0.1020      47.4379      30.1126    -999.2500    -999.2500    3429.0510    1350.4023      17.5365       0.0832       2.6020       0.0002       2.6595    -335.5192       0.0440       3.2918
   2365.2485       7.5620       0.4920       0.1020      42.5000      30.9300    -999.2500    -999.2500    4679.7148    1831.6680      28.7970       0.0947       2.6280       0.0002       2.6660    -331.2600       0.0630       3.3810
   2365.4009       7.5580       0.4725       0.0975      44.0968      34.1153    -999.2500    -999.2500   13762.2168   10979.7129      23.7414       0.0961       2.8772       0.0002       2.7254    -328.9452       0.0520       3.7293
   2365.5532       7.5540       0.4530       0.0930      45.7000      37.3080    -999.2500    -999.2500   22866.0117   20149.2051      18.6740       0.0957       3.1270       0.0002       2.7850    -326.6250       0.0410       4.0790
   2365.7056       7.4901       0.6792       0.0540      44.5024      40.0142    -999.2500    -999.2500   16920.2617   14060.9941      11.3306       0.0988       3.1120       0.0002       2.6911    -326.8747       0.1034       4.3557
   2365.8579       7.4260       0.9060       0.0150      43.3000      42.7270    -999.2500    -999.2500   10959.8135    7957.7310       3.9690       0.1020       3.0970       0.0002       2.5970    -327.1250       0.1660       4.6330
   2366.0105       7.4395       0.7137       0.0160      44.3857      42.3984    -999.2500    -999.2500    5975.4727    4198.9946       4.7381       0.1026       3.0156       0.0002       2.6035    -327.0002       0.1101       4.6020
   2366.1628       7.4530       0.5210       0.0170      45.4760      42.0690    -999.2500    -999.2500     978.1920     430.5000       5.5080       0.1018       2.9340       0.0002       2.6100    -326.8750       0.0540       4.5710
   2366.3152       7.5259       1.4407       0.0120      49.1635      39.7591    -999.2500    -999.2500     720.2424     346.5718       5.1842       0.0992       3.0419       0.0008       2.6589    -326.9704       0.0560       4.2290
   2366.4675       7.5990       2.3630       0.0070      52.8670      37.4430    -999.2500    -999.2500     461.5900     262.4150       4.8600       0.0928       3.1500       0.0013       2.7080    -327.0660       0.0580       3.8860
   2366.6201       7.9088       2.3266       0.0170      66.7027      37.9702    -999.2500    -999.2500     418.5618     250.0512       3.7392       0.0757       3.1295       0.0013       2.6865    -327.4085       0.0635       3.9484
   2366.7725       8.2190       2.2900       0.0270      80.6000      38.4990    -999.2500    -999.2500     375.4800     237.6720       2.6170       0.0612       3.1090       0.0013       2.6650    -327.7520       0.0690       4.0110
   2366.9248       8.1231       1.4183       0.0765      76.5560      40.2080    -999.2500    -999.2500     326.6064     200.0398       2.6735       0.0634       2.8652       0.0007       2.5221    -328.6871       0.0685       4.2971
   2367.0771       8.0270       0.5440       0.1260      72.5000      41.9220    -999.2500    -999.2500     277.6660     162.3560       2.7300       0.0744       2.6210       0.0002       2.3790    -329.6250       0.0680       4.5840
   2367.2297       7.7467       2.4251       0.1250      73.6482      40.0185    -999.2500    -999.2500     278.0267     163.7630       2.5426       0.0974       2.8288       0.0014       2.4055    -329.1258       0.0660       4.1646
   2367.3821       7.4660       4.3120       0.1240      74.8000      38.1090    -999.2500    -999.2500     278.3880     165.1720       2.3550       0.1171       3.0370       0.0025       2.4320    -328.6250       0.0640       3.7440
   2367.5344       7.4105       2.3112       0.0715      72.1298      39.4324    -999.2500    -999.2500     290.6566     175.6060      23.0982       0.1174       2.9141       0.0014       2.5174    -328.7498       0.0326       4.1124
   2367.6868       7.3550       0.3040       0.0190      69.4510      40.7600    -999.2500    -999.2500     302.9450     186.0570      43.8750       0.1097       2.7910       0.0002       2.6030    -328.8750       0.0010       4.4820
   2367.8391       7.3565       0.3055       0.0255      61.7239      39.5740    -999.2500    -999.2500     390.8037     353.8194      23.8195       0.0946       2.8160       0.0002       2.6280    -327.8767       0.0015       4.3507
   2367.9917       7.3580       0.3070       0.0320      53.9710      38.3840    -999.2500    -999.2500     478.8160     521.8750       3.7290       0.0806       2.8410       0.0002       2.6530    -326.8750       0.0020       4.2190
   2368.1440       7.3745       0.2965       0.0305      51.6895      33.9422    -999.2500    -999.2500     714.7107     484.6628       4.5352       0.0760       2.9134       0.0002       2.6740    -327.2009       0.0030       3.7269
   2368.2964       7.3910       0.2860       0.0290      49.4000      29.4850    -999.2500    -999.2500     951.0470     447.3810       5.3430       0.0744       2.9860       0.0002       2.6950    -327.5280       0.0040       3.2330
   2368.4487       7.3730       0.3000       0.0235      51.4962      23.9130    -999.2500    -999.2500    1093.5630     471.1592      14.4359       0.0741       3.1189       0.0002       2.6925    -328.6799       0.0110       2.8287
   2368.6013       7.3550       0.3140       0.0180      53.6000      18.3210    -999.2500    -999.2500    1236.3640     494.9850      23.5470       0.0743       3.2520       0.0001       2.6900    -329.8360       0.0180       2.4230
   2368.7537       7.3565       0.6728       0.0190      52.6518      18.3484    -999.2500    -999.2500    1032.6123     406.2327      15.4246       0.0748       3.2280       0.0002       2.6745    -330.8082       0.1088       2.1810
