#------------------------------------------------------------------------------
#
#   Created by  : [OpenWorks] Log Export Utility (LEXP)
#   Created on  : 2016-05-19 11:01:21
#   Project     : CANT971
#   User        : R5K
#   Interpreter : PEP
#
#------------------------------------------------------------------------------
~VERSION INFORMATION
VERS. 2.0 : CWLS Log ASCII Standard - version 2.0
WRAP.  NO : One line per depth step
~WELL INFORMATION
#MNEMONIC   .UNIT                                           VALUE :DESCRIPTION
#------------------------------------------------------------------------------
STRT        .M                                          1238.0980 :START DEPTH
STOP        .M                                          2410.9685 :STOP DEPTH
STEP        .M                                             0.1524 :STEP
NULL        .                                           -999.2500 :NULL VALUE
COMP        .                                   PEMEX EXPL & PROD :COMPANY
WELL        .                                                247D :WELL
FLD         .                                           CANTARELL :FIELD
LOC         .                                             UNKNOWN :LOCATION
CNTY        .                                      CD. DEL CARMEN :COUNTY
STAT        .                                            CAMPECHE :STATE
CTRY        .                                              MEXICO :COUNTRY
SRVC        .                                             UNKNOWN :SERVICE COMPANY
DATE        .                                             UNKNOWN :LOG DATE
UWI         .                                          3060000586 :UNIQUE WELL ID
XCOORD      .                                       597310.050000 :SURFACE X
YCOORD      .                                      2143045.730000 :SURFACE Y
LAT         .                                           19.380345 :LATITUDE
LON         .                                          -92.073358 :LONGITUDE
ELEV        .M                                            27.7000 :SURFACE ELEV
ELEV_TYPE   .                                                  KB :ELEV TYPE
~CURVE INFORMATION
#MNEMONIC.UNIT        API CODE       : CURVE DESCRIPTION
#------------------------------------------------------------------------------
DEPTH    .M                          : Measured Depth
CALI     .inches      UNKNOWN        : CALI:Import:rC:NONE:v0 (auto-composite)
CGR      .API         UNKNOWN        : CGR:Import:rC:NONE:v0 (auto-composite)
DRHO     .g/cm3       UNKNOWN        : DRHO:Import:rC:NONE:v0 (auto-composite)
DT       .us/ft       UNKNOWN        : DT:Import:rC:NONE:v0 (auto-composite)
GR       .API         UNKNOWN        : GR:Import:rC:NONE:v0 (auto-composite)
ILD      .ohm.m       UNKNOWN        : ILD:Import:rC:NONE:v0 (auto-composite)
ILM      .ohm.m       UNKNOWN        : ILM:Import:rC:NONE:v0 (auto-composite)
LLD      .ohm.m       UNKNOWN        : LLD:Import:rC:NONE:v0 (auto-composite)
LLS      .ohm.m       UNKNOWN        : LLS:Import:rC:NONE:v0 (auto-composite)
MSFL     .ohm.m       UNKNOWN        : MSFL:Import:rC:NONE:v0 (auto-composite)
NPHI     .v/v_decimal UNKNOWN        : NPHI:Import:rC:NONE:v0 (auto-composite)
PEF      .b/elec      UNKNOWN        : PEF:Import:rC:NONE:v0 (auto-composite)
POTA     .wtpercent   UNKNOWN        : POTA:Import:rC:NONE:v0 (auto-composite)
RHOB     .g/cm3       UNKNOWN        : RHOB:Import:rC:NONE:v0 (auto-composite)
SP       .mV          UNKNOWN        : SP:Import:rC:NONE:v0 (auto-composite)
THOR     .ppm         UNKNOWN        : THOR:Import:rC:NONE:v0 (auto-composite)
URAN     .ppm         UNKNOWN        : URAN:Import:rC:NONE:v0 (auto-composite)
~A     DEPTH         CALI          CGR         DRHO           DT           GR          ILD          ILM          LLD          LLS         MSFL         NPHI          PEF         POTA         RHOB           SP         THOR         URAN
# ...
   2304.8979       7.5310       2.3090       0.0430      78.4790      39.9900    -999.2500    -999.2500     319.3430     293.0530     103.8750       0.1256       2.9200       0.0013       2.4730    -299.6250       0.0400       4.1740
   2305.0505       7.5315       1.4064       0.0420      65.4098      43.6633    -999.2500    -999.2500     828.7099     634.3255      57.7183       0.1227       2.9210       0.0008       2.5449    -301.8715       0.0430       4.6812
   2305.2029       7.5320       0.5010       0.0410      52.3000      47.3480    -999.2500    -999.2500    1338.8440     976.1120      11.4920       0.1143       2.9220       0.0002       2.6170    -304.1250       0.0460       5.1900
   2305.3552       7.6099       0.5140       0.0255      53.2984      47.3295    -999.2500    -999.2500     970.5858     713.6485      50.0271       0.0974       3.0069       0.0002       2.6645    -304.1160       0.0530       5.1880
   2305.5076       7.6880       0.5270       0.0100      54.3000      47.3110    -999.2500    -999.2500     601.7270     450.7570      88.6250       0.0821       3.0920       0.0002       2.7120    -304.1070       0.0600       5.1860
   2305.6599       7.6096       0.5260       0.0100      53.7010      46.3077    -999.2500    -999.2500     606.0797     453.2298      88.4357       0.0767       3.0900       0.0002       2.7070    -303.6168       0.0600       5.0732
   2305.8125       7.5310       0.5250       0.0100      53.1000      45.3010    -999.2500    -999.2500     610.4400     455.7070      88.2460       0.0764       3.0880       0.0002       2.7020    -303.1250       0.0600       4.9600
   2305.9648       7.6269       0.4526       0.0200      53.1090      43.6973    -999.2500    -999.2500     912.3818     644.0198      62.8344       0.0768       2.9501       0.0002       2.7030    -300.3798       0.0380       4.7863
   2306.1172       7.7230       0.3800       0.0300      53.1180      42.0880    -999.2500    -999.2500    1214.8920     832.6870      37.3750       0.0784       2.8120       0.0002       2.7040    -297.6250       0.0160       4.6120
   2306.2695       7.7225       0.3865       0.0300      58.8986      40.0071    -999.2500    -999.2500     946.6890     686.1332      52.3914       0.0820       2.8125       0.0002       2.7035    -297.6510       0.0160       4.5396
   2306.4221       7.7220       0.3930       0.0300      64.7000      37.9220    -999.2500    -999.2500     677.9470     539.2850      67.4380       0.0905       2.8130       0.0002       2.7030    -297.6770       0.0160       4.4670
   2306.5745       7.6266       2.2001       0.0205      64.6566      37.9415    -999.2500    -999.2500     854.3558     717.8929      54.5194       0.1057       2.8395       0.0013       2.6715    -302.2711       0.0180       4.1955
   2306.7268       7.5310       4.0140       0.0110      64.6130      37.9610    -999.2500    -999.2500    1031.1410     896.8820      41.5940       0.1144       2.8660       0.0024       2.6400    -306.8750       0.0200       3.9230
   2306.8792       7.5330       3.9741       0.0110      62.9492      41.0555    -999.2500    -999.2500    1025.6078     891.3388      41.6735       0.1064       2.9988       0.0013       2.6255    -303.6287       0.0944       4.3557
   2307.0317       7.5350       3.9340       0.0110      61.2790      44.1570    -999.2500    -999.2500    1020.0620     885.7830      41.7530       0.0949       3.1320       0.0002       2.6110    -300.3750       0.1690       4.7900
   2307.1841       7.6189       2.3557       0.0115      60.1418      44.1285    -999.2500    -999.2500     751.3705     660.6566      58.3390       0.0905       3.2104       0.0002       2.6225    -301.1241       0.1445       4.7870
   2307.3364       7.7030       0.7710       0.0120      59.0000      44.1000    -999.2500    -999.2500     482.0380     434.9930      74.9380       0.0932       3.2890       0.0002       2.6340    -301.8750       0.1200       4.7840
   2307.4888       7.6895       1.0881       0.0175      60.6466      42.7682    -999.2500    -999.2500     483.0642     435.7106      74.7541       0.1012       3.1077       0.0004       2.5361    -300.6266       0.1260       4.6092
   2307.6411       7.6760       1.4060       0.0230      62.3000      41.4330    -999.2500    -999.2500     484.0930     436.4300      74.5700       0.1074       2.9260       0.0006       2.4380    -299.3750       0.1320       4.4340
   2307.7937       7.7754       0.9756       0.0670      62.1668      44.8350    -999.2500    -999.2500     939.3148     854.4673      42.2077       0.1062       3.0819       0.0004       2.5020    -299.3900       0.1005       4.8584
   2307.9460       7.8750       0.5440       0.1110      62.0330      48.2460    -999.2500    -999.2500    1395.7371    1273.6071       9.8120       0.1042       3.2380       0.0002       2.5660    -299.4050       0.0690       5.2840
   2308.0984       7.8745       0.5854       0.0805      53.8344      48.2445    -999.2500    -999.2500     881.2205     776.2682      38.6083       0.1072       3.2365       0.0002       2.5660    -301.8866       0.0745       5.2835
   2308.2507       7.8740       0.6270       0.0500      45.6000      48.2430    -999.2500    -999.2500     365.2810     277.5540      67.4380       0.1074       3.2350       0.0002       2.5660    -304.3750       0.0800       5.2830
   2308.4033       7.7886       0.6070       0.0745      53.2328      48.1641    -999.2500    -999.2500     376.3964     286.1320      45.3662       0.0986       3.0236       0.0002       2.5625    -302.5027       0.0760       5.2700
   2308.5557       7.7030       0.5870       0.0990      60.9000      48.0850    -999.2500    -999.2500     387.5260     294.7210      23.2660       0.0923       2.8120       0.0002       2.5590    -300.6250       0.0720       5.2570
   2308.7080       7.7055       0.5875       0.0985      55.9575      46.9612    -999.2500    -999.2500   11379.3594   10094.9756      49.2397       0.0975       2.8280       0.0002       2.5535    -300.6669       0.0750       5.1347
   2308.8604       7.7080       0.5880       0.0980      51.0000      45.8340    -999.2500    -999.2500   22386.6934   19909.0488      75.2500       0.1015       2.8440       0.0002       2.5480    -300.7090       0.0780       5.0120
   2309.0129       7.8814       0.6020       0.0860      51.0689      45.1012    -999.2500    -999.2500   12239.4316   10927.9355      75.1731       0.0940       2.8155       0.0002       2.6484    -302.2895       0.0780       4.9206
   2309.1653       8.0550       0.6160       0.0740      51.1380      44.3660    -999.2500    -999.2500    2076.5730    1933.0170      75.0960       0.0847       2.7870       0.0002       2.7490    -303.8750       0.0780       4.8290
   2309.3176       7.8557       1.1486       0.0595      55.0127      44.9785    -999.2500    -999.2500   20903.4883   19956.9375      55.2365       0.0813       2.7875       0.0006       2.7485    -303.8750       0.0770       4.8465
   2309.4700       7.6560       1.6830       0.0450      58.9000      45.5930    -999.2500    -999.2500   39761.6875   38010.8047      35.3440       0.0834       2.7880       0.0009       2.7480    -303.8750       0.0760       4.8640
   2309.6223       7.7284       1.1120       0.0500      58.8331      45.5266    -999.2500    -999.2500   20787.5586   19888.7773      35.4754       0.0897       2.8010       0.0006       2.7260    -303.7397       0.0680       4.8590
   2309.7749       7.8010       0.5390       0.0550      58.7660      45.4600    -999.2500    -999.2500    1779.4880    1734.3350      35.6070       0.0958       2.8140       0.0002       2.7040    -303.6040       0.0600       4.8540
   2309.9272       7.7985       0.5395       0.0550      55.5886      43.6881    -999.2500    -999.2500   20505.8848   20238.5723      39.8889       0.0978       2.8600       0.0002       2.7045    -297.3755       0.0600       4.7182
   2310.0796       7.7960       0.5400       0.0550      52.4000      41.9100    -999.2500    -999.2500   39268.1055   38778.2109      44.1790       0.0952       2.9060       0.0002       2.7050    -291.1250       0.0600       4.5820
