#------------------------------------------------------------------------------
#
#   Created by  : [OpenWorks] Log Export Utility (LEXP)
#   Created on  : 2016-05-19 11:01:21
#   Project     : CANT971
#   User        : R5K
#   Interpreter : PEP
#
#------------------------------------------------------------------------------
~VERSION INFORMATION
VERS. 2.0 : CWLS Log ASCII Standard - version 2.0
WRAP.  NO : One line per depth step
~WELL INFORMATION
#MNEMONIC   .UNIT                                           VALUE :DESCRIPTION
#------------------------------------------------------------------------------
STRT        .M                                          1238.0980 :START DEPTH
STOP        .M                                          2410.9685 :STOP DEPTH
STEP        .M                                             0.1524 :STEP
NULL        .                                           -999.2500 :NULL VALUE
COMP        .                                   PEMEX EXPL & PROD :COMPANY
WELL        .                                                247D :WELL
FLD         .                                           CANTARELL :FIELD
LOC         .                                             UNKNOWN :LOCATION
CNTY        .                                      CD. DEL CARMEN :COUNTY
STAT        .                                            CAMPECHE :STATE
CTRY        .                                              MEXICO :COUNTRY
SRVC        .                                             UNKNOWN :SERVICE COMPANY
DATE        .                                             UNKNOWN :LOG DATE
UWI         .                                          3060000586 :UNIQUE WELL ID
XCOORD      .                                       597310.050000 :SURFACE X
YCOORD      .                                      2143045.730000 :SURFACE Y
LAT         .                                           19.380345 :LATITUDE
LON         .                                          -92.073358 :LONGITUDE
ELEV        .M                                            27.7000 :SURFACE ELEV
ELEV_TYPE   .                                                  KB :ELEV TYPE
~CURVE INFORMATION
#MNEMONIC.UNIT        API CODE       : CURVE DESCRIPTION
#------------------------------------------------------------------------------
DEPTH    .M                          : Measured Depth
CALI     .inches      UNKNOWN        : CALI:Import:rC:NONE:v0 (auto-composite)
CGR      .API         UNKNOWN        : CGR:Import:rC:NONE:v0 (auto-composite)
DRHO     .g/cm3       UNKNOWN        : DRHO:Import:rC:NONE:v0 (auto-composite)
DT       .us/ft       UNKNOWN        : DT:Import:rC:NONE:v0 (auto-composite)
GR       .API         UNKNOWN        : GR:Import:rC:NONE:v0 (auto-composite)
ILD      .ohm.m       UNKNOWN        : ILD:Import:rC:NONE:v0 (auto-composite)
ILM      .ohm.m       UNKNOWN        : ILM:Import:rC:NONE:v0 (auto-composite)
LLD      .ohm.m       UNKNOWN        : LLD:Import:rC:NONE:v0 (auto-composite)
LLS      .ohm.m       UNKNOWN        : LLS:Import:rC:NONE:v0 (auto-composite)
MSFL     .ohm.m       UNKNOWN        : MSFL:Import:rC:NONE:v0 (auto-composite)
NPHI     .v/v_decimal UNKNOWN        : NPHI:Import:rC:NONE:v0 (auto-composite)
PEF      .b/elec      UNKNOWN        : PEF:Import:rC:NONE:v0 (auto-composite)
POTA     .wtpercent   UNKNOWN        : POTA:Import:rC:NONE:v0 (auto-composite)
RHOB     .g/cm3       UNKNOWN        : RHOB:Import:rC:NONE:v0 (auto-composite)
SP       .mV          UNKNOWN        : SP:Import:rC:NONE:v0 (auto-composite)
THOR     .ppm         UNKNOWN        : THOR:Import:rC:NONE:v0 (auto-composite)
URAN     .ppm         UNKNOWN        : URAN:Import:rC:NONE:v0 (auto-composite)
~A     DEPTH         CALI          CGR         DRHO           DT           GR          ILD          ILM          LLD          LLS         MSFL         NPHI          PEF         POTA         RHOB           SP         THOR         URAN
# ...
   2390.2419       7.3200       0.3440       0.0590    -999.2500      27.8900    -999.2500    -999.2500    1689.7240    1148.2841       2.5040       0.0590       3.0740       0.0002       2.7150    -340.1250       0.0210       3.0520
   2390.3945       7.3710       0.5637       0.0525    -999.2500      30.3702    -999.2500    -999.2500    1890.0634    1252.6589       3.3719       0.0594       3.1005       0.0002       2.7305    -340.2119       0.0844       3.3021
   2390.5469       7.4220       0.7840       0.0460    -999.2500      32.8580    -999.2500    -999.2500    2090.6890    1357.1830       4.2410       0.0594       3.1270       0.0002       2.7460    -340.2990       0.1480       3.5530
   2390.6992       7.3421       1.3955       0.0290    -999.2500      36.5901    -999.2500    -999.2500    4552.4990    2906.5747      11.3959       0.0578       3.1210       0.0002       2.7435    -340.9610       0.3407       4.1446
   2390.8516       7.2620       2.0090       0.0120    -999.2500      40.3340    -999.2500    -999.2500    7018.1338    4458.3740      18.5620       0.0553       3.1150       0.0002       2.7410    -341.6250       0.5340       4.7380
   2391.0039       7.2755       2.6205       0.0160    -999.2500      43.1064    -999.2500    -999.2500    6227.7354    3950.1521      17.3445       0.0500       3.1265       0.0002       2.7530    -340.8762       0.7337       4.7355
   2391.1565       7.2890       3.2340       0.0200    -999.2500      45.8880    -999.2500    -999.2500    5436.0088    3441.0759      16.1250       0.0443       3.1380       0.0002       2.7650    -340.1250       0.9340       4.7330
   2391.3088       7.3220       1.8309       0.0275    -999.2500      37.8482    -999.2500    -999.2500    5685.3252    3533.9336      16.1330       0.0395       3.3198       0.0002       2.7930    -340.3746       0.4838       3.9938
   2391.4612       7.3550       0.4230       0.0350    -999.2500      29.7810    -999.2500    -999.2500    5935.0918    3626.9590      16.1410       0.0356       3.5020       0.0002       2.8210    -340.6250       0.0320       3.2520
   2391.6135       7.2831       0.4380       0.0510    -999.2500      33.0238    -999.2500    -999.2500    6585.0239    4200.6421      20.5353       0.0351       3.4431       0.0002       2.8160    -340.5372       0.0355       3.6069
   2391.7661       7.2110       0.4530       0.0670    -999.2500      36.2780    -999.2500    -999.2500    7236.2119    4775.4341      24.9380       0.0358       3.3840       0.0002       2.8110    -340.4490       0.0390       3.9630
   2391.9185       7.2365       0.5319       0.0670    -999.2500      35.7505    -999.2500    -999.2500    7516.9614    4686.9082      23.5574       0.0386       3.2282       0.0002       2.7990    -340.2434       0.0630       3.8986
   2392.0708       7.2620       0.6110       0.0670    -999.2500      35.2210    -999.2500    -999.2500    7798.2881    4598.2002      22.1740       0.0422       3.0720       0.0002       2.7870    -340.0370       0.0870       3.8340
   2392.2231       7.3084       0.7837       0.0630    -999.2500      33.0574    -999.2500    -999.2500    8812.4424    4918.9785      17.9511       0.0478       2.9736       0.0002       2.8040    -339.8237       0.1519       3.5810
   2392.3757       7.3550       0.9570       0.0590    -999.2500      30.8890    -999.2500    -999.2500    9828.8115    5240.4580      13.7190       0.0519       2.8750       0.0002       2.8210    -339.6100       0.2170       3.3270
   2392.5281       7.3550       0.8672       0.0390    -999.2500      28.2535    -999.2500    -999.2500   31772.4980   12241.4775      16.9183       0.0466       2.8495       0.0002       2.8035    -338.9707       0.1881       3.0396
   2392.6804       7.3550       0.7770       0.0190    -999.2500      25.6120    -999.2500    -999.2500   53766.8398   19258.6582      20.1250       0.0406       2.8240       0.0002       2.7860    -338.3300       0.1590       2.7510
   2392.8328       7.3550       0.6007       0.0240    -999.2500      24.6212    -999.2500    -999.2500   53689.3125   18734.7031      14.9398       0.0397       2.8580       0.0002       2.7935    -336.7294       0.1001       2.6601
   2392.9851       7.3550       0.4240       0.0290    -999.2500      23.6280    -999.2500    -999.2500   53611.5938   18209.4707       9.7420       0.0401       2.8920       0.0002       2.8010    -335.1250       0.0410       2.5690
   2393.1377       7.3550       1.0971       0.0405    -999.2500      23.0228    -999.2500    -999.2500   53039.4336   15471.5996      10.4831       0.0416       3.1322       0.0003       2.8235    -336.1237       0.0929       2.4761
   2393.2900       7.3550       1.7720       0.0520    -999.2500      22.4160    -999.2500    -999.2500   52465.8125   12726.7188      11.2260       0.0435       3.3730       0.0004       2.8460    -337.1250       0.1450       2.3830
   2393.4424       7.3550       1.7605       0.0455    -999.2500      21.6440    -999.2500    -999.2500   51017.8906    9683.7939      12.8528       0.0468       3.3066       0.0007       2.8355    -336.3760       0.0936       2.2192
   2393.5947       7.3550       1.7490       0.0390    -999.2500      20.8700    -999.2500    -999.2500   49566.0742    6632.6890      14.4840       0.0500       3.2400       0.0010       2.8250    -335.6250       0.0420       2.0550
   2393.7473       7.3550       1.0580       0.0230    -999.2500      20.1176    -999.2500    -999.2500   46254.0195    5561.1709      13.3002       0.0519       3.0782       0.0006       2.7891    -335.9995       0.0420       2.0640
   2393.8997       7.3550       0.3650       0.0070    -999.2500      19.3630    -999.2500    -999.2500   42932.6523    4486.6401      12.1150       0.0537       2.9160       0.0001       2.7530    -336.3750       0.0420       2.0730
   2394.0520       7.3924       0.3690       0.0125    -999.2500      19.4034    -999.2500    -999.2500   34165.6094    4046.1836      10.1018       0.0557       2.9539       0.0001       2.7650    -336.0155       0.0435       2.0930
   2394.2043       7.4300       0.3730       0.0180    -999.2500      19.4440    -999.2500    -999.2500   25372.7930    3604.4319       8.0860       0.0584       2.9920       0.0001       2.7770    -335.6550       0.0450       2.1130
   2394.3569       7.4125       0.3920       0.0345    -999.2500      19.9827    -999.2500    -999.2500   25563.0254    3149.2048       9.2337       0.0638       3.0614       0.0001       2.7750    -334.9256       0.0525       2.1714
   2394.5093       7.3950       0.4110       0.0510    -999.2500      20.5230    -999.2500    -999.2500   25753.5371    2693.3130      10.3830       0.0687       3.1310       0.0001       2.7730    -334.1940       0.0600       2.2300
   2394.6616       7.4629       0.3975       0.0655    -999.2500      21.6687    -999.2500    -999.2500   26474.4023    2503.3052       9.1595       0.0683       3.2119       0.0001       2.7920    -333.8995       0.0470       2.3568
   2394.8140       7.5310       0.3840       0.0800    -999.2500      22.8180    -999.2500    -999.2500   27196.4082    2312.9961       7.9340       0.0664       3.2930       0.0001       2.8110    -333.6040       0.0340       2.4840
   2394.9663       7.5285       0.9965       0.0685    -999.2500      24.4553    -999.2500    -999.2500   37257.4492    2352.2559      10.0042       0.0600       3.2720       0.0002       2.8065    -333.3649       0.2287       2.6412
   2395.1189       7.5260       1.6110       0.0570    -999.2500      26.0980    -999.2500    -999.2500   47335.7148    2391.5830      12.0780       0.0539       3.2510       0.0002       2.8020    -333.1250       0.4240       2.7990
   2395.2712       7.5180       1.4328       0.0655    -999.2500      28.3366    -999.2500    -999.2500   47248.5820    2964.0774      10.9630       0.0536       3.1866       0.0002       2.7885    -333.1250       0.3606       3.0111
   2395.4236       7.5100       1.2540       0.0740    -999.2500      30.5830    -999.2500    -999.2500   47161.2891    3537.6230       9.8460       0.0542       3.1220       0.0002       2.7750    -333.1250       0.2970       3.2240
