#------------------------------------------------------------------------------
#
#   Created by  : [OpenWorks] Log Export Utility (LEXP)
#   Created on  : 2016-05-19 11:01:21
#   Project     : CANT971
#   User        : R5K
#   Interpreter : PEP
#
#------------------------------------------------------------------------------
~VERSION INFORMATION
VERS. 2.0 : CWLS Log ASCII Standard - version 2.0
WRAP.  NO : One line per depth step
~WELL INFORMATION
#MNEMONIC   .UNIT                                           VALUE :DESCRIPTION
#------------------------------------------------------------------------------
STRT        .M                                          1238.0980 :START DEPTH
STOP        .M                                          2410.9685 :STOP DEPTH
STEP        .M                                             0.1524 :STEP
NULL        .                                           -999.2500 :NULL VALUE
COMP        .                                   PEMEX EXPL & PROD :COMPANY
WELL        .                                                247D :WELL
FLD         .                                           CANTARELL :FIELD
LOC         .                                             UNKNOWN :LOCATION
CNTY        .                                      CD. DEL CARMEN :COUNTY
STAT        .                                            CAMPECHE :STATE
CTRY        .                                              MEXICO :COUNTRY
SRVC        .                                             UNKNOWN :SERVICE COMPANY
DATE        .                                             UNKNOWN :LOG DATE
UWI         .                                          3060000586 :UNIQUE WELL ID
XCOORD      .                                       597310.050000 :SURFACE X
YCOORD      .                                      2143045.730000 :SURFACE Y
LAT         .                                           19.380345 :LATITUDE
LON         .                                          -92.073358 :LONGITUDE
ELEV        .M                                            27.7000 :SURFACE ELEV
ELEV_TYPE   .                                                  KB :ELEV TYPE
~CURVE INFORMATION
#MNEMONIC.UNIT        API CODE       : CURVE DESCRIPTION
#------------------------------------------------------------------------------
DEPTH    .M                          : Measured Depth
CALI     .inches      UNKNOWN        : CALI:Import:rC:NONE:v0 (auto-composite)
CGR      .API         UNKNOWN        : CGR:Import:rC:NONE:v0 (auto-composite)
DRHO     .g/cm3       UNKNOWN        : DRHO:Import:rC:NONE:v0 (auto-composite)
DT       .us/ft       UNKNOWN        : DT:Import:rC:NONE:v0 (auto-composite)
GR       .API         UNKNOWN        : GR:Import:rC:NONE:v0 (auto-composite)
ILD      .ohm.m       UNKNOWN        : ILD:Import:rC:NONE:v0 (auto-composite)
ILM      .ohm.m       UNKNOWN        : ILM:Import:rC:NONE:v0 (auto-composite)
LLD      .ohm.m       UNKNOWN        : LLD:Import:rC:NONE:v0 (auto-composite)
LLS      .ohm.m       UNKNOWN        : LLS:Import:rC:NONE:v0 (auto-composite)
MSFL     .ohm.m       UNKNOWN        : MSFL:Import:rC:NONE:v0 (auto-composite)
NPHI     .v/v_decimal UNKNOWN        : NPHI:Import:rC:NONE:v0 (auto-composite)
PEF      .b/elec      UNKNOWN        : PEF:Import:rC:NONE:v0 (auto-composite)
POTA     .wtpercent   UNKNOWN        : POTA:Import:rC:NONE:v0 (auto-composite)
RHOB     .g/cm3       UNKNOWN        : RHOB:Import:rC:NONE:v0 (auto-composite)
SP       .mV          UNKNOWN        : SP:Import:rC:NONE:v0 (auto-composite)
THOR     .ppm         UNKNOWN        : THOR:Import:rC:NONE:v0 (auto-composite)
URAN     .ppm         UNKNOWN        : URAN:Import:rC:NONE:v0 (auto-composite)
~A     DEPTH         CALI          CGR         DRHO           DT           GR          ILD          ILM          LLD          LLS         MSFL         NPHI          PEF         POTA         RHOB           SP         THOR         URAN
# ...
   2294.2300       7.5530       0.8850      -0.0010     119.3810      38.3740    -999.2500    -999.2500   10024.9619   11469.4541      70.2500       0.1190       3.0750       0.0002       2.6460    -294.8280       0.1760       4.1510
   2294.3823       7.4831       0.9164       0.0020     120.4656      38.7327    -999.2500    -999.2500    6030.0747    7172.2510      57.1461       0.1218       3.1135       0.0002       2.6295    -295.7052       0.1850       4.1879
   2294.5349       7.4130       0.9480       0.0050     121.5540      39.0920    -999.2500    -999.2500    2027.5280    2866.8091      44.0170       0.1219       3.1520       0.0002       2.6130    -296.5840       0.1940       4.2250
   2294.6873       7.3840       1.2165       0.0105     124.1178      37.0821    -999.2500    -999.2500    2440.1812    2946.5376      40.0226       0.1187       3.1065       0.0006       2.6240    -296.9791       0.0997       3.9730
   2294.8396       7.3550       1.4860       0.0160     126.6910      35.0680    -999.2500    -999.2500    2853.6770    3026.4290      36.0200       0.1139       3.0610       0.0009       2.6350    -297.3750       0.0050       3.7200
   2294.9919       7.3550       0.9286       0.0335     135.3462      37.1403    -999.2500    -999.2500    1652.2429    1784.8025      31.1108       0.1093       3.1864       0.0006       2.6495    -295.3772       0.0085       4.0115
   2295.1445       7.3550       0.3690       0.0510     144.0340      39.2170    -999.2500    -999.2500     448.2030     540.4830      26.1910       0.1063       3.3120       0.0002       2.6640    -293.3750       0.0120       4.3040
   2295.2969       7.3550       0.3740       0.0435     148.1809      38.8924    -999.2500    -999.2500     414.0576     487.6561      24.7290       0.1062       3.2685       0.0002       2.6490    -293.8744       0.0135       4.2671
   2295.4492       7.3550       0.3790       0.0360     152.3440      38.5670    -999.2500    -999.2500     379.8340     434.7080      23.2660       0.1077       3.2250       0.0002       2.6340    -294.3750       0.0150       4.2300
   2295.6016       7.3550       0.3865       0.0365     153.1065      38.4072    -999.2500    -999.2500     621.5794     813.7902      23.9922       0.1098       3.1865       0.0002       2.6595    -293.3962       0.0195       4.2115
   2295.7539       7.3550       0.3940       0.0370     153.8720      38.2470    -999.2500    -999.2500     863.9100    1193.7900      24.7190       0.1111       3.1480       0.0002       2.6850    -292.4150       0.0240       4.1930
   2295.9065       7.3550       0.4504       0.0240     154.1853      39.8669    -999.2500    -999.2500     539.0673     713.0972      54.2111       0.1103       3.1220       0.0002       2.6715    -291.3963       0.0345       4.3663
   2296.0588       7.3550       0.5070       0.0110     154.5000      41.4910    -999.2500    -999.2500     213.3980     231.1810      83.7310       0.1089       3.0960       0.0002       2.6580    -290.3750       0.0450       4.5400
   2296.2112       7.4415       0.5035       0.0095     103.9581      42.2814    -999.2500    -999.2500     260.4581     261.5284      87.6134       0.1079       3.1095       0.0002       2.6595    -292.4667       0.0420       4.6279
   2296.3635       7.5280       0.5000       0.0080      53.2000      43.0740    -999.2500    -999.2500     307.6440     291.9570      91.5000       0.1073       3.1230       0.0002       2.6610    -294.5640       0.0390       4.7160
   2296.5161       7.5295       0.5130       0.0105      54.8703      47.0629    -999.2500    -999.2500     411.3550     426.8519      89.1919       0.1069       3.1655       0.0002       2.6435    -295.9466       0.0430       5.1564
   2296.6685       7.5310       0.5260       0.0130      56.5480      51.0630    -999.2500    -999.2500     515.3560     562.1240      86.8810       0.1085       3.2080       0.0002       2.6260    -297.3330       0.0470       5.5980
   2296.8208       7.5310       0.5694       0.0135      64.4125      50.8578    -999.2500    -999.2500     565.6834     592.8680      66.2666       0.1130       3.2390       0.0002       2.6080    -298.2277       0.0545       5.5710
   2296.9731       7.5310       0.6130       0.0140      72.3000      50.6520    -999.2500    -999.2500     616.1580     623.7020      45.6250       0.1154       3.2700       0.0003       2.5900    -299.1250       0.0620       5.5440
   2297.1257       7.5310       0.5406       0.0325      71.3634      49.9506    -999.2500    -999.2500     646.2783     654.7681      54.9742       0.1120       3.1626       0.0002       2.6210    -297.7521       0.0430       5.4741
   2297.2781       7.5310       0.4680       0.0510      70.4240      49.2470    -999.2500    -999.2500     676.4420     685.8790      64.3370       0.1075       3.0550       0.0002       2.6520    -296.3750       0.0240       5.4040
   2297.4304       7.5310       0.4890       0.0570      62.3249      48.0269    -999.2500    -999.2500     554.7055     557.2374      75.2170       0.1056       3.1894       0.0002       2.6620    -299.3388       0.0385       5.2662
   2297.5828       7.5310       0.5100       0.0630      54.2000      46.8030    -999.2500    -999.2500     432.7780     428.3940      86.1140       0.1057       3.3240       0.0002       2.6720    -302.3120       0.0530       5.1280
   2297.7351       7.6024       0.5390       0.0560      54.6937      44.9695    -999.2500    -999.2500     475.9294     487.6098     114.8137       0.1069       3.2740       0.0002       2.6655    -302.4683       0.0620       4.9243
   2297.8877       7.6740       0.5680       0.0490      55.1890      43.1300    -999.2500    -999.2500     519.1540     546.9260     143.5620       0.1057       3.2240       0.0002       2.6590    -302.6250       0.0710       4.7200
   2298.0400       7.6750       0.9938       0.0400      55.8933      43.3172    -999.2500    -999.2500     717.2452     739.1820     131.1123       0.0994       3.1201       0.0002       2.6845    -301.1276       0.2053       4.6910
   2298.1924       7.6760       1.4210       0.0310      56.6000      43.5050    -999.2500    -999.2500     915.6970     931.7880     118.6400       0.0923       3.0160       0.0002       2.7100    -299.6250       0.3400       4.6620
   2298.3447       7.6700       0.9468       0.0410      55.8578      44.6279    -999.2500    -999.2500    1222.2723    1245.4346      81.5122       0.0879       3.0010       0.0002       2.7315    -302.6221       0.1868       4.8387
   2298.4973       7.6640       0.4710       0.0510      55.1130      45.7530    -999.2500    -999.2500    1529.4449    1559.6920      44.3120       0.0860       2.9860       0.0002       2.7530    -305.6250       0.0330       5.0160
   2298.6497       7.5976       0.5004       0.0590      54.2142      44.3894    -999.2500    -999.2500    1256.1432    1231.7722      66.0085       0.0862       2.9860       0.0002       2.7345    -302.1286       0.0405       4.8618
   2298.8020       7.5310       0.5300       0.0670      53.3120      43.0230    -999.2500    -999.2500     982.2750     903.1730      87.7500       0.0895       2.9860       0.0002       2.7160    -298.6250       0.0480       4.7070
   2298.9543       7.6164       0.5260       0.0715      52.9083      43.2892    -999.2500    -999.2500    2276.9395    1935.4126      66.4140       0.0966       3.0165       0.0002       2.6616    -300.1234       0.0465       4.7369
   2299.1069       7.7020       0.5220       0.0760      52.5030      43.5560    -999.2500    -999.2500    3574.4519    2969.9231      45.0310       0.1020       3.0470       0.0002       2.6070    -301.6250       0.0450       4.7670
   2299.2593       7.7025       0.5699       0.0755      51.5534      43.6059    -999.2500    -999.2500    2373.3086    1988.0360      90.2802       0.1016       3.1993       0.0002       2.6480    -299.5025       0.0595       4.7675
   2299.4116       7.7030       0.6180       0.0750      50.6000      43.6560    -999.2500    -999.2500    1169.3740    1003.8670     135.5620       0.0975       3.3520       0.0002       2.6890    -297.3750       0.0740       4.7680
