#------------------------------------------------------------------------------
#
#   Created by  : [OpenWorks] Log Export Utility (LEXP)
#   Created on  : 2016-05-19 11:01:21
#   Project     : CANT971
#   User        : R5K
#   Interpreter : PEP
#
#------------------------------------------------------------------------------
~VERSION INFORMATION
VERS. 2.0 : CWLS Log ASCII Standard - version 2.0
WRAP.  NO : One line per depth step
~WELL INFORMATION
#MNEMONIC   .UNIT                                           VALUE :DESCRIPTION
#------------------------------------------------------------------------------
STRT        .M                                          1238.0980 :START DEPTH
STOP        .M                                          2410.9685 :STOP DEPTH
STEP        .M                                             0.1524 :STEP
NULL        .                                           -999.2500 :NULL VALUE
COMP        .                                   PEMEX EXPL & PROD :COMPANY
WELL        .                                                247D :WELL
FLD         .                                           CANTARELL :FIELD
LOC         .                                             UNKNOWN :LOCATION
CNTY        .                                      CD. DEL CARMEN :COUNTY
STAT        .                                            CAMPECHE :STATE
CTRY        .                                              MEXICO :COUNTRY
SRVC        .                                             UNKNOWN :SERVICE COMPANY
DATE        .                                             UNKNOWN :LOG DATE
UWI         .                                          3060000586 :UNIQUE WELL ID
XCOORD      .                                       597310.050000 :SURFACE X
YCOORD      .                                      2143045.730000 :SURFACE Y
LAT         .                                           19.380345 :LATITUDE
LON         .                                          -92.073358 :LONGITUDE
ELEV        .M                                            27.7000 :SURFACE ELEV
ELEV_TYPE   .                                                  KB :ELEV TYPE
~CURVE INFORMATION
#MNEMONIC.UNIT        API CODE       : CURVE DESCRIPTION
#------------------------------------------------------------------------------
DEPTH    .M                          : Measured Depth
CALI     .inches      UNKNOWN        : CALI:Import:rC:NONE:v0 (auto-composite)
CGR      .API         UNKNOWN        : CGR:Import:rC:NONE:v0 (auto-composite)
DRHO     .g/cm3       UNKNOWN        : DRHO:Import:rC:NONE:v0 (auto-composite)
DT       .us/ft       UNKNOWN        : DT:Import:rC:NONE:v0 (auto-composite)
GR       .API         UNKNOWN        : GR:Import:rC:NONE:v0 (auto-composite)
ILD      .ohm.m       UNKNOWN        : ILD:Import:rC:NONE:v0 (auto-composite)
ILM      .ohm.m       UNKNOWN        : ILM:Import:rC:NONE:v0 (auto-composite)
LLD      .ohm.m       UNKNOWN        : LLD:Import:rC:NONE:v0 (auto-composite)
LLS      .ohm.m       UNKNOWN        : LLS:Import:rC:NONE:v0 (auto-composite)
MSFL     .ohm.m       UNKNOWN        : MSFL:Import:rC:NONE:v0 (auto-composite)
NPHI     .v/v_decimal UNKNOWN        : NPHI:Import:rC:NONE:v0 (auto-composite)
PEF      .b/elec      UNKNOWN        : PEF:Import:rC:NONE:v0 (auto-composite)
POTA     .wtpercent   UNKNOWN        : POTA:Import:rC:NONE:v0 (auto-composite)
RHOB     .g/cm3       UNKNOWN        : RHOB:Import:rC:NONE:v0 (auto-composite)
SP       .mV          UNKNOWN        : SP:Import:rC:NONE:v0 (auto-composite)
THOR     .ppm         UNKNOWN        : THOR:Import:rC:NONE:v0 (auto-composite)
URAN     .ppm         UNKNOWN        : URAN:Import:rC:NONE:v0 (auto-composite)
~A     DEPTH         CALI          CGR         DRHO           DT           GR          ILD          ILM          LLD          LLS         MSFL         NPHI          PEF         POTA         RHOB           SP         THOR         URAN
# ...
   2347.5701       7.3550       0.5390       0.1310      48.3000      42.9120    -999.2500    -999.2500    4251.5488    2992.0310      27.1560       0.0788       2.8150       0.0002       2.6890    -317.6250       0.0610       4.6940
   2347.7224       7.4624       0.5610       0.0765      48.4732      45.9893    -999.2500    -999.2500    3670.1868    2556.1077      57.1810       0.0807       2.8505       0.0002       2.6945    -317.9670       0.0660       5.0325
   2347.8748       7.5700       0.5830       0.0220      48.6470      49.0760    -999.2500    -999.2500    3087.9719    2119.5449      87.2500       0.0784       2.8860       0.0002       2.7000    -318.3100       0.0710       5.3720
   2348.0273       7.3772       0.5825       0.0235      50.0258      48.1480    -999.2500    -999.2500    1758.3224    1194.9161      77.4453       0.0725       2.9480       0.0002       2.7100    -320.5889       0.0700       5.2692
   2348.1797       7.1840       0.5820       0.0250      51.4090      47.2170    -999.2500    -999.2500     426.5540     268.8140      67.6250       0.0670       3.0100       0.0002       2.7200    -322.8750       0.0690       5.1660
   2348.3320       7.2000       0.5655       0.0440      65.2814      42.9741    -999.2500    -999.2500     429.6608     273.0968      37.2431       0.0653       3.1584       0.0002       2.7415    -320.0048       0.0400       4.7053
   2348.4844       7.2160       0.5490       0.0630      79.2000      38.7170    -999.2500    -999.2500     432.7730     277.3870       6.8090       0.0651       3.3070       0.0002       2.7630    -317.1250       0.0110       4.2430
   2348.6367       7.3599       0.4711       0.0630      76.4547      38.8757    -999.2500    -999.2500    1038.0121     658.5284       7.6417       0.0647       3.2965       0.0002       2.7845    -319.8703       0.0110       4.2610
   2348.7893       7.5040       0.3930       0.0630      73.7000      39.0350    -999.2500    -999.2500    1644.3680    1040.3730       8.4760       0.0631       3.2860       0.0002       2.8060    -322.6250       0.0110       4.2790
   2348.9417       7.4296       0.9745       0.0620      75.6465      39.9444    -999.2500    -999.2500    1149.2776     748.4770      16.7623       0.0584       3.2076       0.0006       2.8050    -322.4623       0.0140       4.3683
   2349.0940       7.3550       1.5580       0.0610      77.6000      40.8570    -999.2500    -999.2500     653.2120     456.0060      25.0650       0.0543       3.1290       0.0009       2.8040    -322.2990       0.0170       4.4580
   2349.2463       7.3550       1.4617       0.0595      72.5593      42.4204    -999.2500    -999.2500    4614.3750    2285.6760      36.4416       0.0539       3.1964       0.0006       2.7980    -321.4944       0.0295       4.5898
   2349.3989       7.3550       1.3650       0.0580      67.5000      43.9870    -999.2500    -999.2500    8583.8447    4119.1831      47.8420       0.0562       3.2640       0.0002       2.7920    -320.6880       0.0420       4.7220
   2349.5513       7.3715       0.8869       0.0530      67.5998      47.2908    -999.2500    -999.2500    7554.3042    3686.8970     200.1893       0.0613       3.0298       0.0002       2.7800    -318.5339       0.0210       5.1352
   2349.7036       7.3880       0.4070       0.0480      67.7000      50.6020    -999.2500    -999.2500    6522.4771    3253.6509     352.8750       0.0673       2.7950       0.0002       2.7680    -316.3750       0.0000       5.5500
   2349.8560       8.6965       0.4155       0.0270      61.9114      57.6078    -999.2500    -999.2500    4159.3350    2170.8567     210.3239       0.0734       2.8030       0.0002       2.7076    -317.1636       0.0000       6.3306
   2350.0083      10.0080       0.4240       0.0060      56.1000      64.6300    -999.2500    -999.2500    1790.6420    1085.5190      67.4380       0.0814       2.8110       0.0003       2.6470    -317.9540       0.0000       7.1130
   2350.1609       9.8881       0.4205       0.0065      58.2456      63.7975    -999.2500    -999.2500    1156.1121     676.7704      74.5964       0.0937       2.8490       0.0003       2.6520    -321.7848       0.0005       7.0211
   2350.3132       9.7680       0.4170       0.0070      60.4000      62.9630    -999.2500    -999.2500     520.0130     267.0110      81.7610       0.1042       2.8870       0.0002       2.6570    -325.6250       0.0010       6.9290
   2350.4656       8.5691       0.3900       0.0090      57.8554      54.9504    -999.2500    -999.2500     646.2433     309.5672     569.8878       0.1069       2.8690       0.0002       2.6875    -321.8799       0.0015       6.0442
   2350.6179       7.3670       0.3630       0.0110      55.3000      46.9170    -999.2500    -999.2500     772.8020     352.2340    1058.5000       0.1058       2.8510       0.0002       2.7180    -318.1250       0.0020       5.1570
   2350.7705       7.4035       0.3645       0.0160      57.1959      47.3874    -999.2500    -999.2500     576.9563     338.9826     799.2583       0.1024       2.7322       0.0002       2.6980    -318.4635       0.0030       5.2089
   2350.9229       7.4400       0.3660       0.0210      59.1000      47.8590    -999.2500    -999.2500     380.5770     325.6950     539.7260       0.0966       2.6130       0.0002       2.6780    -318.8030       0.0040       5.2610
   2351.0752       7.9303       0.3740       0.0659      58.9148      50.7159    -999.2500    -999.2500     390.9672     277.6425     281.7657       0.0873       2.7673       0.0002       2.7259    -320.8361       0.0055       5.5761
   2351.2275       8.4220       0.3820       0.1110      58.7290      53.5810    -999.2500    -999.2500     401.3870     229.4530      23.4840       0.0779       2.9220       0.0002       2.7740    -322.8750       0.0070       5.8920
   2351.3801       8.3351       0.4005       0.1050      52.5237      46.8989    -999.2500    -999.2500     525.0991     276.1320      35.5777       0.0713       2.8770       0.0002       2.7045    -321.5020       0.0135       5.1446
   2351.5325       8.2480       0.4190       0.0990      46.3000      40.1970    -999.2500    -999.2500     648.9810     322.8750      47.6880       0.0665       2.8320       0.0002       2.6350    -320.1250       0.0200       4.3950
   2351.6848       7.8373       0.4879       0.0720      48.5964      40.5365    -999.2500    -999.2500    1352.4729     866.0209      32.0512       0.0637       3.2017       0.0002       2.6400    -320.2498       0.0435       4.4309
   2351.8372       7.4260       0.5570       0.0450      50.9000      40.8770    -999.2500    -999.2500    2057.0181    1409.9800      16.3910       0.0588       3.5720       0.0002       2.6450    -320.3750       0.0670       4.4670
   2351.9895       7.4365       0.6354       0.0290      50.5845      43.3146    -999.2500    -999.2500    2461.2312    1888.4794      17.4062       0.0468       3.5350       0.0002       2.6060    -320.0006       0.0895       4.7206
   2352.1421       7.4470       0.7140       0.0130      50.2680      45.7600    -999.2500    -999.2500    2866.1011    2367.7561      18.4230       0.0417       3.4980       0.0002       2.5670    -319.6250       0.1120       4.9750
   2352.2944       7.4930       0.8303       0.0135      46.1908      45.5578    -999.2500    -999.2500    1637.1182    1320.6962      26.3431       0.0591       2.9675       0.0002       2.2603    -324.6166       0.1534       4.9470
   2352.4468       7.5390       0.9470       0.0140      42.1000      45.3550    -999.2500    -999.2500     405.9860     271.8050      34.2770       0.0781       2.4360       0.0002       1.9530    -329.6250       0.1950       4.9190
   2352.5991       7.5840       0.7179       0.0235      46.6920      45.3770    -999.2500    -999.2500     958.9538     815.9321     168.2004       0.0830       2.7762       0.0002       1.9980    -320.5158       0.1211       4.9265
   2352.7517       7.6290       0.4880       0.0330      51.3000      45.3990    -999.2500    -999.2500    1512.9590    1361.0800     302.3750       0.0829       3.1170       0.0002       2.0430    -311.3750       0.0470       4.9340
