#------------------------------------------------------------------------------
#
#   Created by  : [OpenWorks] Log Export Utility (LEXP)
#   Created on  : 2016-05-19 11:01:21
#   Project     : CANT971
#   User        : R5K
#   Interpreter : PEP
#
#------------------------------------------------------------------------------
~VERSION INFORMATION
VERS. 2.0 : CWLS Log ASCII Standard - version 2.0
WRAP.  NO : One line per depth step
~WELL INFORMATION
#MNEMONIC   .UNIT                                           VALUE :DESCRIPTION
#------------------------------------------------------------------------------
STRT        .M                                          1238.0980 :START DEPTH
STOP        .M                                          2410.9685 :STOP DEPTH
STEP        .M                                             0.1524 :STEP
NULL        .                                           -999.2500 :NULL VALUE
COMP        .                                   PEMEX EXPL & PROD :COMPANY
WELL        .                                                247D :WELL
FLD         .                                           CANTARELL :FIELD
LOC         .                                             UNKNOWN :LOCATION
CNTY        .                                      CD. DEL CARMEN :COUNTY
STAT        .                                            CAMPECHE :STATE
CTRY        .                                              MEXICO :COUNTRY
SRVC        .                                             UNKNOWN :SERVICE COMPANY
DATE        .                                             UNKNOWN :LOG DATE
UWI         .                                          3060000586 :UNIQUE WELL ID
XCOORD      .                                       597310.050000 :SURFACE X
YCOORD      .                                      2143045.730000 :SURFACE Y
LAT         .                                           19.380345 :LATITUDE
LON         .                                          -92.073358 :LONGITUDE
ELEV        .M                                            27.7000 :SURFACE ELEV
ELEV_TYPE   .                                                  KB :ELEV TYPE
~CURVE INFORMATION
#MNEMONIC.UNIT        API CODE       : CURVE DESCRIPTION
#------------------------------------------------------------------------------
DEPTH    .M                          : Measured Depth
CALI     .inches      UNKNOWN        : CALI:Import:rC:NONE:v0 (auto-composite)
CGR      .API         UNKNOWN        : CGR:Import:rC:NONE:v0 (auto-composite)
DRHO     .g/cm3       UNKNOWN        : DRHO:Import:rC:NONE:v0 (auto-composite)
DT       .us/ft       UNKNOWN        : DT:Import:rC:NONE:v0 (auto-composite)
GR       .API         UNKNOWN        : GR:Import:rC:NONE:v0 (auto-composite)
ILD      .ohm.m       UNKNOWN        : ILD:Import:rC:NONE:v0 (auto-composite)
ILM      .ohm.m       UNKNOWN        : ILM:Import:rC:NONE:v0 (auto-composite)
LLD      .ohm.m       UNKNOWN        : LLD:Import:rC:NONE:v0 (auto-composite)
LLS      .ohm.m       UNKNOWN        : LLS:Import:rC:NONE:v0 (auto-composite)
MSFL     .ohm.m       UNKNOWN        : MSFL:Import:rC:NONE:v0 (auto-composite)
NPHI     .v/v_decimal UNKNOWN        : NPHI:Import:rC:NONE:v0 (auto-composite)
PEF      .b/elec      UNKNOWN        : PEF:Import:rC:NONE:v0 (auto-composite)
POTA     .wtpercent   UNKNOWN        : POTA:Import:rC:NONE:v0 (auto-composite)
RHOB     .g/cm3       UNKNOWN        : RHOB:Import:rC:NONE:v0 (auto-composite)
SP       .mV          UNKNOWN        : SP:Import:rC:NONE:v0 (auto-composite)
THOR     .ppm         UNKNOWN        : THOR:Import:rC:NONE:v0 (auto-composite)
URAN     .ppm         UNKNOWN        : URAN:Import:rC:NONE:v0 (auto-composite)
~A     DEPTH         CALI          CGR         DRHO           DT           GR          ILD          ILM          LLD          LLS         MSFL         NPHI          PEF         POTA         RHOB           SP         THOR         URAN
# ...
   2379.5740       7.8890       0.5800       0.0320      38.4000      54.9300    -999.2500    -999.2500     227.5860      31.1650       6.5320       0.1064       1.9320       0.0002       2.5140    -394.0700       0.0710       6.0210
   2379.7263       8.0264       0.6090       0.0345      36.5532      56.9540    -999.2500    -999.2500     247.5866      35.5265       4.0068       0.1818       1.9575       0.0002       2.2393    -393.6088       0.0755       6.2416
   2379.8789       8.1640       0.6380       0.0370      34.7000      58.9850    -999.2500    -999.2500     267.6240      39.8960       1.4770       0.2521       1.9830       0.0002       1.9640    -393.1460       0.0800       6.4630
   2380.0312       8.1071       0.6625       0.0450      35.0214      61.8818    -999.2500    -999.2500     257.0838      46.6693       1.3112       0.2607       2.1064       0.0002       2.0065    -392.8096       0.0855       6.7804
   2380.1836       8.0500       0.6870       0.0530      35.3440      64.7890    -999.2500    -999.2500     246.5230      53.4560       1.1450       0.2523       2.2300       0.0003       2.0490    -392.4720       0.0910       7.0990
   2380.3359       7.9057       0.8292       0.0990      63.7196      60.7984    -999.2500    -999.2500     257.7637      55.7706       1.3123       0.2328       2.3983       0.0002       2.1834    -392.2604       0.1504       6.6523
   2380.4885       7.7610       0.9720       0.1450      92.2000      56.7930    -999.2500    -999.2500     269.0280      58.0900       1.4800       0.2105       2.5670       0.0002       2.3180    -392.0480       0.2100       6.2040
   2380.6409       7.6461       0.6626       0.1435      88.2211      44.8878    -999.2500    -999.2500     337.8902      70.2226       2.4160       0.1864       2.7598       0.0002       2.4269    -391.6148       0.1082       4.9095
   2380.7932       7.5310       0.3520       0.1420      84.2270      32.9370    -999.2500    -999.2500     406.9050      82.3820       3.3540       0.1586       2.9530       0.0002       2.5360    -391.1800       0.0060       3.6100
   2380.9456       7.5310       0.3570       0.1320      74.6065      34.3164    -999.2500    -999.2500     587.2697     111.3625       8.0660       0.1176       2.8771       0.0002       2.6653    -390.0948       0.0070       3.7623
   2381.0981       7.5310       0.3620       0.1220      64.9480      35.6990    -999.2500    -999.2500     768.0570     140.4110      12.7890       0.0810       2.8010       0.0002       2.7950    -389.0070       0.0080       3.9150
   2381.2505       7.5280       0.3505       0.1015      50.8028      29.4877    -999.2500    -999.2500    2021.5538     327.7893      12.6587       0.0746       2.8100       0.0002       2.7850    -387.7740       0.0120       3.2278
   2381.4028       7.5250       0.3390       0.0810      36.6000      23.2610    -999.2500    -999.2500    3278.1440     515.6300      12.5280       0.0773       2.8190       0.0002       2.7750    -386.5380       0.0160       2.5390
   2381.5552       7.4401       0.3475       0.0530      48.9740      23.3129    -999.2500    -999.2500    3120.7454     494.1694       8.1816       0.0893       2.8510       0.0002       2.7056    -384.8672       0.0215       2.5440
   2381.7075       7.3550       0.3560       0.0250      61.4000      23.3650    -999.2500    -999.2500    2962.9380     472.6530       3.8240       0.1010       2.8830       0.0002       2.6360    -383.1920       0.0270       2.5490
   2381.8601       7.3550       0.7220       0.0270      60.3657      24.1609    -999.2500    -999.2500    2518.9321     414.8900       3.8385       0.1021       3.0613       0.0002       2.6899    -381.8069       0.1074       2.6229
   2382.0125       7.3550       1.0890       0.0290      59.3270      24.9590    -999.2500    -999.2500    2073.7190     356.9700       3.8530       0.0977       3.2400       0.0002       2.7440    -380.4180       0.1880       2.6970
   2382.1648       7.3550       1.0466       0.0355      56.8775      26.4828    -999.2500    -999.2500    3732.3364     736.7717       9.2202       0.0805       3.2165       0.0003       2.7350    -379.2147       0.1705       2.8443
   2382.3171       7.3550       1.0040       0.0420      54.4210      28.0110    -999.2500    -999.2500    5395.6768    1117.6550      14.5940       0.0639       3.1930       0.0003       2.7260    -378.0080       0.1530       2.9920
   2382.4697       7.6248       0.7768       0.0275      52.2138      28.2836    -999.2500    -999.2500    4564.4165     986.9904      14.0903       0.0619       2.9612       0.0003       2.6296    -376.2786       0.1131       3.0369
   2382.6221       7.8950       0.5490       0.0130      50.0000      28.5570    -999.2500    -999.2500    3732.0190     856.1470      13.5860       0.0643       2.7290       0.0002       2.5330    -374.5440       0.0730       3.0820
   2382.7744       7.6252       1.7431       0.0260      51.5476      40.4755    -999.2500    -999.2500    2538.6313     622.3639      14.9875       0.0714       2.7625       0.0002       2.5555    -372.6789       0.4464       4.2801
   2382.9268       7.3550       2.9410       0.0390      53.1000      52.4310    -999.2500    -999.2500    1343.4630     388.2320      16.3910       0.0770       2.7960       0.0002       2.5780    -370.8080       0.8210       5.4820
   2383.0791       7.3550       1.7534       0.0385      52.8140      51.7092    -999.2500    -999.2500    1065.6614     312.4144      14.8527       0.0715       2.8724       0.0002       2.6484    -369.9509       0.4426       5.4441
   2383.2317       7.3550       0.5620       0.0380      52.5270      50.9850    -999.2500    -999.2500     787.4100     236.4740      13.3120       0.0615       2.9490       0.0002       2.7190    -369.0910       0.0630       5.4060
   2383.3840       7.3550       0.9399       0.0340      51.3724      37.3029    -999.2500    -999.2500     940.2937     290.0678      13.6182       0.0423       3.0025       0.0002       2.7720    -367.3609       0.2018       3.9385
   2383.5364       7.3550       1.3190       0.0300      50.2140      23.5750    -999.2500    -999.2500    1093.4440     343.7550      13.9250       0.0247       3.0560       0.0002       2.8250    -365.6250       0.3410       2.4660
   2383.6887       7.3550       1.2317       0.0320      48.7076      23.6119    -999.2500    -999.2500    1654.2203     577.9359      15.3567       0.0217       3.2268       0.0002       2.8350    -366.1241       0.2407       2.4880
   2383.8413       7.3550       1.1440       0.0340      47.1960      23.6490    -999.2500    -999.2500    2216.0459     812.5550      16.7910       0.0227       3.3980       0.0002       2.8450    -366.6250       0.1400       2.5100
   2383.9937       7.3550       2.5445       0.0335      46.2996      23.7578    -999.2500    -999.2500    2282.7993     879.8743      18.9244       0.0268       3.3665       0.0010       2.8330    -366.1443       0.2383       2.3658
   2384.1460       7.3550       3.9500       0.0330      45.4000      23.8670    -999.2500    -999.2500    2349.6860     947.3280      21.0620       0.0322       3.3350       0.0018       2.8210    -365.6620       0.3370       2.2210
   2384.2983       7.3550       3.8073       0.0260      45.9789      24.5118    -999.2500    -999.2500    2319.1455     924.6681      19.7119       0.0406       3.2231       0.0017       2.7880    -364.4442       0.3200       2.3009
   2384.4509       7.3550       3.6640       0.0190      46.5600      25.1590    -999.2500    -999.2500    2288.5400     901.9600      18.3590       0.0476       3.1110       0.0017       2.7550    -363.2220       0.3030       2.3810
   2384.6033       7.3475       2.0781       0.0245      48.7757      28.3214    -999.2500    -999.2500    1756.2256     674.3557      18.9533       0.0455       2.9367       0.0009       2.7730    -362.5563       0.1822       2.9070
   2384.7556       7.3400       0.4860       0.0300      51.0000      31.4960    -999.2500    -999.2500    1222.7150     446.2400      19.5490       0.0405       2.7620       0.0002       2.7910    -361.8880       0.0610       3.4350
