#------------------------------------------------------------------------------
#
#   Created by  : [OpenWorks] Log Export Utility (LEXP)
#   Created on  : 2016-05-19 11:01:21
#   Project     : CANT971
#   User        : R5K
#   Interpreter : PEP
#
#------------------------------------------------------------------------------
~VERSION INFORMATION
VERS. 2.0 : CWLS Log ASCII Standard - version 2.0
WRAP.  NO : One line per depth step
~WELL INFORMATION
#MNEMONIC   .UNIT                                           VALUE :DESCRIPTION
#------------------------------------------------------------------------------
STRT        .M                                          1238.0980 :START DEPTH
STOP        .M                                          2410.9685 :STOP DEPTH
STEP        .M                                             0.1524 :STEP
NULL        .                                           -999.2500 :NULL VALUE
COMP        .                                   PEMEX EXPL & PROD :COMPANY
WELL        .                                                247D :WELL
FLD         .                                           CANTARELL :FIELD
LOC         .                                             UNKNOWN :LOCATION
CNTY        .                                      CD. DEL CARMEN :COUNTY
STAT        .                                            CAMPECHE :STATE
CTRY        .                                              MEXICO :COUNTRY
SRVC        .                                             UNKNOWN :SERVICE COMPANY
DATE        .                                             UNKNOWN :LOG DATE
UWI         .                                          3060000586 :UNIQUE WELL ID
XCOORD      .                                       597310.050000 :SURFACE X
YCOORD      .                                      2143045.730000 :SURFACE Y
LAT         .                                           19.380345 :LATITUDE
LON         .                                          -92.073358 :LONGITUDE
ELEV        .M                                            27.7000 :SURFACE ELEV
ELEV_TYPE   .                                                  KB :ELEV TYPE
~CURVE INFORMATION
#MNEMONIC.UNIT        API CODE       : CURVE DESCRIPTION
#------------------------------------------------------------------------------
DEPTH    .M                          : Measured Depth
CALI     .inches      UNKNOWN        : CALI:Import:rC:NONE:v0 (auto-composite)
CGR      .API         UNKNOWN        : CGR:Import:rC:NONE:v0 (auto-composite)
DRHO     .g/cm3       UNKNOWN        : DRHO:Import:rC:NONE:v0 (auto-composite)
DT       .us/ft       UNKNOWN        : DT:Import:rC:NONE:v0 (auto-composite)
GR       .API         UNKNOWN        : GR:Import:rC:NONE:v0 (auto-composite)
ILD      .ohm.m       UNKNOWN        : ILD:Import:rC:NONE:v0 (auto-composite)
ILM      .ohm.m       UNKNOWN        : ILM:Import:rC:NONE:v0 (auto-composite)
LLD      .ohm.m       UNKNOWN        : LLD:Import:rC:NONE:v0 (auto-composite)
LLS      .ohm.m       UNKNOWN        : LLS:Import:rC:NONE:v0 (auto-composite)
MSFL     .ohm.m       UNKNOWN        : MSFL:Import:rC:NONE:v0 (auto-composite)
NPHI     .v/v_decimal UNKNOWN        : NPHI:Import:rC:NONE:v0 (auto-composite)
PEF      .b/elec      UNKNOWN        : PEF:Import:rC:NONE:v0 (auto-composite)
POTA     .wtpercent   UNKNOWN        : POTA:Import:rC:NONE:v0 (auto-composite)
RHOB     .g/cm3       UNKNOWN        : RHOB:Import:rC:NONE:v0 (auto-composite)
SP       .mV          UNKNOWN        : SP:Import:rC:NONE:v0 (auto-composite)
THOR     .ppm         UNKNOWN        : THOR:Import:rC:NONE:v0 (auto-composite)
URAN     .ppm         UNKNOWN        : URAN:Import:rC:NONE:v0 (auto-composite)
~A     DEPTH         CALI          CGR         DRHO           DT           GR          ILD          ILM          LLD          LLS         MSFL         NPHI          PEF         POTA         RHOB           SP         THOR         URAN
# ...
   2208.8860       7.3550       8.6830      -0.9010     119.7950      41.3700    -999.2500    -999.2500       6.7250      17.3850       0.6990       0.3536      13.7200       0.0027       2.4540    -530.2500       1.3630       3.6210
   2209.0383       7.4219      11.0353      -0.7556     126.8847      42.0893    -999.2500    -999.2500       3.4967      10.2491       0.3981       0.3450       9.6745       0.0041       2.2842    -532.7475       1.3900       3.4398
   2209.1909       7.4890      13.3960      -0.6100     134.0000      42.8100    -999.2500    -999.2500       0.2620       3.0990       0.0970       0.3349       5.6210       0.0055       2.1140    -535.2500       1.4170       3.2580
   2209.3433       8.0179      15.9877      -0.4081     129.1356      43.3255    -999.2500    -999.2500       0.4034       2.1295       0.1025       0.3244       3.9474       0.0063       1.8736    -533.4649       1.6825       3.0359
   2209.4956       8.5470      18.5890      -0.2060     124.2530      43.8420    -999.2500    -999.2500       0.5450       1.1580       0.1080       0.3144       2.2730       0.0072       1.6330    -531.6760       1.9490       2.8130
   2209.6479       9.8146      18.3879      -0.0456     106.2112      47.9794    -999.2500    -999.2500       6.3035      10.4855       8.2389       0.3072       2.2980       0.0069       1.7215    -526.9633       2.1676       3.2776
   2209.8005      11.0830      18.1860       0.1150      88.1000      52.1260    -999.2500    -999.2500      12.0750      19.8340      16.3750       0.3011       2.3230       0.0067       1.8100    -522.2400       2.3870       3.7440
   2209.9529      11.6273      18.5488       0.0955      96.2837      58.2972    -999.2500    -999.2500    1180.3206    2609.7771      11.6758       0.2983       2.4265       0.0061       1.9404    -505.7690       2.8830       4.2550
   2210.1052      12.1720      18.9130       0.0760     104.5000      64.4830    -999.2500    -999.2500    2351.3350    5205.8589       6.9730       0.2956       2.5300       0.0056       2.0710    -489.2590       3.3810       4.7680
   2210.2576      11.9496      16.0411       0.0580      97.9634      62.7552    -999.2500    -999.2500   37795.2578   32990.9492    1003.2922       0.2907       2.7034       0.0047       2.1580    -446.3706       2.8077       5.0347
   2210.4099      11.7270      13.1620       0.0400      91.4000      61.0230    -999.2500    -999.2500   73327.7188   60845.4492    2000.5000       0.2854       2.8770       0.0038       2.2450    -403.3750       2.2330       5.3020
   2210.5625      11.8190       8.2454       0.0540      93.4457      57.6474    -999.2500    -999.2500   72564.6562   67841.8516    1038.6089       0.2804       2.8590       0.0028       2.3070    -436.5815       1.1699       5.4728
   2210.7148      11.9110       3.3160       0.0680      95.5000      54.2630    -999.2500    -999.2500   71799.5859   74856.6016      75.7380       0.2774       2.8410       0.0018       2.3690    -469.8750       0.1040       5.6440
   2210.8672      12.3103       7.6920       0.0950      87.6172      55.3595    -999.2500    -999.2500   62072.1992   75844.5469      39.9734       0.2837       2.6931       0.0027       2.3485    -455.1303       0.8015       5.3444
   2211.0195      12.7100      12.0800       0.1220      79.7000      56.4590    -999.2500    -999.2500   52318.0664   76835.2109       4.1680       0.2858       2.5450       0.0036       2.3280    -440.3450       1.5010       5.0440
   2211.1721      13.2686      10.9057       0.0925      83.4416      57.2294    -999.2500    -999.2500   54083.4688   77353.4766       4.8900       0.2599       2.5510       0.0041       2.2755    -426.3856       1.0986       5.2073
   2211.3245      13.8280       9.7280       0.0630      87.2000      58.0020    -999.2500    -999.2500   55851.1133   77872.4062       5.6130       0.2286       2.5570       0.0046       2.2230    -412.3860       0.6950       5.3710
   2211.4768      12.8602      16.3750       0.0810      86.6408      60.7673    -999.2500    -999.2500   48485.5859   80009.1719       3.7348       0.1979       2.7394       0.0074       2.2905    -387.9262       1.3790       5.0799
   2211.6292      11.8910      23.0420       0.0990      86.0800      63.5410    -999.2500    -999.2500   41109.7891   82148.9141       1.8540       0.1781       2.9220       0.0102       2.3580    -363.3930       2.0650       4.7880
   2211.7817      11.9495      20.1016       0.0975      78.9511      57.7680    -999.2500    -999.2500   41552.6328   88050.4609      26.6426       0.2081       2.7102       0.0094       2.2476    -351.9019       1.7495       4.3237
   2211.9341      12.0080      17.1520       0.0960      71.8000      51.9770    -999.2500    -999.2500   41996.1523   93960.9922      51.4690       0.2480       2.4980       0.0086       2.1370    -340.3750       1.4330       3.8580
   2212.0864      11.8506      17.1750       0.1465      78.3259      52.0619    -999.2500    -999.2500   38766.3711   71256.7734      38.3678       0.2872       2.5190       0.0078       2.1690    -348.3620       1.5723       3.8650
   2212.2388      11.6930      17.1980       0.1970      84.8730      52.1470    -999.2500    -999.2500   35531.2734   48515.1719      25.2660       0.3222       2.5400       0.0070       2.2010    -356.3750       1.7120       3.8720
   2212.3911      10.9392      19.2475       0.1775      88.3302      57.0766    -999.2500    -999.2500   24862.3828   30810.5547     888.3100       0.3392       2.5875       0.0081       2.2245    -343.6363       1.8563       4.0757
   2212.5437      10.1840      21.3040       0.1580      91.7990      62.0150    -999.2500    -999.2500   14174.5742   13074.5410    1751.5000       0.3431       2.6350       0.0092       2.2480    -330.8750       2.0010       4.2800
   2212.6960       9.6275      24.0068       0.2060      94.0955      61.7832    -999.2500    -999.2500    7160.0093    6642.3599     922.6532       0.3050       2.8653       0.0105       2.3954    -331.6243       2.1437       4.1318
   2212.8484       9.0700      26.7190       0.2540      96.4000      61.5510    -999.2500    -999.2500     132.1330     197.9720      93.5620       0.2613       3.0960       0.0118       2.5430    -332.3750       2.2870       3.9830
   2213.0007       8.9451      26.6935       0.2026      91.6087      60.7398    -999.2500    -999.2500      67.3906     100.4023     249.5497       0.2304       3.2528       0.0117       2.5125    -311.7709       2.3843       3.7968
   2213.1533       8.8200      26.6680       0.1510      86.8000      59.9270    -999.2500    -999.2500       2.5170       2.6350     405.6030       0.2081       3.4100       0.0117       2.4820    -291.1250       2.4820       3.6100
   2213.3057       8.8485      24.4517       0.1780      99.6259      57.4711    -999.2500    -999.2500       2.6419       2.8283     807.4417       0.2117       3.3110       0.0111       2.5495    -304.2359       2.0603       3.6175
   2213.4580       8.8770      22.2270       0.2050     112.5000      55.0100    -999.2500    -999.2500       2.7670       3.0220    1209.5000       0.2200       3.2120       0.0105       2.6170    -317.3750       1.6370       3.6250
   2213.6104       9.2644      23.4945       0.1855      78.3163      58.1599    -999.2500    -999.2500       3.3983       4.3540     629.1323       0.2264       2.9341       0.0105       2.4446    -308.0411       2.0437       3.8835
   2213.7629       9.6520      24.7670       0.1660      44.0000      61.3170    -999.2500    -999.2500       4.0310       5.6890      48.3750       0.2331       2.6560       0.0105       2.2720    -298.6860       2.4520       4.1430
   2213.9153      10.4897      23.4367       0.1935      61.8926      63.0984    -999.2500    -999.2500       7.5643      10.9167     314.4803       0.2443       3.0493       0.0104       2.3065    -289.7912       2.0553       4.3915
   2214.0676      11.3280      22.1010       0.2210      79.8570      64.8840    -999.2500    -999.2500      11.1060      16.1570     580.7980       0.2531       3.4430       0.0104       2.3410    -280.8750       1.6570       4.6410
