#------------------------------------------------------------------------------
#
#   Created by  : [OpenWorks] Log Export Utility (LEXP)
#   Created on  : 2016-05-19 11:01:21
#   Project     : CANT971
#   User        : R5K
#   Interpreter : PEP
#
#------------------------------------------------------------------------------
~VERSION INFORMATION
VERS. 2.0 : CWLS Log ASCII Standard - version 2.0
WRAP.  NO : One line per depth step
~WELL INFORMATION
#MNEMONIC   .UNIT                                           VALUE :DESCRIPTION
#------------------------------------------------------------------------------
STRT        .M                                          1238.0980 :START DEPTH
STOP        .M                                          2410.9685 :STOP DEPTH
STEP        .M                                             0.1524 :STEP
NULL        .                                           -999.2500 :NULL VALUE
COMP        .                                   PEMEX EXPL & PROD :COMPANY
WELL        .                                                247D :WELL
FLD         .                                           CANTARELL :FIELD
LOC         .                                             UNKNOWN :LOCATION
CNTY        .                                      CD. DEL CARMEN :COUNTY
STAT        .                                            CAMPECHE :STATE
CTRY        .                                              MEXICO :COUNTRY
SRVC        .                                             UNKNOWN :SERVICE COMPANY
DATE        .                                             UNKNOWN :LOG DATE
UWI         .                                          3060000586 :UNIQUE WELL ID
XCOORD      .                                       597310.050000 :SURFACE X
YCOORD      .                                      2143045.730000 :SURFACE Y
LAT         .                                           19.380345 :LATITUDE
LON         .                                          -92.073358 :LONGITUDE
ELEV        .M                                            27.7000 :SURFACE ELEV
ELEV_TYPE   .                                                  KB :ELEV TYPE
~CURVE INFORMATION
#MNEMONIC.UNIT        API CODE       : CURVE DESCRIPTION
#------------------------------------------------------------------------------
DEPTH    .M                          : Measured Depth
CALI     .inches      UNKNOWN        : CALI:Import:rC:NONE:v0 (auto-composite)
CGR      .API         UNKNOWN        : CGR:Import:rC:NONE:v0 (auto-composite)
DRHO     .g/cm3       UNKNOWN        : DRHO:Import:rC:NONE:v0 (auto-composite)
DT       .us/ft       UNKNOWN        : DT:Import:rC:NONE:v0 (auto-composite)
GR       .API         UNKNOWN        : GR:Import:rC:NONE:v0 (auto-composite)
ILD      .ohm.m       UNKNOWN        : ILD:Import:rC:NONE:v0 (auto-composite)
ILM      .ohm.m       UNKNOWN        : ILM:Import:rC:NONE:v0 (auto-composite)
LLD      .ohm.m       UNKNOWN        : LLD:Import:rC:NONE:v0 (auto-composite)
LLS      .ohm.m       UNKNOWN        : LLS:Import:rC:NONE:v0 (auto-composite)
MSFL     .ohm.m       UNKNOWN        : MSFL:Import:rC:NONE:v0 (auto-composite)
NPHI     .v/v_decimal UNKNOWN        : NPHI:Import:rC:NONE:v0 (auto-composite)
PEF      .b/elec      UNKNOWN        : PEF:Import:rC:NONE:v0 (auto-composite)
POTA     .wtpercent   UNKNOWN        : POTA:Import:rC:NONE:v0 (auto-composite)
RHOB     .g/cm3       UNKNOWN        : RHOB:Import:rC:NONE:v0 (auto-composite)
SP       .mV          UNKNOWN        : SP:Import:rC:NONE:v0 (auto-composite)
THOR     .ppm         UNKNOWN        : THOR:Import:rC:NONE:v0 (auto-composite)
URAN     .ppm         UNKNOWN        : URAN:Import:rC:NONE:v0 (auto-composite)
~A     DEPTH         CALI          CGR         DRHO           DT           GR          ILD          ILM          LLD          LLS         MSFL         NPHI          PEF         POTA         RHOB           SP         THOR         URAN
# ...
   2278.2280       7.8750       0.4900       0.0165      73.2147      59.2020    -999.2500    -999.2500     708.4791     859.2183      65.9656       0.0816       3.2550       0.0003       2.7045    -296.3322       0.0110       6.5041
   2278.3804       7.8750       0.4960       0.0190      70.9220      58.9070    -999.2500    -999.2500     356.1670     381.7180      60.4690       0.0832       3.2910       0.0003       2.7060    -296.7910       0.0120       6.4710
   2278.5327       7.8965       0.7790       0.0325      70.6654      57.1585    -999.2500    -999.2500     554.9522     625.8051      62.0381       0.0850       3.1571       0.0004       2.7035    -297.8312       0.0175       6.2459
   2278.6853       7.9180       1.0630       0.0460      70.4080      55.4040    -999.2500    -999.2500     754.0940     870.3300      63.6100       0.0882       3.0230       0.0006       2.7010    -298.8750       0.0230       6.0200
   2278.8376       7.9005       0.9961       0.0550      70.3122      59.0870    -999.2500    -999.2500     567.9360     627.0908      84.0354       0.0936       3.0420       0.0005       2.7040    -297.8438       0.0839       6.4353
   2278.9900       7.8830       0.9290       0.0640      70.2160      62.7830    -999.2500    -999.2500     381.4210     383.3850     104.5000       0.0988       3.0610       0.0003       2.7070    -296.8090       0.1450       6.8520
   2279.1423       7.9414       0.7508       0.0565      52.4404      63.1896    -999.2500    -999.2500     318.8325     311.8976      81.0710       0.1016       3.0310       0.0003       2.7040    -295.5932       0.0956       6.9169
   2279.2949       8.0000       0.5720       0.0490      34.6000      63.5970    -999.2500    -999.2500     256.1160     240.2640      57.5940       0.1030       3.0010       0.0003       2.7010    -294.3750       0.0460       6.9820
   2279.4473       7.9461       0.6194       0.0365      44.5312      61.9093    -999.2500    -999.2500     371.7715     387.0028      90.6001       0.1036       2.9785       0.0003       2.6865    -295.4988       0.0600       6.7899
   2279.5996       7.8920       0.6670       0.0240      54.5000      60.2180    -999.2500    -999.2500     487.6780     534.0600     123.6250       0.1057       2.9560       0.0003       2.6720    -296.6250       0.0740       6.5970
   2279.7520       7.8835       1.4115       0.0265      47.4537      58.3661    -999.2500    -999.2500     502.6698     601.0106      95.7921       0.1111       2.9235       0.0003       2.6630    -296.0487       0.3185       6.3155
   2279.9045       7.8750       2.1590       0.0290      40.3800      56.5100    -999.2500    -999.2500     517.6960     668.1150      67.9400       0.1171       2.8910       0.0002       2.6540    -295.4710       0.5640       6.0330
   2280.0569       7.8750       1.3691       0.0340      39.1924      55.3709    -999.2500    -999.2500     513.7208     610.7834      49.4541       0.1217       3.0829       0.0003       2.6365    -294.0497       0.2841       5.9886
   2280.2092       7.8750       0.5760       0.0390      38.0000      54.2290    -999.2500    -999.2500     509.7360     553.3130      30.9530       0.1241       3.2750       0.0003       2.6190    -292.6250       0.0030       5.9440
   2280.3616       7.8905       0.5091       0.0270      44.6372      53.0076    -999.2500    -999.2500    4460.0386    4657.1821      31.6657       0.1240       3.0566       0.0003       2.6000    -294.2394       0.0045       5.8162
   2280.5139       7.9060       0.4420       0.0150      51.3020      51.7830    -999.2500    -999.2500    8420.4121    8771.5137      32.3790       0.1204       2.8380       0.0003       2.5810    -295.8580       0.0060       5.6880
   2280.6665       7.8790       1.5780       0.0175      54.9931      47.4588    -999.2500    -999.2500    5552.4062    6554.6772      49.4928       0.1131       2.8840       0.0009       2.5955    -296.5681       0.0090       5.0923
   2280.8188       7.8520       2.7170       0.0200      58.7000      43.1230    -999.2500    -999.2500    2676.7339    4331.9150      66.6250       0.1090       2.9300       0.0016       2.6100    -297.2800       0.0120       4.4950
   2280.9712       7.7930       1.5696       0.0345      47.5650      41.5257    -999.2500    -999.2500    2199.1194    3388.2878      41.9442       0.1139       3.1099       0.0009       2.6275    -297.4523       0.0190       4.4356
   2281.1235       7.7340       0.4190       0.0490      36.3810      39.9240    -999.2500    -999.2500    1720.1670    2442.0171      17.2340       0.1203       3.2900       0.0002       2.6450    -297.6250       0.0260       4.3760
   2281.2761       7.8354       0.7126       0.0735      35.2431      44.9187    -999.2500    -999.2500    6393.5771    8913.3447      40.4297       0.1222       3.4469       0.0002       2.6570    -295.6594       0.1154       4.8967
   2281.4285       7.9370       1.0070       0.0980      34.1000      49.9280    -999.2500    -999.2500   11073.1631   15393.2227      63.6560       0.1199       3.6040       0.0002       2.6690    -293.6880       0.2050       5.4190
   2281.5808       8.0584       1.2601       0.1270      53.1210      51.1806    -999.2500    -999.2500   28094.1348   40435.6953      60.6272       0.1141       3.4531       0.0002       2.6030    -293.5317       0.2829       5.5298
   2281.7332       8.1800       1.5140       0.1560      72.2000      52.4370    -999.2500    -999.2500   45139.7188   65514.3789      57.5940       0.1202       3.3020       0.0002       2.5370    -293.3750       0.3610       5.6410
   2281.8857       8.1470       1.2479       0.1515      67.0582      52.1375    -999.2500    -999.2500   49735.5508   69992.3359      92.4256       0.1501       3.0107       0.0002       2.3911    -293.6066       0.2746       5.6375
   2282.0381       8.1140       0.9810       0.1470      61.9000      51.8370    -999.2500    -999.2500   54338.6133   74477.3438     127.3120       0.1894       2.7190       0.0002       2.2450    -293.8390       0.1880       5.6340
   2282.1904       8.0171       0.8842       0.1280      63.6471      51.1891    -999.2500    -999.2500   48409.1992   68062.7266      97.9619       0.2267       2.8124       0.0002       2.3239    -294.1066       0.1551       5.5736
   2282.3428       7.9200       0.7870       0.1090      65.4000      50.5390    -999.2500    -999.2500   42469.7188   61637.2266      68.5620       0.2386       2.9060       0.0002       2.4030    -294.3750       0.1220       5.5130
   2282.4951       7.9025       0.7181       0.0600      62.0058      52.0868    -999.2500    -999.2500   38336.9766   53923.3594      77.0233       0.2079       3.0394       0.0002       2.5009    -293.1271       0.1065       5.6912
   2282.6477       7.8850       0.6490       0.0110      58.6000      53.6400    -999.2500    -999.2500   34196.6914   46195.4180      85.5000       0.1671       3.1730       0.0002       2.5990    -291.8750       0.0910       5.8700
   2282.8000       7.8041       0.5821       0.0110      60.2471      55.7463    -999.2500    -999.2500   17510.9004   23678.9043      58.6277       0.1419       3.2434       0.0002       2.6185    -294.3706       0.0715       6.1111
   2282.9524       7.7230       0.5150       0.0110      61.9000      57.8600    -999.2500    -999.2500     792.5870    1118.5060      31.7030       0.1273       3.3140       0.0002       2.6380    -296.8750       0.0520       6.3530
   2283.1047       7.7230       0.5305       0.0130      60.2530      57.7167    -999.2500    -999.2500    1941.4177    2616.4053      34.3373       0.1179       3.2715       0.0002       2.6450    -294.7522       0.0500       6.3350
   2283.2573       7.7230       0.5460       0.0150      58.6000      57.5730    -999.2500    -999.2500    3092.6340    4117.4150      36.9770       0.1115       3.2290       0.0002       2.6520    -292.6250       0.0480       6.3170
   2283.4097       7.7929       0.7137       0.0180      58.6998      55.4623    -999.2500    -999.2500    1797.0096    2432.5515      79.3818       0.1071       3.2065       0.0002       2.6545    -294.6083       0.0974       6.0635
