#------------------------------------------------------------------------------
#
#   Created by  : [OpenWorks] Log Export Utility (LEXP)
#   Created on  : 2016-05-18 11:02:13
#   Project     : CANT971
#   User        : R5K
#   Interpreter : PEP
#
#------------------------------------------------------------------------------
~VERSION INFORMATION
VERS. 2.0 : CWLS Log ASCII Standard - version 2.0
WRAP.  NO : One line per depth step
~WELL INFORMATION
#MNEMONIC   .UNIT                                           VALUE :DESCRIPTION
#------------------------------------------------------------------------------
STRT        .M                                           500.8876 :START DEPTH
STOP        .M                                          2799.8416 :STOP DEPTH
STEP        .M                                             0.1524 :STEP
NULL        .                                           -999.2500 :NULL VALUE
COMP        .                                   PEMEX EXPL & PROD :COMPANY
WELL        .                                                 265 :WELL
FLD         .                                           CANTARELL :FIELD
LOC         .                                             UNKNOWN :LOCATION
CNTY        .                                      CD. DEL CARMEN :COUNTY
STAT        .                                            CAMPECHE :STATE
CTRY        .                                              MEXICO :COUNTRY
SRVC        .                                             UNKNOWN :SERVICE COMPANY
DATE        .                                             UNKNOWN :LOG DATE
UWI         .                                          3060000482 :UNIQUE WELL ID
XCOORD      .                                       597308.430000 :SURFACE X
YCOORD      .                                      2143047.340000 :SURFACE Y
LAT         .                                           19.380359 :LATITUDE
LON         .                                          -92.073373 :LONGITUDE
ELEV        .M                                            27.7000 :SURFACE ELEV
ELEV_TYPE   .                                                  KB :ELEV TYPE
~CURVE INFORMATION
#MNEMONIC.UNIT        API CODE       : CURVE DESCRIPTION
#------------------------------------------------------------------------------
DEPTH    .M                          : Measured Depth
DT       .us/ft       UNKNOWN        : DT:sonico:rC:NONE:v0 (auto-composite)
GR       .UNKNOWN     UNKNOWN        : GR:GR-Load:rC:NONE:v0 (auto-composite)
ILD      .UNKNOWN     UNKNOWN        : ILD:ILD-Load:rC:NONE:v0 (auto-composite)
LLD      .UNKNOWN     UNKNOWN        : LLD:LLD-Load:rC:NONE:v0 (auto-composite)
LLS      .UNKNOWN     UNKNOWN        : LLS:LLS-Load:rC:NONE:v0 (auto-composite)
MSFL     .UNKNOWN     UNKNOWN        : MSFL:MSFL-Load:rC:NONE:v0 (auto-composite)
NPHI     .v/v_decimal UNKNOWN        : NPHI:NPHI:rC:NONE:v0 (auto-composite)
RHOB     .UNKNOWN     UNKNOWN        : RHOB:RHOB-Load:rC:NONE:v0 (auto-composite)
~A     DEPTH           DT           GR          ILD          LLD          LLS         MSFL         NPHI         RHOB
# ...
   2561.9453      79.5510      74.9026    -999.2500       2.1208       1.9114       2.7652      16.7815       2.5257
   2562.0977      79.5510      71.0233    -999.2500       2.1668       1.9284       2.9578      16.9040       2.5102
   2562.2500      79.1330      68.1824    -999.2500       2.2550       2.0130       3.1845      17.7281       2.5000
   2562.4023      78.7470      65.8500    -999.2500       2.3639       2.1309       3.4284      18.9061       2.4925
   2562.5547      78.8140      63.0078    -999.2500       2.3629       2.1483       3.4228      18.6680       2.4900
   2562.7073      79.3500      59.9166    -999.2500       2.3073       2.1157       3.2917      17.7184       2.4900
   2562.8596      81.5610      59.5146    -999.2500       2.2258       2.0397       3.1121      17.4163       2.4933
   2563.0120      80.6900      60.4305    -999.2500       2.1313       1.9423       2.9082      17.4408       2.4983
   2563.1643      78.9480      62.4754    -999.2500       2.1197       1.9100       2.8433      18.8296       2.5233
   2563.3169      78.7470      65.0718    -999.2500       2.1492       1.9100       2.8483      20.9042       2.5583
   2563.4692      79.2560      67.7263    -999.2500       2.1794       1.9297       2.8860      21.1679       2.5650
   2563.6216      80.3280      70.4093    -999.2500       2.2099       1.9592       2.9399      20.5176       2.5575
   2563.7739      81.2930      72.6535    -999.2500       2.1999       1.9961       3.0552      20.3998       2.5467
   2563.9265      79.7840      74.6832    -999.2500       2.1699       2.0366       3.2012      20.5497       2.5342
   2564.0789      79.4940      76.1721    -999.2500       2.1650       2.0333       3.0668      20.9988       2.5400
   2564.2312      79.5990      77.3976    -999.2500       2.1725       2.0083       2.7917      21.5990       2.5550
   2564.3835      79.6850      77.0610    -999.2500       2.1850       2.0167       2.8466      21.2990       2.5833
   2564.5359      79.6850      75.9605    -999.2500       2.2000       2.0417       3.0665      20.5458       2.6183
   2564.6885      79.4550      77.1457    -999.2500       2.2284       2.1002       3.0467      19.3981       2.6167
   2564.8408      78.8810      79.4447    -999.2500       2.2634       2.1751       2.9067      18.0511       2.5967
   2564.9932      77.0390      79.8443    -999.2500       2.3017       2.1833       2.8700      17.6502       2.5900
   2565.1455      77.2070      79.3146    -999.2500       2.3418       2.1583       2.8850      17.7258       2.5900
   2565.2981      77.0730      77.2952    -999.2500       2.3751       2.1734       2.9150      18.2721       2.5833
   2565.4504      75.6310      74.5494    -999.2500       2.4051       2.2084       2.9525      19.0548       2.5733
   2565.6028      75.8270      71.2682    -999.2500       2.4267       2.2501       2.9800      19.9792       2.5750
   2565.7551      75.8670      67.7249    -999.2500       2.4442       2.2951       3.0025      20.9751       2.5825
   2565.9077      75.6540      64.3921    -999.2500       2.4717       2.3167       2.9634      22.2702       2.5966
   2566.0601      74.7150      61.1619    -999.2500       2.5043       2.3267       2.8934      23.7156       2.6141
   2566.2124      74.2600      60.9058    -999.2500       2.5368       2.3300       2.9343      23.7251       2.6133
   2566.3647      74.8680      62.1062    -999.2500       2.5692       2.3300       3.0307      23.0109       2.6033
   2566.5171      75.7430      62.3626    -999.2500       2.5696       2.3300       3.1572      22.1283       2.6000
   2566.6697      76.1350      62.1582    -999.2500       2.5541       2.3300       3.2988      21.1613       2.6000
   2566.8220      76.7380      61.1206    -999.2500       2.5159       2.3300       3.3840      20.3592       2.5867
   2566.9744      76.2690      59.6745    -999.2500       2.4664       2.3300       3.4409      19.6405       2.5667
   2567.1267      76.0680      60.4424    -999.2500       2.4500       2.3300       3.2803      19.6661       2.5633
   2567.2793      76.0010      62.2916    -999.2500       2.4500       2.3300       3.0102      20.0659       2.5683
   2567.4316      76.1350      62.1385    -999.2500       2.4500       2.2932       3.2563      19.7346       2.5614
   2567.5840      76.2690      61.0036    -999.2500       2.4500       2.2382       3.7611      19.0344       2.5484
   2567.7363      76.6710      59.4446    -999.2500       2.4500       2.2200       3.7217      19.0234       2.5294
   2567.8889      78.4360      57.6785    -999.2500       2.4500       2.2200       3.4086      19.3593       2.5074
   2568.0413      80.2210      58.7132    -999.2500       2.4396       2.2401       3.0828      20.2125       2.5070
   2568.1936      80.0870      61.1122    -999.2500       2.4241       2.2701       2.7507      21.3269       2.5175
   2568.3459      77.1400      61.4969    -999.2500       2.3829       2.2730       2.6567      21.5097       2.5343
   2568.4983      78.1380      60.8967    -999.2500       2.3289       2.2625       2.6817      21.2236       2.5543
   2568.6509      78.8810      61.9433    -999.2500       2.2437       2.1723       2.6101      20.4198       2.5707
   2568.8032      75.5320      63.7925    -999.2500       2.1432       2.0428       2.4900      19.3562       2.5851
   2568.9556      78.6810      63.6987    -999.2500       2.1525       2.0408       2.5186      19.2778       2.5800
   2569.1079      76.2020      62.6543    -999.2500       2.2160       2.1018       2.6216      19.6954       2.5650
   2569.2605      74.7960      60.6282    -999.2500       2.2939       2.1772       2.7239      20.6220       2.5653
   2569.4128      76.4340      58.1232    -999.2500       2.3789       2.2597       2.8260      21.8040       2.5733
   2569.5652      77.4750      57.5643    -999.2500       2.4214       2.3014       2.8600      21.3020       2.5823
   2569.7175      77.6090      57.9579    -999.2500       2.4429       2.3229       2.8600      19.9515       2.5918
   2569.8701      75.6660      59.0655    -999.2500       2.4500       2.3300       2.8600      19.7805       2.6166
   2570.0225      74.6620      60.5213    -999.2500       2.4500       2.3300       2.8600      20.2018       2.6491
   2570.1748      74.4610      59.7954    -999.2500       2.4795       2.3387       3.0065      21.5258       2.6467
   2570.3271      73.5900      58.0007    -999.2500       2.5234       2.3517       3.2265      23.3050       2.6267
   2570.4795      71.5140      55.7288    -999.2500       2.6404       2.4453       3.5453      22.3366       2.6253
   2570.6321      71.9160      53.2239    -999.2500       2.7934       2.5789       3.9140      19.9876       2.6333
   2570.7844      71.7820      51.1916    -999.2500       2.9216       2.7023       4.1279      19.2997       2.6506
   2570.9368      70.7270      49.3909    -999.2500       3.0376       2.8207       4.2644      19.4498       2.6726
   2571.0891      69.7720      49.0015    -999.2500       3.0877       2.8600       4.3100      19.1638       2.6694
   2571.2417      68.4710      49.3013    -999.2500       3.1052       2.8600       4.3100      18.6585       2.6534
   2571.3940      66.8250      49.3104    -999.2500       3.1525       2.8864       4.6455      17.3625       2.5922
   2571.5464      66.5570      49.1768    -999.2500       3.2145       2.9259       5.1492      15.6674       2.5081
   2571.6987      67.3610      48.6233    -999.2500       3.3771       3.1199       6.0446      15.2068       2.4996
   2571.8513      68.1650      47.8645    -999.2500       3.5897       3.3905       7.1356      15.3674       2.5291
   2572.0037      75.3990      46.7704    -999.2500       3.5978       3.3987       7.0736      16.5488       2.5626
   2572.1560      76.3360      45.5130    -999.2500       3.5048       3.2773       6.4333      18.2421       2.5981
   2572.3083      78.5480      45.9677    -999.2500       3.2052       3.0852       5.4469      21.0352       2.6083
