#------------------------------------------------------------------------------
#
#   Created by  : [OpenWorks] Log Export Utility (LEXP)
#   Created on  : 2016-05-18 11:02:13
#   Project     : CANT971
#   User        : R5K
#   Interpreter : PEP
#
#------------------------------------------------------------------------------
~VERSION INFORMATION
VERS. 2.0 : CWLS Log ASCII Standard - version 2.0
WRAP.  NO : One line per depth step
~WELL INFORMATION
#MNEMONIC   .UNIT                                           VALUE :DESCRIPTION
#------------------------------------------------------------------------------
STRT        .M                                           500.8876 :START DEPTH
STOP        .M                                          2799.8416 :STOP DEPTH
STEP        .M                                             0.1524 :STEP
NULL        .                                           -999.2500 :NULL VALUE
COMP        .                                   PEMEX EXPL & PROD :COMPANY
WELL        .                                                 265 :WELL
FLD         .                                           CANTARELL :FIELD
LOC         .                                             UNKNOWN :LOCATION
CNTY        .                                      CD. DEL CARMEN :COUNTY
STAT        .                                            CAMPECHE :STATE
CTRY        .                                              MEXICO :COUNTRY
SRVC        .                                             UNKNOWN :SERVICE COMPANY
DATE        .                                             UNKNOWN :LOG DATE
UWI         .                                          3060000482 :UNIQUE WELL ID
XCOORD      .                                       597308.430000 :SURFACE X
YCOORD      .                                      2143047.340000 :SURFACE Y
LAT         .                                           19.380359 :LATITUDE
LON         .                                          -92.073373 :LONGITUDE
ELEV        .M                                            27.7000 :SURFACE ELEV
ELEV_TYPE   .                                                  KB :ELEV TYPE
~CURVE INFORMATION
#MNEMONIC.UNIT        API CODE       : CURVE DESCRIPTION
#------------------------------------------------------------------------------
DEPTH    .M                          : Measured Depth
DT       .us/ft       UNKNOWN        : DT:sonico:rC:NONE:v0 (auto-composite)
GR       .UNKNOWN     UNKNOWN        : GR:GR-Load:rC:NONE:v0 (auto-composite)
ILD      .UNKNOWN     UNKNOWN        : ILD:ILD-Load:rC:NONE:v0 (auto-composite)
LLD      .UNKNOWN     UNKNOWN        : LLD:LLD-Load:rC:NONE:v0 (auto-composite)
LLS      .UNKNOWN     UNKNOWN        : LLS:LLS-Load:rC:NONE:v0 (auto-composite)
MSFL     .UNKNOWN     UNKNOWN        : MSFL:MSFL-Load:rC:NONE:v0 (auto-composite)
NPHI     .v/v_decimal UNKNOWN        : NPHI:NPHI:rC:NONE:v0 (auto-composite)
RHOB     .UNKNOWN     UNKNOWN        : RHOB:RHOB-Load:rC:NONE:v0 (auto-composite)
~A     DEPTH           DT           GR          ILD          LLD          LLS         MSFL         NPHI         RHOB
# ...
   2793.2883      79.9362      13.4040    -999.2500    2006.4354     971.0334     132.2288       6.7273       2.7563
   2793.4409      79.4840      14.1542    -999.2500    2483.1030    1316.3408     110.2383       6.9911       2.7508
   2793.5933      76.4700      14.1127    -999.2500    2567.5117    1300.8513     119.4418       7.3602       2.7369
   2793.7456      78.5420      13.6853    -999.2500    2459.4568    1108.3352     143.9509       7.7809       2.7189
   2793.8979      78.6780      13.0932    -999.2500    2088.9014     898.8712     146.1322       8.1677       2.7019
   2794.0503      78.8140      12.4204    -999.2500    1589.9789     681.1193     137.3950       8.5381       2.6854
   2794.2029      65.2150      12.3984    -999.2500    1163.1125     535.4713      99.2861       8.4621       2.6870
   2794.3552      57.8500      12.6935    -999.2500     771.6211     425.2216      46.7577       8.1670       2.6975
   2794.5076      59.8450      13.0520    -999.2500     648.3522     395.3580      33.8492       7.3082       2.7074
   2794.6599      60.8425      13.4414    -999.2500     656.3233     404.8269      40.3264       6.1737       2.7169
   2794.8125      61.8400      13.7553    -999.2500     711.2824     434.1109      71.8228       5.9483       2.7237
   2794.9648      62.5830      14.0324    -999.2500     789.3228     473.1283     115.6089       6.1693       2.7292
   2795.1172      60.0270      14.5525    -999.2500     967.4042     531.9104     115.2035       6.4024       2.7542
   2795.2695      62.3545      15.1907    -999.2500    1194.4631     600.3688      93.1630       6.6413       2.7886
   2795.4221      64.6820      15.2178    -999.2500    1445.9646     719.4167      87.6103       6.4785       2.7983
   2795.5745      62.6050      14.9467    -999.2500    1709.4794     863.3288      90.1613       6.1184       2.7958
   2795.7268      53.2260      14.5944    -999.2500    2078.0820    1309.6254      83.8984       6.0510       2.7789
   2795.8792      52.2550      14.2025    -999.2500    2498.1621    1904.0457      73.3179       6.1270       2.7549
   2796.0315      51.2840      13.2761    -999.2500    3315.0667    2090.8142      63.5848       6.3264       2.7235
   2796.1841      49.6120      12.0887    -999.2500    4327.1182    2077.1111      54.2653       6.5864       2.6885
   2796.3364      51.1270      11.8836    -999.2500    4577.5317    1942.1509      63.7817       6.7821       2.6515
   2796.4888      51.5800      12.1564    -999.2500    4454.6436    1747.7587      82.5301       6.9462       2.6135
   2796.6411      51.8065      12.9698    -999.2500    3906.4888    1456.4644     125.3878       7.3123       2.5708
   2796.7937      52.0330      14.0472    -999.2500    3150.5942    1117.8341     180.0227       7.7771       2.5258
   2796.9460      52.6260      14.1973    -999.2500    2318.9822     838.5240     173.6611       7.7286       2.4751
   2797.0984      55.8070      13.8959    -999.2500    1450.2375     588.3052     137.3862       7.4285       2.4216
   2797.2507      56.0245      13.4956    -999.2500     958.2233     428.5571     102.7912       7.3300       2.3691
   2797.4033      56.2420      13.0470    -999.2500     650.3443     313.0284      69.0173       7.3300       2.3171
   2797.5557      56.5770      13.3369    -999.2500     600.1550     290.4348      75.0461       7.3300       2.2799
   2797.7080      56.9790      13.9866    -999.2500     676.4111     313.4433     100.6055       7.3300       2.2499
   2797.8604      56.9790      14.1258    -999.2500     796.0963     317.6436     103.8647       7.3300       2.2736
   2798.0127      56.9790      14.0152    -999.2500     937.0204     312.6458      96.2180       7.3300       2.3235
   2798.1653      56.9120      13.0109    -999.2500    1146.6602     312.6774      97.3084       7.3951       2.3380
   2798.3176      56.7110      11.5708    -999.2500    1390.0370     315.1783     102.6884       7.4921       2.3350
   2798.4700      56.7780      11.1000    -999.2500    1383.7498     296.5366     114.3703       7.7274       2.2934
   2798.6223      56.8115      11.1000    -999.2500    1255.2947     267.5491     129.1359       8.0302       2.2329
   2798.7749      56.8450      11.1000    -999.2500    1067.8287     258.0000     120.4520       8.4020       2.1650
   2798.9272      56.9120      11.1000    -999.2500     851.3738     258.0000     100.2485       8.8077       2.0935
   2799.0796      57.0460      11.1000    -999.2500     703.4792     258.0000      81.2435       9.1084       2.0529
   2799.2319      57.0460      11.1000       0.2000     589.1520     258.0000      62.8252       9.3578       2.0274
   2799.3845      57.0460      11.1000       0.2000     534.8842     258.0000      53.8007       9.4400       2.0160
   2799.5369      57.0460      11.1000       0.2000     510.1371     258.0000      49.3601       9.4400       2.0115
   2799.6892      56.9790    -999.2500    -999.2500    -999.2500    -999.2500    -999.2500    -999.2500    -999.2500
   2799.8416      56.9790    -999.2500    -999.2500    -999.2500    -999.2500    -999.2500    -999.2500    -999.2500
