#------------------------------------------------------------------------------
#
#   Created by  : [OpenWorks] Log Export Utility (LEXP)
#   Created on  : 2016-05-18 11:02:13
#   Project     : CANT971
#   User        : R5K
#   Interpreter : PEP
#
#------------------------------------------------------------------------------
~VERSION INFORMATION
VERS. 2.0 : CWLS Log ASCII Standard - version 2.0
WRAP.  NO : One line per depth step
~WELL INFORMATION
#MNEMONIC   .UNIT                                           VALUE :DESCRIPTION
#------------------------------------------------------------------------------
STRT        .M                                           500.8876 :START DEPTH
STOP        .M                                          2799.8416 :STOP DEPTH
STEP        .M                                             0.1524 :STEP
NULL        .                                           -999.2500 :NULL VALUE
COMP        .                                   PEMEX EXPL & PROD :COMPANY
WELL        .                                                 265 :WELL
FLD         .                                           CANTARELL :FIELD
LOC         .                                             UNKNOWN :LOCATION
CNTY        .                                      CD. DEL CARMEN :COUNTY
STAT        .                                            CAMPECHE :STATE
CTRY        .                                              MEXICO :COUNTRY
SRVC        .                                             UNKNOWN :SERVICE COMPANY
DATE        .                                             UNKNOWN :LOG DATE
UWI         .                                          3060000482 :UNIQUE WELL ID
XCOORD      .                                       597308.430000 :SURFACE X
YCOORD      .                                      2143047.340000 :SURFACE Y
LAT         .                                           19.380359 :LATITUDE
LON         .                                          -92.073373 :LONGITUDE
ELEV        .M                                            27.7000 :SURFACE ELEV
ELEV_TYPE   .                                                  KB :ELEV TYPE
~CURVE INFORMATION
#MNEMONIC.UNIT        API CODE       : CURVE DESCRIPTION
#------------------------------------------------------------------------------
DEPTH    .M                          : Measured Depth
DT       .us/ft       UNKNOWN        : DT:sonico:rC:NONE:v0 (auto-composite)
GR       .UNKNOWN     UNKNOWN        : GR:GR-Load:rC:NONE:v0 (auto-composite)
ILD      .UNKNOWN     UNKNOWN        : ILD:ILD-Load:rC:NONE:v0 (auto-composite)
LLD      .UNKNOWN     UNKNOWN        : LLD:LLD-Load:rC:NONE:v0 (auto-composite)
LLS      .UNKNOWN     UNKNOWN        : LLS:LLS-Load:rC:NONE:v0 (auto-composite)
MSFL     .UNKNOWN     UNKNOWN        : MSFL:MSFL-Load:rC:NONE:v0 (auto-composite)
NPHI     .v/v_decimal UNKNOWN        : NPHI:NPHI:rC:NONE:v0 (auto-composite)
RHOB     .UNKNOWN     UNKNOWN        : RHOB:RHOB-Load:rC:NONE:v0 (auto-composite)
~A     DEPTH           DT           GR          ILD          LLD          LLS         MSFL         NPHI         RHOB
# ...
   2540.9141      66.3560      43.6414    -999.2500       4.3026       4.3515       5.2608      17.9603       2.5667
   2541.0664      64.0910      41.2300    -999.2500       4.4185       4.4134       6.1525      16.1261       2.5617
   2541.2188      61.8690      39.1773    -999.2500       4.6252       4.5651       7.5113      14.6849       2.5653
   2541.3711      62.6720      37.3001    -999.2500       4.8768       4.7611       9.1054      13.4414       2.5733
   2541.5237      63.1410      35.0772    -999.2500       5.1784       5.0220      10.1379      12.4030       2.5973
   2541.6760      65.2850      32.6857    -999.2500       5.5047       5.3148      10.8886      11.4681       2.6293
   2541.8284      65.4190      31.9269    -999.2500       5.8259       5.6710      12.1912      10.7086       2.6334
   2541.9807      65.0170      31.9669    -999.2500       6.1445       6.0587      13.7717      10.0374       2.6234
   2542.1333      64.2790      32.2091    -999.2500       6.4272       6.6227      13.0023       9.7206       2.6300
   2542.2856      63.9450      32.5500    -999.2500       6.6921       7.2739      11.0531       9.5831       2.6450
   2542.4380      63.9070      33.2678    -999.2500       6.6580       7.3349      10.7944       9.4416       2.6367
   2542.5903      63.9450      34.1701    -999.2500       6.4755       7.1029      11.3877       9.2982       2.6167
   2542.7429      64.1460      35.3551    -999.2500       6.1019       6.7195      13.8862       9.4852       2.6113
   2542.8953      64.7490      36.6780    -999.2500       5.6337       6.2614      17.3417       9.8393       2.6133
   2543.0476      66.2350      37.7945    -999.2500       5.1648       5.9196      15.9063      10.3178       2.6226
   2543.2000      67.6090      38.8099    -999.2500       4.6955       5.6352      12.0049      10.8591       2.6356
   2543.3523      68.9830      39.3176    -999.2500       4.5400       5.4226      11.2659      11.1283       2.6387
   2543.5049      69.7050      39.5775    -999.2500       4.5400       5.2455      12.1162      11.2599       2.6367
   2543.6572      69.5710      39.9775    -999.2500       4.5564       5.0609      10.5319      12.4653       2.6274
   2543.8096      67.4280      40.4462    -999.2500       4.5809       4.8724       7.7281      14.2126       2.6144
   2543.9619      67.2940      39.9795    -999.2500       4.7519       4.8662       7.1029      14.3501       2.6100
   2544.1145      66.9590      39.0559    -999.2500       4.9955       4.9502       7.5730      13.6724       2.6100
   2544.2668      65.6250      37.1166    -999.2500       5.5356       5.2570       8.5374      12.0476       2.6183
   2544.4192      63.8650      34.6792    -999.2500       6.2223       5.6738       9.7493       9.9448       2.6308
   2544.5715      62.0110      32.0617    -999.2500       7.6136       6.9983      13.2314       7.7212       2.6500
   2544.7241      56.9120      29.3562    -999.2500       9.3542       8.7730      17.8556       5.4366       2.6725
   2544.8765      57.0460      27.1022    -999.2500       9.4116       9.2155      19.0338       5.4443       2.6773
   2545.0288      60.2380      25.0681    -999.2500       8.6369       8.9996      18.4841       6.6098       2.6733
   2545.1812      60.9310      24.4420    -999.2500       8.3800       8.4707      20.7953       6.9890       2.6614
   2545.3335      61.0650      24.5045    -999.2500       8.3800       7.7864      24.5466       6.9725       2.6454
   2545.4861      61.2660      25.1721    -999.2500       8.3519       7.6406      25.6452       6.8517       2.6466
   2545.6384      61.4000      26.1347    -999.2500       8.3099       7.7610      25.4128       6.6781       2.6566
   2545.7908      61.5340      27.5962    -999.2500       8.0433       7.9444      24.3830       6.3774       2.6401
   2545.9431      61.7350      29.3019    -999.2500       7.6652       8.1590      22.9515       6.0125       2.6101
   2546.0957      62.6720      30.4516    -999.2500       6.8165       7.6479      20.2257       6.3664       2.6100
   2546.2480      65.4190      31.3302    -999.2500       5.7350       6.7778      16.8501       7.0836       2.6250
   2546.4004      71.5520      33.3674    -999.2500       4.5920       5.6656      14.1276       8.6253       2.6273
   2546.5527      74.6620      35.9719    -999.2500       3.4186       4.4331      11.7342      10.5825       2.6233
   2546.7053      74.6140      40.7471    -999.2500       3.0645       3.7089       9.2513      12.7131       2.6080
   2546.8577      74.1260      46.5815    -999.2500       3.1160       3.2362       6.7234      14.9314       2.5870
   2547.0100      75.0930      47.2914    -999.2500       3.1956       3.1904       6.0832      16.8462       2.5800
   2547.1624      75.5320      45.4908    -999.2500       3.2890       3.3554       6.3880      18.6079       2.5800
   2547.3147      75.0690      45.0857    -999.2500       3.2805       3.3632       6.4544      19.0306       2.5800
   2547.4673      74.5950      45.3621    -999.2500       3.2215       3.2931       6.4009      18.7755       2.5800
   2547.6196      74.6620      46.9792    -999.2500       3.1378       3.1763       6.3254      17.7957       2.5634
   2547.7720      74.7290      49.2536    -999.2500       3.0418       3.0364       6.2389      16.4502       2.5384
   2547.9243      74.2600      49.8419    -999.2500       3.0130       2.8830       5.3114      16.3658       2.5400
   2548.0769      72.3040      49.6065    -999.2500       3.0175       2.7229       3.9609      16.9156       2.5550
   2548.2292      70.3290      49.0444    -999.2500       3.1347       2.7550       4.2624      16.2026       2.5570
   2548.3816      69.5040      48.3221    -999.2500       3.3077       2.8819       5.3919      14.8521       2.5525
   2548.5339      72.9130      47.5861    -999.2500       3.7044       3.3139       5.7527      14.4858       2.5460
   2548.6865      76.5500      46.8433    -999.2500       4.2121       3.8971       5.7267      14.6147       2.5385
   2548.8389      77.5780      48.1526    -999.2500       4.2944       4.0198       4.9997      15.2738       2.5310
   2548.9912      79.5360      50.4616    -999.2500       4.1664       3.9148       3.9212      16.2006       2.5235
   2549.1436      81.1590      54.8215    -999.2500       3.8953       3.6704       3.7197      17.4893       2.5144
   2549.2959      83.1680      60.1845    -999.2500       3.5532       3.3568       3.9598      18.9602       2.5044
   2549.4485      83.2350      65.2543    -999.2500       3.2905       2.9744       3.9022      20.0414       2.4841
   2549.6008      71.6480      70.1811    -999.2500       3.0671       2.5581       3.6953      20.9258       2.4585
   2549.7532      71.5810      71.3614    -999.2500       2.9753       2.4457       3.4577      22.7103       2.4600
   2549.9055      71.7150      70.7082    -999.2500       2.9488       2.4843       3.2046      24.9484       2.4750
   2550.0581      79.0560      67.3718    -999.2500       2.9634       2.7356       3.3931      25.5402       2.4966
   2550.2104      81.7620      62.7268    -999.2500       2.9984       3.0922       3.8032      25.2996       2.5216
   2550.3628      81.7620      61.4941    -999.2500       2.9631       3.1618       3.6036      23.8503       2.5134
   2550.5151      80.8930      61.9323    -999.2500       2.8932       3.0898       3.0988      21.7916       2.4884
   2550.6677      79.7520      62.5570    -999.2500       2.8730       2.8767       2.9403      23.2921       2.4933
   2550.8201      79.8190      63.2727    -999.2500       2.8775       2.5935       2.9558      26.5933       2.5133
   2550.9724      80.4220      64.0089    -999.2500       2.9001       2.5388       3.2071      27.4070       2.5400
   2551.1248      80.0870      64.7552    -999.2500       2.9316       2.5968       3.5765      26.9662       2.5700
   2551.2771      80.6110      63.6232    -999.2500       2.9647       2.6688       3.6634      25.7258       2.5700
