#------------------------------------------------------------------------------
#
#   Created by  : [OpenWorks] Log Export Utility (LEXP)
#   Created on  : 2016-05-18 11:02:13
#   Project     : CANT971
#   User        : R5K
#   Interpreter : PEP
#
#------------------------------------------------------------------------------
~VERSION INFORMATION
VERS. 2.0 : CWLS Log ASCII Standard - version 2.0
WRAP.  NO : One line per depth step
~WELL INFORMATION
#MNEMONIC   .UNIT                                           VALUE :DESCRIPTION
#------------------------------------------------------------------------------
STRT        .M                                           500.8876 :START DEPTH
STOP        .M                                          2799.8416 :STOP DEPTH
STEP        .M                                             0.1524 :STEP
NULL        .                                           -999.2500 :NULL VALUE
COMP        .                                   PEMEX EXPL & PROD :COMPANY
WELL        .                                                 265 :WELL
FLD         .                                           CANTARELL :FIELD
LOC         .                                             UNKNOWN :LOCATION
CNTY        .                                      CD. DEL CARMEN :COUNTY
STAT        .                                            CAMPECHE :STATE
CTRY        .                                              MEXICO :COUNTRY
SRVC        .                                             UNKNOWN :SERVICE COMPANY
DATE        .                                             UNKNOWN :LOG DATE
UWI         .                                          3060000482 :UNIQUE WELL ID
XCOORD      .                                       597308.430000 :SURFACE X
YCOORD      .                                      2143047.340000 :SURFACE Y
LAT         .                                           19.380359 :LATITUDE
LON         .                                          -92.073373 :LONGITUDE
ELEV        .M                                            27.7000 :SURFACE ELEV
ELEV_TYPE   .                                                  KB :ELEV TYPE
~CURVE INFORMATION
#MNEMONIC.UNIT        API CODE       : CURVE DESCRIPTION
#------------------------------------------------------------------------------
DEPTH    .M                          : Measured Depth
DT       .us/ft       UNKNOWN        : DT:sonico:rC:NONE:v0 (auto-composite)
GR       .UNKNOWN     UNKNOWN        : GR:GR-Load:rC:NONE:v0 (auto-composite)
ILD      .UNKNOWN     UNKNOWN        : ILD:ILD-Load:rC:NONE:v0 (auto-composite)
LLD      .UNKNOWN     UNKNOWN        : LLD:LLD-Load:rC:NONE:v0 (auto-composite)
LLS      .UNKNOWN     UNKNOWN        : LLS:LLS-Load:rC:NONE:v0 (auto-composite)
MSFL     .UNKNOWN     UNKNOWN        : MSFL:MSFL-Load:rC:NONE:v0 (auto-composite)
NPHI     .v/v_decimal UNKNOWN        : NPHI:NPHI:rC:NONE:v0 (auto-composite)
RHOB     .UNKNOWN     UNKNOWN        : RHOB:RHOB-Load:rC:NONE:v0 (auto-composite)
~A     DEPTH           DT           GR          ILD          LLD          LLS         MSFL         NPHI         RHOB
# ...
   2667.1013      66.1550      14.1155    -999.2500   75282.9219    6661.5117      40.2531       6.3001       2.5600
   2667.2537      60.6905      13.5018    -999.2500   63728.2383    5392.8828      23.7717       7.1709       2.5074
   2667.4060      55.2260      13.4944    -999.2500   58332.9492    4115.1729      38.7152       6.3058       2.5414
   2667.5583      47.6020      13.7840    -999.2500   55976.7344    2832.9822      69.2765       4.5781       2.6184
   2667.7107      47.6020      14.0541    -999.2500   62895.5977    2212.5364      74.1122       3.6349       2.6847
   2667.8633      47.9080      14.3147    -999.2500   74375.5781    1917.5105      66.2051       3.0832       2.7457
   2668.0156      48.2350      13.3914    -999.2500   84308.0312    2683.7588      58.8423       3.0292       2.7707
   2668.1680      48.5400      11.8920    -999.2500   93476.5000    3973.9426      51.7502       3.2226       2.7777
   2668.3203      48.6070      11.7586    -999.2500   94906.2109    5493.4795      79.5074       3.5729       2.7833
   2668.4729      48.3390      12.2922    -999.2500   92528.1406    7125.8667     124.5364       4.0016       2.7883
   2668.6252      47.5900      13.0983    -999.2500   85627.6875    8152.5381     143.3390       4.6814       2.7736
   2668.7776      46.5750      14.0369    -999.2500   76493.3438    8880.0068     149.0927       5.4862       2.7491
   2668.9299      45.9280      14.3635    -999.2500   63778.7461    7943.1289     149.6636       5.8689       2.7213
   2669.0825      46.0620      14.3910    -999.2500   49301.5117    6186.8604     147.6644       6.0424       2.6918
   2669.2349      48.3040      14.4000    -999.2500   38833.6602    4607.3159     157.6861       6.0446       2.6780
   2669.3872      51.0850      14.4000    -999.2500   30347.4316    3115.1155     173.6920       5.9615       2.6720
   2669.5396      53.0760      15.5146    -999.2500   25396.8340    2418.0515     150.2160       5.8478       2.6600
   2669.6919      54.5010      17.1742    -999.2500   22187.8887    2112.6707     107.1501       5.7189       2.6450
   2669.8445      54.6350      17.8111    -999.2500   20628.4805    1939.2075     112.6636       5.3218       2.6433
   2669.9968      51.2190      17.9495    -999.2500   19878.9277    1830.5099     142.2009       4.7911       2.6483
   2670.1492      51.1300      18.7517    -999.2500   18866.5801    1769.6208     143.1592       4.4761       2.6827
   2670.3015      51.2220      19.8786    -999.2500   17724.7109    1732.2955     129.9293       4.2682       2.7317
   2670.4541      51.3530      21.3838    -999.2500   16997.1367    1779.0065     100.0226       4.0591       2.7617
   2670.6064      51.4870      23.0736    -999.2500   16473.0820    1866.9989      61.8641       3.8496       2.7822
   2670.7588      51.6210      23.8879    -999.2500   17969.4004    2061.1160      49.8874       4.0288       2.7960
   2670.9111      51.6210      24.2735    -999.2500   20462.0859    2307.5693      50.9163       4.4011       2.8065
   2671.0637      51.2860      23.5744    -999.2500   26169.7559    2841.5764      71.2281       5.0073       2.7903
   2671.2161      50.1470      22.3460    -999.2500   33457.6406    3516.9202     101.0867       5.7300       2.7608
   2671.3684      50.6980      20.9204    -999.2500   41490.6680    3984.5303     107.3247       5.9366       2.7440
   2671.5208      51.6770      19.3991    -999.2500   49891.3789    4349.6367     101.8226       5.8866       2.7335
   2671.6731      52.3580      18.9000    -999.2500   55119.6055    4142.7847     120.0533       6.1403       2.7267
   2671.8257      54.3670      18.9000    -999.2500   58787.6172    3654.6465     150.0403       6.5454       2.7217
   2671.9780      54.3670      18.9000    -999.2500   54936.8945    2968.3767     149.7712       6.5417       2.7066
   2672.1304      52.0710      18.9000    -999.2500   47374.0273    2184.2859     134.4555       6.3346       2.6866
   2672.2827      50.9510      18.9000    -999.2500   39644.7070    1669.2209     126.2456       6.0702       2.6964
   2672.4353      52.3240      18.9000    -999.2500   31833.4785    1286.5367     121.5576       5.7773       2.7209
   2672.5876      53.6970      18.8334    -999.2500   27994.9492    1232.7551     125.0099       6.0267       2.7293
   2672.7400      50.1470      18.7345    -999.2500   26118.9336    1341.4513     132.5127       6.5459       2.7298
   2672.8923      50.0130      18.1020    -999.2500   25700.9355    1461.9364     129.6947       6.9405       2.7036
   2673.0449      55.1040      17.2086    -999.2500   26000.7988    1588.2258     121.7582       7.2734       2.6641
   2673.1973      55.5730      16.2385    -999.2500   22206.6621    1583.4966     108.3589       7.6565       2.6240
   2673.3496      58.2290      15.2309    -999.2500   16388.9434    1514.0074      92.2593       8.0646       2.5834
   2673.5020      66.9810      15.0680    -999.2500   13742.0596    1424.0928      69.3976       7.7851       2.5997
   2673.6543      75.7330      15.3180    -999.2500   12657.2383    1324.1158      43.1804       7.1644       2.6442
   2673.8069      52.9600      15.0640    -999.2500   16689.7695    1267.3289      27.3137       6.5073       2.6693
   2673.9592      52.7600      14.5642    -999.2500   23234.8750    1231.7478      16.5658       5.8320       2.6849
   2674.1116      63.0930      14.5004    -999.2500   35412.4727    1429.8344      31.8300       5.1267       2.7000
   2674.2639      64.6820      14.6500    -999.2500   50366.4023    1743.0990      60.0089       4.4066       2.7150
   2674.4165      57.6490      15.0007    -999.2500   65510.1133    2137.9839      94.1884       4.0018       2.7200
   2674.5688      58.9220      15.4495    -999.2500   80747.0547    2572.9666     131.3374       3.7542       2.7200
   2674.7212      57.5150      15.5980    -999.2500   86590.4766    3413.0500     147.1143       3.4379       2.7367
   2674.8735      65.4190      15.5995    -999.2500   87801.0625    4452.9263     152.2743       3.0876       2.7617
   2675.0261      54.3670      15.9361    -999.2500   82068.1172    5919.6001     154.6572       2.7671       2.7700
   2675.1785      54.1660      16.4363    -999.2500   72922.0703    7596.0654     155.6653       2.4615       2.7700
   2675.3308      54.5170      16.2634    -999.2500   66885.8047    6977.8037     152.6589       2.6072       2.7934
   2675.4832      54.9700      15.7631    -999.2500   62384.1367    5227.1548     147.6570       2.9774       2.8284
   2675.6355      55.1040      15.0616    -999.2500   66293.7578    4918.0098     152.3684       3.0833       2.8367
   2675.7881      54.9700      14.2618    -999.2500   74340.2891    5317.8379     161.8918       3.0583       2.8317
   2675.9404      50.4820      14.0017    -999.2500   75705.2344    5448.7275     174.0560       3.0513       2.8066
   2676.0928      50.2810      14.0042    -999.2500   73771.1094    5446.8276     187.5334       3.0533       2.7716
   2676.2451      50.1470      15.2802    -999.2500   68125.9922    5154.2051     191.8124       3.4804       2.7600
   2676.3977      50.1470      17.1784    -999.2500   60654.6758    4718.5151     191.5318       4.1181       2.7600
   2676.5500      51.0090      17.7953    -999.2500   50288.4414    4275.9849     164.1960       3.9092       2.7800
   2676.7024      51.2040      17.7883    -999.2500   38492.0156    3830.0752     123.4941       3.2789       2.8101
   2676.8547      51.2190      17.0503    -999.2500   34658.4727    2994.8923     112.0061       3.0717       2.8200
   2677.0073      55.9580      15.9548    -999.2500   34745.7539    1968.0359     115.0072       3.0742       2.8200
   2677.1597      59.5240      15.1941    -999.2500   49433.8086    1630.3131     113.6588       3.2617       2.8133
   2677.3120      56.4810      14.5963    -999.2500   71287.1328    1630.7799     110.1603       3.5413       2.8033
   2677.4644      54.9215      14.4000    -999.2500   78344.5547    1665.0426     141.0921       3.7563       2.7866
