#------------------------------------------------------------------------------
#
#   Created by  : [OpenWorks] Log Export Utility (LEXP)
#   Created on  : 2016-05-18 11:02:13
#   Project     : CANT971
#   User        : R5K
#   Interpreter : PEP
#
#------------------------------------------------------------------------------
~VERSION INFORMATION
VERS. 2.0 : CWLS Log ASCII Standard - version 2.0
WRAP.  NO : One line per depth step
~WELL INFORMATION
#MNEMONIC   .UNIT                                           VALUE :DESCRIPTION
#------------------------------------------------------------------------------
STRT        .M                                           500.8876 :START DEPTH
STOP        .M                                          2799.8416 :STOP DEPTH
STEP        .M                                             0.1524 :STEP
NULL        .                                           -999.2500 :NULL VALUE
COMP        .                                   PEMEX EXPL & PROD :COMPANY
WELL        .                                                 265 :WELL
FLD         .                                           CANTARELL :FIELD
LOC         .                                             UNKNOWN :LOCATION
CNTY        .                                      CD. DEL CARMEN :COUNTY
STAT        .                                            CAMPECHE :STATE
CTRY        .                                              MEXICO :COUNTRY
SRVC        .                                             UNKNOWN :SERVICE COMPANY
DATE        .                                             UNKNOWN :LOG DATE
UWI         .                                          3060000482 :UNIQUE WELL ID
XCOORD      .                                       597308.430000 :SURFACE X
YCOORD      .                                      2143047.340000 :SURFACE Y
LAT         .                                           19.380359 :LATITUDE
LON         .                                          -92.073373 :LONGITUDE
ELEV        .M                                            27.7000 :SURFACE ELEV
ELEV_TYPE   .                                                  KB :ELEV TYPE
~CURVE INFORMATION
#MNEMONIC.UNIT        API CODE       : CURVE DESCRIPTION
#------------------------------------------------------------------------------
DEPTH    .M                          : Measured Depth
DT       .us/ft       UNKNOWN        : DT:sonico:rC:NONE:v0 (auto-composite)
GR       .UNKNOWN     UNKNOWN        : GR:GR-Load:rC:NONE:v0 (auto-composite)
ILD      .UNKNOWN     UNKNOWN        : ILD:ILD-Load:rC:NONE:v0 (auto-composite)
LLD      .UNKNOWN     UNKNOWN        : LLD:LLD-Load:rC:NONE:v0 (auto-composite)
LLS      .UNKNOWN     UNKNOWN        : LLS:LLS-Load:rC:NONE:v0 (auto-composite)
MSFL     .UNKNOWN     UNKNOWN        : MSFL:MSFL-Load:rC:NONE:v0 (auto-composite)
NPHI     .v/v_decimal UNKNOWN        : NPHI:NPHI:rC:NONE:v0 (auto-composite)
RHOB     .UNKNOWN     UNKNOWN        : RHOB:RHOB-Load:rC:NONE:v0 (auto-composite)
~A     DEPTH           DT           GR          ILD          LLD          LLS         MSFL         NPHI         RHOB
# ...
   2646.0701      99.1760      40.6570    -999.2500    1825.3168     294.6086      76.1724      17.6728       2.5227
   2646.2224      99.0420      41.8185    -999.2500    1351.2417     264.1374     100.8240      20.9184       2.5057
   2646.3748     115.0500      41.7610    -999.2500    1148.4025     239.3209      85.2843      20.2558       2.5494
   2646.5271      95.3580      41.1072    -999.2500    1079.1938     217.2904      49.7996      17.6399       2.6234
   2646.6797     100.8450      39.3918    -999.2500    1037.7776     215.3546      38.4938      14.1323       2.6787
   2646.8320     105.8070      37.1587    -999.2500    1010.1074     223.3575      39.2336      10.1805       2.7247
   2646.9844      79.0590      34.7374    -999.2500     991.2648     221.6446      48.2358       8.0028       2.7367
   2647.1367      57.0460      32.2240    -999.2500     976.7740     215.1422      61.3406       6.7123       2.7317
   2647.2893      85.1110      32.7813    -999.2500    1026.4996     220.2784      60.7932       6.0715       2.7300
   2647.4417      80.2950      34.8365    -999.2500    1107.7755     231.1327      53.4405       5.7547       2.7300
   2647.5940      74.5280      36.9749    -999.2500    1212.7411     250.5559      63.5546       5.3896       2.7333
   2647.7463      99.4090      39.1542    -999.2500    1329.3912     274.2057      82.3465       5.0005       2.7383
   2647.8989      59.8590      40.0809    -999.2500    1410.8273     280.3246      84.6286       4.6557       2.7313
   2648.0513      73.5520      40.3963    -999.2500    1474.9525     277.8257      78.6764       4.3331       2.7183
   2648.2036      86.6930      39.3492    -999.2500    1682.1414     284.9021      78.7444       3.9306       2.7067
   2648.3560      92.0760      37.6346    -999.2500    1959.9338     296.7039      81.8050       3.4882       2.6957
   2648.5083      82.4990      35.9663    -999.2500    3345.7961     332.1391      91.8589       3.2272       2.6560
   2648.6609      72.2510      34.3207    -999.2500    5276.6831     379.1988     105.3776       3.0567       2.6019
   2648.8132      52.1570      32.9715    -999.2500    8962.9629     557.2430     121.6773       3.2884       2.4969
   2648.9656      57.5680      31.7665    -999.2500   13516.0439     799.9666     139.3604       3.7202       2.3664
   2649.1179      63.7440      30.7158    -999.2500   15681.7012    1003.9441     157.5104       5.9427       2.2473
   2649.2705      58.7880      29.7404    -999.2500   16672.3906    1188.8528     175.8920       9.0594       2.1337
   2649.4229      78.3330      29.0197    -999.2500   15056.3574    1147.8925     159.2124      14.6351       2.0706
   2649.5752      91.1840      28.4229    -999.2500   12152.4092     995.3361     125.0843      21.4347       2.0327
   2649.7275      94.8890      26.9934    -999.2500    9190.2441     975.9691      82.9104      23.1090       2.0524
   2649.8799      91.1200      25.1567    -999.2500    6199.4121    1022.1881      36.7459      22.2226       2.1009
   2650.0325      88.7925      23.7636    -999.2500    5683.3140    1172.4459      47.4704      17.9930       2.2515
   2650.1848      86.4650      22.5866    -999.2500    6390.6108    1374.1359      86.5223      12.0985       2.4529
   2650.3372      66.3795      22.4986    -999.2500    8236.7959    1566.4331     131.0479       8.4296       2.5930
   2650.4895      61.4670      22.9433    -999.2500   10644.1191    1754.1025     178.2900       5.8731       2.7026
   2650.6421      61.0650      24.6816    -999.2500   11795.2656    1844.2506     188.6227       4.5987       2.7593
   2650.7944      47.7360      27.0506    -999.2500   12325.0615    1886.1610     180.5662       3.9630       2.7898
   2650.9468      48.8980      28.3499    -999.2500   11775.5469    1833.8997     173.9764       3.5006       2.7933
   2651.0991      49.9230      29.1256    -999.2500   10693.9453    1735.2128     168.1149       3.1250       2.7833
   2651.2517      49.6680      30.5006    -999.2500    9024.2051    1592.1211     165.1793       3.0955       2.7830
   2651.4041      49.5450      32.1679    -999.2500    7065.4854    1427.2113     163.7023       3.2385       2.7875
   2651.5564      49.5450      35.3067    -999.2500    5158.8682    1267.6779     147.0063       3.5989       2.7893
   2651.7087      49.9460      39.1662    -999.2500    3277.9514    1110.7965     122.7487       4.0672       2.7898
   2651.8611      50.8170      41.3863    -999.2500    2219.7549     932.4120     102.0188       4.2587       2.7870
   2652.0137      53.1610      42.8063    -999.2500    1566.0266     743.4561      83.0483       4.3122       2.7825
   2652.1660      66.9570      44.0541    -999.2500    1362.0017     603.3139      70.1844       4.5126       2.7686
   2652.3184      79.2830      45.2181    -999.2500    1379.9269     487.2635      60.3562       4.7860       2.7502
   2652.4707      56.1090      44.4822    -999.2500    1573.1990     474.3684      78.1210       5.8490       2.7397
   2652.6233      56.2420      42.8186    -999.2500    1852.7247     512.2155     109.5574       7.3060       2.7332
   2652.7756      58.1850      40.1219    -999.2500    2298.3364     578.0570     105.7041       7.3027       2.7277
   2652.9280      70.2940      36.9222    -999.2500    2825.9663     657.7230      84.2972       6.5730       2.7227
   2653.0803      81.4940      32.2845    -999.2500    2798.3882     675.8326      58.4564       6.4835       2.7007
   2653.2329      75.3420      26.9440    -999.2500    2497.5466     663.6454      30.4175       6.7135       2.6701
   2653.3853      69.9970      24.1548    -999.2500    2063.9360     582.2148      22.8700       7.4931       2.6660
   2653.5376      65.8870      22.6079    -999.2500    1564.7234     466.5707      25.5210       8.5462       2.6750
   2653.6899      76.0010      24.6807    -999.2500    1478.0286     392.7776      22.6250       9.6318       2.6853
   2653.8423      74.2330      28.5231    -999.2500    1594.4833     339.5945      16.9774      10.7337       2.6963
   2653.9949      56.0420      31.6699    -999.2500    2237.1331     354.8014      20.2906      10.0821       2.6820
   2654.1472      64.8370      34.4777    -999.2500    3139.9280     403.8195      28.0660       8.5572       2.6550
   2654.2996      76.7700      33.5863    -999.2500    5219.3032     417.9895      50.1818       6.8655       2.6207
   2654.4519      81.6280      30.8853    -999.2500    7878.4297     414.9884      79.4152       5.0903       2.5826
   2654.6045      78.4145      33.1720    -999.2500   11194.5781     471.6507     106.1173       4.9243       2.5820
   2654.7568      75.2010      37.8904    -999.2500   14833.3906     557.6135     131.5582       5.5601       2.6000
   2654.9092      63.0680      41.7108    -999.2500   16659.7949     548.7651     130.9835       6.1146       2.6441
   2655.0615      57.5820      45.0915    -999.2500   17592.6426     493.1726     117.4893       6.6289       2.7010
   2655.2141      70.6320      45.2819    -999.2500   15655.2188     402.9700     118.3405       7.5173       2.7140
   2655.3665      90.1200      43.9160    -999.2500   12307.4053     295.7608     126.3435       8.5922       2.7050
   2655.5188      94.5550      41.9336    -999.2500   10317.5898     232.6013     124.4054      10.3707       2.6953
   2655.6711      86.7850      39.6493    -999.2500    8997.6777     191.1715     117.5279      12.4988       2.6853
   2655.8235      86.3830      39.3917    -999.2500    7957.1079     173.8274      97.6606      15.0465       2.6476
   2655.9761      78.4130      40.1235    -999.2500    7053.8799     168.3253      71.3605      17.8035       2.5961
   2656.1284      93.0140      42.9644    -999.2500    5743.3804     158.6247      58.4018      19.2461       2.5486
   2656.2808      79.6180      46.8312    -999.2500    4231.8599     146.8519      52.0760      20.0353       2.5031
   2656.4331      98.1490      47.1453    -999.2500    3084.9346     136.1308      45.4367      21.2496       2.4670
