#------------------------------------------------------------------------------
#
#   Created by  : [OpenWorks] Log Export Utility (LEXP)
#   Created on  : 2016-05-18 11:02:13
#   Project     : CANT971
#   User        : R5K
#   Interpreter : PEP
#
#------------------------------------------------------------------------------
~VERSION INFORMATION
VERS. 2.0 : CWLS Log ASCII Standard - version 2.0
WRAP.  NO : One line per depth step
~WELL INFORMATION
#MNEMONIC   .UNIT                                           VALUE :DESCRIPTION
#------------------------------------------------------------------------------
STRT        .M                                           500.8876 :START DEPTH
STOP        .M                                          2799.8416 :STOP DEPTH
STEP        .M                                             0.1524 :STEP
NULL        .                                           -999.2500 :NULL VALUE
COMP        .                                   PEMEX EXPL & PROD :COMPANY
WELL        .                                                 265 :WELL
FLD         .                                           CANTARELL :FIELD
LOC         .                                             UNKNOWN :LOCATION
CNTY        .                                      CD. DEL CARMEN :COUNTY
STAT        .                                            CAMPECHE :STATE
CTRY        .                                              MEXICO :COUNTRY
SRVC        .                                             UNKNOWN :SERVICE COMPANY
DATE        .                                             UNKNOWN :LOG DATE
UWI         .                                          3060000482 :UNIQUE WELL ID
XCOORD      .                                       597308.430000 :SURFACE X
YCOORD      .                                      2143047.340000 :SURFACE Y
LAT         .                                           19.380359 :LATITUDE
LON         .                                          -92.073373 :LONGITUDE
ELEV        .M                                            27.7000 :SURFACE ELEV
ELEV_TYPE   .                                                  KB :ELEV TYPE
~CURVE INFORMATION
#MNEMONIC.UNIT        API CODE       : CURVE DESCRIPTION
#------------------------------------------------------------------------------
DEPTH    .M                          : Measured Depth
DT       .us/ft       UNKNOWN        : DT:sonico:rC:NONE:v0 (auto-composite)
GR       .UNKNOWN     UNKNOWN        : GR:GR-Load:rC:NONE:v0 (auto-composite)
ILD      .UNKNOWN     UNKNOWN        : ILD:ILD-Load:rC:NONE:v0 (auto-composite)
LLD      .UNKNOWN     UNKNOWN        : LLD:LLD-Load:rC:NONE:v0 (auto-composite)
LLS      .UNKNOWN     UNKNOWN        : LLS:LLS-Load:rC:NONE:v0 (auto-composite)
MSFL     .UNKNOWN     UNKNOWN        : MSFL:MSFL-Load:rC:NONE:v0 (auto-composite)
NPHI     .v/v_decimal UNKNOWN        : NPHI:NPHI:rC:NONE:v0 (auto-composite)
RHOB     .UNKNOWN     UNKNOWN        : RHOB:RHOB-Load:rC:NONE:v0 (auto-composite)
~A     DEPTH           DT           GR          ILD          LLD          LLS         MSFL         NPHI         RHOB
# ...
   2519.8828      53.0270      28.9675    -999.2500      51.5694      40.5789      41.9421       8.4265       2.6834
   2520.0352      51.9560      25.9169    -999.2500      50.3260      40.0982      58.9484       3.5642       2.6734
   2520.1875      54.2550      24.1718    -999.2500      44.1105      36.7615      72.1749       2.2179       2.6700
   2520.3401      55.6400      23.0643    -999.2500      35.4318      32.0097      83.5015       2.6516       2.6700
   2520.4924      62.4570      23.8325    -999.2500      25.3944      24.7228      74.6972       4.0556       2.6477
   2520.6448      72.3170      25.5201    -999.2500      14.6860      16.1840      55.7352       5.9493       2.6143
   2520.7971      76.6375      35.8194    -999.2500       8.1952      10.5272      34.9244       8.6620       2.5300
   2520.9497      80.9580      50.3261    -999.2500       3.7951       6.2992      13.1838      11.7897       2.4199
   2521.1021      99.0420      53.9476    -999.2500       2.3410       3.9640       7.0440      17.1103       2.3123
   2521.2544      93.0810      52.2300    -999.2500       2.3425       2.5641       8.7807      23.5380       2.2058
   2521.4067      88.5260      48.1442    -999.2500       2.5720       2.1645      30.4872      24.9518       2.1966
   2521.5591      82.1735      42.9008    -999.2500       2.9147       2.2611      62.2424      23.8244       2.2366
   2521.7117      75.8210      37.4249    -999.2500       4.3447       3.0030      62.9485      18.4832       2.3629
   2521.8640      53.3430      31.8358    -999.2500       6.3124       4.0641      47.9700      11.0134       2.5328
   2522.0164      53.2950      30.5542    -999.2500       9.4504       7.7201      30.6999       8.6364       2.5817
   2522.1687      64.0790      31.3795    -999.2500      13.1693      12.6639      12.2761       8.8420       2.5692
   2522.3213      68.2320      34.0113    -999.2500      11.8018      13.2641      16.9622       9.8545       2.5301
   2522.4736      70.0690      37.5238    -999.2500       7.9185      11.7157      33.2452      11.2749       2.4777
   2522.6260      70.7770      41.2041    -999.2500       6.7009       9.5603      36.4714      14.1245       2.5098
   2522.7783      65.6970      44.9665    -999.2500       6.8069       7.1034      33.1202      17.6993       2.5848
   2522.9309      60.6170      44.2503    -999.2500       8.0452       7.3481      36.2492      17.8279       2.6067
   2523.0833      53.7620      41.3495    -999.2500       9.8440       8.9300      42.6320      16.2136       2.6017
   2523.2356      52.7600      35.1564    -999.2500      18.9484      17.2894      71.4518      12.9041       2.6063
   2523.3879      51.9560      27.3510    -999.2500      31.6826      29.0162     111.5811       8.7341       2.6158
   2523.5403      51.9560      22.2750    -999.2500      32.7245      31.1953     115.8019       6.2543       2.6525
   2523.6929      53.3200      18.5312    -999.2500      27.9766      28.6464     101.9829       4.6297       2.7031
   2523.8452      53.6970      19.6499    -999.2500      27.2570      29.0345      72.0305       3.7279       2.7034
   2523.9976      53.2950      23.1512    -999.2500      28.5399      30.8827      33.9414       3.1906       2.6784
   2524.1499      53.4290      23.4941    -999.2500      32.2879      36.2796      35.6680       3.0442       2.6733
   2524.3025      54.4380      22.2946    -999.2500      37.2573      43.4347      57.4086       3.0957       2.6783
   2524.4548      58.1480      22.6455    -999.2500      36.6390      42.7534      58.9476       3.1851       2.6780
   2524.6072      60.9310      23.7564    -999.2500      33.2614      38.2024      50.2924       3.2935       2.6750
   2524.7595      61.3330      25.9857    -999.2500      26.0083      29.3057      36.8892       3.4030       2.6684
   2524.9121      61.3330      28.7615    -999.2500      16.8340      18.2546      21.0980       3.5131       2.6599
   2525.0645      60.6870      30.5223    -999.2500      14.2432      14.9248      19.1237       3.9303       2.6447
   2525.2168      59.8120      31.7853    -999.2500      14.9054      15.4101      24.1255       4.5025       2.6262
   2525.3691      59.1900      31.8382    -999.2500      16.7435      17.5202      24.0711       5.5829       2.6300
   2525.5215      58.6540      31.2995    -999.2500      19.1649      20.4363      21.4723       6.9209       2.6450
   2525.6741      57.9170      30.3320    -999.2500      22.0834      25.8056      22.5310       7.0884       2.6467
   2525.8264      56.8450      29.1555    -999.2500      25.2475      32.3878      25.4376       6.6646       2.6417
   2525.9788      54.8360      28.4019    -999.2500      29.1324      37.7797      33.3606       5.8158       2.6433
   2526.1311      53.5260      27.8552    -999.2500      33.3749      42.5810      43.8095       4.7514       2.6483
   2526.2837      52.9600      26.6576    -999.2500      38.7317      45.6901      51.4810       4.0109       2.6434
   2526.4360      52.7600      25.1428    -999.2500      44.6397      47.9621      57.7588       3.4341       2.6334
   2526.5884      52.7810      23.0851    -999.2500      46.4660      49.2120      63.8101       2.9384       2.6400
   2526.7407      52.8940      20.7618    -999.2500      46.2654      49.9543      69.7473       2.4837       2.6550
   2526.8933      53.0060      20.2462    -999.2500      45.1629      50.2000      75.2481       2.2210       2.6577
   2527.0457      52.9600      20.6126    -999.2500      43.6141      50.2000      80.5299       2.0555       2.6542
   2527.1980      52.8580      21.2816    -999.2500      43.1000      50.0874      79.5279       2.0000       2.6420
   2527.3503      52.7850      22.0989    -999.2500      43.1000      49.9188      75.3583       2.0000       2.6255
   2527.5027      52.7930      23.3857    -999.2500      42.5030      48.9625      67.4560       2.0000       2.6200
   2527.6553      53.3390      24.9015    -999.2500      41.6104      47.6161      57.6782       2.0000       2.6200
   2527.8076      53.7640      25.3322    -999.2500      38.5517      44.8314      58.1239       2.0638       2.6243
   2527.9600      53.4290      25.2312    -999.2500      34.4162      41.3316      63.7259       2.1597       2.6308
   2528.1123      53.6970      24.8824    -999.2500      29.6191      37.1244      60.8366       2.5310       2.6519
   2528.2649      55.8510      24.4126    -999.2500      24.4942      32.5667      53.6787       3.0417       2.6804
   2528.4172      56.7110      23.0974    -999.2500      21.3079      28.1791      44.6209       4.1852       2.6767
   2528.5696      57.8420      21.3678    -999.2500      19.0788      23.8755      34.6042       5.6481       2.6567
   2528.7219      58.3190      21.0293    -999.2500      17.5886      20.6693      30.9574       5.9275       2.6500
   2528.8745      57.8500      21.3707    -999.2500      16.4647      18.0074      30.5146       5.6074       2.6500
   2529.0269      58.7920      22.5226    -999.2500      14.4898      15.2448      29.3407       5.5352       2.6467
   2529.1792      60.0960      24.0722    -999.2500      12.0943      12.4325      27.7976       5.5882       2.6417
   2529.3315      61.5340      26.0763    -999.2500      11.5688      12.0266      24.2262       5.8397       2.6470
   2529.4839      61.6010      28.3026    -999.2500      11.9710      12.8144      19.6340       6.1918       2.6575
   2529.6365      56.7120      29.8556    -999.2500      14.3768      15.7254      39.9006       5.2807       2.6773
   2529.7888      54.8025      31.0806    -999.2500      17.7734      19.6862      72.6365       3.7314       2.7018
   2529.9412      54.7690      31.8494    -999.2500      18.5189      20.7229      74.7404       3.4682       2.7067
   2530.0935      56.9010      32.3951    -999.2500      17.9487      20.3082      61.4194       3.8573       2.7017
   2530.2461      58.9890      32.6835    -999.2500      15.4996      17.3720      42.8359       4.8269       2.6924
