#------------------------------------------------------------------------------
#
#   Created by  : [OpenWorks] Log Export Utility (LEXP)
#   Created on  : 2016-05-18 11:02:13
#   Project     : CANT971
#   User        : R5K
#   Interpreter : PEP
#
#------------------------------------------------------------------------------
~VERSION INFORMATION
VERS. 2.0 : CWLS Log ASCII Standard - version 2.0
WRAP.  NO : One line per depth step
~WELL INFORMATION
#MNEMONIC   .UNIT                                           VALUE :DESCRIPTION
#------------------------------------------------------------------------------
STRT        .M                                           500.8876 :START DEPTH
STOP        .M                                          2799.8416 :STOP DEPTH
STEP        .M                                             0.1524 :STEP
NULL        .                                           -999.2500 :NULL VALUE
COMP        .                                   PEMEX EXPL & PROD :COMPANY
WELL        .                                                 265 :WELL
FLD         .                                           CANTARELL :FIELD
LOC         .                                             UNKNOWN :LOCATION
CNTY        .                                      CD. DEL CARMEN :COUNTY
STAT        .                                            CAMPECHE :STATE
CTRY        .                                              MEXICO :COUNTRY
SRVC        .                                             UNKNOWN :SERVICE COMPANY
DATE        .                                             UNKNOWN :LOG DATE
UWI         .                                          3060000482 :UNIQUE WELL ID
XCOORD      .                                       597308.430000 :SURFACE X
YCOORD      .                                      2143047.340000 :SURFACE Y
LAT         .                                           19.380359 :LATITUDE
LON         .                                          -92.073373 :LONGITUDE
ELEV        .M                                            27.7000 :SURFACE ELEV
ELEV_TYPE   .                                                  KB :ELEV TYPE
~CURVE INFORMATION
#MNEMONIC.UNIT        API CODE       : CURVE DESCRIPTION
#------------------------------------------------------------------------------
DEPTH    .M                          : Measured Depth
DT       .us/ft       UNKNOWN        : DT:sonico:rC:NONE:v0 (auto-composite)
GR       .UNKNOWN     UNKNOWN        : GR:GR-Load:rC:NONE:v0 (auto-composite)
ILD      .UNKNOWN     UNKNOWN        : ILD:ILD-Load:rC:NONE:v0 (auto-composite)
LLD      .UNKNOWN     UNKNOWN        : LLD:LLD-Load:rC:NONE:v0 (auto-composite)
LLS      .UNKNOWN     UNKNOWN        : LLS:LLS-Load:rC:NONE:v0 (auto-composite)
MSFL     .UNKNOWN     UNKNOWN        : MSFL:MSFL-Load:rC:NONE:v0 (auto-composite)
NPHI     .v/v_decimal UNKNOWN        : NPHI:NPHI:rC:NONE:v0 (auto-composite)
RHOB     .UNKNOWN     UNKNOWN        : RHOB:RHOB-Load:rC:NONE:v0 (auto-composite)
~A     DEPTH           DT           GR          ILD          LLD          LLS         MSFL         NPHI         RHOB
# ...
   2751.2261      57.9170      20.2258    -999.2500    1502.2932    1004.1660     100.2654       6.2638       2.7090
   2751.3784      58.2520      22.1635    -999.2500    1505.7119     965.6519     105.8790       5.6971       2.7075
   2751.5308      58.7880      22.5800    -999.2500    1637.0189     980.4465     126.2509       5.6129       2.6913
   2751.6831      60.7300      22.2524    -999.2500    1830.8887    1021.3199     153.8951       5.7664       2.6677
   2751.8357      79.0000      21.4937    -999.2500    2643.0344    1136.6661     153.9560       6.0798       2.6647
   2751.9880      88.8610      20.5248    -999.2500    3758.8252    1288.5872     140.4703       6.4716       2.6717
   2752.1404      81.7300      19.3594    -999.2500    5754.3135    1550.4037     109.2774       6.7715       2.6861
   2752.2927      76.7250      18.0984    -999.2500    8180.3931    1866.0114      69.3542       7.0261       2.7041
   2752.4453      71.7210      16.7995    -999.2500   10193.9131    1934.2998      73.8939       6.7816       2.6966
   2752.5977      68.3840      15.4820    -999.2500   12004.7041    1881.0566     100.2825       6.2918       2.6766
   2752.7500     106.3430      14.6303    -999.2500   12226.3857    1739.4211     104.5117       6.1970       2.6710
   2752.9023      98.2380      14.0051    -999.2500   11669.7930    1554.4950      97.8092       6.2970       2.6725
   2753.0547      94.6740      13.8471    -999.2500    9170.5186    1347.4341      96.8930       6.2663       2.6814
   2753.2073      84.9220      13.9171    -999.2500    5716.0757    1129.4901      98.8216       6.1714       2.6939
   2753.3596      74.0620      14.1932    -999.2500    4616.8945     946.1822     103.1293       5.9993       2.7154
   2753.5120      59.5800      14.5695    -999.2500    4671.8721     779.8470     108.6114       5.7893       2.7414
   2753.6643      79.2830      15.5355    -999.2500    4312.6670     763.5543     133.0758       6.0349       2.7477
   2753.8169      83.2640      16.7895    -999.2500    3749.7031     821.0755     166.8788       6.5047       2.7442
   2753.9692      88.5260      16.6622    -999.2500    2840.8857     802.5193     171.1051       6.5395       2.7303
   2754.1216      82.4730      15.8625    -999.2500    1762.4921     746.6615     160.8295       6.3594       2.7113
   2754.2739      69.8990      15.6000    -999.2500    1092.5723     628.1893     120.2203       6.7421       2.6698
   2754.4265      57.3250      15.6000    -999.2500     623.7172     478.8962      64.6798       7.4018       2.6174
   2754.5789      52.8270      15.6000    -999.2500     395.3449     366.1467      46.6719       8.9798       2.6013
   2754.7312      85.8940      15.6000    -999.2500     284.9516     271.3251      47.0772      11.0115       2.6033
   2754.8835      97.3680      16.1805    -999.2500     217.1807     212.5417      50.9943      12.8610       2.6120
   2755.0359      89.2970      17.0448    -999.2500     170.4020     171.5075      56.6409      14.6206       2.6240
   2755.1885      77.9500      19.8398    -999.2500     157.6622     126.7631      49.8943      13.2322       2.6448
   2755.3408      66.6030      23.5757    -999.2500     161.6311      80.1974      37.0644      10.2985       2.6698
   2755.4932      61.2660      28.6309    -999.2500     168.6620      72.0482      24.0204       9.3937       2.6911
   2755.6455      65.4810      34.3315    -999.2500     177.1908      82.6936      10.8711       9.4887       2.7106
   2755.7981      73.0510      34.8887    -999.2500     165.1711      84.1867       8.4635       9.2210       2.7274
   2755.9504      79.5510      32.9380    -999.2500     143.0589      81.1846      11.3318       8.7752       2.7429
   2756.1028      94.7560      33.3763    -999.2500     107.9788      76.2058      22.2634       7.6371       2.7621
   2756.2551      94.8890      34.9756    -999.2500      66.5507      70.2594      37.1709       6.1575       2.7831
   2756.4077      50.9510      34.1819    -999.2500      66.6865      74.6369      66.1827       5.8691       2.7699
   2756.5601      50.8840      32.2206    -999.2500      87.2481      84.0879     102.1257       6.1659       2.7399
   2756.7124      51.2855      27.7862    -999.2500     192.2989     105.2451     111.0097       7.1503       2.7333
   2756.8647      51.6870      22.1491    -999.2500     338.7317     132.1360     106.5440       8.4737       2.7384
   2757.0171      52.8300      20.3497    -999.2500     336.5510     127.6721      93.0843       8.8433       2.7333
   2757.1697      53.7020      20.4238    -999.2500     261.2957     107.7908      75.2022       8.7439       2.7233
   2757.3220      54.5680      23.9621    -999.2500     189.5389      78.8292      54.6901       8.3299       2.7267
   2757.4744      54.7690      29.1858    -999.2500     119.4967      45.4176      32.8890       7.7607       2.7367
   2757.6267      53.9410      30.8751    -999.2500     110.6973      44.4339      26.4647       7.0829       2.7387
   2757.7793      52.8270      30.8381    -999.2500     132.0286      59.4045      27.6056       6.3517       2.7367
   2757.9316      52.5110      30.1944    -999.2500     214.5290     149.7329      34.4901       6.5854       2.7239
   2758.0840      51.3530      29.2553    -999.2500     327.0234     277.0130      44.1909       7.2957       2.7059
   2758.2363      50.9510      27.6924    -999.2500     493.6472     316.3185      72.7339       7.5236       2.7013
   2758.3889      51.0180      25.8247    -999.2500     686.9170     312.3170     110.5524       7.5141       2.7033
   2758.5413      52.0225      24.3926    -999.2500     857.1891     331.1996     107.8451       7.2558       2.7060
   2758.6936      53.0270      23.1726    -999.2500    1016.1780     361.3096      85.2549       6.8755       2.7090
   2758.8459      52.2910      21.7626    -999.2500    1601.9420     473.7107      83.9233       6.7805       2.7113
   2758.9983      51.6880      20.2595    -999.2500    2397.9133     626.6441      93.0627       6.8260       2.7133
   2759.1509      50.9700      18.8218    -999.2500    2620.4812     669.4290     115.8132       6.9680       2.7197
   2759.3032      50.5450      17.4159    -999.2500    2561.5625     658.1413     145.2455       7.1575       2.7282
   2759.4556      49.7450      15.9619    -999.2500    2260.3188     614.2641     172.3978       7.0793       2.7374
   2759.6079      50.3950      14.4843    -999.2500    1840.5135     554.4420     198.4264       6.8692       2.7469
   2759.7605      50.5490      14.0000    -999.2500    1381.5671     468.4095     186.7705       7.0071       2.7165
   2759.9128      50.5490      14.0000    -999.2500     903.3951     369.5030     156.6045       7.3160       2.6665
   2760.0652      56.1610      14.6434    -999.2500     630.7871     288.6024     104.1170       7.9818       2.6567
   2760.2175      67.9230      15.5995    -999.2500     458.8119     216.5166      40.6225       8.8236       2.6667
   2760.3701      79.6850      17.9929    -999.2500     359.8391     159.4066      19.9981       9.8379       2.6398
   2760.5225      75.4220      21.0875    -999.2500     296.7443     109.6567      20.4428      10.9369       2.5949
   2760.6748      67.9090      21.7890    -999.2500     289.2955      95.8116      46.1216      10.7239       2.5800
   2760.8271      66.6910      21.3267    -999.2500     309.1034      99.5535      84.1607       9.8636       2.5800
   2760.9795      71.2660      20.5099    -999.2500     342.5802     108.0376      85.6816      10.0893       2.5632
   2761.1321      80.9580      19.5200    -999.2500     382.7786     118.8536      69.2451      10.8489       2.5383
   2761.2844     114.7820      18.5498    -999.2500     387.5059     134.3476      49.9067      11.0481       2.4798
   2761.4368      96.4970      17.5892    -999.2500     374.8489     152.1345      29.1462      10.9706       2.4047
   2761.5891      75.4330      16.3082    -999.2500     348.7235     154.9936      38.6932       9.4951       2.3834
