#------------------------------------------------------------------------------
#
#   Created by  : [OpenWorks] Log Export Utility (LEXP)
#   Created on  : 2016-05-18 11:02:13
#   Project     : CANT971
#   User        : R5K
#   Interpreter : PEP
#
#------------------------------------------------------------------------------
~VERSION INFORMATION
VERS. 2.0 : CWLS Log ASCII Standard - version 2.0
WRAP.  NO : One line per depth step
~WELL INFORMATION
#MNEMONIC   .UNIT                                           VALUE :DESCRIPTION
#------------------------------------------------------------------------------
STRT        .M                                           500.8876 :START DEPTH
STOP        .M                                          2799.8416 :STOP DEPTH
STEP        .M                                             0.1524 :STEP
NULL        .                                           -999.2500 :NULL VALUE
COMP        .                                   PEMEX EXPL & PROD :COMPANY
WELL        .                                                 265 :WELL
FLD         .                                           CANTARELL :FIELD
LOC         .                                             UNKNOWN :LOCATION
CNTY        .                                      CD. DEL CARMEN :COUNTY
STAT        .                                            CAMPECHE :STATE
CTRY        .                                              MEXICO :COUNTRY
SRVC        .                                             UNKNOWN :SERVICE COMPANY
DATE        .                                             UNKNOWN :LOG DATE
UWI         .                                          3060000482 :UNIQUE WELL ID
XCOORD      .                                       597308.430000 :SURFACE X
YCOORD      .                                      2143047.340000 :SURFACE Y
LAT         .                                           19.380359 :LATITUDE
LON         .                                          -92.073373 :LONGITUDE
ELEV        .M                                            27.7000 :SURFACE ELEV
ELEV_TYPE   .                                                  KB :ELEV TYPE
~CURVE INFORMATION
#MNEMONIC.UNIT        API CODE       : CURVE DESCRIPTION
#------------------------------------------------------------------------------
DEPTH    .M                          : Measured Depth
DT       .us/ft       UNKNOWN        : DT:sonico:rC:NONE:v0 (auto-composite)
GR       .UNKNOWN     UNKNOWN        : GR:GR-Load:rC:NONE:v0 (auto-composite)
ILD      .UNKNOWN     UNKNOWN        : ILD:ILD-Load:rC:NONE:v0 (auto-composite)
LLD      .UNKNOWN     UNKNOWN        : LLD:LLD-Load:rC:NONE:v0 (auto-composite)
LLS      .UNKNOWN     UNKNOWN        : LLS:LLS-Load:rC:NONE:v0 (auto-composite)
MSFL     .UNKNOWN     UNKNOWN        : MSFL:MSFL-Load:rC:NONE:v0 (auto-composite)
NPHI     .v/v_decimal UNKNOWN        : NPHI:NPHI:rC:NONE:v0 (auto-composite)
RHOB     .UNKNOWN     UNKNOWN        : RHOB:RHOB-Load:rC:NONE:v0 (auto-composite)
~A     DEPTH           DT           GR          ILD          LLD          LLS         MSFL         NPHI         RHOB
# ...
   2730.1948      91.7090      16.9455    -999.2500   66182.3203    2162.9817     191.3492       6.5126       2.7593
   2730.3472      77.6690      15.9325    -999.2500   84469.4297    2078.0186     187.3897       6.4866       2.7508
   2730.4995      66.4535      15.6672    -999.2500   90141.4141    2217.6189     160.9332       6.3098       2.7386
   2730.6521      55.2380      15.7672    -999.2500   89606.4062    2467.7112     123.4073       6.0582       2.7246
   2730.8044      53.1610      16.4387    -999.2500   86234.4766    2522.6274     129.7491       5.6057       2.7210
   2730.9568      53.2280      17.3883    -999.2500   81471.3516    2481.8315     157.7595       5.0540       2.7225
   2731.1091      54.9240      17.5048    -999.2500   83452.8672    2284.5720     163.6703       4.6905       2.7354
   2731.2617      55.3530      17.2142    -999.2500   88754.8125    2010.2843     158.7015       4.4196       2.7539
   2731.4141      55.7820      16.2052    -999.2500   84890.8438    1926.7148     124.2338       4.3410       2.7533
   2731.5664      56.2420      14.8463    -999.2500   76529.4766    1936.7245      75.1867       4.3576       2.7433
   2731.7188      53.7640      14.4000    -999.2500   60046.7188    1960.1254      59.2933       4.5328       2.7400
   2731.8711      53.6970      14.4000    -999.2500   39563.4648    1990.1224      59.7311       4.7862       2.7400
   2732.0237      53.6300      14.3224    -999.2500   27198.4473    2000.0000      66.3316       4.8349       2.7567
   2732.1760      64.6150      14.2069    -999.2500   18819.0352    2000.0000      75.9797       4.7823       2.7817
   2732.3284      53.6970      13.9107    -999.2500   14091.6787    1879.3822     109.9343       4.6194       2.7729
   2732.4807      55.8740      13.5261    -999.2500   11164.3027    1699.3157     155.8687       4.4020       2.7474
   2732.6333      58.0510      13.7362    -999.2500   11982.6748    1671.9937     160.6103       4.3584       2.6771
   2732.7856      53.8460      14.2364    -999.2500   14641.0488    1719.7032     145.1170       4.4010       2.5846
   2732.9380      68.2320      14.2318    -999.2500   39096.8242    1847.6541     140.0000       4.8009       2.5091
   2733.0903      51.6050      13.9819    -999.2500   74224.2734    2014.8899     140.0000       5.3772       2.4422
   2733.2429      50.4075      13.9175    -999.2500   82742.2109    1989.0377     151.3930       6.6259       2.4304
   2733.3953      49.2100      13.9435    -999.2500   78181.4766    1868.2821     168.3856       8.2074       2.4459
   2733.5476      61.0860      14.1168    -999.2500   65173.3672    1591.8196     154.5744       8.2749       2.5009
   2733.7000      94.4880      14.3617    -999.2500   48027.1953    1239.0819     125.5637       7.5952       2.5753
   2733.8523      83.3360      15.1337    -999.2500   33492.7578     919.6781     120.9239       7.6650       2.5498
   2734.0049      72.1840      16.1631    -999.2500   20242.7324     616.6672     128.2692       8.1062       2.4748
   2734.1572      99.7120      16.3837    -999.2500   13022.0771     823.2144     151.5599       9.3396       2.4607
   2734.3096      94.8890      16.2108    -999.2500    8756.6729    1279.5173     182.7229      10.9642       2.4767
   2734.4619      94.4880      15.7074    -999.2500    7689.4180    1420.7815     190.1398      11.0270       2.5269
   2734.6145      76.9390      15.0427    -999.2500    8195.8545    1407.0269     185.8721      10.3213       2.5939
   2734.7668      59.9360      14.3124    -999.2500   11862.5107    1221.2544     168.6421       8.5821       2.6575
   2734.9192      47.2670      13.5502    -999.2500   17079.0078     951.1205     145.0089       6.3322       2.7195
   2735.0715      61.1470      13.6004    -999.2500   17865.7773     901.9479     115.3391       5.5974       2.7433
   2735.2241      71.0450      14.0475    -999.2500   16471.6035     961.5639      82.6972       5.6084       2.7483
   2735.3765      71.3130      15.1306    -999.2500   13232.4082    1309.3524     107.0807       5.6314       2.7473
   2735.5288      62.4900      16.5235    -999.2500    9087.8594    1798.5471     159.6501       5.6604       2.7433
   2735.6812      50.7500      17.7936    -999.2500    7897.6045    1937.9595     175.9694       5.7085       2.7145
   2735.8335      61.4470      19.0035    -999.2500    8162.7007    1905.0614     174.4310       5.7660       2.6736
   2735.9861      84.3070      19.1974    -999.2500    7600.7861    1814.8783     167.9943       5.9597       2.6600
   2736.1384      72.2050      18.8960    -999.2500    6632.8257    1696.5693     159.1350       6.2208       2.6600
   2736.2908      68.8350      18.0256    -999.2500    4896.6904    1541.7012     146.4787       6.5892       2.6533
   2736.4431      72.8120      16.8766    -999.2500    2781.9202    1368.8129     131.9509       7.0105       2.6433
   2736.5957      75.3990      16.7333    -999.2500    1593.2119    1127.2148     120.3717       7.8125       2.6484
   2736.7480      65.5530      17.0805    -999.2500     859.4396     851.8627     110.2410       8.8029       2.6609
   2736.9004     118.5330      17.8949    -999.2500     539.3820     615.6259      97.4503       8.8823       2.6901
   2737.0527      99.5030      18.9364    -999.2500     421.8867     398.5407      83.3476       8.5125       2.7276
   2737.2053      71.1150      19.6807    -999.2500     363.5652     332.0302      80.4173       7.5904       2.7367
   2737.3577      56.3090      20.2799    -999.2500     334.3300     339.5330      82.9787       6.3950       2.7317
   2737.5100     124.0160      21.4256    -999.2500     307.0332     317.5122      93.7814       6.0687       2.7400
   2737.6624      84.8780      22.8370    -999.2500     280.6860     281.0280     108.6509       6.1712       2.7551
   2737.8147      69.9730      22.9004    -999.2500     287.0141     272.9520     148.8795       6.4965       2.7499
   2737.9673      93.8480      22.3057    -999.2500     309.4124     278.8477     201.5803       6.9313       2.7350
   2738.1196      99.7120      20.8315    -999.2500     396.0273     315.7352     213.4528       7.4042       2.7300
   2738.2720      76.6040      18.9293    -999.2500     514.1198     367.8142     205.1668       7.8958       2.7300
   2738.4243      77.2280      16.8584    -999.2500     681.8612     481.6223     185.5503       8.1491       2.7200
   2738.5769      69.3030      14.7051    -999.2500     874.0346     625.8070     160.3582       8.2850       2.7050
   2738.7292      57.8500      14.0000    -999.2500    1070.0922     762.3641     128.0141       8.5978       2.7020
   2738.8816      90.2010      14.0000    -999.2500    1268.0547     895.1802      92.1369       8.9980       2.7050
   2739.0339      77.6760      14.4703    -999.2500    1672.9191     925.9288     118.3772       8.9194       2.7147
   2739.1865      71.6480      15.1706    -999.2500    2179.6570     906.4216     175.2026       8.6050       2.7277
   2739.3389      67.0260      15.1312    -999.2500    3764.6650     926.9941     192.6072       7.2153       2.7514
   2739.4912      54.7110      14.7313    -999.2500    5878.8169     967.2353     190.5259       5.2941       2.7804
   2739.6436      45.5360      14.9131    -999.2500   11610.8965    1101.1274     185.7491       4.6610       2.7666
   2739.7959      39.4310      15.3792    -999.2500   19125.3711    1281.1573     179.6444       4.6625       2.7316
   2739.9485      49.8120      16.3431    -999.2500   21028.3633    1504.5420     162.6728       4.8089       2.7200
   2740.1008      50.2810      17.5496    -999.2500   20176.0410    1749.2144     140.3654       5.0270       2.7200
   2740.2532      51.8890      18.5351    -999.2500   17551.1875    1803.1973     134.1441       5.4709       2.7300
   2740.4055      51.0110      19.4124    -999.2500   14052.5869    1763.1825     135.8523       6.0262       2.7450
   2740.5581      50.6830      19.6304    -999.2500   16824.2188    1827.1428     160.0705       6.1397       2.7366
