#------------------------------------------------------------------------------
#
#   Created by  : [OpenWorks] Log Export Utility (LEXP)
#   Created on  : 2016-05-18 11:02:13
#   Project     : CANT971
#   User        : R5K
#   Interpreter : PEP
#
#------------------------------------------------------------------------------
~VERSION INFORMATION
VERS. 2.0 : CWLS Log ASCII Standard - version 2.0
WRAP.  NO : One line per depth step
~WELL INFORMATION
#MNEMONIC   .UNIT                                           VALUE :DESCRIPTION
#------------------------------------------------------------------------------
STRT        .M                                           500.8876 :START DEPTH
STOP        .M                                          2799.8416 :STOP DEPTH
STEP        .M                                             0.1524 :STEP
NULL        .                                           -999.2500 :NULL VALUE
COMP        .                                   PEMEX EXPL & PROD :COMPANY
WELL        .                                                 265 :WELL
FLD         .                                           CANTARELL :FIELD
LOC         .                                             UNKNOWN :LOCATION
CNTY        .                                      CD. DEL CARMEN :COUNTY
STAT        .                                            CAMPECHE :STATE
CTRY        .                                              MEXICO :COUNTRY
SRVC        .                                             UNKNOWN :SERVICE COMPANY
DATE        .                                             UNKNOWN :LOG DATE
UWI         .                                          3060000482 :UNIQUE WELL ID
XCOORD      .                                       597308.430000 :SURFACE X
YCOORD      .                                      2143047.340000 :SURFACE Y
LAT         .                                           19.380359 :LATITUDE
LON         .                                          -92.073373 :LONGITUDE
ELEV        .M                                            27.7000 :SURFACE ELEV
ELEV_TYPE   .                                                  KB :ELEV TYPE
~CURVE INFORMATION
#MNEMONIC.UNIT        API CODE       : CURVE DESCRIPTION
#------------------------------------------------------------------------------
DEPTH    .M                          : Measured Depth
DT       .us/ft       UNKNOWN        : DT:sonico:rC:NONE:v0 (auto-composite)
GR       .UNKNOWN     UNKNOWN        : GR:GR-Load:rC:NONE:v0 (auto-composite)
ILD      .UNKNOWN     UNKNOWN        : ILD:ILD-Load:rC:NONE:v0 (auto-composite)
LLD      .UNKNOWN     UNKNOWN        : LLD:LLD-Load:rC:NONE:v0 (auto-composite)
LLS      .UNKNOWN     UNKNOWN        : LLS:LLS-Load:rC:NONE:v0 (auto-composite)
MSFL     .UNKNOWN     UNKNOWN        : MSFL:MSFL-Load:rC:NONE:v0 (auto-composite)
NPHI     .v/v_decimal UNKNOWN        : NPHI:NPHI:rC:NONE:v0 (auto-composite)
RHOB     .UNKNOWN     UNKNOWN        : RHOB:RHOB-Load:rC:NONE:v0 (auto-composite)
~A     DEPTH           DT           GR          ILD          LLD          LLS         MSFL         NPHI         RHOB
# ...
   2688.1323      83.8380      25.8940    -999.2500    1499.6086     750.2673     100.3392       7.3578       2.6926
   2688.2849      63.7440      25.8849    -999.2500    1394.5698     749.1739     103.0902       5.9784       2.6696
   2688.4373      46.2630      25.6679    -999.2500    1363.4218     680.8110     100.2536       5.5314       2.6179
   2688.5896      93.1860      25.3495    -999.2500    1368.5220     579.4478      94.6561       5.5484       2.5519
   2688.7419      90.4460      23.2993    -999.2500    1431.9293     635.8159     111.9238       5.9014       2.4739
   2688.8943      96.3630      20.4022    -999.2500    1524.0524     769.8654     140.5344       6.4212       2.3899
   2689.0469      96.0280      18.1620    -999.2500    1640.7332     806.4586     148.3017      11.0703       2.2979
   2689.1992     106.4100      16.2418    -999.2500    1769.4680     795.2155     145.7638      17.7757       2.2019
   2689.3516     121.6810      14.8348    -999.2500    1944.9205     695.1697     102.2284      19.7419       2.1743
   2689.5039      95.8270      13.6789    -999.2500    2143.3943     551.3646      38.3438      19.3558       2.1808
   2689.6565      93.0180      13.3155    -999.2500    2447.7432     784.2038      17.5190      14.5174       2.2515
   2689.8088      90.2090      13.3384    -999.2500    2804.0903    1202.0233      17.9958       7.4764       2.3540
   2689.9612      84.5910      13.7537    -999.2500    3751.9961    1336.9587      69.2362       5.1487       2.4956
   2690.1135      76.0995      14.3609    -999.2500    4991.5703    1332.4181     145.6875       5.1617       2.6567
   2690.2661      74.7290      20.1204    -999.2500    5334.3491    1287.2338     151.9291       5.7724       2.7000
   2690.4185      85.8810      28.3935    -999.2500    5236.4365    1222.0769     123.4186       6.6790       2.6850
   2690.5708      97.0330      30.9732    -999.2500    4479.4639    1157.6016     122.7016       6.9302       2.6807
   2690.7231      62.9420      30.7848    -999.2500    3397.3560    1093.4624     135.6960       6.8557       2.6817
   2690.8755      59.1900      28.0263    -999.2500    2622.7578    1033.0361     139.8538       5.9951       2.6914
   2691.0281      64.6485      24.0134    -999.2500    1999.3582     974.4354     139.6352       4.7451       2.7054
   2691.1804      70.1070      22.9017    -999.2500    1661.6145     875.9104     136.2707       4.3621       2.7083
   2691.3328      73.0205      23.2016    -999.2500    1464.8739     757.6783     131.3533       4.4101       2.7058
   2691.4851      58.0510      23.2281    -999.2500    1406.3560     656.1533     102.9934       5.0369       2.6799
   2691.6377      66.5070      23.1210    -999.2500    1415.8389     562.8475      63.0166       5.9505       2.6425
   2691.7900      74.9630      21.4436    -999.2500    1537.2026     534.4562      50.6949      12.0813       2.5164
   2691.9424      91.8750      19.0016    -999.2500    1713.8232     538.1256      52.0318      20.8075       2.3464
   2692.0947      84.5080      18.3139    -999.2500    2442.8564     576.1649      69.6010      23.5172       2.2943
   2692.2473      73.2550      18.4835    -999.2500    3443.8118     631.1227      95.2185      23.2439       2.3008
   2692.3997      68.1800      20.0007    -999.2500    7839.2295     702.5422     124.5588      20.6781       2.3614
   2692.5520      63.1050      22.1742    -999.2500   13899.9824     782.0378     155.7388      16.9712       2.4490
   2692.7043      54.4340      24.6389    -999.2500   15702.5889     854.5781     166.4397      11.9267       2.5505
   2692.8567      49.0730      27.2458    -999.2500   15407.9521     923.6926     166.9809       6.2186       2.6591
   2693.0093      49.3755      28.0019    -999.2500   12605.3438    1175.5938     168.7786       4.3300       2.7201
   2693.1616      49.6780      27.8559    -999.2500    8571.6162    1517.2218     171.1976       4.3300       2.7576
   2693.3140      48.8350      26.6583    -999.2500    7264.1187    1606.5455     154.6184       4.3353       2.7680
   2693.4663      49.4410      24.9462    -999.2500    7300.1206    1571.5326     128.6088       4.3434       2.7650
   2693.6189      49.6935      23.8911    -999.2500    7749.6855    1563.7974     120.6687       4.6750       2.7359
   2693.7712      49.9460      23.1565    -999.2500    8402.3770    1569.4600     121.6683       5.1668       2.6939
   2693.9236      50.5490      22.1611    -999.2500   11176.6875    1618.8057     119.1115       5.3183       2.6810
   2694.0759      48.8750      21.0382    -999.2500   14997.1367    1689.6908     114.7884       5.3008       2.6825
   2694.2285      49.5450      19.7728    -999.2500   21064.5566    1765.6760      91.2229       5.1543       2.6934
   2694.3809      49.1820      18.4378    -999.2500   28236.2324    1844.1676      58.1322       4.9439       2.7089
   2694.5332      48.8190      16.7901    -999.2500   51001.4102    1907.7815     104.6963       4.6922       2.7294
   2694.6855      47.8030      14.9904    -999.2500   81459.8750    1964.0553     190.5592       4.4201       2.7524
   2694.8379      71.0930      14.4299    -999.2500   90544.0547    1995.5505     217.1769       4.3300       2.7366
   2694.9905      62.3280      14.4744    -999.2500   89118.0703    2014.8617     214.4509       4.3300       2.7016
   2695.1428      53.5630      14.8346    -999.2500   79758.9609    2087.8025     195.1068       4.3891       2.6900
   2695.2952      62.0030      15.3484    -999.2500   66483.7109    2187.2170     167.5592       4.4777       2.6900
   2695.4475      67.5620      16.0490    -999.2500   55806.1406    1961.8618     114.9430       5.2632       2.6893
   2695.6001      67.4615      16.8408    -999.2500   46406.6367    1576.7196      49.9035       6.3943       2.6883
   2695.7524      67.3610      17.0563    -999.2500   38312.6719    1472.5396      28.6392      10.0867       2.6152
   2695.9048      83.7370      16.9913    -999.2500   30858.8926    1506.1316      28.9965      15.0536       2.5061
   2696.0571      97.3010      16.4922    -999.2500   29016.6270    1997.4568      77.5617      16.4940       2.4720
   2696.2097      73.7320      15.7810    -999.2500   29936.7969    2714.1147     150.0309      16.1859       2.4750
   2696.3621      57.6490      14.9871    -999.2500   42765.9258    2480.6050     171.3395      13.9544       2.4984
   2696.5144      69.0585      14.1529    -999.2500   61438.0430    1780.9072     167.3643      10.7722       2.5319
   2696.6667      80.4680      12.9455    -999.2500   60193.8906    1561.5315     128.9214       7.9160       2.5838
   2696.8191      96.4300      11.5555    -999.2500   49139.8047    1578.7428      73.3779       5.2215       2.6448
   2696.9717      76.0110      11.2193    -999.2500   45970.1875    1750.1576      55.6207       4.3300       2.6811
   2697.1240      64.6530      11.3967    -999.2500   46671.1953    1997.2733      56.5483       4.3300       2.7050
   2697.2764      53.2950      12.5751    -999.2500   52893.4805    2774.4592      65.6004       4.2966       2.7224
   2697.4287      59.6250      14.2432    -999.2500   61836.8711    3812.8845      78.6858       4.2466       2.7364
   2697.5813      64.1025      15.0621    -999.2500   76049.8125    5477.1523     134.5434       3.9224       2.7440
   2697.7336      68.5800      15.4670    -999.2500   92851.1406    7448.8320     211.5633       3.4626       2.7485
   2697.8860      71.5140      15.5829    -999.2500   97571.9766    8017.6890     227.9624       3.3451       2.7533
   2698.0383      57.5820      15.5574    -999.2500   96335.6875    7894.7871     214.4683       3.3976       2.7583
   2698.1909      51.4200      15.1627    -999.2500   88255.8281    7087.5054     210.0000       3.7209       2.7533
   2698.3433      52.0845      14.5880    -999.2500   76812.5234    5943.8677     210.0000       4.1782       2.7433
   2698.4956      52.7490      14.5059    -999.2500   63216.0859    4633.4399     208.7069       4.3300       2.7500
