#------------------------------------------------------------------------------
#
#   Created by  : [OpenWorks] Log Export Utility (LEXP)
#   Created on  : 2016-05-18 11:02:13
#   Project     : CANT971
#   User        : R5K
#   Interpreter : PEP
#
#------------------------------------------------------------------------------
~VERSION INFORMATION
VERS. 2.0 : CWLS Log ASCII Standard - version 2.0
WRAP.  NO : One line per depth step
~WELL INFORMATION
#MNEMONIC   .UNIT                                           VALUE :DESCRIPTION
#------------------------------------------------------------------------------
STRT        .M                                           500.8876 :START DEPTH
STOP        .M                                          2799.8416 :STOP DEPTH
STEP        .M                                             0.1524 :STEP
NULL        .                                           -999.2500 :NULL VALUE
COMP        .                                   PEMEX EXPL & PROD :COMPANY
WELL        .                                                 265 :WELL
FLD         .                                           CANTARELL :FIELD
LOC         .                                             UNKNOWN :LOCATION
CNTY        .                                      CD. DEL CARMEN :COUNTY
STAT        .                                            CAMPECHE :STATE
CTRY        .                                              MEXICO :COUNTRY
SRVC        .                                             UNKNOWN :SERVICE COMPANY
DATE        .                                             UNKNOWN :LOG DATE
UWI         .                                          3060000482 :UNIQUE WELL ID
XCOORD      .                                       597308.430000 :SURFACE X
YCOORD      .                                      2143047.340000 :SURFACE Y
LAT         .                                           19.380359 :LATITUDE
LON         .                                          -92.073373 :LONGITUDE
ELEV        .M                                            27.7000 :SURFACE ELEV
ELEV_TYPE   .                                                  KB :ELEV TYPE
~CURVE INFORMATION
#MNEMONIC.UNIT        API CODE       : CURVE DESCRIPTION
#------------------------------------------------------------------------------
DEPTH    .M                          : Measured Depth
DT       .us/ft       UNKNOWN        : DT:sonico:rC:NONE:v0 (auto-composite)
GR       .UNKNOWN     UNKNOWN        : GR:GR-Load:rC:NONE:v0 (auto-composite)
ILD      .UNKNOWN     UNKNOWN        : ILD:ILD-Load:rC:NONE:v0 (auto-composite)
LLD      .UNKNOWN     UNKNOWN        : LLD:LLD-Load:rC:NONE:v0 (auto-composite)
LLS      .UNKNOWN     UNKNOWN        : LLS:LLS-Load:rC:NONE:v0 (auto-composite)
MSFL     .UNKNOWN     UNKNOWN        : MSFL:MSFL-Load:rC:NONE:v0 (auto-composite)
NPHI     .v/v_decimal UNKNOWN        : NPHI:NPHI:rC:NONE:v0 (auto-composite)
RHOB     .UNKNOWN     UNKNOWN        : RHOB:RHOB-Load:rC:NONE:v0 (auto-composite)
~A     DEPTH           DT           GR          ILD          LLD          LLS         MSFL         NPHI         RHOB
# ...
   2625.0388      48.5400      23.6602    -999.2500    5309.3433    1712.2018     181.5164       3.2503       2.7497
   2625.1912      48.5400      24.0478    -999.2500    5573.0479    1700.5544     182.2896       3.6259       2.7387
   2625.3435      48.8750      24.2506    -999.2500    5461.9102    1674.3656     187.3109       5.3976       2.7200
   2625.4961      49.5110      24.3632    -999.2500    5166.3711    1641.0229     194.4526       7.8660       2.6975
   2625.6484      49.9460      24.2171    -999.2500    4864.8706    1630.0000     202.8910       8.0915       2.6900
   2625.8008      50.3480      23.9452    -999.2500    4560.4258    1630.0000     211.9746       7.1932       2.6900
   2625.9531      50.9790      23.6692    -999.2500    4527.4526    1683.5881     206.5334       5.8810       2.7083
   2626.1057      51.1520      23.3911    -999.2500    4628.1035    1763.5536     193.8387       4.3622       2.7358
   2626.2581      50.9270      23.3000    -999.2500    4971.5708    1768.9990     185.0751       3.4739       2.7553
   2626.4104      50.8840      23.3000    -999.2500    5435.0254    1737.6205     178.2680       2.9017       2.7708
   2626.5627      51.4820      23.3000    -999.2500    5679.0557    1704.7411     187.3400       2.4741       2.7800
   2626.7151      51.8890      23.3000    -999.2500    5815.0186    1671.1226     204.3463       2.1187       2.7860
   2626.8677      64.0150      23.3000    -999.2500    5700.8760    1663.3470     208.3318       2.0000       2.7887
   2627.0200      51.2860      23.3000    -999.2500    5463.0742    1668.3489     205.8329       2.0000       2.7897
   2627.1724      48.8750      23.3000    -999.2500    5212.7295    1627.4938     205.7843       2.0654       2.7900
   2627.3247      48.6740      23.3000    -999.2500    4956.2046    1564.0411     206.9608       2.1634       2.7900
   2627.4773      48.7900      23.3000    -999.2500    4501.1035    1484.0107     208.0925       2.4081       2.7767
   2627.6296      50.2810      23.3000    -999.2500    3947.7649    1395.7792     209.2019       2.7260       2.7567
   2627.7820      55.9080      23.3792    -999.2500    3371.2971    1327.8252     225.0747       2.8873       2.7600
   2627.9343      49.6780      23.4973    -999.2500    2783.4250    1269.8693     248.2797       2.9704       2.7750
   2628.0869      49.3440      23.9021    -999.2500    2444.0571    1198.1947     232.6359       3.1091       2.7733
   2628.2393      49.1430      24.4469    -999.2500    2227.6963    1119.7297     197.6230       3.2755       2.7633
   2628.3916      49.3110      24.7180    -999.2500    2018.1702    1048.9825     193.2741       3.4840       2.7600
   2628.5439      49.5450      24.8550    -999.2500    1812.0161     982.0428     204.1629       3.7136       2.7600
   2628.6963      49.4110      24.5279    -999.2500    1487.4686     840.3151     212.8637       3.7500       2.7700
   2628.8489      49.4110      23.9741    -999.2500    1104.7075     661.8142     220.4730       3.6900       2.7850
   2629.0012      50.6830      23.2576    -999.2500     807.6293     499.6983     217.9287       4.1133       2.7793
   2629.1536      51.8220      22.4613    -999.2500     552.8463     345.6704     210.3360       4.7785       2.7633
   2629.3059      56.2030      22.3868    -999.2500     412.2765     256.3974     178.8448       4.9367       2.7387
   2629.4585      83.1220      22.6649    -999.2500     327.8969     198.9822     135.4247       4.8417       2.7097
   2629.6108      72.1880      23.1406    -999.2500     330.5718     200.2273     137.3537       4.9053       2.7033
   2629.7632      60.3690      23.7123    -999.2500     376.2432     230.4450     161.8431       5.0484       2.7083
   2629.9155      54.5680      23.6984    -999.2500     443.3523     261.7985     154.2422       5.5326       2.6967
   2630.0681      72.6640      23.3983    -999.2500     521.0143     293.7112     130.6144       6.1874       2.6767
   2630.2205      91.3400      23.5951    -999.2500     569.8985     313.8848     101.7525       6.9174       2.6867
   2630.3728     115.7870      24.0339    -999.2500     604.5613     328.2571      70.2850       7.6852       2.7117
   2630.5251     105.1060      26.1610    -999.2500     575.8531     300.9409      84.2138       8.3009       2.7120
   2630.6775      87.6740      29.1136    -999.2500     515.9326     253.0916     120.8273       8.8406       2.7000
   2630.8301      74.1260      31.2846    -999.2500     481.4425     230.4791     132.7322       8.4995       2.6860
   2630.9824      86.7850      33.0749    -999.2500     459.5269     220.3454     132.3311       7.7199       2.6710
   2631.1348      77.4130      35.1868    -999.2500     444.6480     229.0525     107.0420       8.0429       2.6507
   2631.2871      60.4210      37.4561    -999.2500     433.2369     247.0448      69.3988       8.9172       2.6277
   2631.4397     123.6240      37.9568    -999.2500     398.3810     233.0119      51.0157      10.8705       2.5656
   2631.5920     110.6280      37.5949    -999.2500     351.9259     203.1349      42.2304      13.3614       2.4842
   2631.7444      82.3320      36.3353    -999.2500     306.5976     173.4292      38.4084      16.1950       2.3880
   2631.8967      47.5350      34.6362    -999.2500     261.8249     143.8080      37.0515      19.2002       2.2844
   2632.0493      63.7660      33.4381    -999.2500     283.8187     147.0688      56.9263      18.0476       2.3307
   2632.2017     118.6670      32.4845    -999.2500     338.8635     166.6070      87.3875      14.8220       2.4517
   2632.3540     110.3890      31.7275    -999.2500     446.9527     198.0894      97.0994      11.3463       2.5597
   2632.5063     102.1110      31.0667    -999.2500     581.2127     235.4647      96.4996       7.7455       2.6612
   2632.6587      69.3030      30.3852    -999.2500     699.7026     274.6599     105.3860       5.9211       2.7100
   2632.8113     116.5910      29.6934    -999.2500     810.4378     314.7501     119.0051       4.9830       2.7325
   2632.9636      76.1550      28.9402    -999.2500     874.1486     325.5524     136.7039       4.7510       2.7267
   2633.1160      51.4870      28.1570    -999.2500     914.6456     321.8966     156.4314       4.8725       2.7067
   2633.2683      51.4870      28.3913    -999.2500     823.4883     301.5027     146.9593       5.5054       2.6867
   2633.4209      52.6930      29.1226    -999.2500     667.5557     272.8736     122.9114       6.3935       2.6667
   2633.5732      53.7550      31.6942    -999.2500     628.7073     238.1607      99.4958       5.9016       2.6680
   2633.7256      55.2660      35.1617    -999.2500     647.6913     200.4427      76.3948       4.7182       2.6800
   2633.8779      55.7070      35.8619    -999.2500     719.9468     195.2746     102.4913       3.7402       2.7127
   2634.0305      55.5220      35.2096    -999.2500     818.4272     206.1304     153.1600       2.8649       2.7557
   2634.1829      55.1710      33.0585    -999.2500     832.5889     234.7477     155.9519       2.3825       2.7600
   2634.3352      55.3150      30.1772    -999.2500     805.0787     272.1430     134.9106       2.0956       2.7450
   2634.4875      55.4520      28.4604    -999.2500     796.0000     300.7295     109.3155       2.0000       2.7567
   2634.6399      76.1350      27.3130    -999.2500     796.0000     324.9770      81.4611       2.0000       2.7817
   2634.7925      58.2860      26.6097    -999.2500     842.1864     313.2536      93.3919       2.1995       2.7873
   2634.9448      53.1610      26.1229    -999.2500     911.2119     283.7427     125.1391       2.4984       2.7833
   2635.0972      53.7640      24.8671    -999.2500     916.5925     279.6913     150.8102       2.8307       2.7713
   2635.2495      59.7250      23.2350    -999.2500     890.6058     288.1877     173.4649       3.1799       2.7553
   2635.4021      58.9890      23.6665    -999.2500     754.0639     263.4008     146.3495       3.5538       2.7500
