#------------------------------------------------------------------------------
#
#   Created by  : [OpenWorks] Log Export Utility (LEXP)
#   Created on  : 2016-05-18 11:02:13
#   Project     : CANT971
#   User        : R5K
#   Interpreter : PEP
#
#------------------------------------------------------------------------------
~VERSION INFORMATION
VERS. 2.0 : CWLS Log ASCII Standard - version 2.0
WRAP.  NO : One line per depth step
~WELL INFORMATION
#MNEMONIC   .UNIT                                           VALUE :DESCRIPTION
#------------------------------------------------------------------------------
STRT        .M                                           500.8876 :START DEPTH
STOP        .M                                          2799.8416 :STOP DEPTH
STEP        .M                                             0.1524 :STEP
NULL        .                                           -999.2500 :NULL VALUE
COMP        .                                   PEMEX EXPL & PROD :COMPANY
WELL        .                                                 265 :WELL
FLD         .                                           CANTARELL :FIELD
LOC         .                                             UNKNOWN :LOCATION
CNTY        .                                      CD. DEL CARMEN :COUNTY
STAT        .                                            CAMPECHE :STATE
CTRY        .                                              MEXICO :COUNTRY
SRVC        .                                             UNKNOWN :SERVICE COMPANY
DATE        .                                             UNKNOWN :LOG DATE
UWI         .                                          3060000482 :UNIQUE WELL ID
XCOORD      .                                       597308.430000 :SURFACE X
YCOORD      .                                      2143047.340000 :SURFACE Y
LAT         .                                           19.380359 :LATITUDE
LON         .                                          -92.073373 :LONGITUDE
ELEV        .M                                            27.7000 :SURFACE ELEV
ELEV_TYPE   .                                                  KB :ELEV TYPE
~CURVE INFORMATION
#MNEMONIC.UNIT        API CODE       : CURVE DESCRIPTION
#------------------------------------------------------------------------------
DEPTH    .M                          : Measured Depth
DT       .us/ft       UNKNOWN        : DT:sonico:rC:NONE:v0 (auto-composite)
GR       .UNKNOWN     UNKNOWN        : GR:GR-Load:rC:NONE:v0 (auto-composite)
ILD      .UNKNOWN     UNKNOWN        : ILD:ILD-Load:rC:NONE:v0 (auto-composite)
LLD      .UNKNOWN     UNKNOWN        : LLD:LLD-Load:rC:NONE:v0 (auto-composite)
LLS      .UNKNOWN     UNKNOWN        : LLS:LLS-Load:rC:NONE:v0 (auto-composite)
MSFL     .UNKNOWN     UNKNOWN        : MSFL:MSFL-Load:rC:NONE:v0 (auto-composite)
NPHI     .v/v_decimal UNKNOWN        : NPHI:NPHI:rC:NONE:v0 (auto-composite)
RHOB     .UNKNOWN     UNKNOWN        : RHOB:RHOB-Load:rC:NONE:v0 (auto-composite)
~A     DEPTH           DT           GR          ILD          LLD          LLS         MSFL         NPHI         RHOB
# ...
   2604.0076     114.9220      79.6649    -999.2500      67.1736      52.5285      11.1153      11.7336       2.7000
   2604.1599     106.4960      79.3148    -999.2500      57.8351      40.7400      15.1132      10.8840       2.7150
   2604.3125      98.2200      83.1844    -999.2500      50.8477      34.5499      26.8021      11.2660       2.7167
   2604.4648      89.9430      89.1118    -999.2500      45.0235      31.1296      42.3239      12.2664       2.7117
   2604.6172      80.6900      93.1889    -999.2500      43.1000      30.7632      41.1323      12.5091       2.7100
   2604.7695     124.6950      96.3601    -999.2500      43.1000      31.9027      31.5788      12.3726       2.7100
   2604.9221     124.8960      90.1565    -999.2500      53.6292      37.8618      39.9387      11.3298       2.7000
   2605.0745     109.2980      79.3787    -999.2500      69.3710      46.2068      57.2312       9.8317       2.6850
   2605.2268      80.9130      67.3434    -999.2500      92.4427      59.9793      59.1334       8.2322       2.7066
   2605.3792      52.5270      54.6923    -999.2500     119.1312      76.4297      53.3313       6.5820       2.7466
   2605.5315      40.3010      46.1000    -999.2500     134.2321      96.6372      59.2022       6.2031       2.7434
   2605.6841      47.7920      39.4894    -999.2500     143.5930     118.7059      70.8971       6.4632       2.7183
   2605.8364      66.9590      34.9939    -999.2500     153.7188     123.9024      73.8335       6.4881       2.7170
   2605.9888      67.6960      31.5351    -999.2500     164.2222     120.7693      72.3830       6.3951       2.7275
   2606.1411      89.3300      30.4464    -999.2500     172.2918     115.1349      76.2372       6.1363       2.7387
   2606.2937      80.3370      30.5154    -999.2500     179.1638     108.2699      82.7396       5.7942       2.7502
   2606.4460      62.6680      30.7269    -999.2500     184.3032     108.6784      82.0299       5.4241       2.7693
   2606.5984      50.5490      31.0078    -999.2500     188.5868     112.6799      77.7318       5.0400       2.7923
   2606.7507      50.4820      30.5624    -999.2500     185.0401     111.4082      81.7585       4.7414       2.7977
   2606.9033      50.4820      29.7621    -999.2500     177.6383     107.5404      89.9435       4.4855       2.7942
   2607.0557      50.7500      32.1109    -999.2500     156.6726      97.6643     102.4525       4.5249       2.7850
   2607.2080      51.8450      35.9938    -999.2500     129.0029      84.8185     117.1142       4.7125       2.7730
   2607.3604      54.6790      39.7315    -999.2500     102.6365      72.7167     120.8324       5.1639       2.7590
   2607.5127      56.7780      43.3984    -999.2500      76.9121      60.9812     119.0813       5.7471       2.7440
   2607.6653      56.8450      43.2183    -999.2500      68.8414      53.1830     103.2752       6.5742       2.7260
   2607.8176      54.6950      41.1632    -999.2500      69.5012      47.3318      80.4680       7.5235       2.7065
   2607.9700      53.7640      38.1075    -999.2500      72.1120      46.5945      67.2415       7.3169       2.7023
   2608.1223      52.8940      34.5622    -999.2500      75.6844      48.3777      58.8059       6.5323       2.7058
   2608.2749      50.2810      33.7994    -999.2500      78.4173      50.6903      58.9359       5.7172       2.7080
   2608.4272      50.8290      34.3937    -999.2500      80.7346      53.2647      63.3350       4.8869       2.7095
   2608.5796      51.1250      35.3959    -999.2500      80.5785      55.6162      68.2018       4.8179       2.7170
   2608.7319      50.8840      36.5978    -999.2500      79.2026      57.8577      73.3027       5.1297       2.7275
   2608.8845      53.0270      37.3642    -999.2500      76.3316      57.8416      69.8310       5.4557       2.7373
   2609.0369      53.3620      37.9179    -999.2500      72.7202      56.7077      62.0844       5.7889       2.7468
   2609.1892      53.6970      37.0374    -999.2500      63.9549      50.8226      60.6349       5.8301       2.7453
   2609.3416      54.0990      35.4544    -999.2500      52.6462      42.5932      62.3381       5.7251       2.7383
   2609.4939      54.6770      32.9083    -999.2500      48.9669      34.7059      65.9041       5.9576       2.7224
   2609.6465      55.9750      29.8921    -999.2500      49.0669      26.9880      70.3997       6.3598       2.7018
   2609.7988      61.5340      32.6929    -999.2500      41.9545      21.4621      63.7750       7.4698       2.6760
   2609.9512      68.2990      38.3450    -999.2500      31.2811      17.0185      51.5799       8.9343       2.6475
   2610.1035      69.1020      49.1719    -999.2500      22.5822      14.3629      37.0703      11.3391       2.6227
   2610.2561      70.9780      62.5268    -999.2500      14.8551      12.5872      21.4050      14.2134       2.5997
   2610.4084      69.7720      65.5656    -999.2500      13.0114      12.2347      17.0934      17.2794       2.5747
   2610.5608      68.1650      63.5814    -999.2500      14.0743      12.5853      18.4313      20.4416       2.5487
   2610.7131      67.0260      59.9456    -999.2500      17.2009      16.3004      23.8841      22.3966       2.5660
   2610.8657      60.7110      55.5025    -999.2500      21.3436      21.6721      31.3923      23.7485       2.6050
   2611.0181      57.5820      52.6019    -999.2500      35.7979      42.9745      55.2130      22.2785       2.6453
   2611.1704      60.4460      50.4529    -999.2500      55.3492      72.1513      87.1552      19.3935       2.6863
   2611.3228      65.9990      47.9808    -999.2500      94.6088     127.0565      92.4017      15.7888       2.6903
   2611.4751      53.4290      45.3509    -999.2500     143.5776     194.6369      84.3052      11.8245       2.6758
   2611.6277      53.3620      42.5100    -999.2500     201.5344     214.6573      60.8255      10.5476       2.6650
   2611.7800      57.5820      39.5662    -999.2500     263.9365     211.1560      29.6824      10.6192       2.6560
   2611.9324      57.9170      36.9537    -999.2500     320.4342     212.3789      31.2916      11.3616       2.6487
   2612.0847      69.5040      34.5033    -999.2500     374.0215     215.9303      49.2803      12.4397       2.6422
   2612.2373      54.1660      34.6406    -999.2500     424.9089     231.2949      81.5253      12.2509       2.6447
   2612.3896      66.3320      36.0400    -999.2500     474.4602     252.5052     120.8763      11.4261       2.6517
   2612.5420     107.8160      36.0900    -999.2500     559.1649     275.4058     133.0382      10.6304       2.6583
   2612.6943      90.0320      35.4793    -999.2500     661.2073     299.1401     131.5952       9.8492       2.6648
   2612.8469      71.3440      35.0174    -999.2500     687.2400     298.1771     123.5378       9.4522       2.6813
   2612.9993      57.9840      34.6280    -999.2500     675.6377     284.9858     112.1817       9.2481       2.7028
   2613.1516      82.6990      35.4064    -999.2500     635.7861     265.2599     100.0959       9.3167       2.6980
   2613.3040      77.6090      36.7569    -999.2500     581.9938     242.3093      87.6449       9.5217       2.6800
   2613.4563      72.6730      36.8112    -999.2500     523.2271     226.4424      86.4697       9.0732       2.6333
   2613.6089      67.3460      36.2324    -999.2500     461.9960     214.0848      90.9214       8.2985       2.5724
   2613.7612      83.1680      34.9202    -999.2500     406.6351     213.6833      82.3776       8.9957       2.4947
   2613.9136      84.2400      33.2509    -999.2500     354.1727     219.1854      67.3706      10.4303       2.4087
   2614.0659      87.1200      31.8955    -999.2500     292.7003     201.7672      58.9194      12.7961       2.3127
   2614.2185      95.6265      30.6936    -999.2500     226.7937     173.0696      53.7415      15.6269       2.2117
   2614.3708     104.1330      32.1329    -999.2500     210.7533     146.3118      41.4612      18.5471       2.1553
