#------------------------------------------------------------------------------
#
#   Created by  : [OpenWorks] Log Export Utility (LEXP)
#   Created on  : 2016-05-18 11:02:13
#   Project     : CANT971
#   User        : R5K
#   Interpreter : PEP
#
#------------------------------------------------------------------------------
~VERSION INFORMATION
VERS. 2.0 : CWLS Log ASCII Standard - version 2.0
WRAP.  NO : One line per depth step
~WELL INFORMATION
#MNEMONIC   .UNIT                                           VALUE :DESCRIPTION
#------------------------------------------------------------------------------
STRT        .M                                           500.8876 :START DEPTH
STOP        .M                                          2799.8416 :STOP DEPTH
STEP        .M                                             0.1524 :STEP
NULL        .                                           -999.2500 :NULL VALUE
COMP        .                                   PEMEX EXPL & PROD :COMPANY
WELL        .                                                 265 :WELL
FLD         .                                           CANTARELL :FIELD
LOC         .                                             UNKNOWN :LOCATION
CNTY        .                                      CD. DEL CARMEN :COUNTY
STAT        .                                            CAMPECHE :STATE
CTRY        .                                              MEXICO :COUNTRY
SRVC        .                                             UNKNOWN :SERVICE COMPANY
DATE        .                                             UNKNOWN :LOG DATE
UWI         .                                          3060000482 :UNIQUE WELL ID
XCOORD      .                                       597308.430000 :SURFACE X
YCOORD      .                                      2143047.340000 :SURFACE Y
LAT         .                                           19.380359 :LATITUDE
LON         .                                          -92.073373 :LONGITUDE
ELEV        .M                                            27.7000 :SURFACE ELEV
ELEV_TYPE   .                                                  KB :ELEV TYPE
~CURVE INFORMATION
#MNEMONIC.UNIT        API CODE       : CURVE DESCRIPTION
#------------------------------------------------------------------------------
DEPTH    .M                          : Measured Depth
DT       .us/ft       UNKNOWN        : DT:sonico:rC:NONE:v0 (auto-composite)
GR       .UNKNOWN     UNKNOWN        : GR:GR-Load:rC:NONE:v0 (auto-composite)
ILD      .UNKNOWN     UNKNOWN        : ILD:ILD-Load:rC:NONE:v0 (auto-composite)
LLD      .UNKNOWN     UNKNOWN        : LLD:LLD-Load:rC:NONE:v0 (auto-composite)
LLS      .UNKNOWN     UNKNOWN        : LLS:LLS-Load:rC:NONE:v0 (auto-composite)
MSFL     .UNKNOWN     UNKNOWN        : MSFL:MSFL-Load:rC:NONE:v0 (auto-composite)
NPHI     .v/v_decimal UNKNOWN        : NPHI:NPHI:rC:NONE:v0 (auto-composite)
RHOB     .UNKNOWN     UNKNOWN        : RHOB:RHOB-Load:rC:NONE:v0 (auto-composite)
~A     DEPTH           DT           GR          ILD          LLD          LLS         MSFL         NPHI         RHOB
# ...
   2772.2573      75.7330      18.2567    -999.2500    1984.2938    1224.9696      59.7925       6.2537       2.7234
   2772.4097      83.0910      18.7414    -999.2500    2537.9453    1202.5508      76.3541       5.6790       2.7284
   2772.5620      91.4560      18.7820    -999.2500    2620.3428    1123.7506      81.1875       5.5769       2.7287
   2772.7144      95.5590      18.6066    -999.2500    2471.8608    1017.3276      80.2749       5.7063       2.7267
   2772.8667      75.8670      18.0274    -999.2500    1984.1022     829.1704      78.5075       6.0390       2.7226
   2773.0193     100.1820      17.2511    -999.2500    1329.4716     600.8126      76.3197       6.4717       2.7176
   2773.1716     113.5770      16.1239    -999.2500     858.3394     425.3863      86.1309       7.0305       2.7080
   2773.3240      91.8900      14.8260    -999.2500     477.1590     275.9074     101.8241       7.6513       2.6960
   2773.4763      81.2930      14.4746    -999.2500     297.2245     190.3359     103.7715       8.4567       2.6595
   2773.6289      94.0190      14.5856    -999.2500     216.3281     136.2150      98.9543       9.3530       2.6110
   2773.7812      67.8970      14.7154    -999.2500     168.8927      99.5770      83.9503      11.1888       2.5273
   2773.9336      67.8970      14.8544    -999.2500     137.8692      71.5141      63.9499      13.4853       2.4263
   2774.0859      86.4180      14.9749    -999.2500     115.9733      63.8039      48.4104      18.5856       2.3015
   2774.2385     101.5460      15.0865    -999.2500      98.5393      66.0429      35.0675      25.0665       2.1650
   2774.3909     116.5240      15.9890    -999.2500      96.5914      71.0146      24.4091      26.3008       2.1485
   2774.5432     106.9700      17.2770    -999.2500     102.2435      77.3275      15.0682      24.9604       2.1910
   2774.6956      90.5360      17.3379    -999.2500     111.7650      83.0757      14.6259      21.9918       2.2717
   2774.8479      55.5100      16.7987    -999.2500     123.1790      88.5479      18.5362      18.2209       2.3712
   2775.0005      52.5590      16.0766    -999.2500     152.8872      91.1719      26.2554      14.1905       2.4503
   2775.1528      75.4360      15.2653    -999.2500     191.5784      92.3973      35.8450      10.0328       2.5192
   2775.3052     101.1860      15.2018    -999.2500     305.7318      97.4059      42.5630       9.0888       2.5651
   2775.4575      72.7860      15.5017    -999.2500     456.8166     104.2659      47.8757       9.7291       2.5996
   2775.6101      76.4640      14.8940    -999.2500     715.6812     115.1239      56.3980       9.7196       2.6291
   2775.7625      81.6280      13.8436    -999.2500    1027.5002     127.9461      66.4972       9.3910       2.6561
   2775.9148      72.2730      13.8360    -999.2500     987.4136     141.1252     108.4606       8.7626       2.6835
   2776.0671      67.5620      14.3352    -999.2500     775.0054     154.4789     166.0272       7.9875       2.7109
   2776.2195      72.7730      15.2388    -999.2500     705.9151     170.8994     162.5618       7.2320       2.7133
   2776.3721      78.9570      16.3397    -999.2500     707.2802     188.8275     129.0929       6.4862       2.7033
   2776.5244      85.1420      16.5924    -999.2500     796.4655     207.4081      83.6422       5.9354       2.7201
   2776.6768     111.1950      16.4325    -999.2500     928.6794     226.3085      32.3209       5.4801       2.7501
   2776.8291     100.0040      16.0520    -999.2500    1289.5969     293.4068      20.4204       5.3300       2.7540
   2776.9817      83.2170      15.5638    -999.2500    1763.0092     384.2128      27.9101       5.3300       2.7450
   2777.1340      76.2020      15.1001    -999.2500    2465.4465     516.0095      69.4871       5.4873       2.7269
   2777.2864     100.4140      14.6483    -999.2500    3280.1611     667.9014     127.7749       5.7217       2.7044
   2777.4387     102.7930      14.8696    -999.2500    4156.9731     695.5410     133.2565       6.3950       2.6611
   2777.5913      72.9870      15.4198    -999.2500    5064.3472     662.0287     112.7489       7.2843       2.6076
   2777.7437      88.3650      15.4319    -999.2500    9704.3398     741.7214     109.5167       8.9930       2.6024
   2777.8960      98.2380      15.1821    -999.2500   16175.2490     876.9434     114.7585      11.1036       2.6209
   2778.0483     102.0790      15.1155    -999.2500   17978.6055    1273.3547     135.0926      11.1994       2.6515
   2778.2007     111.8780      15.1385    -999.2500   17500.0898    1797.4564     162.8589      10.3031       2.6880
   2778.3533     121.6770      15.5237    -999.2500   14005.0410    1833.8981     156.5663       8.4531       2.6983
   2778.5056      61.3370      16.0855    -999.2500    9029.4854    1630.9977     133.5578       6.1351       2.6958
   2778.6580      41.9090      17.1534    -999.2500    5420.5137    1320.5773     138.7534       6.3216       2.6916
   2778.8103      75.8000      18.4689    -999.2500    2480.0181     957.5625     157.7452       7.7422       2.6866
   2778.9629      74.1320      18.5301    -999.2500    1191.5010     689.4544     149.9888       7.7337       2.6769
   2779.1152      72.3170      17.9799    -999.2500     714.2313     467.9526     129.0971       7.0234       2.6649
   2779.2676      78.4130      17.8158    -999.2500     473.7119     349.1396     102.8656       6.8843       2.6509
   2779.4199      98.1210      17.8393    -999.2500     349.0667     280.5862      74.0205       7.0247       2.6359
   2779.5725     108.7160      19.1423    -999.2500     320.6958     258.0000      48.5803       8.1583       2.5988
   2779.7249     115.0955      21.0696    -999.2500     339.6298     258.0000      24.8130       9.7799       2.5508
   2779.8772     113.2070      21.2719    -999.2500     396.1033     246.2579      25.0534      14.8042       2.4629
   2780.0295     109.4310      20.6357    -999.2500     470.9605     228.7654      37.0508      21.4948       2.3554
   2780.1819     105.1370      19.3742    -999.2500     628.7623     289.9919      74.7972      21.7786       2.3596
   2780.3345     138.5600      17.8077    -999.2500     827.3426     389.9193     125.2028      18.9125       2.4186
   2780.4868      46.5300      16.4897    -999.2500    1250.3107     693.5439     158.9599      15.2920       2.5061
   2780.6392     115.1170      15.2928    -999.2500    1783.2275    1096.9792     184.5593      11.3017       2.6075
   2780.7915      92.9460      15.0119    -999.2500    2767.2808    1169.3931     191.8712       9.2897       2.6708
   2780.9441      66.4900      15.1785    -999.2500    3973.2544    1078.9727     190.1870       8.2508       2.7154
   2781.0964      66.4230      15.3564    -999.2500    4245.8145     930.3361     182.5042       7.6243       2.7189
   2781.2488      69.7120      15.5398    -999.2500    4060.7463     753.1577     171.8803       7.2000       2.7024
   2781.4011      83.3020      15.5839    -999.2500    4231.6553     718.7958     143.6332       7.3412       2.6712
   2781.5537      57.8500      15.5599    -999.2500    4576.5068     754.2190     106.7120       7.7609       2.6327
   2781.7061      58.7915      15.4055    -999.2500    4126.2422     871.2873      76.3177       9.0058       2.6234
   2781.8584      59.7330      15.1876    -999.2500    3285.9314    1028.4067      49.1252      10.6556       2.6284
   2782.0107      61.2660      14.9440    -999.2500    3074.1370    1073.2866      34.0210      10.7978       2.6334
   2782.1631      62.0700      14.6879    -999.2500    3169.6326    1063.2909      24.8270      10.1976       2.6384
   2782.3157      84.0960      14.1658    -999.2500    3672.8350    1087.9735      22.2241      11.0065       2.6064
   2782.4680     106.6550      13.5141    -999.2500    4376.1528    1129.6775      22.8563      12.5071       2.5564
   2782.6204     121.2790      13.4790    -999.2500    6272.7456    1299.9791      32.1153      11.2884       2.5531
