#------------------------------------------------------------------------------
#
#   Created by  : [OpenWorks] Log Export Utility (LEXP)
#   Created on  : 2016-05-18 11:02:13
#   Project     : CANT971
#   User        : R5K
#   Interpreter : PEP
#
#------------------------------------------------------------------------------
~VERSION INFORMATION
VERS. 2.0 : CWLS Log ASCII Standard - version 2.0
WRAP.  NO : One line per depth step
~WELL INFORMATION
#MNEMONIC   .UNIT                                           VALUE :DESCRIPTION
#------------------------------------------------------------------------------
STRT        .M                                           500.8876 :START DEPTH
STOP        .M                                          2799.8416 :STOP DEPTH
STEP        .M                                             0.1524 :STEP
NULL        .                                           -999.2500 :NULL VALUE
COMP        .                                   PEMEX EXPL & PROD :COMPANY
WELL        .                                                 265 :WELL
FLD         .                                           CANTARELL :FIELD
LOC         .                                             UNKNOWN :LOCATION
CNTY        .                                      CD. DEL CARMEN :COUNTY
STAT        .                                            CAMPECHE :STATE
CTRY        .                                              MEXICO :COUNTRY
SRVC        .                                             UNKNOWN :SERVICE COMPANY
DATE        .                                             UNKNOWN :LOG DATE
UWI         .                                          3060000482 :UNIQUE WELL ID
XCOORD      .                                       597308.430000 :SURFACE X
YCOORD      .                                      2143047.340000 :SURFACE Y
LAT         .                                           19.380359 :LATITUDE
LON         .                                          -92.073373 :LONGITUDE
ELEV        .M                                            27.7000 :SURFACE ELEV
ELEV_TYPE   .                                                  KB :ELEV TYPE
~CURVE INFORMATION
#MNEMONIC.UNIT        API CODE       : CURVE DESCRIPTION
#------------------------------------------------------------------------------
DEPTH    .M                          : Measured Depth
DT       .us/ft       UNKNOWN        : DT:sonico:rC:NONE:v0 (auto-composite)
GR       .UNKNOWN     UNKNOWN        : GR:GR-Load:rC:NONE:v0 (auto-composite)
ILD      .UNKNOWN     UNKNOWN        : ILD:ILD-Load:rC:NONE:v0 (auto-composite)
LLD      .UNKNOWN     UNKNOWN        : LLD:LLD-Load:rC:NONE:v0 (auto-composite)
LLS      .UNKNOWN     UNKNOWN        : LLS:LLS-Load:rC:NONE:v0 (auto-composite)
MSFL     .UNKNOWN     UNKNOWN        : MSFL:MSFL-Load:rC:NONE:v0 (auto-composite)
NPHI     .v/v_decimal UNKNOWN        : NPHI:NPHI:rC:NONE:v0 (auto-composite)
RHOB     .UNKNOWN     UNKNOWN        : RHOB:RHOB-Load:rC:NONE:v0 (auto-composite)
~A     DEPTH           DT           GR          ILD          LLD          LLS         MSFL         NPHI         RHOB
# ...
   2709.1636      78.2130      17.8259    -999.2500    4384.6870     927.9377     161.2317       4.4674       2.7260
   2709.3159      93.6840      17.8644    -999.2500    6296.8101    1129.0514     125.7470       4.5235       2.7516
   2709.4685      87.3110      18.1755    -999.2500    8086.2729    1404.6626     114.2044       4.8118       2.7567
   2709.6208      82.4260      18.6197    -999.2500    9815.4736    1716.8743     114.5101       5.2151       2.7517
   2709.7732      77.5410      19.9202    -999.2500   12300.4473    1815.1842     135.4927       5.7904       2.7520
   2709.9255     117.8630      21.6370    -999.2500   15158.1846    1807.9930     166.6738       6.4512       2.7550
   2710.0781     104.5890      21.0235    -999.2500   15862.0029    1774.2993     173.1762       5.9675       2.7808
   2710.2305      87.8420      19.2729    -999.2500   15507.0039    1727.5775     167.4591       4.9171       2.8178
   2710.3828      82.6320      18.7373    -999.2500   13786.5557    1637.7430     144.3455       4.5720       2.8267
   2710.5352      96.7230      18.7928    -999.2500   11392.2568    1526.6326     112.6467       4.5750       2.8217
   2710.6875     105.0700      20.1852    -999.2500    8747.4707    1492.1377      79.2518       4.6656       2.7989
   2710.8401     101.7210      22.2305    -999.2500    5979.4819    1495.3269      45.0167       4.7997       2.7674
   2710.9924     106.6410      22.7319    -999.2500    4633.9404    1541.1904      34.6348       5.2656       2.7245
   2711.1448     115.4000      22.4820    -999.2500    3985.7058    1607.9735      36.0312       5.8953       2.6761
   2711.2971     109.0370      22.5210    -999.2500    3213.8296    1606.7814      61.7441       6.2180       2.6600
   2711.4497     102.6730      22.7010    -999.2500    2381.1047    1572.1361      99.5111       6.3886       2.6600
   2711.6021      74.7290      23.6934    -999.2500    1809.9156    1424.3684      86.4562       7.0488       2.6533
   2711.7544      87.0530      25.0813    -999.2500    1367.0084    1221.1147      48.2921       7.9509       2.6433
   2711.9067      82.9670      27.2379    -999.2500    1158.5638     990.8162      36.2271       8.1938       2.6443
   2712.0591      72.9200      29.7704    -999.2500    1065.5724     747.2002      37.0138       8.1098       2.6508
   2712.2117      85.0280      30.5271    -999.2500     960.5469     667.2789      54.6881       7.7746       2.6821
   2712.3640      90.8710      30.4186    -999.2500     849.6154     667.6947      80.7107       7.3153       2.7256
   2712.5164      85.3780      29.9396    -999.2500     813.9000     683.6374      88.6990       7.0082       2.7383
   2712.6687      87.1200      29.2794    -999.2500     815.2435     707.2301      87.8019       6.7766       2.7358
   2712.8213      74.7110      28.5751    -999.2500     847.2990     650.6438      84.1568       6.7505       2.7166
   2712.9736      59.0560      27.8495    -999.2500     894.4356     554.6852      79.1524       6.8260       2.6891
   2713.1260      59.0560      26.8675    -999.2500     882.5280     524.8423      79.0144       7.2641       2.6800
   2713.2783      81.6280      25.7601    -999.2500     841.5128     527.5928      81.2755       7.8823       2.6800
   2713.4309      82.5650      23.9645    -999.2500     851.7400     550.1360      92.3770       9.7643       2.6700
   2713.5833      85.3110      21.8332    -999.2500     887.1442     582.4041     107.8537      12.2717       2.6550
   2713.7356      86.3160      20.4701    -999.2500    1069.1493     668.9366     132.3896      13.0418       2.6517
   2713.8879      78.8140      19.4806    -999.2500    1323.4662     782.2355     161.3941      12.9548       2.6542
   2714.0403      80.1540      18.7002    -999.2500    2041.9722     851.2273     162.3648      12.3938       2.6680
   2714.1929      81.4940      18.0220    -999.2500    2988.6790     898.4372     149.4535      11.5980       2.6876
   2714.3452      66.8340      17.8773    -999.2500    3284.6531    1036.7428     114.7064      10.1069       2.7161
   2714.4976      53.5630      17.9923    -999.2500    3261.7864    1219.6829      69.1826       8.2727       2.7491
   2714.6499      53.5630      18.5240    -999.2500    3152.1526    1163.3264      64.5688       7.4426       2.7433
   2714.8025      53.5630      19.2593    -999.2500    2999.8389     989.2622      80.2246       7.1100       2.7183
   2714.9548      70.1740      19.2983    -999.2500    2731.8318     932.9572      83.9937       7.0000       2.7133
   2715.1072      51.3530      18.9984    -999.2500    2407.1062     934.3835      81.8929       7.0000       2.7183
   2715.2595      51.5875      18.9000    -999.2500    2377.0974    1000.2681      91.1811       6.7158       2.7193
   2715.4121      51.8220      18.9000    -999.2500    2492.1399    1097.8771     106.0747       6.2906       2.7183
   2715.5645      53.4780      19.1144    -999.2500    2410.5645    1097.7086     107.3858       6.3738       2.6752
   2715.7168      54.0990      19.4333    -999.2500    2232.5425    1049.5775     101.9858       6.7081       2.6112
   2715.8691      55.5060      20.6668    -999.2500    1769.8989     886.8882      77.5986       7.9828       2.5920
   2716.0215      57.7160      22.3474    -999.2500    1167.0934     667.7849      43.8612       9.7240       2.5950
   2716.1741      59.9260      23.8060    -999.2500     802.4771     490.8367      34.0101      10.0231       2.6104
   2716.3264      59.1230      25.1564    -999.2500     554.7661     334.5787      35.9678       9.6093       2.6319
   2716.4788      68.7010      25.4744    -999.2500     488.9418     289.4748      47.1753       7.9604       2.6681
   2716.6311      64.4475      25.2873    -999.2500     512.7385     299.1398      62.9405       5.6986       2.7116
   2716.7837      60.1940      24.5977    -999.2500     631.6057     350.8267      91.8652       4.9714       2.7407
   2716.9360      65.9640      23.6631    -999.2500     797.1606     423.1500     127.2992       5.0034       2.7627
   2717.0884      60.2870      22.3297    -999.2500     987.6678     552.2828     134.6483       5.1305       2.7533
   2717.2407      57.7625      20.8012    -999.2500    1190.4767     709.4233     128.1511       5.3044       2.7283
   2717.3933      55.2380      20.9388    -999.2500    1489.4581     965.2180     136.0376       5.4651       2.7200
   2717.5457      63.7380      21.8891    -999.2500    1835.6957    1269.4880     151.0431       5.6191       2.7200
   2717.6980      68.6340      22.1163    -999.2500    2914.7173    1348.7699     126.6480       5.6700       2.7267
   2717.8503      53.4960      21.9918    -999.2500    4355.2144    1317.0673      82.8169       5.6700       2.7367
   2718.0027      55.6825      21.4808    -999.2500    4555.6260    1200.9867      70.0961       5.7566       2.7367
   2718.1553      57.8690      20.7810    -999.2500    4146.3545    1043.4220      72.7815       5.8862       2.7317
   2718.3076      68.1600      19.6603    -999.2500    3186.5420     882.1061      95.5478       6.4982       2.7032
   2718.4600      87.5220      18.3349    -999.2500    1956.9611     718.9520     128.2254       7.3483       2.6632
   2718.6123      83.1120      18.1641    -999.2500    1258.1028     587.6943     134.8179       7.1651       2.6768
   2718.7649      78.7020      18.5573    -999.2500     820.3207     472.1271     128.5786       6.4698       2.7168
   2718.9172      72.7190      20.0051    -999.2500     587.5110     364.6513     104.4789       6.3303       2.7280
   2719.0696      85.3780      21.9663    -999.2500     455.1962     261.1425      71.5587       6.4653       2.7250
   2719.2219      94.1525      24.4882    -999.2500     371.4784     227.5913      60.9281       6.8946       2.7126
   2719.3745     102.9270      27.2843    -999.2500     311.6803     228.4736      61.2684       7.4698       2.6956
   2719.5269      66.0210      27.9775    -999.2500     355.3715     238.8887      77.3222       7.2519       2.6907
