#------------------------------------------------------------------------------
#
#   Created by  : [OpenWorks] Log Export Utility (LEXP)
#   Created on  : 2016-05-18 11:02:13
#   Project     : CANT971
#   User        : R5K
#   Interpreter : PEP
#
#------------------------------------------------------------------------------
~VERSION INFORMATION
VERS. 2.0 : CWLS Log ASCII Standard - version 2.0
WRAP.  NO : One line per depth step
~WELL INFORMATION
#MNEMONIC   .UNIT                                           VALUE :DESCRIPTION
#------------------------------------------------------------------------------
STRT        .M                                           500.8876 :START DEPTH
STOP        .M                                          2799.8416 :STOP DEPTH
STEP        .M                                             0.1524 :STEP
NULL        .                                           -999.2500 :NULL VALUE
COMP        .                                   PEMEX EXPL & PROD :COMPANY
WELL        .                                                 265 :WELL
FLD         .                                           CANTARELL :FIELD
LOC         .                                             UNKNOWN :LOCATION
CNTY        .                                      CD. DEL CARMEN :COUNTY
STAT        .                                            CAMPECHE :STATE
CTRY        .                                              MEXICO :COUNTRY
SRVC        .                                             UNKNOWN :SERVICE COMPANY
DATE        .                                             UNKNOWN :LOG DATE
UWI         .                                          3060000482 :UNIQUE WELL ID
XCOORD      .                                       597308.430000 :SURFACE X
YCOORD      .                                      2143047.340000 :SURFACE Y
LAT         .                                           19.380359 :LATITUDE
LON         .                                          -92.073373 :LONGITUDE
ELEV        .M                                            27.7000 :SURFACE ELEV
ELEV_TYPE   .                                                  KB :ELEV TYPE
~CURVE INFORMATION
#MNEMONIC.UNIT        API CODE       : CURVE DESCRIPTION
#------------------------------------------------------------------------------
DEPTH    .M                          : Measured Depth
DT       .us/ft       UNKNOWN        : DT:sonico:rC:NONE:v0 (auto-composite)
GR       .UNKNOWN     UNKNOWN        : GR:GR-Load:rC:NONE:v0 (auto-composite)
ILD      .UNKNOWN     UNKNOWN        : ILD:ILD-Load:rC:NONE:v0 (auto-composite)
LLD      .UNKNOWN     UNKNOWN        : LLD:LLD-Load:rC:NONE:v0 (auto-composite)
LLS      .UNKNOWN     UNKNOWN        : LLS:LLS-Load:rC:NONE:v0 (auto-composite)
MSFL     .UNKNOWN     UNKNOWN        : MSFL:MSFL-Load:rC:NONE:v0 (auto-composite)
NPHI     .v/v_decimal UNKNOWN        : NPHI:NPHI:rC:NONE:v0 (auto-composite)
RHOB     .UNKNOWN     UNKNOWN        : RHOB:RHOB-Load:rC:NONE:v0 (auto-composite)
~A     DEPTH           DT           GR          ILD          LLD          LLS         MSFL         NPHI         RHOB
# ...
   2582.9763      58.4550      42.1768    -999.2500      25.4865      31.8533      25.8999      13.9656       2.6467
   2583.1289      57.5820      41.7092    -999.2500      26.8125      27.8303      21.8516      15.3026       2.6117
   2583.2812     122.8870      41.3042    -999.2500      28.6821      27.2992      20.9585      16.8979       2.5800
   2583.4336     115.9880      40.9299    -999.2500      30.8201      28.4931      21.6467      18.6226       2.5500
   2583.5859     121.8630      40.3222    -999.2500      32.4575      30.2244      26.0834      18.1019       2.5467
   2583.7385     106.7500      39.6004    -999.2500      33.8465      32.2221      32.3927      16.4513       2.5567
   2583.8909     101.3860      38.5390    -999.2500      34.8844      34.5134      29.7364      16.2924       2.5424
   2584.0432      99.6450      37.3120    -999.2500      35.7487      36.9498      22.5838      16.8817       2.5159
   2584.1956     115.7090      35.7639    -999.2500      41.0744      42.8671      29.6968      18.4167       2.4814
   2584.3479     128.2400      34.0588    -999.2500      48.5982      50.4993      43.9406      20.4280       2.4429
   2584.5005     133.6700      33.9704    -999.2500      74.3478      75.1198      42.4385      19.7196       2.4733
   2584.6528     111.6190      34.6701    -999.2500     109.1121     108.1430      33.0351      17.6465       2.5382
   2584.8052      90.1340      34.1229    -999.2500     163.5631     159.3591      30.3288      15.3381       2.5434
   2584.9575      87.3985      32.9655    -999.2500     227.7189     219.5436      30.9720      12.9112       2.5184
   2585.1101      85.1320      29.1306    -999.2500     268.3679     261.5155      37.3850      13.0649       2.5240
   2585.2625      78.0890      23.9899    -999.2500     297.3836     294.4742      46.6949      14.5143       2.5450
   2585.4148      71.0460      29.7876    -999.2500     321.0359     309.2565      48.0675      12.9747       2.5879
   2585.5671      56.9590      40.9417    -999.2500     342.0429     315.0735      45.4681       9.9286       2.6419
   2585.7195      49.0655      44.2584    -999.2500     331.2697     304.9568      34.6314       8.9160       2.6533
   2585.8721      41.1720      43.7501    -999.2500     304.7600     286.9502      19.6864       8.9250       2.6433
   2586.0244      52.3155      42.4473    -999.2500     300.5413     283.7791      15.7976       9.0635       2.6433
   2586.1768      57.8872      40.7552    -999.2500     307.3239     287.9298      17.4447       9.2670       2.6483
   2586.3291      63.4590      40.2201    -999.2500     324.7657     302.9163      35.3322      10.0889       2.6380
   2586.4817      98.7610      40.2501    -999.2500     347.4885     323.2713      61.3245      11.2219       2.6200
   2586.6340     104.0855      40.8440    -999.2500     316.4574     307.9698      65.5346      10.8075       2.6020
   2586.7864     109.4100      41.7143    -999.2500     258.8823     275.0610      58.8322       9.6180       2.5840
   2586.9387     113.9170      40.8841    -999.2500     201.2920     228.6008      76.7337       9.5575       2.5733
   2587.0913     120.8465      39.2230    -999.2500     143.6942     175.4227     106.9206      10.0647       2.5663
   2587.2437     127.7760      37.2354    -999.2500     108.1372     137.9171     103.8653      11.4018       2.5404
   2587.3960     126.9730      35.0888    -999.2500      83.4701     108.1551      84.1465      13.1551       2.5049
   2587.5483     126.6380      33.5320    -999.2500      68.1512      87.4796      70.1636      15.5581       2.4720
   2587.7007     126.3030      32.2636    -999.2500      57.4359      71.2786      59.0464      18.2881       2.4405
   2587.8533     128.2455      31.2270    -999.2500      50.2791      60.3226      47.6088      18.4721       2.4623
   2588.0056     130.1880      30.3034    -999.2500      44.8816      51.9595      36.0105      17.3790       2.5108
   2588.1580     117.1270      31.4739    -999.2500      49.1735      44.1436      25.9989      15.6114       2.5646
   2588.3103     110.5130      33.6687    -999.2500      58.2396      36.5974      16.7804      13.5041       2.6211
   2588.4629      99.9800      36.3743    -999.2500      70.2936      47.2816      32.3174      13.2266       2.6380
   2588.6152     122.2170      39.3291    -999.2500      83.8256      66.9833      60.2777      13.8673       2.6350
   2588.7676     119.4770      39.0894    -999.2500     102.0777      98.4076      57.3636      14.7532       2.6204
   2588.9199     108.9630      37.2862    -999.2500     122.6569     135.6110      39.0068      15.7626       2.5999
   2589.0725     102.3240      35.6217    -999.2500     168.6298     196.2338      37.5272      15.7733       2.5820
   2589.2249      96.8990      34.0249    -999.2500     227.1710     268.4474      44.4613      15.2827       2.5655
   2589.3772     124.0920      34.7087    -999.2500     346.3748     387.1174      60.9169      14.2580       2.5660
   2589.5295     100.3730      36.5094    -999.2500     495.5024     528.7032      82.1377      12.9660       2.5750
   2589.6819      71.9550      36.5962    -999.2500     614.4822     623.2337      83.6313      10.6916       2.5923
   2589.8345      66.3560      35.8465    -999.2500     718.5327     694.4620      75.2849       7.9236       2.6138
   2589.9868      62.3380      37.1778    -999.2500     757.8541     711.9767      86.0280       7.0616       2.6396
   2590.1392      73.3220      39.5286    -999.2500     765.2279     702.9806     106.3300       7.1541       2.6676
   2590.2915      58.9220      39.8635    -999.2500     779.1528     703.0101     125.7283       7.4696       2.6867
   2590.4441      61.7350      39.2137    -999.2500     796.3236     707.5118     144.6756       7.8973       2.7012
   2590.5964      63.0740      35.2409    -999.2500     772.3613     687.2256     137.3376       7.7703       2.7073
   2590.7488      61.7830      29.6388    -999.2500     728.0860     654.6981     116.8300       7.3655       2.7093
   2590.9011      61.1990      28.9276    -999.2500     680.8368     615.8552     110.6183       7.5428       2.6967
   2591.0537      62.3150      30.6062    -999.2500     632.1133     573.8812     111.5454       8.0130       2.6767
   2591.2061      62.8730      34.0613    -999.2500     647.2932     562.4900     112.8555       7.7765       2.6700
   2591.3584      60.2440      38.3814    -999.2500     694.0490     566.2104     114.3576       7.1858       2.6700
   2591.5107      57.1950      39.2339    -999.2500     804.7551     618.1915     123.2370       6.6193       2.6763
   2591.6631      55.1710      38.3911    -999.2500     946.9552     693.9398     135.8026       6.0651       2.6858
   2591.8157      58.2770      36.9547    -999.2500     990.8524     700.5764     135.0504       6.1962       2.7026
   2591.9680      61.9240      35.2289    -999.2500     986.1487     673.0443     127.6182       6.6710       2.7231
   2592.1204      67.0870      32.8651    -999.2500     925.7443     608.1986     121.7959       7.4222       2.7280
   2592.2727      68.6340      30.1891    -999.2500     837.8932     524.9666     116.7786       8.3125       2.7250
   2592.4253      68.6340      27.5438    -999.2500     731.9083     461.1380     106.5004       8.9207       2.7143
   2592.5776      68.0980      24.9134    -999.2500     616.9529     406.9080      93.6010       9.3874       2.6998
   2592.7300      65.0220      22.6557    -999.2500     549.6985     432.1820     102.5364       9.5853       2.6833
   2592.8823      61.9360      20.5804    -999.2500     505.9624     496.6541     122.3937       9.6488       2.6658
   2593.0349      58.1180      21.6172    -999.2500     484.6960     515.6680     117.9257       9.6700       2.6600
   2593.1873      58.1430      24.1721    -999.2500     474.5513     512.1817     101.3304       9.6700       2.6600
   2593.3396      58.7880      27.4368    -999.2500     417.8408     444.3779      89.1537       9.5301       2.6600
