#------------------------------------------------------------------------------
#
#   Created by  : [OpenWorks] Log Export Utility (LEXP)
#   Created on  : 2016-05-18 11:02:13
#   Project     : CANT971
#   User        : R5K
#   Interpreter : PEP
#
#------------------------------------------------------------------------------
~VERSION INFORMATION
VERS. 2.0 : CWLS Log ASCII Standard - version 2.0
WRAP.  NO : One line per depth step
~WELL INFORMATION
#MNEMONIC   .UNIT                                           VALUE :DESCRIPTION
#------------------------------------------------------------------------------
STRT        .M                                           500.8876 :START DEPTH
STOP        .M                                          2799.8416 :STOP DEPTH
STEP        .M                                             0.1524 :STEP
NULL        .                                           -999.2500 :NULL VALUE
COMP        .                                   PEMEX EXPL & PROD :COMPANY
WELL        .                                                 265 :WELL
FLD         .                                           CANTARELL :FIELD
LOC         .                                             UNKNOWN :LOCATION
CNTY        .                                      CD. DEL CARMEN :COUNTY
STAT        .                                            CAMPECHE :STATE
CTRY        .                                              MEXICO :COUNTRY
SRVC        .                                             UNKNOWN :SERVICE COMPANY
DATE        .                                             UNKNOWN :LOG DATE
UWI         .                                          3060000482 :UNIQUE WELL ID
XCOORD      .                                       597308.430000 :SURFACE X
YCOORD      .                                      2143047.340000 :SURFACE Y
LAT         .                                           19.380359 :LATITUDE
LON         .                                          -92.073373 :LONGITUDE
ELEV        .M                                            27.7000 :SURFACE ELEV
ELEV_TYPE   .                                                  KB :ELEV TYPE
~CURVE INFORMATION
#MNEMONIC.UNIT        API CODE       : CURVE DESCRIPTION
#------------------------------------------------------------------------------
DEPTH    .M                          : Measured Depth
DT       .us/ft       UNKNOWN        : DT:sonico:rC:NONE:v0 (auto-composite)
GR       .UNKNOWN     UNKNOWN        : GR:GR-Load:rC:NONE:v0 (auto-composite)
ILD      .UNKNOWN     UNKNOWN        : ILD:ILD-Load:rC:NONE:v0 (auto-composite)
LLD      .UNKNOWN     UNKNOWN        : LLD:LLD-Load:rC:NONE:v0 (auto-composite)
LLS      .UNKNOWN     UNKNOWN        : LLS:LLS-Load:rC:NONE:v0 (auto-composite)
MSFL     .UNKNOWN     UNKNOWN        : MSFL:MSFL-Load:rC:NONE:v0 (auto-composite)
NPHI     .v/v_decimal UNKNOWN        : NPHI:NPHI:rC:NONE:v0 (auto-composite)
RHOB     .UNKNOWN     UNKNOWN        : RHOB:RHOB-Load:rC:NONE:v0 (auto-composite)
~A     DEPTH           DT           GR          ILD          LLD          LLS         MSFL         NPHI         RHOB
# ...
   2477.8203      68.7680      22.2829    -999.2500       8.8328      11.4793       4.7333      25.8955       2.5530
   2477.9729      62.7120      22.4064    -999.2500      16.8893      26.6572       5.2760      27.9212       2.5440
   2478.1252      57.8660      23.2545    -999.2500     138.9497      30.6840       9.0590      30.0605       2.5115
   2478.2776      53.0190      24.4579    -999.2500     317.7327      29.1624      14.4776      32.2576       2.4670
   2478.4299      49.4110      26.4624    -999.2500     365.3759      22.3875      15.4223      32.8049       2.4030
   2478.5825      64.8720      28.8583    -999.2500     347.9874      13.0076      14.0998      32.5103       2.3290
   2478.7349      69.3980      33.5430    -999.2500     270.0077      10.2744       9.8883      29.4567       2.2848
   2478.8872     101.2530      39.3506    -999.2500     161.8637      10.8501       4.2178      24.9995       2.2558
   2479.0396      88.4590      51.6854    -999.2500     135.1367      16.8079       2.3462      23.6953       2.1843
   2479.1919      89.9120      67.2121    -999.2500     148.8068      25.4362       2.4007      23.9897       2.0914
   2479.3445     116.5910      71.9640    -999.2500     646.3700      40.2227       3.1531      26.4461       2.0670
   2479.4968      96.9920      71.4642    -999.2500    1384.9666      58.0768       4.2581      30.0029       2.0775
   2479.6492      79.2590      71.4767    -999.2500    1607.7412      63.8439       4.2052      31.0216       2.2000
   2479.8015      67.2940      71.7398    -999.2500    1574.4320      63.6103       3.5650      30.7527       2.3795
   2479.9541     119.2700      73.1315    -999.2500    1395.0938      61.1815       3.8450      28.8187       2.4350
   2480.1064     119.2030      75.0737    -999.2500    1143.4994      57.6666       4.5903      26.0367       2.4275
   2480.2588     100.3780      77.5884    -999.2500    1073.5695      56.5729       4.4013      26.7244       2.3504
   2480.4111      76.7380      80.3834    -999.2500    1093.8795      56.6819       3.7416      29.1734       2.2380
   2480.5637      81.2660      78.9152    -999.2500    1267.5448      57.3809       3.5964      27.9788       2.2017
   2480.7161      94.2200      75.3667    -999.2500    1517.1345      58.3720       3.7114      24.9277       2.2042
   2480.8684      87.8180      79.8066    -999.2500    1569.9292      59.7688       3.6955      24.1171       2.2299
   2481.0208      81.3600      88.1597    -999.2500    1524.9126      61.3674       3.6135      24.4445       2.2673
   2481.1731      81.2930      90.3006    -999.2500    1580.1865      64.7055       3.1324      27.1539       2.2667
   2481.3257     106.5440      89.4084    -999.2500    1685.1412      68.9052       2.4491      31.0779       2.2467
   2481.4780      91.7790      82.1954    -999.2500    1716.9424      70.1286       2.2931      32.2257       2.2417
   2481.6304      86.7520      71.8841    -999.2500    1712.3643      69.8720       2.4030      31.9628       2.2442
   2481.7827      87.1870      69.0036    -999.2500    1664.5002      68.4387       3.4759      29.2660       2.2619
   2481.9353      75.3320      69.7533    -999.2500    1595.1816      66.4220       5.0365      25.3275       2.2874
   2482.0876      75.1980      69.7705    -999.2500    1356.7523      62.8696       5.4541      24.2321       2.3318
   2482.2400      75.1980      69.4283    -999.2500    1034.1763      58.5530       5.2946      24.5822       2.3858
   2482.3923      76.0500      67.0759    -999.2500     679.9743      47.7987       4.6747      23.0415       2.4193
   2482.5449      77.0060      63.7408    -999.2500     310.0880      33.8517       3.8214      20.5426       2.4422
   2482.6973      79.1770      56.8909    -999.2500     135.2256      22.2362       3.2843      19.7577       2.4470
   2482.8496      80.5560      48.3163    -999.2500      57.4590      11.7813       2.9070      19.8447       2.4425
   2483.0020      83.4360      45.9367    -999.2500      21.8536       6.1865       2.8374      20.5396       2.4161
   2483.1543      81.5180      46.5869    -999.2500       7.1692       3.0033       2.9240      21.5427       2.3786
   2483.3069      79.6500      45.9936    -999.2500       2.3458       1.9627       3.9115      23.7796       2.3010
   2483.4592      82.4560      44.7941    -999.2500       2.3993       1.9817       5.3544      26.6447       2.2030
   2483.6116      88.5260      44.4000    -999.2500       2.7756       2.0936       4.7881      30.1259       2.1823
   2483.7639      91.3400      44.4000    -999.2500       3.3123       2.2517       3.2025      33.9198       2.2008
   2483.9165      84.0570      44.3204    -999.2500       3.4663       2.4284       2.6786      34.6220       2.3107
   2484.0688      78.9490      44.2019    -999.2500       3.4308       2.6143       2.6916      33.7497       2.4673
   2484.2212      79.9530      42.8659    -999.2500       3.2716       2.7141       2.7505      29.6994       2.5180
   2484.3735      76.6940      40.9337    -999.2500       3.0510       2.7711       2.8325      24.0358       2.5150
   2484.5261      76.2470      40.3863    -999.2500       2.6945       2.7803       3.1257      20.9139       2.4696
   2484.6785      75.8000      40.5148    -999.2500       2.2707       2.7658       3.5259      19.0873       2.4026
   2484.8308      79.2160      43.2236    -999.2500       2.1487       2.6504       3.4939      17.4538       2.4065
   2484.9832      84.1210      47.1965    -999.2500       2.1767       2.4848       3.2440      15.9185       2.4465
   2485.1355      89.7890      48.3442    -999.2500       2.3284       2.4494       3.5884      16.9901       2.4434
   2485.2881      95.1570      48.1123    -999.2500       2.5413       2.4784       4.2336      19.3910       2.4184
   2485.4404      92.2770      47.0539    -999.2500       2.7450       2.6123       4.4430      20.1032       2.4143
   2485.5928      90.3260      45.5903    -999.2500       2.9440       2.7983       4.4325      19.9571       2.4208
   2485.7451      88.9280      44.5778    -999.2500       3.0361       2.8663       4.3716      19.1052       2.4505
   2485.8977      84.0680      43.7857    -999.2500       3.0750       2.8758       4.2850      17.8957       2.4920
   2486.0500      80.4220      42.3954    -999.2500       3.3358       3.0006       4.0381      16.0088       2.5196
   2486.2024      82.0290      40.7118    -999.2500       3.7070       3.1826       3.7103      13.7775       2.5401
   2486.3547      80.4890      37.4872    -999.2500       4.6953       4.5349       7.3179      11.8837       2.5649
   2486.5073      78.5510      33.5095    -999.2500       5.9897       6.4676      12.9199      10.1609       2.5919
   2486.6597      76.3030      32.3121    -999.2500       6.3352       7.0162      12.8143       9.6715       2.6338
   2486.8120      74.7290      32.4791    -999.2500       6.2081       6.8756       9.8256       9.8096       2.6833
   2486.9644      66.8920      33.3986    -999.2500       5.6224       6.2243       9.8754      11.7277       2.6964
   2487.1167      66.8920      34.6861    -999.2500       4.8091       5.3194      11.4660      14.5485       2.6909
   2487.2693      75.1980      36.9980    -999.2500       4.7707       5.0200      11.3189      15.2680       2.6608
   2487.4216      68.9020      39.8093    -999.2500       5.1156       5.0200      10.2935      14.9179       2.6183
   2487.5740      68.7680      44.0064    -999.2500       5.1805       5.2306      10.0996      15.2231       2.5440
   2487.7263      69.2080      48.8817    -999.2500       5.1065       5.5457      10.3245      15.8608       2.4535
   2487.8789      69.7720      51.3605    -999.2500       4.7590       5.5320       9.8522      18.5634       2.3358
   2488.0312      70.1070      52.6704    -999.2500       4.2762       5.3556       9.0274      22.3178       2.2043
   2488.1836      68.5670      55.9883    -999.2500       3.7564       4.4626       6.7469      24.6488       2.1709
