#------------------------------------------------------------------------------
#
#   Created by  : [OpenWorks] Log Export Utility (LEXP)
#   Created on  : 2016-05-18 11:02:13
#   Project     : CANT971
#   User        : R5K
#   Interpreter : PEP
#
#------------------------------------------------------------------------------
~VERSION INFORMATION
VERS. 2.0 : CWLS Log ASCII Standard - version 2.0
WRAP.  NO : One line per depth step
~WELL INFORMATION
#MNEMONIC   .UNIT                                           VALUE :DESCRIPTION
#------------------------------------------------------------------------------
STRT        .M                                           500.8876 :START DEPTH
STOP        .M                                          2799.8416 :STOP DEPTH
STEP        .M                                             0.1524 :STEP
NULL        .                                           -999.2500 :NULL VALUE
COMP        .                                   PEMEX EXPL & PROD :COMPANY
WELL        .                                                 265 :WELL
FLD         .                                           CANTARELL :FIELD
LOC         .                                             UNKNOWN :LOCATION
CNTY        .                                      CD. DEL CARMEN :COUNTY
STAT        .                                            CAMPECHE :STATE
CTRY        .                                              MEXICO :COUNTRY
SRVC        .                                             UNKNOWN :SERVICE COMPANY
DATE        .                                             UNKNOWN :LOG DATE
UWI         .                                          3060000482 :UNIQUE WELL ID
XCOORD      .                                       597308.430000 :SURFACE X
YCOORD      .                                      2143047.340000 :SURFACE Y
LAT         .                                           19.380359 :LATITUDE
LON         .                                          -92.073373 :LONGITUDE
ELEV        .M                                            27.7000 :SURFACE ELEV
ELEV_TYPE   .                                                  KB :ELEV TYPE
~CURVE INFORMATION
#MNEMONIC.UNIT        API CODE       : CURVE DESCRIPTION
#------------------------------------------------------------------------------
DEPTH    .M                          : Measured Depth
DT       .us/ft       UNKNOWN        : DT:sonico:rC:NONE:v0 (auto-composite)
GR       .UNKNOWN     UNKNOWN        : GR:GR-Load:rC:NONE:v0 (auto-composite)
ILD      .UNKNOWN     UNKNOWN        : ILD:ILD-Load:rC:NONE:v0 (auto-composite)
LLD      .UNKNOWN     UNKNOWN        : LLD:LLD-Load:rC:NONE:v0 (auto-composite)
LLS      .UNKNOWN     UNKNOWN        : LLS:LLS-Load:rC:NONE:v0 (auto-composite)
MSFL     .UNKNOWN     UNKNOWN        : MSFL:MSFL-Load:rC:NONE:v0 (auto-composite)
NPHI     .v/v_decimal UNKNOWN        : NPHI:NPHI:rC:NONE:v0 (auto-composite)
RHOB     .UNKNOWN     UNKNOWN        : RHOB:RHOB-Load:rC:NONE:v0 (auto-composite)
~A     DEPTH           DT           GR          ILD          LLD          LLS         MSFL         NPHI         RHOB
# ...
   2498.8516      69.6380      46.6543    -999.2500       3.0485       2.7828       3.5480      17.1094       2.4720
   2499.0039      80.2210      46.9719    -999.2500       3.3276       2.8588       3.3766      14.4105       2.4630
   2499.1565      74.9750      49.4960    -999.2500       3.3725       2.9863       3.0436      13.6591       2.4070
   2499.3088      72.1840      53.0960    -999.2500       3.3016       3.1393       2.6289      13.8992       2.3269
   2499.4612      54.5680      61.6144    -999.2500       2.9077       2.9059       2.4996      14.7435       2.3431
   2499.6135      54.3000      72.5405    -999.2500       2.3535       2.4808       2.5141      15.8944       2.4082
   2499.7661      96.9660      77.9964    -999.2500       2.1914       2.4737       2.7020      17.2558       2.4244
   2499.9185      93.9740      80.7837    -999.2500       2.2234       2.6736       2.9776      18.7237       2.4159
   2500.0708      91.4740      80.5984    -999.2500       2.8241       2.7093       3.0006      21.1530       2.3258
   2500.2231      97.5690      78.9573    -999.2500       3.7074       2.6632       2.8961      24.0706       2.1942
   2500.3755      98.3050      71.1919    -999.2500       3.4418       2.5150       2.5751      27.8216       2.1636
   2500.5281      99.8820      60.4371    -999.2500       2.6072       2.3161       2.1444      31.9943       2.1841
   2500.6804     102.3910      57.0370    -999.2500       2.3500       2.2557       2.0110      32.8796       2.2902
   2500.8328      97.3010      57.2410    -999.2500       2.3801       2.2642       2.0275      32.0948       2.4397
   2500.9851      99.1090      58.5477    -999.2500       2.3833       2.2881       2.1173      28.8015       2.4844
   2501.1377      89.1960      60.3929    -999.2500       2.3733       2.3195       2.2444      24.2380       2.4759
   2501.2900      85.0770      60.6278    -999.2500       2.3934       2.3300       2.4808      23.0751       2.4491
   2501.4424      84.4130      60.0731    -999.2500       2.4284       2.3300       2.7724      23.6408       2.4131
   2501.5947      85.3370      57.2754    -999.2500       2.4015       2.3180       2.8534      25.9437       2.3808
   2501.7473      93.6840      53.3816    -999.2500       2.3440       2.3000       2.8284      29.1268       2.3503
   2501.8997      93.0140      53.6100    -999.2500       2.1828       2.1622       2.6970      29.7395       2.3831
   2502.0520      96.2290      55.8608    -999.2500       1.9704       1.9653       2.5120      29.0447       2.4481
   2502.2043      91.2730      56.1969    -999.2500       1.9358       1.9224       2.7459      26.6184       2.4693
   2502.3567      88.9340      55.5967    -999.2500       1.9893       1.9559       3.1907      23.3144       2.4683
   2502.5093      86.3670      53.5182    -999.2500       2.1652       2.0984       3.2892      22.5646       2.4571
   2502.6616      85.9810      50.7195    -999.2500       2.4016       2.2948       3.2126      23.1148       2.4406
   2502.8140      87.1200      52.8228    -999.2500       2.4496       2.3313       2.9985      23.2004       2.4055
   2502.9663      87.5220      57.3244    -999.2500       2.4041       2.2882       2.7152      23.0504       2.3609
   2503.1189      89.5980      57.2882    -999.2500       2.2847       2.1627       2.5037      23.1803       2.3317
   2503.2712      94.3370      55.0391    -999.2500       2.1287       1.9962       2.3287      23.4516       2.3102
   2503.4236      95.7720      55.8165    -999.2500       2.0078       1.8103       2.3002      24.2948       2.2602
   2503.5759      96.5640      58.0753    -999.2500       1.9043       1.6148       2.3457      25.4283       2.1957
   2503.7285      92.6790      64.5546    -999.2500       1.8774       1.5500       2.5766      26.8701       2.1162
   2503.8809      94.8230      73.0929    -999.2500       1.8883       1.5500       2.9012      28.4679       2.0293
   2504.0332      98.2380      74.7363    -999.2500       2.0651       1.7137       2.9602      31.9233       2.0017
   2504.1855      95.1570      73.0027    -999.2500       2.3242       1.9588       2.8852      36.3219       2.0042
   2504.3379      98.6400      66.5454    -999.2500       2.4020       2.0333       2.7039      36.7713       2.0269
   2504.4905      96.5100      57.7822    -999.2500       2.3900       2.0233       2.4688      35.2220       2.0599
   2504.6428      93.0815      55.2122    -999.2500       2.3172       2.0868       2.4213      34.7332       2.1340
   2504.7952      94.6220      55.6774    -999.2500       2.2141       2.1869       2.4683      34.7832       2.2291
   2504.9475      92.8130      56.8608    -999.2500       2.1967       2.2103       2.6157      34.0847       2.3071
   2505.1001      89.6380      58.3952    -999.2500       2.2217       2.1958       2.8136      33.0072       2.3766
   2505.2524      87.2540      58.6308    -999.2500       2.2908       2.1539       2.7537      29.1807       2.3944
   2505.4048      89.9330      58.2297    -999.2500       2.3818       2.0984       2.5636      23.9568       2.3859
   2505.5571      90.1340      56.7954    -999.2500       2.4548       2.1068       2.5788      23.6264       2.3522
   2505.7097      91.2730      54.8563    -999.2500       2.5188       2.1468       2.6973      25.7754       2.3057
   2505.8621      88.1920      52.7691    -999.2500       2.6704       2.3239       3.1501      26.2000       2.3009
   2506.0144      88.5260      50.6093    -999.2500       2.8654       2.5688       3.7718      25.7473       2.3174
   2506.1667      85.9140      51.2773    -999.2500       2.8531       2.5765       3.5545      24.5704       2.3585
   2506.3191      86.9190      53.3280    -999.2500       2.7381       2.4664       2.9147      23.0263       2.4120
   2506.4717      88.7190      53.2944    -999.2500       2.7057       2.4534       2.7126      22.2397       2.4260
   2506.6240      90.6860      52.2448    -999.2500       2.7142       2.4884       2.7316      21.8359       2.4200
   2506.7764      87.9360      52.5717    -999.2500       2.7581       2.4876       3.3835      21.7966       2.3921
   2506.9287      87.1430      53.5721    -999.2500       2.8196       2.4691       4.3541      21.9421       2.3531
   2507.0813      86.1820      53.6625    -999.2500       2.7196       2.4219       3.9491      22.9898       2.3490
   2507.2336      86.4080      53.3091    -999.2500       2.5397       2.3604       2.8487      24.4937       2.3625
   2507.3860      86.8160      51.6507    -999.2500       2.6204       2.3580       2.5372      24.8620       2.4310
   2507.5383      87.1870      49.3533    -999.2500       2.8304       2.3851       2.6231      24.6539       2.5276
   2507.6909      86.6510      48.6665    -999.2500       2.8866       2.4829       3.0732      23.2949       2.5550
   2507.8433      82.1630      48.7655    -999.2500       2.8666       2.6159       3.7074      21.3538       2.5475
   2507.9956      81.7620      49.2747    -999.2500       2.7230       2.5330       3.6307      21.3966       2.5234
   2508.1479      83.5700      49.9850    -999.2500       2.5179       2.3430       3.1955      22.4470       2.4909
   2508.3003      84.9720      51.2530    -999.2500       2.4500       2.2930       3.1757      22.2691       2.4817
   2508.4529      86.1820      52.7934    -999.2500       2.4500       2.3125       3.3647      21.4694       2.4842
   2508.6052      85.8470      52.9304    -999.2500       2.4837       2.3925       4.0337      21.6975       2.4959
   2508.7576      83.6560      52.3797    -999.2500       2.5343       2.5025       4.9451      22.4478       2.5125
   2508.9099      80.3550      50.4228    -999.2500       2.6766       2.6513       5.0870      21.4725       2.5353
   2509.0625      78.9480      47.7789    -999.2500       2.8646       2.8192       4.8421      19.6233       2.5612
   2509.2148      79.0830      44.4225    -999.2500       2.9831       2.9051       5.0292      19.1990       2.5700
