#------------------------------------------------------------------------------
#
#   Created by  : [OpenWorks] Log Export Utility (LEXP)
#   Created on  : 2016-05-18 11:17:23
#   Project     : CANT971
#   User        : R5K
#   Interpreter : PEP
#
#------------------------------------------------------------------------------
~VERSION INFORMATION
VERS. 2.0 : CWLS Log ASCII Standard - version 2.0
WRAP.  NO : One line per depth step
~WELL INFORMATION
#MNEMONIC   .UNIT                                           VALUE :DESCRIPTION
#------------------------------------------------------------------------------
STRT        .M                                           500.9712 :START DEPTH
STOP        .M                                          2798.8584 :STOP DEPTH
STEP        .M                                             0.1524 :STEP
NULL        .                                           -999.2500 :NULL VALUE
COMP        .                                   PEMEX EXPL & PROD :COMPANY
WELL        .                                                 269 :WELL
FLD         .                                           CANTARELL :FIELD
LOC         .                                             UNKNOWN :LOCATION
CNTY        .                                      CD. DEL CARMEN :COUNTY
STAT        .                                            CAMPECHE :STATE
CTRY        .                                              MEXICO :COUNTRY
SRVC        .                                             UNKNOWN :SERVICE COMPANY
DATE        .                                             UNKNOWN :LOG DATE
UWI         .                                          3060000483 :UNIQUE WELL ID
XCOORD      .                                       597315.110000 :SURFACE X
YCOORD      .                                      2143047.600000 :SURFACE Y
LAT         .                                           19.380361 :LATITUDE
LON         .                                          -92.073310 :LONGITUDE
ELEV        .M                                            27.7000 :SURFACE ELEV
ELEV_TYPE   .                                                  KB :ELEV TYPE
~CURVE INFORMATION
#MNEMONIC.UNIT        API CODE       : CURVE DESCRIPTION
#------------------------------------------------------------------------------
DEPTH    .M                          : Measured Depth
CALI     .inches      UNKNOWN        : CALI:Import:rC:NONE:v0 (auto-composite)
DRHO     .g/cm3       UNKNOWN        : DRHO:Import:rC:NONE:v0 (auto-composite)
DT       .us/ft       UNKNOWN        : DT:Import:rC:NONE:v0 (auto-composite)
GR       .API         UNKNOWN        : GR:Import:rC:NONE:v0 (auto-composite)
ILD      .ohm.m       UNKNOWN        : ILD:Import:rC:NONE:v0 (auto-composite)
LLD      .ohm.m       UNKNOWN        : LLD:Import:rC:NONE:v0 (auto-composite)
LLS      .ohm.m       UNKNOWN        : LLS:Import:rC:NONE:v0 (auto-composite)
MSFL     .ohm.m       UNKNOWN        : MSFL:Import:rC:NONE:v0 (auto-composite)
NPHI     .v/v_decimal UNKNOWN        : NPHI:Import:rC:NONE:v0 (auto-composite)
RHOB     .g/cm3       UNKNOWN        : RHOB:Import:rC:NONE:v0 (auto-composite)
SIGM     .cu          UNKNOWN        : SIGM:Import:rC:NONE:v0 (auto-composite)
~A     DEPTH         CALI         DRHO           DT           GR          ILD          LLD          LLS         MSFL         NPHI         RHOB         SIGM
# ...
   2291.9761       9.1110       0.0110      54.0650      36.1130    -999.2500     182.8030     136.6150       8.3840       0.0693       2.6560       9.7160
   2292.1284       9.1110       0.0160      52.9400      33.9330    -999.2500     164.0860     119.5370       7.0240       0.0728       2.6570       9.7330
   2292.2808       9.1110       0.0250      53.6870      32.2250    -999.2500     142.9880      94.9420       5.9030       0.0689       2.6590       9.8360
   2292.4331       9.1110       0.0360      54.5790      32.2370    -999.2500     124.4460      75.6500       5.7750       0.0652       2.6540       9.9640
   2292.5857       9.1110       0.0560      55.9990      33.0820    -999.2500     115.3810      75.6500       9.2590       0.0667       2.6220      10.0600
   2292.7380       9.1110       0.0700      57.9650      36.9570    -999.2500     109.9150      75.7750      11.9510       0.0757       2.5740      10.0350
   2292.8904       9.1110       0.0590      61.9110      39.9650    -999.2500     117.8610      76.3550      11.7710       0.0939       2.4730       9.9220
   2293.0427       9.1110       0.0500      64.6000      39.7990    -999.2500     131.9310      78.7230      10.8410       0.1066       2.4050       9.7880
   2293.1953       9.1110       0.0520      62.7540      38.9870    -999.2500     168.7250      87.6010       7.1790       0.1033       2.4580       9.7410
   2293.3477       9.1110       0.0540      60.3860      35.8170    -999.2500     210.3820      99.6320       4.7040       0.0942       2.5170       9.7730
   2293.5000       9.1110       0.0580      56.1190      33.4750    -999.2500     270.0050     123.0950       6.5290       0.0837       2.5970       9.8540
   2293.6523       9.1110       0.0550      53.2600      34.1300    -999.2500     311.0140     155.5470       7.7680       0.0738       2.6710       9.9140
   2293.8047       9.1110       0.0270      55.4810      35.0530    -999.2500     282.8990     220.7540       6.8700       0.0665       2.7250       9.9530
   2293.9573       9.1110       0.0090      57.1840      36.9550    -999.2500     252.4490     270.0160       7.0880       0.0643       2.7670       9.9660
   2294.1096       9.1110       0.0220      57.0070      38.6380    -999.2500     213.3700     261.4330      11.3600       0.0695       2.7650       9.9750
   2294.2620       9.1110       0.0330      56.6660      39.5340    -999.2500     178.1730     246.8220      14.3310       0.0729       2.7620       9.9610
   2294.4143       9.1110       0.0320      55.7320      40.4750    -999.2500     157.4030     210.2290      12.5570       0.0689       2.7550       9.9290
   2294.5669       9.1110       0.0300      55.0000      41.5880    -999.2500     137.5620     173.0440      10.4250       0.0647       2.7470       9.8400
   2294.7192       9.1110       0.0240      55.0000      43.1540    -999.2500     121.1600     133.7090       6.9960       0.0646       2.7320       9.7260
   2294.8716       9.1110       0.0190      55.1970      46.3670    -999.2500     108.6250     102.8350       4.4730       0.0677       2.7170       9.6220
   2295.0239       9.1110       0.0120      56.1060      48.1060    -999.2500     110.4700     102.8350       5.2310       0.0735       2.6980       9.5790
   2295.1763       9.1110       0.0080      57.4620      44.4670    -999.2500     117.9700     105.1620       6.1480       0.0763       2.6850       9.6220
   2295.3289       9.1110       0.0190      60.4430      40.6010    -999.2500     146.4130     115.9460       7.6460       0.0726       2.6920       9.6840
   2295.4812       9.1110       0.0260      61.9360      35.9070    -999.2500     187.8280     132.7610       8.7940       0.0714       2.7030       9.7460
   2295.6335       9.1110       0.0180      58.0490      32.6270    -999.2500     277.5330     171.5980       8.6720       0.0780       2.7260       9.7710
   2295.7859       9.1110       0.0120      55.0760      34.5100    -999.2500     381.4790     227.9040       8.4540       0.0816       2.7440       9.7590
   2295.9385       9.1110       0.0150      55.4290      36.5390    -999.2500     538.2010     347.7260       7.8880       0.0752       2.7430       9.7170
   2296.0908       9.1110       0.0240      55.8220      39.1000    -999.2500     752.6920     489.6090       7.1060       0.0661       2.7400       9.6660
   2296.2432       9.1110       0.0510      56.3600      40.8380    -999.2500    1182.3760     711.3540       5.5380       0.0576       2.7300       9.6010
   2296.3955       9.1110       0.0700      56.8270      39.5670    -999.2500    1647.9550     912.6690       4.5430       0.0496       2.7230       9.5400
   2296.5481       9.1110       0.0590      57.0330      37.7660    -999.2500    2246.6489    1039.6500       5.6300       0.0428       2.7290       9.4530
   2296.7004       9.1110       0.0450      57.1970      34.0380    -999.2500    2603.5120    1111.3610       7.8350       0.0396       2.7350       9.3430
   2296.8528       9.1110       0.0160      57.2110      31.5040    -999.2500    2058.8669     982.8410      14.0920       0.0424       2.7420       9.2080
   2297.0051       9.1110      -0.0060      57.0410      33.3370    -999.2500    1639.0210     892.3840      18.7110       0.0447       2.7510       9.0740
   2297.1575       9.1110      -0.0040      56.2090      35.1760    -999.2500    1682.3490     940.5260      17.3580       0.0428       2.7690       8.9890
   2297.3101       9.1110       0.0010      56.2170      37.0400    -999.2500    1768.7670    1008.8690      16.9310       0.0411       2.7810       8.9610
   2297.4624       9.1110       0.0130      59.2730      38.6440    -999.2500    2014.4060    1150.4550      19.8580       0.0419       2.7720       8.9960
   2297.6147       9.1110       0.0210      60.8240      39.3050    -999.2500    2444.2949    1352.3970      21.5480       0.0422       2.7600       9.0550
   2297.7671       9.1110       0.0180      56.9360      39.9950    -999.2500    3558.5229    1774.2760      18.7280       0.0406       2.7390       9.1080
   2297.9197       9.1110       0.0140      54.0690      40.7920    -999.2500    5057.7109    1931.9360      15.7890       0.0387       2.7220       9.1170
   2298.0720       9.1110       0.0090      54.9030      41.7440    -999.2500    7980.4170    1130.9709      12.4170       0.0371       2.7220       9.0370
   2298.2244       9.1110       0.0060      55.0140      43.2570    -999.2500    9709.5537     511.3700       9.2780       0.0347       2.7230       8.9080
   2298.3767       9.1110       0.0080      52.5150      43.9660    -999.2500    7002.2461     553.1580       6.9880       0.0307       2.7260       8.7730
   2298.5293       9.1110       0.0100      50.6520      41.7430    -999.2500    4501.6270     628.1350       4.8160       0.0279       2.7300       8.7060
   2298.6816       9.1110       0.0160      51.0980      40.5240    -999.2500    2765.8789     823.6170       3.0770       0.0285       2.7410       8.7000
   2298.8340       9.1110       0.0220      51.7720      42.9520    -999.2500    1415.6420     957.6000       1.8850       0.0311       2.7520       8.7450
   2298.9863       9.1110       0.0270      53.2700      45.4100    -999.2500    1499.4080     867.1460       2.6710       0.0353       2.7640       8.8010
   2299.1387       9.1110       0.0340      53.6040      47.9830    -999.2500    1607.5470     905.0730       4.8820       0.0361       2.7740       8.8530
   2299.2913       9.1110       0.0460      49.7150      49.4010    -999.2500    1805.9470    1409.4730      12.2680       0.0302       2.7810       8.9100
   2299.4436       9.1110       0.0560      46.8900      46.6240    -999.2500    2477.7939    1677.6160      17.6240       0.0246       2.7930       8.9740
   2299.5959       9.1110       0.0540      47.9190      44.4440    -999.2500    4912.0752    1082.9110      15.6340       0.0233       2.8250       9.0610
   2299.7483       9.1110       0.0520      49.4040      44.4440    -999.2500    6773.0459     616.4800      13.3170       0.0227       2.8490       9.1590
