#------------------------------------------------------------------------------
#
#   Created by  : [OpenWorks] Log Export Utility (LEXP)
#   Created on  : 2016-05-18 11:17:23
#   Project     : CANT971
#   User        : R5K
#   Interpreter : PEP
#
#------------------------------------------------------------------------------
~VERSION INFORMATION
VERS. 2.0 : CWLS Log ASCII Standard - version 2.0
WRAP.  NO : One line per depth step
~WELL INFORMATION
#MNEMONIC   .UNIT                                           VALUE :DESCRIPTION
#------------------------------------------------------------------------------
STRT        .M                                           500.9712 :START DEPTH
STOP        .M                                          2798.8584 :STOP DEPTH
STEP        .M                                             0.1524 :STEP
NULL        .                                           -999.2500 :NULL VALUE
COMP        .                                   PEMEX EXPL & PROD :COMPANY
WELL        .                                                 269 :WELL
FLD         .                                           CANTARELL :FIELD
LOC         .                                             UNKNOWN :LOCATION
CNTY        .                                      CD. DEL CARMEN :COUNTY
STAT        .                                            CAMPECHE :STATE
CTRY        .                                              MEXICO :COUNTRY
SRVC        .                                             UNKNOWN :SERVICE COMPANY
DATE        .                                             UNKNOWN :LOG DATE
UWI         .                                          3060000483 :UNIQUE WELL ID
XCOORD      .                                       597315.110000 :SURFACE X
YCOORD      .                                      2143047.600000 :SURFACE Y
LAT         .                                           19.380361 :LATITUDE
LON         .                                          -92.073310 :LONGITUDE
ELEV        .M                                            27.7000 :SURFACE ELEV
ELEV_TYPE   .                                                  KB :ELEV TYPE
~CURVE INFORMATION
#MNEMONIC.UNIT        API CODE       : CURVE DESCRIPTION
#------------------------------------------------------------------------------
DEPTH    .M                          : Measured Depth
CALI     .inches      UNKNOWN        : CALI:Import:rC:NONE:v0 (auto-composite)
DRHO     .g/cm3       UNKNOWN        : DRHO:Import:rC:NONE:v0 (auto-composite)
DT       .us/ft       UNKNOWN        : DT:Import:rC:NONE:v0 (auto-composite)
GR       .API         UNKNOWN        : GR:Import:rC:NONE:v0 (auto-composite)
ILD      .ohm.m       UNKNOWN        : ILD:Import:rC:NONE:v0 (auto-composite)
LLD      .ohm.m       UNKNOWN        : LLD:Import:rC:NONE:v0 (auto-composite)
LLS      .ohm.m       UNKNOWN        : LLS:Import:rC:NONE:v0 (auto-composite)
MSFL     .ohm.m       UNKNOWN        : MSFL:Import:rC:NONE:v0 (auto-composite)
NPHI     .v/v_decimal UNKNOWN        : NPHI:Import:rC:NONE:v0 (auto-composite)
RHOB     .g/cm3       UNKNOWN        : RHOB:Import:rC:NONE:v0 (auto-composite)
SIGM     .cu          UNKNOWN        : SIGM:Import:rC:NONE:v0 (auto-composite)
~A     DEPTH         CALI         DRHO           DT           GR          ILD          LLD          LLS         MSFL         NPHI         RHOB         SIGM
# ...
   2608.9680       8.3330       0.0000      95.9070      19.8800    -999.2500     167.4210     188.0820       6.5780       0.0267       2.8390       8.5650
   2609.1204       8.3330       0.0040      80.0090      19.3250    -999.2500     289.6740     235.0940      10.6430       0.0267       2.8380       8.6500
   2609.2727       8.3330       0.0200      80.0530      18.9000    -999.2500     798.9020     431.6350      13.8130       0.0268       2.8310       8.7630
   2609.4253       8.3330       0.0330      80.4190      18.9490    -999.2500    1196.9420     585.6290      16.2900       0.0275       2.8230       8.8900
   2609.5776       8.3330       0.0330      81.9570      19.3520    -999.2500    1187.4919     585.1640      16.2510       0.0299       2.8100       8.9950
   2609.7300       8.3330       0.0310      86.6710      21.0380    -999.2500    1097.2209     581.5490      15.3720       0.0323       2.7960       9.0870
   2609.8823       8.3330       0.0200     102.8600      22.8520    -999.2500     712.0470     566.4410      11.4530       0.0348       2.7800       9.0610
   2610.0349       8.3330       0.0130     112.8570      25.1350    -999.2500     438.7040     546.1410       8.3830       0.0372       2.7670       8.9690
   2610.1873       8.3330       0.0240     100.3520      28.1110    -999.2500     575.5130     506.9800       8.3950       0.0396       2.7670       8.8410
   2610.3396       8.3330       0.0330      90.5880      33.6000    -999.2500     682.0100     473.0980       9.5510       0.0420       2.7670       8.7270
   2610.4919       8.3330       0.0330      90.7330      38.5290    -999.2500     677.8260     458.3110      14.8480       0.0446       2.7700       8.6810
   2610.6443       8.3330       0.0320      92.3750      41.4330    -999.2500     652.5700     441.1400      18.9730       0.0469       2.7740       8.6590
   2610.7969       8.3330       0.0290      99.4540      44.4700    -999.2500     549.9720     415.2990      18.8380       0.0480       2.7850       8.6620
   2610.9492       8.3330       0.0230     104.9930      47.9930    -999.2500     444.5630     365.2840      17.4840       0.0489       2.7940       8.7010
   2611.1016       8.3330       0.0100     104.9610      50.5510    -999.2500     328.8780     227.7670      11.7140       0.0496       2.7930       8.7500
   2611.2539       8.3330       0.0000     104.7160      49.6200    -999.2500     222.9380     120.0350       7.9990       0.0508       2.7780       8.8450
   2611.4065       8.3330       0.0000     103.6980      48.8900    -999.2500     152.7900     120.6770      11.7630       0.0535       2.7100       8.9460
   2611.5588       8.3330       0.0020     101.8280      48.8960    -999.2500      97.8460     125.3660      13.8990       0.0620       2.6560       9.0340
   2611.7112       8.3330       0.0100      96.8710      48.9820    -999.2500      98.5030     144.7140      10.1390       0.0860       2.6570       9.1030
   2611.8635       8.3330       0.0150      90.3230      49.3560    -999.2500     103.8290     172.5980       7.7730       0.1049       2.6630       9.1260
   2612.0161       8.3330       0.0070      77.9810      52.6810    -999.2500     126.3210     231.5610      10.4900       0.1054       2.6870       9.1700
   2612.1685       8.3330       0.0000      67.3680      66.7510    -999.2500     195.1510     304.0180      11.5650       0.0999       2.7130       9.3380
   2612.3208       8.3330       0.0010      63.0210      77.6050    -999.2500     433.5700     425.3920       6.6880       0.0821       2.7500       9.7570
   2612.4731       8.3330       0.0030      58.5150      76.8020    -999.2500     802.0470     659.0180       4.4970       0.0629       2.7860      10.5460
   2612.6255       8.3330       0.0110      53.4300      70.7210    -999.2500    1644.4260    1301.6650      12.0970       0.0430       2.8160      11.4830
   2612.7781       8.3210       0.0160      49.4550      45.4030    -999.2500    2362.5940    1804.1130      18.0420       0.0281       2.8390      12.0720
   2612.9304       8.2660       0.0130      49.5070      25.6210    -999.2500    2625.8359    1797.9270      17.9800       0.0275       2.8380      11.9640
   2613.0828       8.2220       0.0110      49.8000      25.9210    -999.2500    2917.6440    1716.5630      17.6310       0.0312       2.8360      11.2500
   2613.2351       8.2220       0.0110      50.9760      27.5260    -999.2500    3313.6179    1361.0660      16.2380       0.0430       2.8280      10.4240
   2613.3877       8.2220       0.0110      52.5330      33.8940    -999.2500    3747.8479    1084.4550      14.1110       0.0525       2.8160       9.8560
   2613.5400       8.2220       0.0110      55.4740      40.2050    -999.2500    4322.2930    1094.2531       9.3190       0.0531       2.7890       9.5560
   2613.6924       8.2220       0.0120      57.0560      46.3150    -999.2500    4771.7998    1198.5610       5.5840       0.0509       2.7750       9.4800
   2613.8447       8.2220       0.0140      53.7240      51.1040    -999.2500    4765.3838    1647.7550       5.6700       0.0433       2.8110       9.5210
   2613.9971       8.2220       0.0170      51.1200      51.0710    -999.2500    4727.7168    1998.7380       6.8780       0.0372       2.8390       9.6270
   2614.1497       8.2220       0.0200      51.1630      50.8250    -999.2500    4575.4248    1992.8900      12.1600       0.0367       2.8390       9.7670
   2614.3020       8.2220       0.0260      53.6530      49.8000    -999.2500    4335.9888    1964.6600      16.2770       0.0367       2.8380       9.8820
   2614.4543       8.2220       0.0430      64.9940      46.3400    -999.2500    3778.3120    1855.4580      16.1800       0.0367       2.8350       9.9120
   2614.6067       8.2220       0.0560      73.8800      34.0690    -999.2500    3238.3989    1742.2791      15.7150       0.0372       2.8260       9.8060
   2614.7593       8.2220       0.0560      73.8400      24.4440    -999.2500    2763.6919    1614.6370      13.9100       0.0387       2.7990       9.6300
   2614.9116       8.2220       0.0560      73.4560      24.4440    -999.2500    2354.3569    1488.4630      11.3960       0.0394       2.7780       9.4350
   2615.0640       8.2220       0.0530      71.8310      25.1650    -999.2500    2183.9299    1367.5990       6.3170       0.0380       2.7790       9.3200
   2615.2163       8.2220       0.0470      75.1690      28.4970    -999.2500    1980.1810    1253.1490       3.7500       0.0373       2.7800       9.3020
   2615.3689       8.2220       0.0270      96.5650      31.0750    -999.2500    1654.0220    1162.0420      10.3290       0.0386       2.7870       9.3460
   2615.5212       8.2220       0.0110     113.0710      30.9070    -999.2500    1397.8940    1050.4390      15.4790       0.0394       2.7920       9.3840
   2615.6736       8.2220       0.0110     111.8610      30.1530    -999.2500    1397.8940     864.5790      15.4490       0.0380       2.7940       9.3620
   2615.8259       8.2220       0.0160     106.5940      27.2770    -999.2500    1398.1350     719.0130      14.7640       0.0368       2.7960       9.2980
   2615.9783       8.2220       0.0410      86.5520      24.4800    -999.2500    1399.2629     720.1740      11.6910       0.0365       2.8020       9.2450
   2616.1309       8.2220       0.0610      69.1310      21.9690    -999.2500    1407.7841     748.7410       9.2970       0.0347       2.8080       9.2060
   2616.2832       8.2250       0.0600      61.2130      20.0000    -999.2500    1443.3650     876.6710       9.3620       0.0287       2.8160       9.1750
   2616.4355       8.2360       0.0580      55.0000      20.0000    -999.2500    1468.3910     975.7690      10.1550       0.0239       2.8220       9.1230
   2616.5879       8.2760       0.0470      55.0000      19.8800    -999.2500    1454.9570     969.7990      13.5980       0.0235       2.8220       9.0630
   2616.7405       8.3100       0.0340      54.8800      19.3250    -999.2500    1359.0640     946.6130      15.5930       0.0241       2.8210       8.9970
