#------------------------------------------------------------------------------
#
#   Created by  : [OpenWorks] Log Export Utility (LEXP)
#   Created on  : 2016-05-18 11:17:23
#   Project     : CANT971
#   User        : R5K
#   Interpreter : PEP
#
#------------------------------------------------------------------------------
~VERSION INFORMATION
VERS. 2.0 : CWLS Log ASCII Standard - version 2.0
WRAP.  NO : One line per depth step
~WELL INFORMATION
#MNEMONIC   .UNIT                                           VALUE :DESCRIPTION
#------------------------------------------------------------------------------
STRT        .M                                           500.9712 :START DEPTH
STOP        .M                                          2798.8584 :STOP DEPTH
STEP        .M                                             0.1524 :STEP
NULL        .                                           -999.2500 :NULL VALUE
COMP        .                                   PEMEX EXPL & PROD :COMPANY
WELL        .                                                 269 :WELL
FLD         .                                           CANTARELL :FIELD
LOC         .                                             UNKNOWN :LOCATION
CNTY        .                                      CD. DEL CARMEN :COUNTY
STAT        .                                            CAMPECHE :STATE
CTRY        .                                              MEXICO :COUNTRY
SRVC        .                                             UNKNOWN :SERVICE COMPANY
DATE        .                                             UNKNOWN :LOG DATE
UWI         .                                          3060000483 :UNIQUE WELL ID
XCOORD      .                                       597315.110000 :SURFACE X
YCOORD      .                                      2143047.600000 :SURFACE Y
LAT         .                                           19.380361 :LATITUDE
LON         .                                          -92.073310 :LONGITUDE
ELEV        .M                                            27.7000 :SURFACE ELEV
ELEV_TYPE   .                                                  KB :ELEV TYPE
~CURVE INFORMATION
#MNEMONIC.UNIT        API CODE       : CURVE DESCRIPTION
#------------------------------------------------------------------------------
DEPTH    .M                          : Measured Depth
CALI     .inches      UNKNOWN        : CALI:Import:rC:NONE:v0 (auto-composite)
DRHO     .g/cm3       UNKNOWN        : DRHO:Import:rC:NONE:v0 (auto-composite)
DT       .us/ft       UNKNOWN        : DT:Import:rC:NONE:v0 (auto-composite)
GR       .API         UNKNOWN        : GR:Import:rC:NONE:v0 (auto-composite)
ILD      .ohm.m       UNKNOWN        : ILD:Import:rC:NONE:v0 (auto-composite)
LLD      .ohm.m       UNKNOWN        : LLD:Import:rC:NONE:v0 (auto-composite)
LLS      .ohm.m       UNKNOWN        : LLS:Import:rC:NONE:v0 (auto-composite)
MSFL     .ohm.m       UNKNOWN        : MSFL:Import:rC:NONE:v0 (auto-composite)
NPHI     .v/v_decimal UNKNOWN        : NPHI:Import:rC:NONE:v0 (auto-composite)
RHOB     .g/cm3       UNKNOWN        : RHOB:Import:rC:NONE:v0 (auto-composite)
SIGM     .cu          UNKNOWN        : SIGM:Import:rC:NONE:v0 (auto-composite)
~A     DEPTH         CALI         DRHO           DT           GR          ILD          LLD          LLS         MSFL         NPHI         RHOB         SIGM
# ...
   2165.1792       9.1110       0.0060     100.5880      43.9290    -999.2500       4.5800       6.8360       3.5440       0.1140       2.5990      20.2580
   2165.3315       9.1110       0.0060     113.6820      46.7080    -999.2500       3.3400       6.8780       2.8450       0.1185       2.6170      20.4650
   2165.4839       9.1110       0.0060      94.8010      48.4100    -999.2500       3.3600       7.0510       3.4310       0.1311       2.6150      20.5810
   2165.6365       9.1110       0.0060      80.0500      46.1870    -999.2500       3.5230       6.9270       3.6860       0.1401       2.6100      20.7120
   2165.7888       9.1110       0.0080      80.2840      44.4540    -999.2500       4.2220       5.7200       2.7410       0.1374       2.5900      20.8620
   2165.9412       9.1110       0.0120      85.3520      44.5000    -999.2500       4.5700       4.7820       2.0000       0.1343       2.5650      20.9360
   2166.0935       9.1110       0.0200     107.8870      44.6550    -999.2500       3.6150       4.8230       2.0000       0.1354       2.5200      20.7990
   2166.2461       9.1110       0.0290     125.4980      45.2060    -999.2500       2.8710       4.9320       2.2740       0.1418       2.4770      20.5100
   2166.3984       9.1110       0.0440     125.2290      46.3480    -999.2500       2.9170       5.2910       3.5420       0.1580       2.4430      20.1380
   2166.5508       9.1110       0.0560     124.4560      49.6390    -999.2500       3.0720       5.6670       4.5260       0.1701       2.4190      19.9200
   2166.7031       9.1110       0.0530     121.8610      52.1640    -999.2500       3.6290       6.1050       4.4860       0.1683       2.4290      19.9360
   2166.8557       9.1110       0.0450     114.4480      51.8960    -999.2500       4.4850       7.9100       4.2820       0.1574       2.4540      20.0740
   2167.0081       9.1110       0.0200      89.5250      49.4660    -999.2500       6.4560      14.6830       3.4850       0.1321       2.5310      20.2540
   2167.1604       9.1110       0.0000      76.1340      39.1830    -999.2500       9.3890      19.5140       2.8670       0.1034       2.5990      20.3890
   2167.3127       9.1110       0.0010     104.4550      31.1110    -999.2500      15.9070      17.2560       2.8970       0.0745       2.6340      20.6750
   2167.4651       9.1110       0.0020     121.8120      31.1110    -999.2500      20.8160      15.8650       3.0250       0.0535       2.6530      21.1800
   2167.6177       9.1110       0.0050      99.3030      30.7520    -999.2500      19.7090      17.6240       3.5100       0.0504       2.6170      21.7290
   2167.7700       9.1110       0.0090      86.5990      29.0860    -999.2500      17.2150      17.5800       3.8750       0.0519       2.5910      22.1100
   2167.9224       9.1110       0.0200     109.3850      27.9700    -999.2500       9.5560      11.0100       3.8070       0.0563       2.6020      22.1480
   2168.0747       9.1110       0.0260     123.2420      28.8640    -999.2500       3.5130       5.8570       3.6140       0.0654       2.6110      21.6320
   2168.2273       9.1110       0.0180     104.9170      31.6470    -999.2500       3.5240       5.8570       2.9640       0.0839       2.6100      20.5680
   2168.3796       9.1110       0.0130      90.8060      41.3050    -999.2500       3.5700       5.8250       2.4540       0.1027       2.6090      19.2620
   2168.5320       9.1110       0.0240      91.9600      48.5310    -999.2500       3.7490       5.6800       2.4540       0.1184       2.6060      17.9760
   2168.6843       9.1110       0.0330      94.6870      46.8640    -999.2500       3.8500       5.5720       2.4450       0.1334       2.6030      16.9700
   2168.8367       9.1110       0.0320     103.0890      46.2740    -999.2500       3.6610       5.6050       2.4050       0.1470       2.5960      16.3030
   2168.9893       9.1110       0.0300     110.9110      49.6050    -999.2500       3.5170       5.7600       2.2840       0.1500       2.5890      15.9810
   2169.1416       9.1110       0.0190     116.6310      51.3870    -999.2500       3.5460       6.3590       1.8720       0.1306       2.5790      16.0320
   2169.2939       9.1110       0.0120     120.9390      47.4970    -999.2500       3.6230       6.8270       1.5580       0.1151       2.5720      16.5250
   2169.4463       9.1110       0.0180     120.1460      44.8030    -999.2500       3.8780       6.8200       1.5980       0.1179       2.5740      17.4950
   2169.5989       9.1110       0.0220     114.0510      46.4710    -999.2500       4.1790       6.7950       1.5970       0.1224       2.5810      18.9520
   2169.7512       9.1110       0.0210      88.7250      47.7610    -999.2500       4.6520       6.7060       1.4460       0.1225       2.6070      20.2910
   2169.9036       9.1110       0.0230      69.1740      47.6800    -999.2500       5.0130       6.5760       1.3520       0.1189       2.6280      21.0680
   2170.0559       9.1110       0.0380      70.4860      47.4540    -999.2500       4.9600       6.2920       1.4620       0.1095       2.6260      21.3120
   2170.2085       9.1110       0.0500      77.6520      46.6970    -999.2500       4.8100       5.9300       1.5410       0.1041       2.6210      21.4150
   2170.3608       9.1110       0.0480     106.0720      45.5650    -999.2500       4.2960       5.2820       1.5020       0.1098       2.6060      21.5770
   2170.5132       9.1110       0.0420     122.3770      43.0700    -999.2500       3.9100       4.7900       1.4860       0.1153       2.5910      21.5510
   2170.6655       9.1110       0.0220      94.8890      41.1200    -999.2500       4.0060       4.8680       1.5570       0.1150       2.5780      21.1880
   2170.8179       9.1110       0.0060      75.2520      41.1640    -999.2500       4.2550       5.1740       1.8180       0.1115       2.5670      20.7730
   2170.9705       9.1110       0.0070      84.1440      41.2980    -999.2500       5.0770       6.3020       2.7670       0.1039       2.5650      20.5650
   2171.1228       9.1110       0.0110      90.3890      41.7590    -999.2500       6.0530       7.1710       3.4990       0.0979       2.5600      20.5480
   2171.2751       9.1110       0.0230      87.0570      42.3810    -999.2500       7.6000       7.0900       3.4440       0.0976       2.5420      20.5560
   2171.4275       9.1110       0.0330      84.5990      43.5920    -999.2500       8.2800       6.9070       3.3220       0.1013       2.5290      20.4030
   2171.5801       9.1110       0.0310      85.3170      45.0550    -999.2500       5.7170       6.3480       2.9570       0.1103       2.5310      20.0730
   2171.7324       9.1110       0.0270      87.1070      47.4310    -999.2500       3.9250       5.7620       2.5490       0.1136       2.5390      19.7690
   2171.8848       9.1110       0.0150      92.7810      48.7760    -999.2500       5.0050       5.0750       1.9880       0.1023       2.5700      19.6120
   2172.0371       9.1110       0.0060      97.0410      46.3480    -999.2500       5.6100       4.5360       1.5490       0.0922       2.5940      19.5290
   2172.1897       9.1110       0.0060      96.2090      44.4830    -999.2500       4.4360       4.5410       1.5510       0.0924       2.5940      19.4800
   2172.3420       9.1110       0.0060      98.6210      44.6620    -999.2500       3.5110       4.6240       1.5550       0.1029       2.5930      19.4180
   2172.4944       9.1110       0.0060     112.7930      46.3160    -999.2500       3.5110       4.9960       1.5690       0.1300       2.5910      19.4120
   2172.6467       9.1110       0.0060     123.7240      53.3610    -999.2500       3.5130       5.2760       1.5870       0.1498       2.5840      19.5310
   2172.7991       9.1110       0.0070     122.9610      58.2900    -999.2500       3.5230       5.2190       1.6210       0.1473       2.5620      19.9550
   2172.9517       9.1110       0.0070     120.7860      55.5110    -999.2500       3.5900       5.0950       1.6650       0.1461       2.5440      20.7570
