#------------------------------------------------------------------------------
#
#   Created by  : [OpenWorks] Log Export Utility (LEXP)
#   Created on  : 2016-05-18 11:17:23
#   Project     : CANT971
#   User        : R5K
#   Interpreter : PEP
#
#------------------------------------------------------------------------------
~VERSION INFORMATION
VERS. 2.0 : CWLS Log ASCII Standard - version 2.0
WRAP.  NO : One line per depth step
~WELL INFORMATION
#MNEMONIC   .UNIT                                           VALUE :DESCRIPTION
#------------------------------------------------------------------------------
STRT        .M                                           500.9712 :START DEPTH
STOP        .M                                          2798.8584 :STOP DEPTH
STEP        .M                                             0.1524 :STEP
NULL        .                                           -999.2500 :NULL VALUE
COMP        .                                   PEMEX EXPL & PROD :COMPANY
WELL        .                                                 269 :WELL
FLD         .                                           CANTARELL :FIELD
LOC         .                                             UNKNOWN :LOCATION
CNTY        .                                      CD. DEL CARMEN :COUNTY
STAT        .                                            CAMPECHE :STATE
CTRY        .                                              MEXICO :COUNTRY
SRVC        .                                             UNKNOWN :SERVICE COMPANY
DATE        .                                             UNKNOWN :LOG DATE
UWI         .                                          3060000483 :UNIQUE WELL ID
XCOORD      .                                       597315.110000 :SURFACE X
YCOORD      .                                      2143047.600000 :SURFACE Y
LAT         .                                           19.380361 :LATITUDE
LON         .                                          -92.073310 :LONGITUDE
ELEV        .M                                            27.7000 :SURFACE ELEV
ELEV_TYPE   .                                                  KB :ELEV TYPE
~CURVE INFORMATION
#MNEMONIC.UNIT        API CODE       : CURVE DESCRIPTION
#------------------------------------------------------------------------------
DEPTH    .M                          : Measured Depth
CALI     .inches      UNKNOWN        : CALI:Import:rC:NONE:v0 (auto-composite)
DRHO     .g/cm3       UNKNOWN        : DRHO:Import:rC:NONE:v0 (auto-composite)
DT       .us/ft       UNKNOWN        : DT:Import:rC:NONE:v0 (auto-composite)
GR       .API         UNKNOWN        : GR:Import:rC:NONE:v0 (auto-composite)
ILD      .ohm.m       UNKNOWN        : ILD:Import:rC:NONE:v0 (auto-composite)
LLD      .ohm.m       UNKNOWN        : LLD:Import:rC:NONE:v0 (auto-composite)
LLS      .ohm.m       UNKNOWN        : LLS:Import:rC:NONE:v0 (auto-composite)
MSFL     .ohm.m       UNKNOWN        : MSFL:Import:rC:NONE:v0 (auto-composite)
NPHI     .v/v_decimal UNKNOWN        : NPHI:Import:rC:NONE:v0 (auto-composite)
RHOB     .g/cm3       UNKNOWN        : RHOB:Import:rC:NONE:v0 (auto-composite)
SIGM     .cu          UNKNOWN        : SIGM:Import:rC:NONE:v0 (auto-composite)
~A     DEPTH         CALI         DRHO           DT           GR          ILD          LLD          LLS         MSFL         NPHI         RHOB         SIGM
# ...
   2561.4192       8.3330      -0.0030      64.2150      63.8430    -999.2500       3.9370      10.0240       3.8170       0.1696       2.6240      12.2350
   2561.5715       8.3330       0.0030      63.0620      85.9710    -999.2500       4.3260       5.8320       1.5860       0.2030       2.5990      13.0140
   2561.7239       8.3330       0.0200      85.0150     102.9740    -999.2500       3.3500       3.7430       1.7550       0.2450       2.5630      14.1890
   2561.8765       8.3410       0.0330     101.2020     101.3070    -999.2500       3.0750       2.3920       2.1860       0.2870       2.5250      15.9820
   2562.0288       8.3780       0.0310      96.4820     100.0000    -999.2500       5.3690       3.7220       3.5660       0.3245       2.4800      18.2370
   2562.1812       8.4110       0.0270      93.5560     100.0000    -999.2500       8.6330      10.2450       5.2560       0.3426       2.4570      20.6300
   2562.3335       8.4290       0.0120      97.1680     100.0000    -999.2500      15.4670      35.6970       8.0740       0.3133       2.5200      22.7360
   2562.4861       8.4320       0.0000      98.1100     100.0000    -999.2500      25.9210      55.5300       9.5150       0.2733       2.5780      24.1270
   2562.6384       8.3770       0.0000      89.3600      99.8090    -999.2500      49.6390      54.9680       5.9570       0.2233       2.6210      24.7890
   2562.7908       8.3330      -0.0010      79.1660      98.9240    -999.2500      64.0530      53.9290       3.4610       0.1754       2.6590      24.5010
   2562.9431       8.3330      -0.0040      63.7530      96.6770    -999.2500      44.2070      51.1460       4.8040       0.1367       2.6800      22.7700
   2563.0957       8.3330      -0.0060      52.0380      89.4660    -999.2500      28.6140      47.8370       5.7400       0.1029       2.7030      19.7960
   2563.2480       8.3330      -0.0060      53.7540      79.3240    -999.2500      28.6140      42.6150       5.1980       0.0791       2.7290      16.7080
   2563.4004       8.3330      -0.0060      55.3530      58.5380    -999.2500      28.6140      37.5080       5.1180       0.0649       2.7460      14.1900
   2563.5527       8.3330      -0.0060      56.5270      42.8440    -999.2500      28.6140      32.8130       6.7120       0.0721       2.7270      12.6240
   2563.7051       8.3210      -0.0060      58.2020      45.7370    -999.2500      27.1250      28.0390       7.6450       0.0822       2.7040      11.6150
   2563.8577       8.2660      -0.0050      61.7020      53.6180    -999.2500      20.1720      22.9720       6.1750       0.0929       2.6640      11.0360
   2564.0100       8.2220      -0.0050      64.2460      79.6240    -999.2500      16.3520      19.6320       5.0550       0.1042       2.6400      10.7610
   2564.1624       8.2220      -0.0030      63.3330      96.8570    -999.2500      23.9780      22.5420       5.2000       0.1161       2.6740      10.7480
   2564.3147       8.2220       0.0000      61.7940      82.3420    -999.2500      32.4230      27.8500       5.6450       0.1217       2.6990      10.9330
   2564.4673       8.2220       0.0030      57.9850      69.1740    -999.2500      43.8790      41.8800       7.1780       0.1110       2.6920      11.3340
   2564.6196       8.2220       0.0050      55.1920      60.9030    -999.2500      51.7120      51.5570       8.1710       0.1039       2.6850      11.8530
   2564.7720       8.2220       0.0080      56.0810      52.2620    -999.2500      46.2990      45.4670       7.2060       0.1118       2.6750      12.4110
   2564.9243       8.2320       0.0100      57.2690      42.2770    -999.2500      40.2890      39.1670       6.0950       0.1225       2.6630      12.7700
   2565.0769       8.2770       0.0110      59.5460      36.2190    -999.2500      32.0850      32.0980       4.4550       0.1355       2.6440      12.6850
   2565.2292       8.3150       0.0130      61.6070      44.4530    -999.2500      24.8290      25.5420       3.9390       0.1441       2.6260      12.1950
   2565.3816       8.3250       0.0240      62.8860      51.4090    -999.2500      21.0370      20.8420       7.4940       0.1404       2.6110      11.5390
   2565.5339       8.3330       0.0290      63.7690      53.7330    -999.2500      18.8880      18.1480      10.0700       0.1329       2.6020      11.0010
   2565.6863       8.3330       0.0090      63.2140      55.3710    -999.2500      22.7860      22.7640       9.0740       0.1196       2.6090      10.8630
   2565.8389       8.3330      -0.0060      62.9620      54.5130    -999.2500      27.4690      29.2450       7.8180       0.1059       2.6240      11.0510
   2565.9912       8.3330      -0.0040      63.8130      53.2390    -999.2500      35.0240      42.4850       5.6170       0.0932       2.6710      11.5310
   2566.1436       8.3430      -0.0030      64.6190      50.4520    -999.2500      41.8480      52.5910       4.3140       0.0813       2.7170      12.0240
   2566.2959       8.3910      -0.0010      65.2630      47.1370    -999.2500      45.9780      51.2720       6.2820       0.0713       2.7620      12.3790
   2566.4485       8.4180       0.0000      66.7040      41.8910    -999.2500      50.5550      50.2380       8.6530       0.0641       2.8000      12.4300
   2566.6008       8.3700       0.0000      71.0450      37.9000    -999.2500      56.7640      50.2380      12.4840       0.0633       2.8120      12.1170
   2566.7532       8.3330       0.0000      73.9630      38.4670    -999.2500      61.3290      50.1050      14.5100       0.0635       2.8200      11.5620
   2566.9055       8.3330       0.0000      71.7420      39.3880    -999.2500      59.8360      49.4890      10.0140       0.0639       2.8100      10.9250
   2567.0581       8.3330       0.0000      71.0530      41.5990    -999.2500      56.9940      47.7050       7.4590       0.0650       2.7990      10.4420
   2567.2104       8.3330       0.0000      75.9280      43.2130    -999.2500      49.2040      41.6780      11.9600       0.0676       2.7870      10.1530
   2567.3628       8.3330       0.0000      82.3010      42.6580    -999.2500      44.1410      38.9810      14.6760       0.0692       2.7770      10.0350
   2567.5151       8.3330       0.0000      94.0890      42.2220    -999.2500      49.0320      48.3240      10.9400       0.0675       2.7730      10.0050
   2567.6675       8.3330       0.0030     101.1150      42.2220    -999.2500      52.4300      54.3430       7.4890       0.0652       2.7680       9.9830
   2567.8201       8.3330       0.0190      90.8330      42.2220    -999.2500      50.3510      48.2810       5.0670       0.0624       2.7620       9.9500
   2567.9724       8.3330       0.0360      85.9640      42.2220    -999.2500      47.0700      42.6200       4.1240       0.0609       2.7540       9.9340
   2568.1248       8.3330       0.0600     100.6800      43.1870    -999.2500      39.3940      38.4140       8.5320       0.0633       2.7360       9.9420
   2568.2771       8.3330       0.0730     107.9080      47.6440    -999.2500      33.4810      35.3050      11.7090       0.0694       2.7230       9.9820
   2568.4297       8.3330       0.0510      87.9000      53.1740    -999.2500      34.0360      36.1880      10.4040       0.0839       2.7270      10.0160
   2568.5820       8.3330       0.0330      74.2700      62.6080    -999.2500      35.2460      37.3730       8.7460       0.0951       2.7330      10.0100
   2568.7344       8.3330       0.0330      83.7330      69.6350    -999.2500      38.8490      39.6490       5.8130       0.0945       2.7440      10.0210
   2568.8867       8.3330       0.0340      90.7330      67.9480    -999.2500      43.4470      41.7670       3.8690       0.0917       2.7540      10.1130
   2569.0393       8.3330       0.0370      88.7650      66.0620    -999.2500      51.6970      43.3050       5.5280       0.0860       2.7610      10.3170
   2569.1917       8.3330       0.0350      88.4830      63.4560    -999.2500      60.4770      48.3060       6.3560       0.0805       2.7660      10.6790
