#------------------------------------------------------------------------------
#
#   Created by  : [OpenWorks] Log Export Utility (LEXP)
#   Created on  : 2016-05-18 11:17:23
#   Project     : CANT971
#   User        : R5K
#   Interpreter : PEP
#
#------------------------------------------------------------------------------
~VERSION INFORMATION
VERS. 2.0 : CWLS Log ASCII Standard - version 2.0
WRAP.  NO : One line per depth step
~WELL INFORMATION
#MNEMONIC   .UNIT                                           VALUE :DESCRIPTION
#------------------------------------------------------------------------------
STRT        .M                                           500.9712 :START DEPTH
STOP        .M                                          2798.8584 :STOP DEPTH
STEP        .M                                             0.1524 :STEP
NULL        .                                           -999.2500 :NULL VALUE
COMP        .                                   PEMEX EXPL & PROD :COMPANY
WELL        .                                                 269 :WELL
FLD         .                                           CANTARELL :FIELD
LOC         .                                             UNKNOWN :LOCATION
CNTY        .                                      CD. DEL CARMEN :COUNTY
STAT        .                                            CAMPECHE :STATE
CTRY        .                                              MEXICO :COUNTRY
SRVC        .                                             UNKNOWN :SERVICE COMPANY
DATE        .                                             UNKNOWN :LOG DATE
UWI         .                                          3060000483 :UNIQUE WELL ID
XCOORD      .                                       597315.110000 :SURFACE X
YCOORD      .                                      2143047.600000 :SURFACE Y
LAT         .                                           19.380361 :LATITUDE
LON         .                                          -92.073310 :LONGITUDE
ELEV        .M                                            27.7000 :SURFACE ELEV
ELEV_TYPE   .                                                  KB :ELEV TYPE
~CURVE INFORMATION
#MNEMONIC.UNIT        API CODE       : CURVE DESCRIPTION
#------------------------------------------------------------------------------
DEPTH    .M                          : Measured Depth
CALI     .inches      UNKNOWN        : CALI:Import:rC:NONE:v0 (auto-composite)
DRHO     .g/cm3       UNKNOWN        : DRHO:Import:rC:NONE:v0 (auto-composite)
DT       .us/ft       UNKNOWN        : DT:Import:rC:NONE:v0 (auto-composite)
GR       .API         UNKNOWN        : GR:Import:rC:NONE:v0 (auto-composite)
ILD      .ohm.m       UNKNOWN        : ILD:Import:rC:NONE:v0 (auto-composite)
LLD      .ohm.m       UNKNOWN        : LLD:Import:rC:NONE:v0 (auto-composite)
LLS      .ohm.m       UNKNOWN        : LLS:Import:rC:NONE:v0 (auto-composite)
MSFL     .ohm.m       UNKNOWN        : MSFL:Import:rC:NONE:v0 (auto-composite)
NPHI     .v/v_decimal UNKNOWN        : NPHI:Import:rC:NONE:v0 (auto-composite)
RHOB     .g/cm3       UNKNOWN        : RHOB:Import:rC:NONE:v0 (auto-composite)
SIGM     .cu          UNKNOWN        : SIGM:Import:rC:NONE:v0 (auto-composite)
~A     DEPTH         CALI         DRHO           DT           GR          ILD          LLD          LLS         MSFL         NPHI         RHOB         SIGM
# ...
   2387.0735       9.0000       0.0180      59.4440      46.6750    -999.2500    2434.5471     900.6290       9.2830       0.0809       2.6410       8.9910
   2387.2261       9.0000       0.0060      59.4310      46.7110    -999.2500    2291.5471     974.8470       9.7900       0.0919       2.6490       9.0430
   2387.3784       9.0000       0.0060      59.3690      46.9710    -999.2500    1679.9280     964.6320      12.1370       0.0926       2.6760       9.0480
   2387.5308       9.0000       0.0070      59.1520      48.0460    -999.2500    1376.4659     930.7930      13.8330       0.0904       2.7030       9.0110
   2387.6831       9.0000       0.0090      58.3740      48.8350    -999.2500    2207.3469     810.8180      13.1520       0.0839       2.7260       8.9350
   2387.8357       9.0000       0.0100      57.4650      48.5840    -999.2500    2858.8201     696.0160      12.6220       0.0756       2.7470       8.8110
   2387.9880       9.0000       0.0080      56.0830      47.6230    -999.2500    2846.4729     599.9900      12.6350       0.0638       2.7600       8.6910
   2388.1404       9.0000       0.0060      55.0000      44.0780    -999.2500    2794.9590     502.2800      12.7070       0.0507       2.7710       8.6270
   2388.2927       9.0000       0.0060      55.0000      39.4830    -999.2500    2599.1641     398.4210      12.9860       0.0358       2.7770       8.6970
   2388.4453       9.0000       0.0060      54.9950      31.0540    -999.2500    2294.3301     317.2550      13.6320       0.0248       2.7830       8.8890
   2388.5977       9.0000       0.0060      54.9730      24.4910    -999.2500    1585.7430     318.5350      15.6070       0.0239       2.7860       9.1280
   2388.7500       9.0000       0.0060      54.2990      24.7090    -999.2500    1053.2581     323.9740      16.8100       0.0256       2.7910       9.3280
   2388.9023       9.0000       0.0070      51.2670      25.4880    -999.2500    1169.9890     344.6050      15.2240       0.0300       2.7990       9.4250
   2389.0547       9.0000       0.0110      48.8890      28.3110    -999.2500    1258.6090     417.0250      13.9790       0.0347       2.8060       9.3900
   2389.2073       9.0000       0.0230      48.8890      32.1460    -999.2500    1243.0560     677.7340      13.9790       0.0388       2.8050       9.2830
   2389.3596       9.0010       0.0380      48.9820      39.6580    -999.2500    1193.1490     875.9820      13.9750       0.0426       2.8040       9.1110
   2389.5120       9.0040       0.0670      49.4090      44.7200    -999.2500    1016.4940     848.1260      13.9560       0.0461       2.7990       8.9410
   2389.6643       9.0130       0.0840      50.9050      40.8300    -999.2500     829.0770     776.2220      13.8890       0.0499       2.7930       8.7970
   2389.8169       9.0480       0.0620      56.2890      38.0180    -999.2500     601.7450     544.0510      13.6460       0.0552       2.7850       8.6930
   2389.9692       9.0790       0.0480      62.1120      39.1290    -999.2500     391.9690     328.9730      12.6680       0.0700       2.7450       8.6120
   2390.1216       9.0970       0.0650      69.5310      39.5200    -999.2500     247.0080     175.8120       9.0240       0.1068       2.5890       8.5700
   2390.2739       9.1110       0.0780      76.8110      37.2990    -999.2500     331.0540     103.7960       6.8610       0.1361       2.4670       8.5640
   2390.4263       9.1110       0.0770      83.5820      35.6760    -999.2500    1264.9910     327.2410      10.0890       0.1392       2.4700       8.6360
   2390.5789       9.1110       0.0690      88.7850      36.2310    -999.2500    1994.6390     500.7650      12.1160       0.1368       2.4790       8.7800
   2390.7312       9.1110       0.0340      88.3070      36.5470    -999.2500    1969.4680     493.3100       9.7880       0.1292       2.5130       8.9380
   2390.8835       9.1110       0.0070      85.6260      35.9920    -999.2500    1889.3320     470.9710       7.9620       0.1135       2.5640       9.1130
   2391.0359       9.1110       0.0130      74.9980      35.6180    -999.2500    1605.0570     394.3920       7.9620       0.0803       2.6810       9.2960
   2391.1885       9.1110       0.0170      68.1080      35.9080    -999.2500    1266.2889     308.2770       7.4110       0.0560       2.7710       9.5840
   2391.3408       9.1110       0.0160      74.7770      36.8290    -999.2500     726.0250     187.5650       4.8620       0.0597       2.7680       9.9910
   2391.4932       9.1110       0.0140      76.8700      40.0400    -999.2500     301.9790      93.8810       2.8960       0.0628       2.7590      10.3660
   2391.6455       9.1110       0.0060      62.4310      43.6000    -999.2500     305.7810      98.7570       3.0590       0.0552       2.7240      10.5090
   2391.7981       9.1110       0.0000      54.4110      48.4330    -999.2500     379.8880     143.0250       4.7920       0.0523       2.6770      10.3180
   2391.9504       9.1110       0.0010      69.6950      52.1920    -999.2500     714.1520     330.3130      12.2290       0.0645       2.5810       9.9120
   2392.1028       9.1110       0.0030      78.2380      52.0520    -999.2500     973.4740     477.1690      17.9930       0.0752       2.5070       9.5540
   2392.2551       9.1110       0.0140      62.4110      49.7010    -999.2500     956.7010     476.4740      17.7090       0.0760       2.5100       9.3660
   2392.4075       9.1110       0.0220      50.0800      39.2820    -999.2500     880.4970     474.0190      16.8680       0.0725       2.5340       9.3760
   2392.5601       9.1110       0.0210      50.4530      31.7100    -999.2500     584.2080     465.1660      14.0040       0.0626       2.6360       9.4820
   2392.7124       9.1110       0.0190      53.1900      34.4870    -999.2500     354.6880     439.6040      10.7400       0.0573       2.7150       9.6320
   2392.8647       9.1110       0.0120      64.4790      36.6530    -999.2500     371.3420     353.5990       6.0280       0.0646       2.7070       9.7830
   2393.0171       9.1110       0.0070      71.3550      36.5890    -999.2500     499.9730     286.4240       4.4710       0.0671       2.7000       9.9460
   2393.1697       9.1130       0.0090      62.1850      35.4750    -999.2500    1043.5870     287.7190      14.3860       0.0535       2.7010      10.0200
   2393.3220       9.1180       0.0100      55.1800      30.5410    -999.2500    1468.3000     304.1100      22.1490       0.0416       2.7050       9.9610
   2393.4744       9.1350       0.0080      56.0140      26.6670    -999.2500    1454.3051     375.1560      22.1230       0.0400       2.7170       9.7670
   2393.6267       9.1560       0.0060      56.4270      26.6670    -999.2500    1374.5480     428.5690      21.9220       0.0401       2.7330       9.5560
   2393.7793       9.1930       0.0060      55.3150      26.1880    -999.2500    1050.8950     417.8190      21.0890       0.0403       2.7610       9.4250
   2393.9316       9.2230       0.0060      54.4550      23.9640    -999.2500     803.3690     410.0310      19.1800       0.0411       2.7830       9.3760
   2394.0840       9.2280       0.0060      54.5070      22.2330    -999.2500     836.9450     412.9770      13.3750       0.0431       2.7820       9.3990
   2394.2363       9.2430       0.0060      54.7760      22.2850    -999.2500     963.9110     422.7860       8.8830       0.0454       2.7770       9.4500
   2394.3887       9.2930       0.0070      55.8360      24.7090    -999.2500    1437.4960     457.5860       9.1760       0.0478       2.7590       9.5550
   2394.5413       9.3210       0.0140      56.4270      35.7720    -999.2500    1877.0610     501.3390      10.2380       0.0492       2.7470       9.6690
   2394.6936       9.2660       0.0430      55.3150      44.3920    -999.2500    2190.9141     577.5520      14.0900       0.0480       2.7580       9.7960
   2394.8459       9.2220       0.0670      54.4440      44.1520    -999.2500    2482.9519     646.1220      17.9120       0.0470       2.7670       9.8910
