#------------------------------------------------------------------------------
#
#   Created by  : [OpenWorks] Log Export Utility (LEXP)
#   Created on  : 2016-05-18 11:17:23
#   Project     : CANT971
#   User        : R5K
#   Interpreter : PEP
#
#------------------------------------------------------------------------------
~VERSION INFORMATION
VERS. 2.0 : CWLS Log ASCII Standard - version 2.0
WRAP.  NO : One line per depth step
~WELL INFORMATION
#MNEMONIC   .UNIT                                           VALUE :DESCRIPTION
#------------------------------------------------------------------------------
STRT        .M                                           500.9712 :START DEPTH
STOP        .M                                          2798.8584 :STOP DEPTH
STEP        .M                                             0.1524 :STEP
NULL        .                                           -999.2500 :NULL VALUE
COMP        .                                   PEMEX EXPL & PROD :COMPANY
WELL        .                                                 269 :WELL
FLD         .                                           CANTARELL :FIELD
LOC         .                                             UNKNOWN :LOCATION
CNTY        .                                      CD. DEL CARMEN :COUNTY
STAT        .                                            CAMPECHE :STATE
CTRY        .                                              MEXICO :COUNTRY
SRVC        .                                             UNKNOWN :SERVICE COMPANY
DATE        .                                             UNKNOWN :LOG DATE
UWI         .                                          3060000483 :UNIQUE WELL ID
XCOORD      .                                       597315.110000 :SURFACE X
YCOORD      .                                      2143047.600000 :SURFACE Y
LAT         .                                           19.380361 :LATITUDE
LON         .                                          -92.073310 :LONGITUDE
ELEV        .M                                            27.7000 :SURFACE ELEV
ELEV_TYPE   .                                                  KB :ELEV TYPE
~CURVE INFORMATION
#MNEMONIC.UNIT        API CODE       : CURVE DESCRIPTION
#------------------------------------------------------------------------------
DEPTH    .M                          : Measured Depth
CALI     .inches      UNKNOWN        : CALI:Import:rC:NONE:v0 (auto-composite)
DRHO     .g/cm3       UNKNOWN        : DRHO:Import:rC:NONE:v0 (auto-composite)
DT       .us/ft       UNKNOWN        : DT:Import:rC:NONE:v0 (auto-composite)
GR       .API         UNKNOWN        : GR:Import:rC:NONE:v0 (auto-composite)
ILD      .ohm.m       UNKNOWN        : ILD:Import:rC:NONE:v0 (auto-composite)
LLD      .ohm.m       UNKNOWN        : LLD:Import:rC:NONE:v0 (auto-composite)
LLS      .ohm.m       UNKNOWN        : LLS:Import:rC:NONE:v0 (auto-composite)
MSFL     .ohm.m       UNKNOWN        : MSFL:Import:rC:NONE:v0 (auto-composite)
NPHI     .v/v_decimal UNKNOWN        : NPHI:Import:rC:NONE:v0 (auto-composite)
RHOB     .g/cm3       UNKNOWN        : RHOB:Import:rC:NONE:v0 (auto-composite)
SIGM     .cu          UNKNOWN        : SIGM:Import:rC:NONE:v0 (auto-composite)
~A     DEPTH         CALI         DRHO           DT           GR          ILD          LLD          LLS         MSFL         NPHI         RHOB         SIGM
# ...
   2696.1409       8.0000       0.0350      55.2690      46.8370    -999.2500     120.2690     130.4350       7.7650       0.0684       2.7110      11.0100
   2696.2932       8.0050       0.0170      53.9370      49.2330    -999.2500      93.0190     115.1700       8.7950       0.0733       2.7200      10.9370
   2696.4456       8.0270       0.0180      54.1590      50.6300    -999.2500      82.2040      94.3540       6.5410       0.0787       2.7460      10.7990
   2696.5979       8.0520       0.0190      55.6630      48.4090    -999.2500      72.4360      75.9510       6.3080       0.0845       2.7630      10.6380
   2696.7505       8.0900       0.0210      61.8330      46.7650    -999.2500      66.4790      66.3240      13.4250       0.0907       2.7440      10.5410
   2696.9028       8.1250       0.0220      66.4870      47.2210    -999.2500      60.9180      57.1670      18.6420       0.0977       2.7200      10.5560
   2697.0552       8.1500       0.0240      65.6540      48.9210    -999.2500      56.8060      49.7090      16.9760       0.1062       2.6800      10.6370
   2697.2075       8.1790       0.0280      65.1560      55.1300    -999.2500      49.7540      41.0770      14.2580       0.1165       2.6360      10.7550
   2697.3601       8.2190       0.0390      65.8820      59.5210    -999.2500      31.9990      28.1710       7.7130       0.1300       2.5780      10.8730
   2697.5125       8.2570       0.0530      69.2950      57.2980    -999.2500      18.0550      18.2390       2.5830       0.1517       2.5350      11.0050
   2697.6648       8.2860       0.0830      82.4540      55.5980    -999.2500      18.0550      19.0880       2.5830       0.1817       2.5460      11.1670
   2697.8171       8.3120       0.0980      88.1100      55.7940    -999.2500      21.8030      24.2670       4.1530       0.2019       2.5600      11.4190
   2697.9695       8.3240       0.0620      66.4350      56.4160    -999.2500      39.2060      45.2220      11.4410       0.1995       2.5870      11.7640
   2698.1221       8.3210       0.0330      49.5740      58.5950    -999.2500      50.7810      58.0800      17.1310       0.1794       2.6140      12.2520
   2698.2744       8.2660       0.0350      50.1730      61.4700    -999.2500      41.0210      41.5700      17.0270       0.1488       2.6440      12.8280
   2698.4268       8.2220       0.0460      51.3830      66.8720    -999.2500      33.4400      28.7500      16.6490       0.1247       2.6670      13.4170
   2698.5791       8.2220       0.0920      54.8180      70.9600    -999.2500      33.8030      29.3790      15.2760       0.1186       2.6660      13.8810
   2698.7317       8.2220       0.1260      58.6030      70.2590    -999.2500      34.7920      30.4500      13.6970       0.1214       2.6630      14.1670
   2698.8840       8.2220       0.1150      63.6640      69.0210    -999.2500      38.0520      33.1220      11.3690       0.1265       2.6540      14.1500
   2699.0364       8.2270       0.0940      68.4910      65.8340    -999.2500      43.2390      37.4990       9.2510       0.1353       2.6390      13.9180
   2699.1887       8.2490       0.0410      72.4670      63.4270    -999.2500      55.4610      48.0990       7.8930       0.1474       2.6080      13.5400
   2699.3413       8.2730       0.0000      77.6810      63.8650    -999.2500      73.9010      67.0390       7.6800       0.1562       2.5840      13.1540
   2699.4937       8.3040       0.0010      87.3920      64.5930    -999.2500     114.9240     116.2790      11.6240       0.1560       2.5900      12.8970
   2699.6460       8.3290       0.0030      92.7150      66.3790    -999.2500     145.7750     154.0170      14.5420       0.1458       2.6060      12.7760
   2699.7983       8.3310       0.0140      82.1640      67.4170    -999.2500     139.4830     150.1560      13.7510       0.1272       2.6590      12.8070
   2699.9507       8.3330       0.0220      75.9970      65.7510    -999.2500     127.7900     147.1280      12.5630       0.1125       2.6970      12.9000
   2700.1033       8.3330       0.0210      85.7690      64.8480    -999.2500      96.4680     147.1280       9.9310       0.1102       2.6820      12.9850
   2700.2556       8.3330       0.0200      97.1040      66.7180    -999.2500      80.7940     146.8500       7.2150       0.1157       2.6560      13.1040
   2700.4080       8.3330       0.0150     114.0930      68.9650    -999.2500     122.2980     145.5670       4.1930       0.1276       2.5860      13.2440
   2700.5603       8.3380       0.0110     128.7760      72.5740    -999.2500     140.5530     131.0200       2.1970       0.1560       2.4910      13.4020
   2700.7129       8.3620       0.0110     135.0690      76.6190    -999.2500      74.2330      68.2170       3.9300       0.2029       2.3030      13.4810
   2700.8652       8.3880       0.0110     139.9940      82.2520    -999.2500      22.5890      19.1040       5.1160       0.2398       2.1570      13.3720
   2701.0176       8.4260       0.0110     139.9640      85.3520    -999.2500      24.6100      19.5780       4.3200       0.2470       2.1610      13.2640
   2701.1699       8.4620       0.0120     139.7820      79.2710    -999.2500      52.6550      48.6410       4.6580       0.2364       2.1750      13.3010
   2701.3225       8.4880       0.0160     139.0460      70.0640    -999.2500     175.4390     181.7880       9.1210       0.2176       2.2200      13.6510
   2701.4749       8.5130       0.0310     137.5890      49.4720    -999.2500     264.3160     280.2950      11.4710       0.1940       2.2920      14.4700
   2701.6272       8.5370       0.0880     133.5160      33.3330    -999.2500     229.1130     253.2410       6.1640       0.1694       2.4580      15.3770
   2701.7795       8.5470       0.1310     127.4010      33.3330    -999.2500     189.5860     217.0660       2.0370       0.1494       2.5760      15.7410
   2701.9319       8.5040       0.1200     113.8440      33.3330    -999.2500     134.3050     147.6630       2.2080       0.1376       2.5150      15.0370
   2702.0845       8.4070       0.1060      98.8490      33.3330    -999.2500      85.7490      86.9740       2.4370       0.1293       2.4740      13.8550
   2702.2368       8.1170       0.0760      78.6380      32.6130    -999.2500      61.8200      57.8970       2.8730       0.1203       2.5040      12.8370
   2702.3892       7.9250       0.0440      63.3510      29.2810    -999.2500      41.4440      34.0510       4.2270       0.1075       2.5420      12.1330
   2702.5415       8.0920       0.0040      66.0140      26.6840    -999.2500      34.0190      29.2790       8.9310       0.0906       2.6050      11.7150
   2702.6941       8.2190      -0.0280      72.1450      26.7650    -999.2500      27.2050      24.8230      11.5210       0.0780       2.6630      11.4410
   2702.8464       8.2060      -0.0270      90.8640      27.0510    -999.2500      22.6090      21.5150       6.4370       0.0752       2.7010      11.2180
   2702.9988       8.1740      -0.0260     104.8540      28.0800    -999.2500      19.1100      18.3130       2.5200       0.0761       2.7330      10.9750
   2703.1511       8.0760      -0.0200     101.5930      28.8490    -999.2500      19.6120      15.4930       2.8270       0.0759       2.7440      10.7370
   2703.3037       8.0000      -0.0140      96.8760      28.6620    -999.2500      20.9350      13.2820       3.3390       0.0744       2.7540      10.6170
   2703.4561       8.0000      -0.0030      86.8670      28.4000    -999.2500      25.2370      13.2820       4.5990       0.0717       2.7640      10.6010
   2703.6084       8.0000       0.0070      76.7260      27.8630    -999.2500      28.1760      13.4190       6.4190       0.0674       2.7720      10.6750
   2703.7607       8.0000       0.0150      66.1060      27.1180    -999.2500      26.1400      14.0510      10.2650       0.0622       2.7700      10.7480
   2703.9131       8.0000       0.0220      58.9770      25.6190    -999.2500      25.6470      15.3180      12.6240       0.0589       2.7640      10.7680
