#------------------------------------------------------------------------------
#
#   Created by  : [OpenWorks] Log Export Utility (LEXP)
#   Created on  : 2016-05-18 11:17:23
#   Project     : CANT971
#   User        : R5K
#   Interpreter : PEP
#
#------------------------------------------------------------------------------
~VERSION INFORMATION
VERS. 2.0 : CWLS Log ASCII Standard - version 2.0
WRAP.  NO : One line per depth step
~WELL INFORMATION
#MNEMONIC   .UNIT                                           VALUE :DESCRIPTION
#------------------------------------------------------------------------------
STRT        .M                                           500.9712 :START DEPTH
STOP        .M                                          2798.8584 :STOP DEPTH
STEP        .M                                             0.1524 :STEP
NULL        .                                           -999.2500 :NULL VALUE
COMP        .                                   PEMEX EXPL & PROD :COMPANY
WELL        .                                                 269 :WELL
FLD         .                                           CANTARELL :FIELD
LOC         .                                             UNKNOWN :LOCATION
CNTY        .                                      CD. DEL CARMEN :COUNTY
STAT        .                                            CAMPECHE :STATE
CTRY        .                                              MEXICO :COUNTRY
SRVC        .                                             UNKNOWN :SERVICE COMPANY
DATE        .                                             UNKNOWN :LOG DATE
UWI         .                                          3060000483 :UNIQUE WELL ID
XCOORD      .                                       597315.110000 :SURFACE X
YCOORD      .                                      2143047.600000 :SURFACE Y
LAT         .                                           19.380361 :LATITUDE
LON         .                                          -92.073310 :LONGITUDE
ELEV        .M                                            27.7000 :SURFACE ELEV
ELEV_TYPE   .                                                  KB :ELEV TYPE
~CURVE INFORMATION
#MNEMONIC.UNIT        API CODE       : CURVE DESCRIPTION
#------------------------------------------------------------------------------
DEPTH    .M                          : Measured Depth
CALI     .inches      UNKNOWN        : CALI:Import:rC:NONE:v0 (auto-composite)
DRHO     .g/cm3       UNKNOWN        : DRHO:Import:rC:NONE:v0 (auto-composite)
DT       .us/ft       UNKNOWN        : DT:Import:rC:NONE:v0 (auto-composite)
GR       .API         UNKNOWN        : GR:Import:rC:NONE:v0 (auto-composite)
ILD      .ohm.m       UNKNOWN        : ILD:Import:rC:NONE:v0 (auto-composite)
LLD      .ohm.m       UNKNOWN        : LLD:Import:rC:NONE:v0 (auto-composite)
LLS      .ohm.m       UNKNOWN        : LLS:Import:rC:NONE:v0 (auto-composite)
MSFL     .ohm.m       UNKNOWN        : MSFL:Import:rC:NONE:v0 (auto-composite)
NPHI     .v/v_decimal UNKNOWN        : NPHI:Import:rC:NONE:v0 (auto-composite)
RHOB     .g/cm3       UNKNOWN        : RHOB:Import:rC:NONE:v0 (auto-composite)
SIGM     .cu          UNKNOWN        : SIGM:Import:rC:NONE:v0 (auto-composite)
~A     DEPTH         CALI         DRHO           DT           GR          ILD          LLD          LLS         MSFL         NPHI         RHOB         SIGM
# ...
   2204.8032       9.2220       0.0010      83.2430      56.8560    -999.2500       7.4710      10.2330       1.4490       0.1095       2.6130      12.8960
   2204.9556       9.2220       0.0010      86.6540      55.5580    -999.2500       7.8070      10.0040       1.4090       0.1075       2.6070      12.7530
   2205.1079       9.2220       0.0030      86.5920      54.2190    -999.2500       8.6320       9.0940       1.2910       0.1077       2.5870      12.8970
   2205.2605       9.2220       0.0040      86.0220      52.7280    -999.2500       8.9880       8.4490       1.2280       0.1092       2.5720      13.0790
   2205.4128       9.2220       0.0060      83.6080      51.3410    -999.2500       7.5900       8.7690       1.3640       0.1121       2.5720      13.1840
   2205.5652       9.2220       0.0110      79.8470      50.3300    -999.2500       6.5030       9.3130       1.4480       0.1168       2.5720      13.1850
   2205.7175       9.2220       0.0300      71.2140      49.2270    -999.2500       6.5760      10.6690       1.3440       0.1234       2.5720      13.1040
   2205.8699       9.2220       0.0440      64.4970      47.7920    -999.2500       6.7830      12.1890       1.2650       0.1285       2.5720      12.9900
   2206.0225       9.2220       0.0430      64.7410      46.8020    -999.2500       7.4950      14.3070       1.2770       0.1289       2.5730      12.9030
   2206.1748       9.2220       0.0410      65.6020      47.4280    -999.2500       8.5880      16.6290       1.3030       0.1225       2.5770      12.8680
   2206.3271       9.2220       0.0350      68.6890      48.5010    -999.2500      11.1000      19.7000       1.3790       0.1086       2.5930      12.8640
   2206.4795       9.2250       0.0280      71.0930      51.2090    -999.2500      13.8150      22.6980       1.4880       0.0977       2.6060      12.8870
   2206.6321       9.2390       0.0160      71.0120      53.2420    -999.2500      17.2890      25.4310       1.7190       0.0976       2.6040      12.8900
   2206.7844       9.2580       0.0060      70.9040      52.8170    -999.2500      20.5250      28.5880       1.8620       0.1054       2.6020      12.8690
   2206.9368       9.2940       0.0070      70.7010      51.8590    -999.2500      22.8670      33.2780       1.6870       0.1191       2.5950      12.7750
   2207.0891       9.3230       0.0080      70.3020      48.9490    -999.2500      25.6300      36.9210       1.5490       0.1302       2.5870      12.5690
   2207.2417       9.3290       0.0130      69.1980      46.6670    -999.2500      29.9530      36.7520       1.5490       0.1325       2.5770      12.2760
   2207.3940       9.3330       0.0230      68.5100      46.6670    -999.2500      33.1460      36.3650       1.5580       0.1290       2.5680      11.9470
   2207.5464       9.3330       0.0510      69.3260      46.4280    -999.2500      32.1220      35.1840       1.5980       0.1214       2.5620      11.6720
   2207.6987       9.3330       0.0720      70.5740      45.3160    -999.2500      29.8130      33.7050       1.6280       0.1152       2.5550      11.4690
   2207.8511       9.3330       0.0700      73.3760      44.4440    -999.2500      22.7360      31.1420       1.6190       0.1140       2.5460      11.3460
   2208.0037       9.3330       0.0660      76.0290      44.4440    -999.2500      17.1810      28.6740       1.5990       0.1157       2.5390      11.2600
   2208.1560       9.3330       0.0580      78.1410      44.6160    -999.2500      17.3080      26.5480       1.5410       0.1196       2.5420      11.2270
   2208.3083       9.3370       0.0500      79.9980      45.4130    -999.2500      17.6830      24.6630       1.4460       0.1261       2.5440      11.2180
   2208.4607       9.3540       0.0400      80.9340      46.5660    -999.2500      18.9780      23.6620       1.2120       0.1355       2.5430      11.2380
   2208.6133       9.3750       0.0290      81.6230      49.0180    -999.2500      19.4410      22.4590       1.0280       0.1452       2.5380      11.2640
   2208.7656       9.4140       0.0160      81.4220      51.5590    -999.2500      16.7970      20.5220       1.0280       0.1539       2.5200      11.2900
   2208.9180       9.4440       0.0060      81.0190      54.4210    -999.2500      14.7130      19.0020       1.0280       0.1626       2.5070      11.3380
   2209.0703       9.4440       0.0060      79.8900      55.8300    -999.2500      14.7130      19.0020       1.0280       0.1708       2.5090      11.4290
   2209.2229       9.4470       0.0060      78.5580      51.9390    -999.2500      14.7740      19.0020       1.0280       0.1710       2.5130      11.5300
   2209.3752       9.4610       0.0060      76.4920      48.8890    -999.2500      15.0650      19.0020       1.0280       0.1589       2.5200      11.6240
   2209.5276       9.4800       0.0060      74.3450      48.8890    -999.2500      15.9030      19.1090       1.0280       0.1485       2.5280      11.6750
   2209.6799       9.5160       0.0060      71.9100      48.5300    -999.2500      18.7800      19.6080       1.0290       0.1498       2.5370      11.6250
   2209.8323       9.5550       0.0060      71.0790      46.8630    -999.2500      20.9180      19.9480       1.0320       0.1591       2.5430      11.5420
   2209.9849       9.6030       0.0060      76.0810      45.5560    -999.2500      20.2910      19.7050       1.0470       0.1747       2.5370      11.4360
   2210.1372       9.6630       0.0060      79.8800      45.5560    -999.2500      19.1320      19.1850       1.1040       0.1940       2.5290      11.3710
   2210.2896       9.7670       0.0060      79.3250      45.4370    -999.2500      15.9910      17.6520       1.3090       0.2163       2.5090      11.3510
   2210.4419       9.8610       0.0070      78.8890      44.8800    -999.2500      12.7670      15.8040       1.4340       0.2437       2.4860      11.3540
   2210.5945       9.9170       0.0130      78.8890      44.4440    -999.2500       9.2300      12.8120       1.2620       0.2754       2.4550      11.3540
   2210.7468       9.9680       0.0220      78.8200      44.4440    -999.2500       6.1320       9.9160       1.0340       0.2954       2.4150      11.3550
   2210.8992      10.0040       0.0450      78.5030      44.3080    -999.2500       4.6690       7.3700       0.5990       0.2934       2.3450      11.3790
   2211.0515      10.0410       0.0790      77.6610      43.6740    -999.2500       3.3340       5.0860       0.3250       0.2883       2.2600      11.4970
   2211.2041      10.0800       0.1500      74.9230      41.6370    -999.2500       2.4790       3.7590       0.6370       0.2955       2.1210      11.7020
   2211.3564      10.0990       0.2010      79.0890      34.4960    -999.2500       1.8870       2.8370       0.8770       0.3260       2.0110      11.9650
   2211.5088      10.0430       0.1760     108.2660      28.9150    -999.2500       2.2740       3.3830       0.8550       0.3842       2.0140      12.2020
   2211.6611      10.0000       0.1380     130.2290      29.0370    -999.2500       3.0150       4.5280       0.8450       0.4308       2.0200      12.2610
   2211.8135      10.0000       0.0580     126.1650      29.3450    -999.2500       5.0680       7.8520       0.8770       0.4383       2.0380      12.1110
   2211.9661       9.9910      -0.0060     117.0720      30.3350    -999.2500       7.1900      11.5920       1.0100       0.4245       2.0620      11.7760
   2212.1184       9.9500      -0.0050      89.7380      30.6310    -999.2500       9.5630      16.8420       1.5090       0.3989       2.1080      11.4050
   2212.2708       9.8910      -0.0040      68.3330      28.4100    -999.2500      12.1860      21.9480       1.8540       0.3630       2.1580      11.1920
   2212.4231       9.7740       0.0000      68.3330      26.9720    -999.2500      15.7360      26.5270       1.6390       0.3183       2.2260      11.1600
   2212.5757       9.6640       0.0050      68.4460      28.3920    -999.2500      19.5770      29.5150       1.4790       0.2741       2.2970      11.2970
