#------------------------------------------------------------------------------
#
#   Created by  : [OpenWorks] Log Export Utility (LEXP)
#   Created on  : 2016-05-18 11:17:23
#   Project     : CANT971
#   User        : R5K
#   Interpreter : PEP
#
#------------------------------------------------------------------------------
~VERSION INFORMATION
VERS. 2.0 : CWLS Log ASCII Standard - version 2.0
WRAP.  NO : One line per depth step
~WELL INFORMATION
#MNEMONIC   .UNIT                                           VALUE :DESCRIPTION
#------------------------------------------------------------------------------
STRT        .M                                           500.9712 :START DEPTH
STOP        .M                                          2798.8584 :STOP DEPTH
STEP        .M                                             0.1524 :STEP
NULL        .                                           -999.2500 :NULL VALUE
COMP        .                                   PEMEX EXPL & PROD :COMPANY
WELL        .                                                 269 :WELL
FLD         .                                           CANTARELL :FIELD
LOC         .                                             UNKNOWN :LOCATION
CNTY        .                                      CD. DEL CARMEN :COUNTY
STAT        .                                            CAMPECHE :STATE
CTRY        .                                              MEXICO :COUNTRY
SRVC        .                                             UNKNOWN :SERVICE COMPANY
DATE        .                                             UNKNOWN :LOG DATE
UWI         .                                          3060000483 :UNIQUE WELL ID
XCOORD      .                                       597315.110000 :SURFACE X
YCOORD      .                                      2143047.600000 :SURFACE Y
LAT         .                                           19.380361 :LATITUDE
LON         .                                          -92.073310 :LONGITUDE
ELEV        .M                                            27.7000 :SURFACE ELEV
ELEV_TYPE   .                                                  KB :ELEV TYPE
~CURVE INFORMATION
#MNEMONIC.UNIT        API CODE       : CURVE DESCRIPTION
#------------------------------------------------------------------------------
DEPTH    .M                          : Measured Depth
CALI     .inches      UNKNOWN        : CALI:Import:rC:NONE:v0 (auto-composite)
DRHO     .g/cm3       UNKNOWN        : DRHO:Import:rC:NONE:v0 (auto-composite)
DT       .us/ft       UNKNOWN        : DT:Import:rC:NONE:v0 (auto-composite)
GR       .API         UNKNOWN        : GR:Import:rC:NONE:v0 (auto-composite)
ILD      .ohm.m       UNKNOWN        : ILD:Import:rC:NONE:v0 (auto-composite)
LLD      .ohm.m       UNKNOWN        : LLD:Import:rC:NONE:v0 (auto-composite)
LLS      .ohm.m       UNKNOWN        : LLS:Import:rC:NONE:v0 (auto-composite)
MSFL     .ohm.m       UNKNOWN        : MSFL:Import:rC:NONE:v0 (auto-composite)
NPHI     .v/v_decimal UNKNOWN        : NPHI:Import:rC:NONE:v0 (auto-composite)
RHOB     .g/cm3       UNKNOWN        : RHOB:Import:rC:NONE:v0 (auto-composite)
SIGM     .cu          UNKNOWN        : SIGM:Import:rC:NONE:v0 (auto-composite)
~A     DEPTH         CALI         DRHO           DT           GR          ILD          LLD          LLS         MSFL         NPHI         RHOB         SIGM
# ...
   2783.3135       7.4400       0.0380      66.9020      67.0840    -999.2500    2999.0559    1264.0750       3.5580       0.0953       2.6800    -999.2500
   2783.4661       7.4440       0.0540      66.5600      68.3850    -999.2500    4001.2100    1807.5930       4.7470       0.0992       2.6700    -999.2500
   2783.6184       7.4440       0.0710      73.7790      69.8290    -999.2500    5213.5010    3335.8511       5.9140       0.1031       2.6820    -999.2500
   2783.7708       7.4440       0.0810      77.6490      71.7930    -999.2500    6078.3301    4416.1572       6.2690       0.1050       2.6940    -999.2500
   2783.9231       7.4440       0.0700      69.3130      73.2520    -999.2500    5676.7119    3863.7461       3.6690       0.1022       2.7110    -999.2500
   2784.0757       7.4560       0.0540      63.9080      72.8730    -999.2500    5149.9019    3280.7419       1.6830       0.0978       2.7250    -999.2500
   2784.2280       7.5130       0.0240      69.1380      72.3240    -999.2500    4168.7690    2586.7190       1.9270       0.0916       2.7320    -999.2500
   2784.3804       7.5840       0.0070      73.5520      71.1580    -999.2500    3215.5110    1979.0240       2.7510       0.0855       2.7410    -999.2500
   2784.5327       7.7060       0.0410      74.9860      69.7390    -999.2500    2363.9370    1686.2130       5.6720       0.0802       2.7530    -999.2500
   2784.6853       7.8110       0.0640      76.0640      67.3940    -999.2500    1594.7390    1362.5710       7.4270       0.0746       2.7660    -999.2500
   2784.8376       7.8510       0.0530      75.8450      65.7530    -999.2500    1124.7040     926.9650       4.9510       0.0687       2.7820    -999.2500
   2784.9900       7.8840       0.0450      75.6040      66.6670    -999.2500     790.2690     595.8420       3.2880       0.0653       2.7870    -999.2500
   2785.1423       7.8870       0.0480      75.2760      67.6660    -999.2500     946.1530     642.5200       4.5640       0.0680       2.7570    -999.2500
   2785.2947       7.8890       0.0540      74.5750      68.9740    -999.2500    1334.3459     727.0920       5.2430       0.0711       2.7330    -999.2500
   2785.4473       7.8890       0.0700      72.5150      69.4000    -999.2500    2566.8369     949.3820       3.7520       0.0725       2.7330    -999.2500
   2785.5996       7.8890       0.0800      69.9160      66.6210    -999.2500    3968.8379    1198.2360       2.6190       0.0732       2.7320    -999.2500
   2785.7520       7.8890       0.0650      65.3650      64.9250    -999.2500    5984.2212    1543.2130       2.7830       0.0733       2.7290    -999.2500
   2785.9043       7.8890       0.0500      60.9430      67.1460    -999.2500    7503.9458    1937.2140       2.9770       0.0733       2.7260    -999.2500
   2786.0569       7.8890       0.0320      56.9880      68.6490    -999.2500    7220.9312    2509.5181       3.2760       0.0733       2.7220    -999.2500
   2786.2092       7.8890       0.0210      54.9710      67.5380    -999.2500    6824.3799    3080.8330       3.3840       0.0733       2.7180    -999.2500
   2786.3616       7.8890       0.0370      59.9680      67.3880    -999.2500    6016.6870    3648.5649       2.7940       0.0733       2.7140    -999.2500
   2786.5139       7.8890       0.0490      63.5890      70.7190    -999.2500    5256.3091    3945.6799       2.3890       0.0728       2.7130    -999.2500
   2786.6665       7.8890       0.0440      62.1990      72.3750    -999.2500    4668.1460    3257.8149       2.6540       0.0713       2.7200    -999.2500
   2786.8188       7.8890       0.0370      60.4800      67.9290    -999.2500    4151.8970    2743.6621       2.8390       0.0687       2.7270    -999.2500
   2786.9712       7.8890       0.0240      57.5700      65.0450    -999.2500    3896.2661    2859.0291       2.7360       0.0637       2.7300    -999.2500
   2787.1235       7.8890       0.0110      54.4180      67.8210    -999.2500    3695.6980    2956.2390       2.5740       0.0576       2.7340    -999.2500
   2787.2759       7.8890       0.0010      50.3840      69.7610    -999.2500    3695.6980    2987.3140       2.1960       0.0496       2.7440    -999.2500
   2787.4285       7.8890      -0.0060      47.9420      68.6490    -999.2500    3716.6570    2980.0259       1.9220       0.0408       2.7570    -999.2500
   2787.5808       7.8890      -0.0060      51.2740      67.8090    -999.2500    3813.6279    2833.6089       2.0250       0.0312       2.7810    -999.2500
   2787.7332       7.8890      -0.0050      53.8290      67.9550    -999.2500    3880.7771    2718.7119       2.0610       0.0218       2.7990    -999.2500
   2787.8855       7.8890      -0.0020      53.5510      68.8420    -999.2500    3839.2200    2718.7119       1.8550       0.0137       2.7930    -999.2500
   2788.0381       7.8890       0.0050      53.4490      72.4320    -999.2500    3755.8511    2718.7119       1.6480       0.0081       2.7820    -999.2500
   2788.1904       7.8890       0.0220      53.9850      76.0250    -999.2500    3520.7329    2718.7119       1.4380    -999.2500       2.7480    -999.2500
   2788.3428       7.8890       0.0410      54.6260      79.6260    -999.2500    3336.2009    2718.7119       1.2320    -999.2500       2.7120    -999.2500
   2788.4951       7.8890       0.0650      55.6480      83.3150    -999.2500    3336.2009    2718.7119       1.0360    -999.2500       2.6710    -999.2500
   2788.6477       7.8890       0.0800      56.5260      87.3220    -999.2500    3336.2009    2718.7119       0.9310    -999.2500       2.6320    -999.2500
   2788.8000       7.8890       0.0650      56.8800      91.2870    -999.2500    3336.2009    2718.7119       1.1580    -999.2500       2.6050    -999.2500
   2788.9524       7.8590       0.0490      57.1640      95.0980    -999.2500    3336.2009    2718.7119       1.5290    -999.2500       2.5810    -999.2500
   2789.1047       7.7190       0.0280      57.1960      98.4750    -999.2500    3336.2009    2718.7119       2.4200    -999.2500       2.5660    -999.2500
   2789.2571       7.5800       0.0150    -999.2500     100.2820    -999.2500    3336.2009    2718.7119       3.5190    -999.2500       2.5530    -999.2500
   2789.4097       7.4440       0.0350    -999.2500     101.7550    -999.2500    3336.2009    2718.7119       5.3750    -999.2500       2.5460    -999.2500
   2789.5620       7.2880       0.0570    -999.2500     102.0170    -999.2500    3336.2009    2718.7119       6.7470    -999.2500       2.5390    -999.2500
   2789.7144       7.0650       0.0840    -999.2500     102.2220    -999.2500    3336.2009    2718.7119       6.3680    -999.2500       2.5320    -999.2500
   2789.8667       6.8890       0.1100    -999.2500     102.2220    -999.2500    3360.4600    2738.4810       5.8370    -999.2500       2.5240    -999.2500
   2790.0193       6.8890       0.1290    -999.2500     102.1460    -999.2500    3472.9580    2830.1580       4.7490    -999.2500       2.5090    -999.2500
   2790.1716       6.9010       0.1420    -999.2500     101.7910    -999.2500    3574.0229    2930.9580       3.6480    -999.2500       2.4920    -999.2500
   2790.3240       6.9570       0.1330    -999.2500     101.5140    -999.2500    3633.6860    3064.7930       2.4980    -999.2500       2.4650    -999.2500
   2790.4763       6.9980       0.1220    -999.2500    -999.2500    -999.2500    3682.1289    3163.5259       1.5050    -999.2500       2.4390    -999.2500
   2790.6289       6.9880       0.1020    -999.2500    -999.2500    -999.2500    3689.7361    3134.4771       1.0850    -999.2500       2.4140    -999.2500
   2790.7812       6.9460       0.0840    -999.2500    -999.2500    -999.2500    3695.6980    3069.2351       0.7560    -999.2500       2.3950    -999.2500
   2790.9336       6.7900       0.0710    -999.2500    -999.2500    -999.2500    3695.6980    2872.8210       0.7560    -999.2500    -999.2500    -999.2500
   2791.0859       6.6670       0.0610    -999.2500    -999.2500    -999.2500    3695.6980    2735.2070       0.7560    -999.2500    -999.2500    -999.2500
