#------------------------------------------------------------------------------
#
#   Created by  : [OpenWorks] Log Export Utility (LEXP)
#   Created on  : 2016-05-18 11:17:23
#   Project     : CANT971
#   User        : R5K
#   Interpreter : PEP
#
#------------------------------------------------------------------------------
~VERSION INFORMATION
VERS. 2.0 : CWLS Log ASCII Standard - version 2.0
WRAP.  NO : One line per depth step
~WELL INFORMATION
#MNEMONIC   .UNIT                                           VALUE :DESCRIPTION
#------------------------------------------------------------------------------
STRT        .M                                           500.9712 :START DEPTH
STOP        .M                                          2798.8584 :STOP DEPTH
STEP        .M                                             0.1524 :STEP
NULL        .                                           -999.2500 :NULL VALUE
COMP        .                                   PEMEX EXPL & PROD :COMPANY
WELL        .                                                 269 :WELL
FLD         .                                           CANTARELL :FIELD
LOC         .                                             UNKNOWN :LOCATION
CNTY        .                                      CD. DEL CARMEN :COUNTY
STAT        .                                            CAMPECHE :STATE
CTRY        .                                              MEXICO :COUNTRY
SRVC        .                                             UNKNOWN :SERVICE COMPANY
DATE        .                                             UNKNOWN :LOG DATE
UWI         .                                          3060000483 :UNIQUE WELL ID
XCOORD      .                                       597315.110000 :SURFACE X
YCOORD      .                                      2143047.600000 :SURFACE Y
LAT         .                                           19.380361 :LATITUDE
LON         .                                          -92.073310 :LONGITUDE
ELEV        .M                                            27.7000 :SURFACE ELEV
ELEV_TYPE   .                                                  KB :ELEV TYPE
~CURVE INFORMATION
#MNEMONIC.UNIT        API CODE       : CURVE DESCRIPTION
#------------------------------------------------------------------------------
DEPTH    .M                          : Measured Depth
CALI     .inches      UNKNOWN        : CALI:Import:rC:NONE:v0 (auto-composite)
DRHO     .g/cm3       UNKNOWN        : DRHO:Import:rC:NONE:v0 (auto-composite)
DT       .us/ft       UNKNOWN        : DT:Import:rC:NONE:v0 (auto-composite)
GR       .API         UNKNOWN        : GR:Import:rC:NONE:v0 (auto-composite)
ILD      .ohm.m       UNKNOWN        : ILD:Import:rC:NONE:v0 (auto-composite)
LLD      .ohm.m       UNKNOWN        : LLD:Import:rC:NONE:v0 (auto-composite)
LLS      .ohm.m       UNKNOWN        : LLS:Import:rC:NONE:v0 (auto-composite)
MSFL     .ohm.m       UNKNOWN        : MSFL:Import:rC:NONE:v0 (auto-composite)
NPHI     .v/v_decimal UNKNOWN        : NPHI:Import:rC:NONE:v0 (auto-composite)
RHOB     .g/cm3       UNKNOWN        : RHOB:Import:rC:NONE:v0 (auto-composite)
SIGM     .cu          UNKNOWN        : SIGM:Import:rC:NONE:v0 (auto-composite)
~A     DEPTH         CALI         DRHO           DT           GR          ILD          LLD          LLS         MSFL         NPHI         RHOB         SIGM
# ...
   2252.3521       9.5730       0.0230      82.1240      38.2840    -999.2500      73.9320      55.8700       7.3400       0.1219       2.5880       9.8930
   2252.5044       9.5940       0.0060      86.3310      40.1070    -999.2500      62.0150      39.2960       3.6400       0.1215       2.6490       9.9870
   2252.6567       9.6420       0.0070      69.3940      41.8030    -999.2500      63.7490      41.1530       4.2340       0.1151       2.6430      10.0430
   2252.8091       9.6900       0.0080      62.9460      43.0370    -999.2500      66.2230      43.9040       5.2470       0.1089       2.6410      10.0000
   2252.9617       9.7390       0.0090      94.6240      44.3220    -999.2500      71.4410      49.8990       7.7840       0.1079       2.6490       9.9450
   2253.1140       9.7660       0.0100     112.7720      45.7940    -999.2500      76.7610      57.7570       9.1350       0.1105       2.6550       9.9170
   2253.2664       9.7100       0.0120      81.9520      47.5170    -999.2500      82.4560      72.3530       6.1950       0.1155       2.6490       9.9670
   2253.4187       9.6670       0.0160      59.4020      50.1540    -999.2500      88.5560      83.5460       4.0120       0.1216       2.6350      10.0360
   2253.5713       9.6670       0.0240      66.9340      52.1550    -999.2500      96.1520      82.3600       4.5800       0.1279       2.5940      10.0380
   2253.7236       9.6670       0.0320      77.2290      51.8430    -999.2500     104.2530      78.3430       4.7750       0.1333       2.5620       9.9740
   2253.8760       9.6670       0.0380      97.5320      50.9500    -999.2500     114.2360      64.0710       3.6230       0.1375       2.5650       9.8490
   2254.0283       9.6670       0.0450     116.2250      47.9270    -999.2500     126.4380      52.9940       2.7510       0.1426       2.5650       9.6940
   2254.1809       9.6670       0.0510     129.1150      45.7500    -999.2500     146.8700      53.5480       2.8990       0.1504       2.5570       9.5570
   2254.3333       9.6670       0.0510     139.2420      46.6500    -999.2500     152.9690      57.2050       3.2910       0.1628       2.5400       9.4690
   2254.4856       9.6690       0.0260     139.3550      47.7610    -999.2500     105.6050      72.1080       4.5650       0.1790       2.4900       9.4660
   2254.6379       9.6940       0.0090     139.4440      49.6380    -999.2500      68.2910      80.7600       5.4010       0.1879       2.4530       9.5390
   2254.7903       9.8030       0.0220     139.4440      50.9320    -999.2500      68.2910      66.6330       4.6390       0.1834       2.4670       9.6390
   2254.9429       9.8860       0.0400     139.4440      50.0990    -999.2500      67.1060      53.3710       3.7630       0.1775       2.4670       9.7300
   2255.0952       9.8730       0.0760     139.4440      48.7860    -999.2500      61.4990      43.2440       2.4790       0.1816       2.4140       9.8580
   2255.2476       9.8420       0.1230     139.4440      45.7310    -999.2500      53.9130      34.6120       1.4710       0.2037       2.3500      10.0260
   2255.3999       9.7440       0.2100     139.4440      43.4150    -999.2500      38.9720      31.4310       1.4710       0.2442       2.2500      10.2430
   2255.5525       9.6720       0.2680     139.4440      43.7970    -999.2500      27.1870      27.8640       1.4560       0.2734       2.1580      10.4500
   2255.7048       9.6980       0.2230     139.4440      44.2170    -999.2500      27.1870      22.8990       1.3840       0.2686       2.0980      10.5780
   2255.8572       9.7360       0.1690     138.6530      44.7710    -999.2500      28.1210      19.4540       1.3450       0.2334       2.0630      10.6700
   2256.0095       9.8220       0.0870     135.0050      45.3630    -999.2500      32.5260      21.5560       1.4230       0.1772       2.1220      10.7510
   2256.1621       9.8750       0.0240     130.6630      46.0940    -999.2500      38.6650      24.5080       1.6500       0.1353       2.1940      10.8870
   2256.3145       9.8090       0.0340     123.7990      46.1870    -999.2500      51.2260      30.5480       2.4140       0.1299       2.3080      11.0560
   2256.4668       9.7100       0.0450     116.7190      43.9660    -999.2500      65.9210      37.6990       2.9020       0.1356       2.4170      11.1900
   2256.6191       9.4930       0.0610     108.8520      42.4610    -999.2500      88.5530      48.9090       2.3970       0.1333       2.5040      11.2290
   2256.7715       9.2510       0.0750      97.7170      43.5720    -999.2500     114.6490      60.6350       2.0090       0.1253       2.5820      11.1110
   2256.9241       8.9240       0.0850      74.7010      43.9650    -999.2500     153.5770      74.2410       2.0500       0.1138       2.6250      10.8400
   2257.0764       8.6670       0.0950      59.0710      41.7440    -999.2500     203.8830      86.1660       2.1480       0.1012       2.6620      10.4820
   2257.2288       8.6670       0.1100      70.1770      40.0000    -999.2500     296.5700      92.0070       2.4540       0.0904       2.6770      10.1500
   2257.3811       8.6670       0.1190      76.7920      40.0000    -999.2500     351.5690      99.7810       2.9450       0.0864       2.6860       9.8980
   2257.5337       8.6670       0.1050      67.0660      40.2390    -999.2500     266.8200     114.5880       4.1110       0.0914       2.6720       9.7400
   2257.6860       8.6670       0.0840      60.0320      41.3500    -999.2500     204.8060     124.8890       4.9420       0.0962       2.6680       9.6500
   2257.8384       8.6670       0.0370      62.7510      41.5060    -999.2500     227.5270     118.8730       4.5620       0.0944       2.6980       9.5550
   2257.9907       8.6670       0.0010      66.4590      38.1720    -999.2500     244.9890     108.4940       4.0690       0.0893       2.7190       9.4730
   2258.1433       8.6670       0.0050      73.7390      35.5560    -999.2500     242.9350      82.2320       3.1640       0.0830       2.7040       9.4390
   2258.2957       8.6670       0.0130      79.1240      35.5560    -999.2500     235.6170      61.6480       2.4660       0.0745       2.6850       9.4700
   2258.4480       8.6670       0.0300      77.6430      35.1960    -999.2500     208.6670      61.6480       2.5230       0.0654       2.6460       9.5500
   2258.6003       8.6670       0.0400      74.6350      33.5290    -999.2500     178.4640      59.6490       2.6160       0.0680       2.6040       9.6160
   2258.7527       8.6690       0.0210      66.1200      32.8200    -999.2500     136.1830      50.3660       2.8380       0.0873       2.5490       9.6490
   2258.9053       8.6830       0.0230      61.7260      35.5990    -999.2500     103.2160      48.9880       2.9960       0.1007       2.5210       9.6580
   2259.0576       8.7360       0.1000      72.2860      37.5380    -999.2500     105.0180      76.2840       2.9200       0.0945       2.5930       9.6240
   2259.2100       8.7660       0.1580      80.3680      36.4280    -999.2500     107.3510      95.7580       2.8690       0.0873       2.6420       9.5770
   2259.3623       8.7100       0.1460      79.4990      36.0340    -999.2500     111.6560      86.7130       2.9090       0.0914       2.6030       9.5540
   2259.5149       8.6670       0.1270      77.2050      38.2570    -999.2500     116.9690      80.5000       2.9910       0.0963       2.5760       9.5890
   2259.6672       8.6670       0.0800      69.7380      39.5200    -999.2500     126.0460      84.5720       3.2270       0.0942       2.5930       9.6750
   2259.8196       8.6670       0.0440      65.0920      37.2990    -999.2500     138.1710      90.1710       3.5340       0.0870       2.6130       9.7250
   2259.9719       8.6670       0.0440      70.6460      35.6150    -999.2500     161.6320     101.3440       4.0950       0.0775       2.6440       9.6870
   2260.1245       8.6670       0.0450      73.5610      35.8910    -999.2500     200.2400     124.7040       4.3390       0.0738       2.6770       9.6170
