#------------------------------------------------------------------------------
#
#   Created by  : [OpenWorks] Log Export Utility (LEXP)
#   Created on  : 2016-05-18 11:17:23
#   Project     : CANT971
#   User        : R5K
#   Interpreter : PEP
#
#------------------------------------------------------------------------------
~VERSION INFORMATION
VERS. 2.0 : CWLS Log ASCII Standard - version 2.0
WRAP.  NO : One line per depth step
~WELL INFORMATION
#MNEMONIC   .UNIT                                           VALUE :DESCRIPTION
#------------------------------------------------------------------------------
STRT        .M                                           500.9712 :START DEPTH
STOP        .M                                          2798.8584 :STOP DEPTH
STEP        .M                                             0.1524 :STEP
NULL        .                                           -999.2500 :NULL VALUE
COMP        .                                   PEMEX EXPL & PROD :COMPANY
WELL        .                                                 269 :WELL
FLD         .                                           CANTARELL :FIELD
LOC         .                                             UNKNOWN :LOCATION
CNTY        .                                      CD. DEL CARMEN :COUNTY
STAT        .                                            CAMPECHE :STATE
CTRY        .                                              MEXICO :COUNTRY
SRVC        .                                             UNKNOWN :SERVICE COMPANY
DATE        .                                             UNKNOWN :LOG DATE
UWI         .                                          3060000483 :UNIQUE WELL ID
XCOORD      .                                       597315.110000 :SURFACE X
YCOORD      .                                      2143047.600000 :SURFACE Y
LAT         .                                           19.380361 :LATITUDE
LON         .                                          -92.073310 :LONGITUDE
ELEV        .M                                            27.7000 :SURFACE ELEV
ELEV_TYPE   .                                                  KB :ELEV TYPE
~CURVE INFORMATION
#MNEMONIC.UNIT        API CODE       : CURVE DESCRIPTION
#------------------------------------------------------------------------------
DEPTH    .M                          : Measured Depth
CALI     .inches      UNKNOWN        : CALI:Import:rC:NONE:v0 (auto-composite)
DRHO     .g/cm3       UNKNOWN        : DRHO:Import:rC:NONE:v0 (auto-composite)
DT       .us/ft       UNKNOWN        : DT:Import:rC:NONE:v0 (auto-composite)
GR       .API         UNKNOWN        : GR:Import:rC:NONE:v0 (auto-composite)
ILD      .ohm.m       UNKNOWN        : ILD:Import:rC:NONE:v0 (auto-composite)
LLD      .ohm.m       UNKNOWN        : LLD:Import:rC:NONE:v0 (auto-composite)
LLS      .ohm.m       UNKNOWN        : LLS:Import:rC:NONE:v0 (auto-composite)
MSFL     .ohm.m       UNKNOWN        : MSFL:Import:rC:NONE:v0 (auto-composite)
NPHI     .v/v_decimal UNKNOWN        : NPHI:Import:rC:NONE:v0 (auto-composite)
RHOB     .g/cm3       UNKNOWN        : RHOB:Import:rC:NONE:v0 (auto-composite)
SIGM     .cu          UNKNOWN        : SIGM:Import:rC:NONE:v0 (auto-composite)
~A     DEPTH         CALI         DRHO           DT           GR          ILD          LLD          LLS         MSFL         NPHI         RHOB         SIGM
# ...
   2735.7649       8.0020       0.0040      62.7560      31.7790    -999.2500     382.5670     473.0180      12.4550       0.0749       2.7390       9.5430
   2735.9172       8.0100       0.0090      66.4720      32.4020    -999.2500     411.2450     565.3300      10.3220       0.0778       2.7240       9.4020
   2736.0696       8.0420       0.0190      88.6850      33.4180    -999.2500     319.7770     471.0390       5.0080       0.0836       2.7050       9.2720
   2736.2219       8.0720       0.0320     105.7050      35.8610    -999.2500     224.3710     373.3100       0.8740       0.0934       2.6830       9.2520
   2736.3745       8.0940       0.0610     103.8200      37.7440    -999.2500     114.6290     263.0610       1.0390       0.1091       2.6470       9.3880
   2736.5269       8.1110       0.0810     100.5880      37.5870    -999.2500      29.7570     166.1640       1.9030       0.1325       2.6080       9.6180
   2736.6792       8.1110       0.0710      92.4760      37.3050    -999.2500      35.0450     117.6710       5.2980       0.1626       2.5630       9.9600
   2736.8315       8.0990       0.0580      88.1460      36.5700    -999.2500      44.6120      82.0270       7.5930       0.1817       2.5340      10.3490
   2736.9839       8.0430       0.0350      97.5940      35.7920    -999.2500      69.7730      93.1990       5.8790       0.1778       2.5620      10.7380
   2737.1365       8.0000       0.0170     102.7050      34.8550    -999.2500     102.6040     111.3270       5.1560       0.1629       2.5950      11.0570
   2737.2888       8.0000       0.0170      92.0840      33.6760    -999.2500     163.2660     154.6910       8.0290       0.1467       2.6440      11.1810
   2737.4412       8.0000       0.0150      79.2190      31.6160    -999.2500     220.4070     231.4610       9.3520       0.1395       2.6800      11.1430
   2737.5935       8.0000       0.0070      58.1700      30.1650    -999.2500     264.7070     430.0380       5.0240       0.1475       2.6640      11.0170
   2737.7461       8.0040       0.0000      43.2060      30.9290    -999.2500     306.6390     569.0030       1.6530       0.1570       2.6410      10.8960
   2737.8984       8.0230       0.0020      50.3310      31.8140    -999.2500     339.9720     491.5530       1.7580       0.1589       2.5900      10.8920
   2738.0508       8.0430       0.0060      62.4000      33.1320    -999.2500     375.6550     438.0650       2.4620       0.1553       2.5510      10.9880
   2738.2031       8.0700       0.0140      92.5040      34.4280    -999.2500     419.9160     471.1860       5.3340       0.1471       2.5580      11.1800
   2738.3557       8.1060       0.0190     108.0740      35.6460    -999.2500     462.3930     510.0410       7.1660       0.1352       2.5750      11.3170
   2738.5081       8.1710       0.0140      70.8380      37.2080    -999.2500     498.3890     569.7230       5.2200       0.1211       2.6330      11.2760
   2738.6604       8.2100       0.0110      42.2870      40.0190    -999.2500     543.4500     609.8750       3.7220       0.1130       2.6760      10.9580
   2738.8127       8.1550       0.0120      45.1500      42.1020    -999.2500     621.6100     579.3750       3.8410       0.1163       2.6680      10.4970
   2738.9651       8.1110       0.0130      54.8090      41.5470    -999.2500     677.1660     539.6960       4.1020       0.1208       2.6620      10.1610
   2739.1177       8.1110       0.0150      89.1800      41.1430    -999.2500     650.5400     466.6380       4.8830       0.1198       2.6650      10.0790
   2739.2700       8.0990       0.0170     115.3540      41.2900    -999.2500     614.2890     413.1100       6.4120       0.1152       2.6690      10.2530
   2739.4224       8.0430       0.0160     111.8560      41.6080    -999.2500     542.8620     430.2760      10.6530       0.1078       2.6790      10.4600
   2739.5747       8.0000       0.0130     101.8400      42.5470    -999.2500     461.1700     450.0650      13.1710       0.0990       2.6920      10.5420
   2739.7273       8.0000       0.0060      68.1050      44.1280    -999.2500     342.1270     479.3930       9.4240       0.0897       2.7150      10.4590
   2739.8796       8.0070       0.0010      49.7160      48.0430    -999.2500     236.6400     486.5680       6.6470       0.0809       2.7330      10.2760
   2740.0320       8.0400       0.0040      86.9220      50.5100    -999.2500     180.7260     413.4870       7.3840       0.0735       2.7300      10.0260
   2740.1843       8.0950       0.0070     115.7480      47.7340    -999.2500     130.2620     326.8010       7.8680       0.0664       2.7280       9.8050
   2740.3367       8.2280       0.0100     114.0630      45.6500    -999.2500      99.6470     190.5750       7.4310       0.0604       2.7310       9.6360
   2740.4893       8.3290       0.0130     106.1440      46.0860    -999.2500      76.2030      85.4120       6.6650       0.0619       2.7360       9.5390
   2740.6416       8.3110       0.0150      75.6190      46.5410    -999.2500      78.7610      92.8600       4.7070       0.0746       2.7470       9.4970
   2740.7939       8.2770       0.0180      57.1120      47.0630    -999.2500      82.0680     103.1290       3.4280       0.0855       2.7560       9.4970
   2740.9463       8.1840       0.0230      82.3990      47.5060    -999.2500      88.1020     123.6790       4.6260       0.0862       2.7530       9.5330
   2741.0989       8.1110       0.0270     100.5110      47.6580    -999.2500      90.0310     134.3500       5.1490       0.0824       2.7490       9.6150
   2741.2512       8.1110       0.0330      92.5920      47.7080    -999.2500      77.0700     109.1780       3.2250       0.0780       2.7380       9.6820
   2741.4036       8.1120       0.0400      82.6410      47.3850    -999.2500      64.2710      83.3880       1.7810       0.0760       2.7250       9.7420
   2741.5559       8.1190       0.0490      65.2790      46.9700    -999.2500      52.0670      55.3470       2.0900       0.0786       2.7080       9.7830
   2741.7085       8.1310       0.0520      54.5200      46.2220    -999.2500      40.5600      33.5950       2.2890       0.0837       2.6900       9.8480
   2741.8608       8.1620       0.0350      67.7300      44.9060    -999.2500      31.5870      34.6730       2.0890       0.0909       2.6680       9.9070
   2742.0132       8.1940       0.0220      80.0370      41.5320    -999.2500      25.2290      36.6020       1.8190       0.1037       2.6430       9.9560
   2742.1655       8.2330       0.0220      89.0460      39.0700    -999.2500      28.4210      41.6090       1.2940       0.1233       2.6130       9.9740
   2742.3179       8.2710       0.0220      92.3930      39.9060    -999.2500      33.0870      48.2570       0.9140       0.1387       2.5920       9.9850
   2742.4705       8.3060       0.0220      75.1640      41.0330    -999.2500      43.1130      60.8650       1.0600       0.1415       2.6060      10.0800
   2742.6228       8.3210       0.0220      65.8160      43.2210    -999.2500      74.7340      76.5420       1.9550       0.1349       2.6260      10.2060
   2742.7751       8.2660       0.0220      84.9740      45.7240    -999.2500     185.2180     103.3230       5.5560       0.1213       2.6680      10.4050
   2742.9275       8.2240       0.0200      95.0250      49.3660    -999.2500     269.2280     133.6250       7.7690       0.1102       2.6930      10.5420
   2743.0801       8.2340       0.0090      71.9610      52.2020    -999.2500     256.9750     176.7270       4.9380       0.1085       2.6630      10.5910
   2743.2324       8.2480       0.0010      58.8170      52.1080    -999.2500     233.6580     200.0520       4.1000       0.1125       2.6300      10.5950
   2743.3848       8.2780       0.0060      81.5840      51.8150    -999.2500     169.9060     151.7810      10.4800       0.1212       2.5890      10.6300
   2743.5371       8.3110       0.0160      98.3060      50.7980    -999.2500     122.0740     116.3070      14.7660       0.1347       2.5560      10.7620
