#------------------------------------------------------------------------------
#
#   Created by  : [OpenWorks] Log Export Utility (LEXP)
#   Created on  : 2016-05-18 11:17:23
#   Project     : CANT971
#   User        : R5K
#   Interpreter : PEP
#
#------------------------------------------------------------------------------
~VERSION INFORMATION
VERS. 2.0 : CWLS Log ASCII Standard - version 2.0
WRAP.  NO : One line per depth step
~WELL INFORMATION
#MNEMONIC   .UNIT                                           VALUE :DESCRIPTION
#------------------------------------------------------------------------------
STRT        .M                                           500.9712 :START DEPTH
STOP        .M                                          2798.8584 :STOP DEPTH
STEP        .M                                             0.1524 :STEP
NULL        .                                           -999.2500 :NULL VALUE
COMP        .                                   PEMEX EXPL & PROD :COMPANY
WELL        .                                                 269 :WELL
FLD         .                                           CANTARELL :FIELD
LOC         .                                             UNKNOWN :LOCATION
CNTY        .                                      CD. DEL CARMEN :COUNTY
STAT        .                                            CAMPECHE :STATE
CTRY        .                                              MEXICO :COUNTRY
SRVC        .                                             UNKNOWN :SERVICE COMPANY
DATE        .                                             UNKNOWN :LOG DATE
UWI         .                                          3060000483 :UNIQUE WELL ID
XCOORD      .                                       597315.110000 :SURFACE X
YCOORD      .                                      2143047.600000 :SURFACE Y
LAT         .                                           19.380361 :LATITUDE
LON         .                                          -92.073310 :LONGITUDE
ELEV        .M                                            27.7000 :SURFACE ELEV
ELEV_TYPE   .                                                  KB :ELEV TYPE
~CURVE INFORMATION
#MNEMONIC.UNIT        API CODE       : CURVE DESCRIPTION
#------------------------------------------------------------------------------
DEPTH    .M                          : Measured Depth
CALI     .inches      UNKNOWN        : CALI:Import:rC:NONE:v0 (auto-composite)
DRHO     .g/cm3       UNKNOWN        : DRHO:Import:rC:NONE:v0 (auto-composite)
DT       .us/ft       UNKNOWN        : DT:Import:rC:NONE:v0 (auto-composite)
GR       .API         UNKNOWN        : GR:Import:rC:NONE:v0 (auto-composite)
ILD      .ohm.m       UNKNOWN        : ILD:Import:rC:NONE:v0 (auto-composite)
LLD      .ohm.m       UNKNOWN        : LLD:Import:rC:NONE:v0 (auto-composite)
LLS      .ohm.m       UNKNOWN        : LLS:Import:rC:NONE:v0 (auto-composite)
MSFL     .ohm.m       UNKNOWN        : MSFL:Import:rC:NONE:v0 (auto-composite)
NPHI     .v/v_decimal UNKNOWN        : NPHI:Import:rC:NONE:v0 (auto-composite)
RHOB     .g/cm3       UNKNOWN        : RHOB:Import:rC:NONE:v0 (auto-composite)
SIGM     .cu          UNKNOWN        : SIGM:Import:rC:NONE:v0 (auto-composite)
~A     DEPTH         CALI         DRHO           DT           GR          ILD          LLD          LLS         MSFL         NPHI         RHOB         SIGM
# ...
   2513.8704       8.3330      -0.0100      75.4170      38.1590    -999.2500       1.7740      18.3120       0.5870       0.1080       2.4740      16.9750
   2514.0227       8.3330      -0.0080      84.7850      39.9190    -999.2500       2.2700       4.0170       0.7590       0.1368       2.4140      15.6060
   2514.1753       8.3330       0.0030      83.7890      41.8780    -999.2500       3.9070       5.5070       1.2250       0.1403       2.4300      14.3960
   2514.3276       8.3330       0.0090      80.8220      44.5630    -999.2500       8.3850       9.5600       1.7440       0.1302       2.4520      13.5390
   2514.4800       8.3330       0.0010      70.7100      46.2820    -999.2500      23.3500      22.8980       2.4520       0.1123       2.5000      13.0420
   2514.6323       8.3330      -0.0050      62.7840      44.5020    -999.2500      34.9080      32.2790       4.0440       0.0914       2.5460      12.8500
   2514.7849       8.3330       0.0010      62.8100      42.4120    -999.2500      33.9450      27.2560       8.8510       0.0714       2.5820      13.0790
   2514.9373       8.3330       0.0130      62.9040      39.1910    -999.2500      31.6660      23.3180      12.3670       0.0590       2.6070      13.5890
   2515.0896       8.3330       0.0430      63.2400      36.8080    -999.2500      24.5760      23.3180      11.2000       0.0589       2.5870      14.1960
   2515.2419       8.3210       0.0660      63.5460      37.4600    -999.2500      19.0020      23.2770      10.2840       0.0605       2.5730      14.4750
   2515.3943       8.2660       0.0620      63.7380      38.3680    -999.2500      19.0020      23.0880      10.2840       0.0576       2.5760      14.1790
   2515.5469       8.2220       0.0520      63.9440      40.2090    -999.2500      18.8640      22.5140      10.2330       0.0554       2.5810      13.7190
   2515.6992       8.2220       0.0230      64.1980      42.1940    -999.2500      18.2200      20.5460       9.9980       0.0571       2.5880      13.2610
   2515.8516       8.2220       0.0000      64.5830      44.7000    -999.2500      17.3140      19.0020       9.6240       0.0608       2.5920      12.9880
   2516.0039       8.2220       0.0000      65.4390      46.4530    -999.2500      15.4460      19.0020       8.7450       0.0654       2.5840      12.8020
   2516.1565       8.2220       0.0000      65.9980      45.4620    -999.2500      14.9790      19.3990       7.9240       0.0699       2.5750      12.6940
   2516.3088       8.2220       0.0000      65.4730      44.2430    -999.2500      19.6470      21.2380       7.3100       0.0735       2.5610      12.6590
   2516.4612       8.2220      -0.0010      64.9350      42.2030    -999.2500      23.1980      23.3200       6.9040       0.0756       2.5530      12.7050
   2516.6135       8.2220      -0.0040      64.3490      40.0580    -999.2500      22.6360      26.2870       7.2510       0.0749       2.5640      12.8330
   2516.7661       8.2220      -0.0060      63.8890      37.5350    -999.2500      21.6420      28.3830       7.6150       0.0717       2.5770      12.9520
   2516.9185       8.2220      -0.0060      63.8890      35.8290    -999.2500      19.0680      27.3140       8.0440       0.0659       2.5960      13.0240
   2517.0708       8.2220      -0.0060      63.7090      37.0920    -999.2500      16.5100      25.9500       8.2670       0.0612       2.6090      13.0020
   2517.2231       8.2220      -0.0060      62.8750      38.5290    -999.2500      14.0140      23.5190       7.7480       0.0601       2.6020      12.9340
   2517.3755       8.2220      -0.0060      62.3380      40.5990    -999.2500      11.4940      20.8680       6.7750       0.0605       2.5910      12.8860
   2517.5281       8.2220      -0.0060      62.8730      42.1400    -999.2500       8.8830      17.4170       4.1570       0.0616       2.5650      12.8960
   2517.6804       8.2220      -0.0030      63.4450      41.7630    -999.2500       7.0620      14.7660       2.1550       0.0637       2.5440      12.9560
   2517.8328       8.2220       0.0110      64.1460      41.2340    -999.2500       8.1530      15.0120       2.3850       0.0672       2.5440      13.0240
   2517.9851       8.2220       0.0210      64.9410      40.1570    -999.2500       9.4670      15.6140       3.6490       0.0715       2.5440      13.0280
   2518.1377       8.2220       0.0180      66.0790      38.6670    -999.2500      11.6020      17.5140       8.6780       0.0760       2.5440      12.9760
   2518.2900       8.2100       0.0130      67.4780      35.6770    -999.2500      13.1440      18.9000      12.1610       0.0789       2.5440      12.8560
   2518.4424       8.1550       0.0020      69.8250      33.4390    -999.2500      12.4980      18.4260      10.0420       0.0791       2.5460      12.7040
   2518.5947       8.1110      -0.0060      71.6070      33.9270    -999.2500      12.0680      18.0550       8.9080       0.0780       2.5470      12.5620
   2518.7471       8.1110      -0.0060      71.3290      34.8330    -999.2500      12.4340      18.0550      11.3600       0.0764       2.5480      12.4690
   2518.8997       8.1110      -0.0060      71.1710      37.2620    -999.2500      13.5140      17.8650      13.1420       0.0742       2.5500      12.4360
   2519.0520       8.1110      -0.0060      71.4490      40.4570    -999.2500      17.2050      16.9870      12.4970       0.0714       2.5530      12.4190
   2519.2043       8.1110      -0.0080      71.5100      46.4270    -999.2500      21.1970      16.9070      12.0330       0.0684       2.5580      12.3770
   2519.3567       8.1110      -0.0160      70.7800      49.3160    -999.2500      26.2950      19.7380      12.2330       0.0657       2.5690      12.3150
   2519.5093       8.1110      -0.0220      69.3440      40.9790    -999.2500      30.6940      23.2490      12.4150       0.0631       2.5820      12.3330
   2519.6616       8.1110      -0.0200      65.3500      34.5740    -999.2500      32.5350      29.2300      12.5290       0.0604       2.5990      12.4610
   2519.8140       8.1110      -0.0160      62.4030      35.1730    -999.2500      34.5810      35.7850      12.6190       0.0572       2.6170      12.6950
   2519.9663       8.1110      -0.0080      63.2360      36.3510    -999.2500      37.3870      44.4350      12.6190       0.0535       2.6350      12.8490
   2520.1189       8.1110      -0.0010      63.7090      39.6420    -999.2500      41.3120      54.2830      12.4250       0.0507       2.6500      12.8160
   2520.2712       8.1110       0.0060      62.8750      42.1020    -999.2500      49.3380      68.4780      11.5270       0.0500       2.6480      12.6010
   2520.4236       8.1130       0.0100      62.2300      41.5470    -999.2500      54.2270      78.1120      10.9030       0.0500       2.6440      12.3590
   2520.5759       8.1200       0.0040      62.2680      41.2820    -999.2500      47.5540      71.0980      11.2740       0.0500       2.6350      12.2180
   2520.7283       8.1330       0.0010      62.3830      42.0790    -999.2500      40.8870      63.6370      11.6790       0.0502       2.6240      12.1640
   2520.8809       8.1650       0.0070      62.7780      42.8910    -999.2500      34.2370      54.5530      12.2060       0.0506       2.6110      12.1780
   2521.0332       8.1940       0.0100      63.1990      43.7610    -999.2500      28.0520      44.3590      12.5340       0.0517       2.5960      12.2100
   2521.1855       8.2100       0.0040      63.7100      44.2050    -999.2500      23.5750      30.1480      12.1390       0.0538       2.5800      12.2890
   2521.3379       8.2220       0.0000      64.1470      43.0940    -999.2500      19.3320      19.3200      11.6080       0.0572       2.5700      12.5300
   2521.4905       8.2220       0.0000      64.3130      42.2900    -999.2500      15.9460      20.7940      10.5780       0.0620       2.5830      12.7030
   2521.6428       8.2300       0.0000      64.4340      42.6030    -999.2500      15.0780      22.5060       9.9670       0.0653       2.5920      12.8050
