#------------------------------------------------------------------------------
#
#   Created by  : [OpenWorks] Log Export Utility (LEXP)
#   Created on  : 2016-05-18 11:17:23
#   Project     : CANT971
#   User        : R5K
#   Interpreter : PEP
#
#------------------------------------------------------------------------------
~VERSION INFORMATION
VERS. 2.0 : CWLS Log ASCII Standard - version 2.0
WRAP.  NO : One line per depth step
~WELL INFORMATION
#MNEMONIC   .UNIT                                           VALUE :DESCRIPTION
#------------------------------------------------------------------------------
STRT        .M                                           500.9712 :START DEPTH
STOP        .M                                          2798.8584 :STOP DEPTH
STEP        .M                                             0.1524 :STEP
NULL        .                                           -999.2500 :NULL VALUE
COMP        .                                   PEMEX EXPL & PROD :COMPANY
WELL        .                                                 269 :WELL
FLD         .                                           CANTARELL :FIELD
LOC         .                                             UNKNOWN :LOCATION
CNTY        .                                      CD. DEL CARMEN :COUNTY
STAT        .                                            CAMPECHE :STATE
CTRY        .                                              MEXICO :COUNTRY
SRVC        .                                             UNKNOWN :SERVICE COMPANY
DATE        .                                             UNKNOWN :LOG DATE
UWI         .                                          3060000483 :UNIQUE WELL ID
XCOORD      .                                       597315.110000 :SURFACE X
YCOORD      .                                      2143047.600000 :SURFACE Y
LAT         .                                           19.380361 :LATITUDE
LON         .                                          -92.073310 :LONGITUDE
ELEV        .M                                            27.7000 :SURFACE ELEV
ELEV_TYPE   .                                                  KB :ELEV TYPE
~CURVE INFORMATION
#MNEMONIC.UNIT        API CODE       : CURVE DESCRIPTION
#------------------------------------------------------------------------------
DEPTH    .M                          : Measured Depth
CALI     .inches      UNKNOWN        : CALI:Import:rC:NONE:v0 (auto-composite)
DRHO     .g/cm3       UNKNOWN        : DRHO:Import:rC:NONE:v0 (auto-composite)
DT       .us/ft       UNKNOWN        : DT:Import:rC:NONE:v0 (auto-composite)
GR       .API         UNKNOWN        : GR:Import:rC:NONE:v0 (auto-composite)
ILD      .ohm.m       UNKNOWN        : ILD:Import:rC:NONE:v0 (auto-composite)
LLD      .ohm.m       UNKNOWN        : LLD:Import:rC:NONE:v0 (auto-composite)
LLS      .ohm.m       UNKNOWN        : LLS:Import:rC:NONE:v0 (auto-composite)
MSFL     .ohm.m       UNKNOWN        : MSFL:Import:rC:NONE:v0 (auto-composite)
NPHI     .v/v_decimal UNKNOWN        : NPHI:Import:rC:NONE:v0 (auto-composite)
RHOB     .g/cm3       UNKNOWN        : RHOB:Import:rC:NONE:v0 (auto-composite)
SIGM     .cu          UNKNOWN        : SIGM:Import:rC:NONE:v0 (auto-composite)
~A     DEPTH         CALI         DRHO           DT           GR          ILD          LLD          LLS         MSFL         NPHI         RHOB         SIGM
# ...
   2426.6975      10.7930       0.0200      87.1690      33.1490    -999.2500      18.5130       1.7650       0.2270       0.3407       2.0720      10.0390
   2426.8501      10.9210       0.0170      76.5290      32.2940    -999.2500       8.4650       1.8450       0.2730       0.4103       2.0450      10.1990
   2427.0024      10.9780       0.0100      88.7560      30.0090    -999.2500       8.8640       2.0690       0.4320       0.4216       2.0360      10.1790
   2427.1548      11.0680       0.0020      96.2870      22.5340    -999.2500       9.6530       2.3620       0.5210       0.4104       2.0280       9.9780
   2427.3071      11.2790      -0.0040      86.8470      16.6850    -999.2500      11.8770       2.9100       0.3530       0.3925       2.0290       9.7120
   2427.4595      11.4240      -0.0120      80.2020      16.7710    -999.2500      15.0700       3.8390       0.2400       0.3764       2.0290       9.4620
   2427.6121      11.3320      -0.0210      83.7150      16.9310    -999.2500      21.8520       6.1510       0.3240       0.3666       2.0310       9.3380
   2427.7644      11.1590      -0.0280      84.6860      17.3600    -999.2500      26.4210       7.8110       0.3750       0.3519       2.0340       9.3810
   2427.9167      10.6960      -0.0280      76.4550      17.9330    -999.2500      22.8290       7.1120       0.3090       0.3283       2.0380       9.5800
   2428.0691      10.3420      -0.0270      70.7790      19.0330    -999.2500      20.3530       6.1810       0.2660       0.3241       2.0420       9.9230
   2428.2217      10.3840      -0.0240      74.3920      20.3380    -999.2500      22.0120       4.4040       0.3040       0.3583       2.0480      10.3080
   2428.3740      10.4460      -0.0200      76.5610      22.3850    -999.2500      22.4830       3.0180       0.3330       0.3895       2.0520      10.6400
   2428.5264      10.5780      -0.0090      73.5070      24.1590    -999.2500      18.5650       3.0470       0.3300       0.3916       2.0540      10.8250
   2428.6787      10.7150       0.0080      75.5440      24.9420    -999.2500      15.6960       3.1030       0.3150       0.3775       2.0580      10.7830
   2428.8313      10.8750       0.0500      96.1070      25.5560    -999.2500      16.6830       3.2560       0.2570       0.3486       2.0690      10.6200
   2428.9836      10.9890       0.0760     111.8390      25.5560    -999.2500      18.6660       3.8720       0.2130       0.2983       2.0910      10.4860
   2429.1360      10.9360       0.0460     110.0700      25.7960    -999.2500      24.3270       6.1640       0.2220       0.2237       2.1570      10.4970
   2429.2883      10.7380       0.0330     102.5370      26.9070    -999.2500      31.3530       7.5680       0.2390       0.1781       2.2330      10.6340
   2429.4407      10.0120       0.0830      74.0200      27.7430    -999.2500      43.3970       5.7410       0.2850       0.1966       2.3480      10.8370
   2429.5933       9.5040       0.1220      58.2750      27.5800    -999.2500      51.3860       4.3560       0.3340       0.2198       2.4380      11.0210
   2429.7456       9.7820       0.1200      88.8410      27.1280    -999.2500      44.3940       4.5730       0.3960       0.2140       2.4330      11.1510
   2429.8979       9.9830       0.1150     110.8510      25.6240    -999.2500      38.9940       5.9010       0.4580       0.2040       2.4240      11.2390
   2430.0503       9.9050       0.1020     101.9650      24.5340    -999.2500      39.4480      11.2730       0.5260       0.2030       2.3980      11.3290
   2430.2029       9.8480       0.0820      95.4200      24.9520    -999.2500      40.5280      15.1750       0.6030       0.1985       2.3780      11.5050
   2430.3552       9.8710       0.0360      97.3660      25.7890    -999.2500      43.9240      13.7430       0.7130       0.1836       2.3790      11.8250
   2430.5076       9.8050       0.0140      96.8420      28.1480    -999.2500      49.6960      12.6950       0.8810       0.1732       2.3810      12.2020
   2430.6599       9.4160       0.0780      87.4020      29.8110    -999.2500      64.2180      13.0460       1.2550       0.1750       2.3850      12.5090
   2430.8125       9.1110       0.1270      80.0070      28.9330    -999.2500      70.8050      13.7680       1.5250       0.1698       2.3910      12.6070
   2430.9648       9.1110       0.1250      80.0420      26.9960    -999.2500      48.0300      15.8340       1.4150       0.1463       2.4040      12.6250
   2431.1172       9.1110       0.1190      80.2420      21.2090    -999.2500      30.3610      19.0180       1.3430       0.1254       2.4410      12.6330
   2431.2695       9.1110       0.1030      81.0410      16.7530    -999.2500      31.5070      26.2860       1.4110       0.1207       2.5610      12.6620
   2431.4219       9.1110       0.0800      81.5470      17.1510    -999.2500      36.2240      37.3180       1.7260       0.1225       2.6550      12.6290
   2431.5745       9.1110       0.0320      80.9910      17.8930    -999.2500      54.1720      62.0250       2.9390       0.1273       2.6520      12.4580
   2431.7268       9.0990      -0.0060      81.8790      19.8840    -999.2500      65.3750      87.1390       3.8420       0.1388       2.6350      12.1500
   2431.8792       9.0430      -0.0060      87.9870      22.0130    -999.2500      51.7050     113.7250       3.6210       0.1586       2.5630      11.6520
   2432.0315       9.0000      -0.0060      92.0700      24.6430    -999.2500      57.8430     142.7670       3.2910       0.1707       2.5110      11.1190
   2432.1841       9.0000      -0.0060      88.7890      26.8230    -999.2500     137.4030     180.7430       2.5670       0.1647       2.5330      10.6800
   2432.3364       8.9880      -0.0060      83.3820      27.3580    -999.2500     193.2170     198.8550       2.6900       0.1581       2.5470      10.4580
   2432.4888       8.9320      -0.0050      70.2790      28.2590    -999.2500     161.4050     145.0460       5.8790       0.1600       2.5330      10.4760
   2432.6411       8.8890      -0.0040      60.0000      30.4800    -999.2500     124.4380     102.8350       8.3210       0.1559       2.5230      10.5850
   2432.7937       8.8890      -0.0010      60.0000      32.0820    -999.2500      68.5340     102.8350       8.0490       0.1377       2.5250      10.6700
   2432.9460       8.8890       0.0020      60.0000      31.4320    -999.2500      24.8340     102.4890       7.3490       0.1235       2.5290      10.6580
   2433.0984       8.8890       0.0070      60.0000      30.3740    -999.2500      26.1980     100.8900       5.1000       0.1244       2.5400      10.6140
   2433.2507       8.8890       0.0120      60.7180      27.8350    -999.2500      28.8160      96.2580       3.3670       0.1284       2.5500      10.6090
   2433.4031       8.8890       0.0160      64.0530      25.3110    -999.2500      36.0460      80.5800       3.5090       0.1282       2.5580      10.6640
   2433.5557       8.8890       0.0270      65.9460      22.8440    -999.2500      55.5620      90.2840       4.0050       0.1252       2.5670      10.7200
   2433.7080       8.8890       0.0580      62.6110      20.6100    -999.2500     120.4880     192.0300       5.7890       0.1192       2.5750      10.7630
   2433.8604       8.8770       0.0830      60.0000      19.2260    -999.2500     170.0130     269.9040       7.1670       0.1086       2.5950      10.7090
   2434.0127       8.8210       0.0810      60.0000      17.7910    -999.2500     162.8730     260.7650       7.0670       0.0928       2.6540      10.6220
   2434.1653       8.7780       0.0720      60.0000      16.1720    -999.2500     146.1420     235.2680       6.6990       0.0819       2.6980      10.5330
   2434.3176       8.7780       0.0380      60.0000      14.5050    -999.2500      93.9330     150.4050       5.3590       0.0824       2.6870      10.4860
   2434.4700       8.7780       0.0110      59.9400      12.6660    -999.2500      53.2240      85.0760       4.4770       0.0852       2.6780      10.4690
