#------------------------------------------------------------------------------
#
#   Created by  : [OpenWorks] Log Export Utility (LEXP)
#   Created on  : 2016-05-18 11:17:23
#   Project     : CANT971
#   User        : R5K
#   Interpreter : PEP
#
#------------------------------------------------------------------------------
~VERSION INFORMATION
VERS. 2.0 : CWLS Log ASCII Standard - version 2.0
WRAP.  NO : One line per depth step
~WELL INFORMATION
#MNEMONIC   .UNIT                                           VALUE :DESCRIPTION
#------------------------------------------------------------------------------
STRT        .M                                           500.9712 :START DEPTH
STOP        .M                                          2798.8584 :STOP DEPTH
STEP        .M                                             0.1524 :STEP
NULL        .                                           -999.2500 :NULL VALUE
COMP        .                                   PEMEX EXPL & PROD :COMPANY
WELL        .                                                 269 :WELL
FLD         .                                           CANTARELL :FIELD
LOC         .                                             UNKNOWN :LOCATION
CNTY        .                                      CD. DEL CARMEN :COUNTY
STAT        .                                            CAMPECHE :STATE
CTRY        .                                              MEXICO :COUNTRY
SRVC        .                                             UNKNOWN :SERVICE COMPANY
DATE        .                                             UNKNOWN :LOG DATE
UWI         .                                          3060000483 :UNIQUE WELL ID
XCOORD      .                                       597315.110000 :SURFACE X
YCOORD      .                                      2143047.600000 :SURFACE Y
LAT         .                                           19.380361 :LATITUDE
LON         .                                          -92.073310 :LONGITUDE
ELEV        .M                                            27.7000 :SURFACE ELEV
ELEV_TYPE   .                                                  KB :ELEV TYPE
~CURVE INFORMATION
#MNEMONIC.UNIT        API CODE       : CURVE DESCRIPTION
#------------------------------------------------------------------------------
DEPTH    .M                          : Measured Depth
CALI     .inches      UNKNOWN        : CALI:Import:rC:NONE:v0 (auto-composite)
DRHO     .g/cm3       UNKNOWN        : DRHO:Import:rC:NONE:v0 (auto-composite)
DT       .us/ft       UNKNOWN        : DT:Import:rC:NONE:v0 (auto-composite)
GR       .API         UNKNOWN        : GR:Import:rC:NONE:v0 (auto-composite)
ILD      .ohm.m       UNKNOWN        : ILD:Import:rC:NONE:v0 (auto-composite)
LLD      .ohm.m       UNKNOWN        : LLD:Import:rC:NONE:v0 (auto-composite)
LLS      .ohm.m       UNKNOWN        : LLS:Import:rC:NONE:v0 (auto-composite)
MSFL     .ohm.m       UNKNOWN        : MSFL:Import:rC:NONE:v0 (auto-composite)
NPHI     .v/v_decimal UNKNOWN        : NPHI:Import:rC:NONE:v0 (auto-composite)
RHOB     .g/cm3       UNKNOWN        : RHOB:Import:rC:NONE:v0 (auto-composite)
SIGM     .cu          UNKNOWN        : SIGM:Import:rC:NONE:v0 (auto-composite)
~A     DEPTH         CALI         DRHO           DT           GR          ILD          LLD          LLS         MSFL         NPHI         RHOB         SIGM
# ...
   2474.2463       9.6250       0.0250      71.8400      46.4920    -999.2500       7.6910      13.1320       2.2020       0.1724       2.4530      12.5050
   2474.3987       9.9790       0.0280      72.7040      45.6760    -999.2500       7.8800      12.7820       2.1970       0.1567       2.4330      12.6740
   2474.5513       9.3680       0.0340      74.5330      44.7080    -999.2500       7.4950      11.6030       1.5720       0.1579       2.4340      12.7590
   2474.7036       8.8890       0.0410      76.6420      43.1860    -999.2500       7.0310       9.9450       1.1330       0.1621       2.4350      12.8000
   2474.8560       8.8890       0.0490      79.7690      41.6350    -999.2500       6.2730       6.5520       1.3660       0.1585       2.4380      12.8760
   2475.0083       8.8770       0.0550      82.0510      39.9780    -999.2500       5.4650       3.8900       1.5190       0.1496       2.4420      13.0150
   2475.1609       8.8210       0.0490      81.2580      38.1080    -999.2500       4.4750       3.8900       1.3780       0.1378       2.4510      13.1770
   2475.3132       8.7780       0.0400      80.2980      35.4630    -999.2500       3.7770       4.0650       1.2040       0.1258       2.4700      13.3440
   2475.4656       8.7780       0.0240      78.7380      32.9040    -999.2500       4.1550       4.8760       0.9120       0.1143       2.5240      13.5350
   2475.6179       8.7780       0.0150      76.1040      30.6540    -999.2500       5.3260       6.5040       0.8610       0.0977       2.5670      13.8720
   2475.7705       8.7780       0.0310      69.5670      29.0960    -999.2500       9.4070      11.1060       1.6860       0.0745       2.5650      14.4880
   2475.9229       8.7780       0.0440      64.7710      30.0560    -999.2500      12.4500      14.5430       2.3150       0.0584       2.5610      15.3050
   2476.0752       8.7780       0.0430      66.2800      31.9500    -999.2500      11.6590      13.7540       2.2340       0.0604       2.5480      16.0300
   2476.2275       8.7660       0.0410      69.0550      37.2290    -999.2500      10.6080      12.6110       1.9800       0.0820       2.5250      16.2720
   2476.3799       8.7100       0.0360      76.4360      42.7530    -999.2500       8.5980      10.1720       1.0990       0.1189       2.4670      15.9000
   2476.5325       8.6670       0.0320      81.6180      49.1710    -999.2500       6.4830       7.6210       0.4240       0.1458       2.4240      15.2080
   2476.6848       8.6670       0.0260      78.8240      55.1870    -999.2500       3.9730       4.6570       0.4920       0.1452       2.4320      14.4970
   2476.8372       8.6550       0.0200      75.3740      59.7510    -999.2500       2.4790       2.3920       0.6820       0.1277       2.4430      13.9910
   2476.9895       8.5990       0.0120      69.5590      63.0250    -999.2500       4.7220       2.6690       1.3110       0.1043       2.4670      13.9340
   2477.1421       8.5560       0.0070      65.3600      61.5920    -999.2500       6.4540       3.2210       1.7050       0.0884       2.4950      14.3670
   2477.2944       8.5560       0.0090      67.0270      59.2190    -999.2500       6.2920       4.7690       1.2440       0.0876       2.5420      15.2190
   2477.4468       8.5560       0.0120      67.9720      53.4310    -999.2500       6.4020       6.5420       0.8820       0.0909       2.5860      15.9510
   2477.5991       8.5560       0.0160      66.3060      47.2150    -999.2500       7.5100       9.1340       0.8820       0.0893       2.6250      16.0440
   2477.7517       8.5560       0.0210      65.0000      39.4340    -999.2500       8.3180      11.6330       0.8820       0.0826       2.6540      15.6510
   2477.9041       8.5560       0.0270      65.0000      33.3750    -999.2500       8.0320      13.7930       0.8820       0.0719       2.6460      15.2470
   2478.0564       8.5560       0.0340      65.0000      33.5670    -999.2500       7.6560      14.7160       1.0390       0.0652       2.6400      15.1350
   2478.2087       8.5560       0.0490      65.0000      34.8710    -999.2500       6.9560      11.1650       1.7640       0.0675       2.6460      15.3080
   2478.3611       8.5570       0.0560      65.6590      40.2360    -999.2500       6.2050       8.4370       2.2030       0.0751       2.6480      15.6030
   2478.5137       8.5610       0.0340      68.7160      42.5270    -999.2500       5.2700       8.7000       1.6070       0.0842       2.6360      15.8280
   2478.6660       8.5710       0.0240      70.9310      33.6430    -999.2500       4.7800       9.2400       1.2550       0.0925       2.6220      15.8480
   2478.8184       8.5980       0.0570      70.0980      27.0250    -999.2500       5.9270      10.7810       1.7940       0.0984       2.6020      15.6870
   2478.9707       8.6240       0.0820      69.5480      28.6920    -999.2500       6.7570      11.7790       2.0880       0.1039       2.5800      15.5180
   2479.1233       8.6480       0.0750      70.0310      29.8610    -999.2500       6.4210      10.8010       1.4940       0.1114       2.5550      15.4240
   2479.2756       8.6670       0.0660      70.6170      29.2170    -999.2500       6.0050       9.4660       1.1020       0.1248       2.5260      15.4950
   2479.4280       8.6670       0.0470      71.5720      28.3740    -999.2500       5.2940       6.8360       1.4460       0.1445       2.4770      15.5800
   2479.5803       8.6670       0.0280      73.0890      26.8100    -999.2500       4.6030       4.9950       1.6750       0.1565       2.4390      15.5650
   2479.7329       8.6670       0.0060      76.6520      25.1010    -999.2500       3.9810       6.0230       1.4910       0.1529       2.4400      15.4830
   2479.8853       8.6670      -0.0090      79.0240      22.8640    -999.2500       3.3440       6.7960       1.2680       0.1457       2.4410      15.3620
   2480.0376       8.6670      -0.0020      77.0810      21.2550    -999.2500       2.6510       6.6430       0.9030       0.1446       2.4470      15.3500
   2480.1899       8.6670       0.0070      75.6110      21.9230    -999.2500       2.1190       6.0990       0.6370       0.1519       2.4550      15.5080
   2480.3423       8.6670       0.0190      75.8680      22.7450    -999.2500       2.1830       4.1280       0.7330       0.1662       2.4670      15.8810
   2480.4949       8.6550       0.0300      76.7350      24.1310    -999.2500       2.3160       2.7110       0.9290       0.1751       2.4820      16.4410
   2480.6472       8.5990       0.0370      79.8120      25.6140    -999.2500       2.7070       3.3040       1.4840       0.1699       2.5040      17.0620
   2480.7996       8.5560       0.0460      82.1960      27.4490    -999.2500       3.4220       4.7220       2.2280       0.1557       2.5200      17.4970
   2480.9519       8.5560       0.0610      82.0740      28.7690    -999.2500       5.3300       9.1480       3.6620       0.1374       2.5090      17.6380
   2481.1045       8.5440       0.0680      81.4960      28.2140    -999.2500       6.5830      12.5510       5.0210       0.1190       2.5000      17.5600
   2481.2568       8.4880       0.0520      79.2620      27.9170    -999.2500       5.4370      12.2370       6.1060       0.1034       2.5030      17.4410
   2481.4092       8.4440       0.0400      76.8100      28.5610    -999.2500       4.5700      12.3660       7.0500       0.0890       2.5070      17.3940
   2481.5615       8.4440       0.0420      73.5730      29.8840    -999.2500       4.7360      14.1140       7.4840       0.0755       2.5170      17.2410
   2481.7141       8.4560       0.0430      70.0230      33.6860    -999.2500       5.2420      15.4150       7.8840       0.0667       2.5300      16.9850
   2481.8665       8.5120       0.0400      65.3380      36.5670    -999.2500       6.9980      15.0930       8.1620       0.0652       2.5500      16.6350
   2482.0188       8.5440       0.0340      61.7360      36.1050    -999.2500       8.3130      14.6840       7.9900       0.0682       2.5650      16.3500
