#------------------------------------------------------------------------------
#
#   Created by  : [OpenWorks] Log Export Utility (LEXP)
#   Created on  : 2016-05-18 11:17:23
#   Project     : CANT971
#   User        : R5K
#   Interpreter : PEP
#
#------------------------------------------------------------------------------
~VERSION INFORMATION
VERS. 2.0 : CWLS Log ASCII Standard - version 2.0
WRAP.  NO : One line per depth step
~WELL INFORMATION
#MNEMONIC   .UNIT                                           VALUE :DESCRIPTION
#------------------------------------------------------------------------------
STRT        .M                                           500.9712 :START DEPTH
STOP        .M                                          2798.8584 :STOP DEPTH
STEP        .M                                             0.1524 :STEP
NULL        .                                           -999.2500 :NULL VALUE
COMP        .                                   PEMEX EXPL & PROD :COMPANY
WELL        .                                                 269 :WELL
FLD         .                                           CANTARELL :FIELD
LOC         .                                             UNKNOWN :LOCATION
CNTY        .                                      CD. DEL CARMEN :COUNTY
STAT        .                                            CAMPECHE :STATE
CTRY        .                                              MEXICO :COUNTRY
SRVC        .                                             UNKNOWN :SERVICE COMPANY
DATE        .                                             UNKNOWN :LOG DATE
UWI         .                                          3060000483 :UNIQUE WELL ID
XCOORD      .                                       597315.110000 :SURFACE X
YCOORD      .                                      2143047.600000 :SURFACE Y
LAT         .                                           19.380361 :LATITUDE
LON         .                                          -92.073310 :LONGITUDE
ELEV        .M                                            27.7000 :SURFACE ELEV
ELEV_TYPE   .                                                  KB :ELEV TYPE
~CURVE INFORMATION
#MNEMONIC.UNIT        API CODE       : CURVE DESCRIPTION
#------------------------------------------------------------------------------
DEPTH    .M                          : Measured Depth
CALI     .inches      UNKNOWN        : CALI:Import:rC:NONE:v0 (auto-composite)
DRHO     .g/cm3       UNKNOWN        : DRHO:Import:rC:NONE:v0 (auto-composite)
DT       .us/ft       UNKNOWN        : DT:Import:rC:NONE:v0 (auto-composite)
GR       .API         UNKNOWN        : GR:Import:rC:NONE:v0 (auto-composite)
ILD      .ohm.m       UNKNOWN        : ILD:Import:rC:NONE:v0 (auto-composite)
LLD      .ohm.m       UNKNOWN        : LLD:Import:rC:NONE:v0 (auto-composite)
LLS      .ohm.m       UNKNOWN        : LLS:Import:rC:NONE:v0 (auto-composite)
MSFL     .ohm.m       UNKNOWN        : MSFL:Import:rC:NONE:v0 (auto-composite)
NPHI     .v/v_decimal UNKNOWN        : NPHI:Import:rC:NONE:v0 (auto-composite)
RHOB     .g/cm3       UNKNOWN        : RHOB:Import:rC:NONE:v0 (auto-composite)
SIGM     .cu          UNKNOWN        : SIGM:Import:rC:NONE:v0 (auto-composite)
~A     DEPTH         CALI         DRHO           DT           GR          ILD          LLD          LLS         MSFL         NPHI         RHOB         SIGM
# ...
   2117.6304       8.5560    -999.2500      62.1560      24.3580    -999.2500    -999.2500    -999.2500    -999.2500    -999.2500       2.9060      26.7690
   2117.7827       8.5560    -999.2500      63.6410      26.8970    -999.2500    -999.2500    -999.2500    -999.2500    -999.2500       2.8690      26.4520
   2117.9353       8.5560    -999.2500      64.0910      28.8530    -999.2500    -999.2500    -999.2500    -999.2500    -999.2500       2.8090      26.2020
   2118.0876       8.5560    -999.2500      64.3240      28.6880    -999.2500    -999.2500    -999.2500    -999.2500    -999.2500       2.7610      26.0750
   2118.2400       8.5560    -999.2500      63.7680      28.3550    -999.2500    -999.2500    -999.2500    -999.2500    -999.2500       2.7610      25.9900
   2118.3923       8.5560    -999.2500      63.7550      27.4090    -999.2500    -999.2500    -999.2500    -999.2500    -999.2500       2.7570      25.8130
   2118.5447       8.5560    -999.2500      65.6990      26.7500    -999.2500    -999.2500    -999.2500    -999.2500    -999.2500       2.7370      25.5820
   2118.6973       8.5560    -999.2500      66.9220      27.1370    -999.2500    -999.2500    -999.2500    -999.2500    -999.2500       2.7230      25.4100
   2118.8496       8.5560    -999.2500      65.5320      27.7160    -999.2500    -999.2500    -999.2500    -999.2500    -999.2500       2.7260      25.2770
   2119.0020       8.5680    -999.2500      64.6100      28.9960    -999.2500    -999.2500    -999.2500    -999.2500    -999.2500       2.7200      25.1710
   2119.1543       8.6230    -999.2500      65.3730      29.6410    -999.2500    -999.2500    -999.2500    -999.2500    -999.2500       2.6810      25.0770
   2119.3069       8.6550    -999.2500      67.0080      27.9740    -999.2500    -999.2500    -999.2500    -999.2500    -999.2500       2.6420      25.0540
   2119.4592       8.5990    -999.2500      71.8010      26.7130    -999.2500    -999.2500    -999.2500    -999.2500    -999.2500       2.6030      25.0700
   2119.6116       8.5560    -999.2500      75.0660      26.9240    -999.2500    -999.2500    -999.2500    -999.2500    -999.2500       2.5760      25.2020
   2119.7639       8.5560    -999.2500      72.8070      27.3670    -999.2500    -999.2500    -999.2500    -999.2500    -999.2500       2.5920      25.3740
   2119.9165       8.5560    -999.2500      70.3330      28.6540    -999.2500    -999.2500    -999.2500    -999.2500    -999.2500       2.6080      25.6450
   2120.0688       8.5560    -999.2500      67.0750      29.8190    -999.2500    -999.2500    -999.2500    -999.2500    -999.2500       2.6200      25.9990
   2120.2212       8.5560    -999.2500      63.4920      30.5430    -999.2500    -999.2500    -999.2500    -999.2500    -999.2500       2.6320      26.2130
   2120.3735       8.5560    -999.2500      58.7320      30.5140    -999.2500    -999.2500    -999.2500    -999.2500    -999.2500       2.6420      26.2880
   2120.5259       8.5560    -999.2500      55.3000      27.7350    -999.2500    -999.2500    -999.2500    -999.2500    -999.2500       2.6530      26.2530
   2120.6785       8.5560    -999.2500      56.6890      25.8090    -999.2500    -999.2500    -999.2500    -999.2500    -999.2500       2.6660      26.3470
   2120.8308       8.5560    -999.2500      57.7180      26.9780    -999.2500    -999.2500    -999.2500    -999.2500    -999.2500       2.6800      26.7250
   2120.9832       8.5560    -999.2500      57.4400      28.6050    -999.2500    -999.2500    -999.2500    -999.2500    -999.2500       2.7010      27.1920
   2121.1355       8.5560    -999.2500      57.4230      31.9010    -999.2500    -999.2500    -999.2500    -999.2500    -999.2500       2.7110      27.4300
   2121.2881       8.5560    -999.2500      58.3490      34.6770    -999.2500    -999.2500    -999.2500    -999.2500    -999.2500       2.6850      27.2570
   2121.4404       8.5660    -999.2500      59.3780      35.5620    -999.2500    -999.2500    -999.2500    -999.2500    -999.2500       2.6550      26.8670
   2121.5928       8.6150    -999.2500      60.7800      36.5400    -999.2500    -999.2500    -999.2500    -999.2500    -999.2500       2.6050      26.5450
   2121.7451       8.6550    -999.2500      62.0950      37.8560    -999.2500    -999.2500    -999.2500    -999.2500    -999.2500       2.5670      26.4770
   2121.8977       8.6610    -999.2500      63.1010      38.5300    -999.2500    -999.2500    -999.2500    -999.2500    -999.2500       2.5670      26.6100
   2122.0500       8.6550    -999.2500      63.8470      36.8640    -999.2500    -999.2500    -999.2500    -999.2500    -999.2500       2.5660      26.9330
   2122.2024       8.5990    -999.2500      63.6540      35.7220    -999.2500    -999.2500    -999.2500    -999.2500       0.4443       2.5630      27.3370
   2122.3547       8.5560    -999.2500      63.2640      36.4930    -999.2500    -999.2500    -999.2500    -999.2500       0.4357       2.5690      27.7670
   2122.5071       8.5560    -999.2500      62.1620      37.8890    -999.2500    -999.2500    -999.2500    -999.2500       0.4141       2.6050      28.3700
   2122.6597       8.5560    -999.2500      60.9980      41.5640    -999.2500    -999.2500    -999.2500    -999.2500       0.3913       2.6480      28.9240
   2122.8120       8.5560    -999.2500      59.6080      44.0820    -999.2500    -999.2500    -999.2500    -999.2500       0.3651       2.7120      29.4580
   2122.9644       8.5680    -999.2500      58.0780      42.4080    -999.2500    -999.2500    -999.2500    -999.2500       0.3408       2.7750      29.6290
   2123.1167       8.6230    -999.2500      56.0410      40.0740    -999.2500    -999.2500    -999.2500    -999.2500       0.3226       2.8360      29.5320
   2123.2693       8.6550    -999.2500      54.6900      35.3350    -999.2500    -999.2500    -999.2500       0.1920       0.3046       2.8810      29.2840
   2123.4216       8.5990    -999.2500      55.8280      30.9480    -999.2500    -999.2500    -999.2500       0.1980       0.2875       2.8700      29.0800
   2123.5740       8.5560    -999.2500      57.7370      27.8380    -999.2500    -999.2500    -999.2500       0.2150       0.2674       2.8510      29.1330
   2123.7263       8.5560    -999.2500      62.4310      24.9360    -999.2500    -999.2500    -999.2500       0.2780       0.2374       2.7990      29.3080
   2123.8789       8.5560    -999.2500      65.2110      22.7920    -999.2500    -999.2500    -999.2500       0.3710       0.2182       2.7490      29.5240
   2124.0312       8.5560    -999.2500      61.0430      21.4930    -999.2500    -999.2500    -999.2500       0.5750       0.2379       2.7090      29.5770
   2124.1836       8.5560    -999.2500      58.0820      23.2610    -999.2500    -999.2500    -999.2500       0.7850       0.2602       2.6710      29.4560
   2124.3359       8.5560     -60.9940      59.4840      25.6590    -999.2500    -999.2500    -999.2500       1.0170       0.2920       2.6420      29.2430
   2124.4883       8.5670     -54.4220      65.4370      30.3570    -999.2500       0.1930    -999.2500       1.1700       0.3214       2.6120      28.9520
   2124.6409       8.6190     -23.9640      87.9320      34.6880    -999.2500       0.1980    -999.2500       1.0340       0.3411       2.5770      28.5920
   2124.7932       8.6610      -0.0950     105.5180      37.6870    -999.2500       0.2140    -999.2500       0.9360       0.3505       2.5650      27.8010
   2124.9456       8.6640      -0.0740     105.3450      40.4140    -999.2500       0.2730    -999.2500       0.9750       0.3225       2.6370      26.6120
   2125.0979       8.6670      -0.0410     100.8430      42.1480    -999.2500       0.5000       0.2270       1.0430       0.3016       2.6870      25.1810
   2125.2505       8.6670       0.0360      80.7480      43.7290    -999.2500       1.3610       0.3910       1.2180       0.3080       2.6570      24.2610
   2125.4028       8.6670       0.1140      66.8720      44.7510    -999.2500       3.6100       0.6390       1.3770       0.3122       2.6350      24.1930
