#------------------------------------------------------------------------------
#
#   Created by  : [OpenWorks] Log Export Utility (LEXP)
#   Created on  : 2016-05-18 11:17:23
#   Project     : CANT971
#   User        : R5K
#   Interpreter : PEP
#
#------------------------------------------------------------------------------
~VERSION INFORMATION
VERS. 2.0 : CWLS Log ASCII Standard - version 2.0
WRAP.  NO : One line per depth step
~WELL INFORMATION
#MNEMONIC   .UNIT                                           VALUE :DESCRIPTION
#------------------------------------------------------------------------------
STRT        .M                                           500.9712 :START DEPTH
STOP        .M                                          2798.8584 :STOP DEPTH
STEP        .M                                             0.1524 :STEP
NULL        .                                           -999.2500 :NULL VALUE
COMP        .                                   PEMEX EXPL & PROD :COMPANY
WELL        .                                                 269 :WELL
FLD         .                                           CANTARELL :FIELD
LOC         .                                             UNKNOWN :LOCATION
CNTY        .                                      CD. DEL CARMEN :COUNTY
STAT        .                                            CAMPECHE :STATE
CTRY        .                                              MEXICO :COUNTRY
SRVC        .                                             UNKNOWN :SERVICE COMPANY
DATE        .                                             UNKNOWN :LOG DATE
UWI         .                                          3060000483 :UNIQUE WELL ID
XCOORD      .                                       597315.110000 :SURFACE X
YCOORD      .                                      2143047.600000 :SURFACE Y
LAT         .                                           19.380361 :LATITUDE
LON         .                                          -92.073310 :LONGITUDE
ELEV        .M                                            27.7000 :SURFACE ELEV
ELEV_TYPE   .                                                  KB :ELEV TYPE
~CURVE INFORMATION
#MNEMONIC.UNIT        API CODE       : CURVE DESCRIPTION
#------------------------------------------------------------------------------
DEPTH    .M                          : Measured Depth
CALI     .inches      UNKNOWN        : CALI:Import:rC:NONE:v0 (auto-composite)
DRHO     .g/cm3       UNKNOWN        : DRHO:Import:rC:NONE:v0 (auto-composite)
DT       .us/ft       UNKNOWN        : DT:Import:rC:NONE:v0 (auto-composite)
GR       .API         UNKNOWN        : GR:Import:rC:NONE:v0 (auto-composite)
ILD      .ohm.m       UNKNOWN        : ILD:Import:rC:NONE:v0 (auto-composite)
LLD      .ohm.m       UNKNOWN        : LLD:Import:rC:NONE:v0 (auto-composite)
LLS      .ohm.m       UNKNOWN        : LLS:Import:rC:NONE:v0 (auto-composite)
MSFL     .ohm.m       UNKNOWN        : MSFL:Import:rC:NONE:v0 (auto-composite)
NPHI     .v/v_decimal UNKNOWN        : NPHI:Import:rC:NONE:v0 (auto-composite)
RHOB     .g/cm3       UNKNOWN        : RHOB:Import:rC:NONE:v0 (auto-composite)
SIGM     .cu          UNKNOWN        : SIGM:Import:rC:NONE:v0 (auto-composite)
~A     DEPTH         CALI         DRHO           DT           GR          ILD          LLD          LLS         MSFL         NPHI         RHOB         SIGM
# ...
   2339.5249       8.8210       0.0240      60.0690      23.9790    -999.2500    1827.1370    1139.1620      23.9740       0.0461       2.8060       8.3860
   2339.6772       8.8530       0.0260      64.3010      25.1450    -999.2500    1615.0000    1139.1620      24.4750       0.0430       2.8320       8.3550
   2339.8296       8.8710       0.0150      61.0670      26.2190    -999.2500    1415.5920    1139.1620      18.2030       0.0399       2.8250       8.3900
   2339.9819       8.8850       0.0080      58.0310      26.9660    -999.2500    1214.0100    1147.7729      14.1190       0.0358       2.8170       8.4780
   2340.1343       8.8870       0.0160      55.7090      27.9350    -999.2500    1004.3640    1187.7480      18.0040       0.0290       2.8010       8.5510
   2340.2869       8.8890       0.0210      54.0140      29.7160    -999.2500     811.0670    1235.9630      19.5140       0.0238       2.7900       8.5920
   2340.4392       8.8890       0.0150      54.5930      30.8830    -999.2500     678.1970    1314.0580      12.4060       0.0233       2.7940       8.6230
   2340.5916       8.8890       0.0110      55.0970      29.8310    -999.2500     548.0600    1386.1860       6.8920       0.0233       2.8020       8.6520
   2340.7439       8.8890       0.0110      55.3300      28.3940    -999.2500     428.0720    1436.5649       7.1820       0.0233       2.8220       8.6660
   2340.8965       8.8890       0.0100      55.6980      25.5570    -999.2500     369.8020    1501.9010       9.7010       0.0230       2.8370       8.7020
   2341.0488       8.8890       0.0080      56.5530      24.0530    -999.2500     539.8120    1621.5140      20.3070       0.0219       2.8290       8.7420
   2341.2012       8.8890       0.0110      56.3190      27.3850    -999.2500     745.9090    1616.4700      26.8130       0.0204       2.8160       8.7710
   2341.3535       8.8890       0.0330      52.1540      29.6410    -999.2500    1086.1740    1156.7111      18.5050       0.0185       2.7830       8.7620
   2341.5061       8.8890       0.0490      50.5690      27.9740    -999.2500    1412.1250     839.6720      11.9900       0.0187       2.7520       8.6960
   2341.6584       8.8890       0.0460      58.3490      26.9710    -999.2500    1685.0930    1040.9630      11.9900       0.0255       2.7230       8.6210
   2341.8108       8.8890       0.0440      64.1430      28.3770    -999.2500    1841.4771    1159.3831      13.7900       0.0348       2.7010       8.5610
   2341.9631       8.8890       0.0460      62.7550      30.6760    -999.2500    1564.0850     975.2990      22.0980       0.0500       2.7070       8.5610
   2342.1155       8.8890       0.0480      62.0270      36.2350    -999.2500    1261.1541     781.7940      28.1660       0.0652       2.7180       8.6010
   2342.2681       8.8890       0.0520      63.6940      42.4470    -999.2500     863.6120     554.0450      26.0870       0.0786       2.7450       8.6560
   2342.4204       8.8890       0.0540      64.7100      51.0350    -999.2500     525.4340     361.7590      22.5140       0.0839       2.7620       8.6780
   2342.5728       8.8890       0.0440      63.3680      57.0080    -999.2500     406.1930     297.8000      13.5330       0.0661       2.7370       8.6610
   2342.7251       8.8890       0.0350      61.0470      53.4260    -999.2500     299.2920     240.3980       7.7360       0.0528       2.7180       8.5940
   2342.8777       8.8890       0.0280      55.1650      49.0740    -999.2500     238.1400     206.8410      13.5210       0.0580       2.7240       8.5540
   2343.0300       8.8890       0.0200      51.9980      41.9220    -999.2500     220.3400     189.4420      17.3990       0.0624       2.7380       8.5790
   2343.1824       8.8890       0.0090      58.6610      35.0320    -999.2500     362.5480     230.5560      14.3680       0.0607       2.7790       8.6840
   2343.3347       8.8890       0.0000      62.9670      29.0980    -999.2500     588.6170     339.8060      12.3670       0.0573       2.8110       8.8920
   2343.4873       8.8890       0.0020      58.6920      24.8050    -999.2500    1125.7970     697.0610      14.1150       0.0501       2.8090       9.1550
   2343.6396       8.8890       0.0030      54.9560      26.4800    -999.2500    1495.1021     909.4030      14.4130       0.0423       2.8050       9.4940
   2343.7920       8.8890       0.0050      53.1760      29.1120    -999.2500    1244.3480     596.5780       9.4550       0.0337       2.7930       9.8520
   2343.9443       8.8890       0.0060      51.6490      35.2130    -999.2500     983.8320     372.9410       7.3050       0.0271       2.7860      10.2050
   2344.0967       8.8890       0.0080      51.0360      37.9650    -999.2500     687.0760     474.1800      15.3830       0.0267       2.8000      10.4510
   2344.2493       8.8890       0.0100      50.9530      28.5170    -999.2500     481.1480     601.7850      22.4600       0.0267       2.8090      10.5400
   2344.4016       8.8890       0.0120      52.7900      21.1110    -999.2500     610.9510     825.0160      25.9080       0.0267       2.7980      10.4200
   2344.5540       8.8890       0.0140      54.5740      21.1110    -999.2500     941.0940    1050.9170      26.5850       0.0272       2.7890      10.1230
   2344.7063       8.8890       0.0200      56.1640      20.9710    -999.2500    2015.6021    1286.5500      17.1600       0.0291       2.7890       9.7220
   2344.8589       8.8890       0.0280      58.1030      20.3210    -999.2500    2701.1680    1437.4750      10.0170       0.0315       2.7880       9.2980
   2345.0112       8.8890       0.0400      61.3110      19.4030    -999.2500    1947.9960    1280.9620      11.1550       0.0351       2.7810       8.9650
   2345.1636       8.8890       0.0460      64.6730      17.5150    -999.2500    1238.2510    1114.9010      12.2970       0.0388       2.7740       8.8050
   2345.3159       8.8890       0.0260      68.5930      15.7420    -999.2500     689.9770     914.0160      13.4500       0.0423       2.7630       8.7920
   2345.4685       8.8890       0.0130      71.3670      14.3920    -999.2500     422.7620     770.0740      14.3940       0.0455       2.7510       8.9020
   2345.6208       8.8890       0.0210      69.9780      16.2100    -999.2500    1195.9980     832.9620      14.5730       0.0480       2.7350       9.0470
   2345.7732       8.8890       0.0270      68.9890      29.5380    -999.2500    1775.6140     904.8570      14.6340       0.0510       2.7250       9.1820
   2345.9255       8.8890       0.0250      69.4480      39.5380    -999.2500    1634.7560    1009.6380      14.2670       0.0559       2.7380       9.2790
   2346.0779       8.8890       0.0210      70.2980      37.3890    -999.2500    1450.9240    1141.1000      13.9790       0.0586       2.7510       9.2780
   2346.2305       8.8890       0.0130      72.5660      33.8910    -999.2500    1107.8860    1369.5420      13.9790       0.0542       2.7630       9.1910
   2346.3828       8.8970       0.0060      74.6550      25.4870    -999.2500     842.7060    1537.4590      13.2050       0.0490       2.7720       9.0470
   2346.5352       8.9340       0.0060      76.0930      19.1280    -999.2500     864.6950    1486.3390       9.6320       0.0422       2.7690       8.9200
   2346.6875       8.9670       0.0060      76.7910      20.2420    -999.2500     860.8570    1383.1710       7.5230       0.0370       2.7670       8.8440
   2346.8401       8.9840       0.0060      74.7930      21.5360    -999.2500     761.2690    1090.6851      10.7410       0.0367       2.7670       8.8730
   2346.9924       8.9970       0.0080      70.7750      23.4870    -999.2500     723.4360     842.1730      13.7800       0.0378       2.7640       8.9540
   2347.1448       8.9990       0.0160      59.4450      25.1960    -999.2500     913.5480     752.9250      16.1760       0.0421       2.7500       9.0780
   2347.2971       9.0000       0.0200      50.9200      26.0200    -999.2500    1152.1740     794.2050      17.1620       0.0458       2.7400       9.1830
