#------------------------------------------------------------------------------
#
#   Created by  : [OpenWorks] Log Export Utility (LEXP)
#   Created on  : 2016-05-18 11:17:23
#   Project     : CANT971
#   User        : R5K
#   Interpreter : PEP
#
#------------------------------------------------------------------------------
~VERSION INFORMATION
VERS. 2.0 : CWLS Log ASCII Standard - version 2.0
WRAP.  NO : One line per depth step
~WELL INFORMATION
#MNEMONIC   .UNIT                                           VALUE :DESCRIPTION
#------------------------------------------------------------------------------
STRT        .M                                           500.9712 :START DEPTH
STOP        .M                                          2798.8584 :STOP DEPTH
STEP        .M                                             0.1524 :STEP
NULL        .                                           -999.2500 :NULL VALUE
COMP        .                                   PEMEX EXPL & PROD :COMPANY
WELL        .                                                 269 :WELL
FLD         .                                           CANTARELL :FIELD
LOC         .                                             UNKNOWN :LOCATION
CNTY        .                                      CD. DEL CARMEN :COUNTY
STAT        .                                            CAMPECHE :STATE
CTRY        .                                              MEXICO :COUNTRY
SRVC        .                                             UNKNOWN :SERVICE COMPANY
DATE        .                                             UNKNOWN :LOG DATE
UWI         .                                          3060000483 :UNIQUE WELL ID
XCOORD      .                                       597315.110000 :SURFACE X
YCOORD      .                                      2143047.600000 :SURFACE Y
LAT         .                                           19.380361 :LATITUDE
LON         .                                          -92.073310 :LONGITUDE
ELEV        .M                                            27.7000 :SURFACE ELEV
ELEV_TYPE   .                                                  KB :ELEV TYPE
~CURVE INFORMATION
#MNEMONIC.UNIT        API CODE       : CURVE DESCRIPTION
#------------------------------------------------------------------------------
DEPTH    .M                          : Measured Depth
CALI     .inches      UNKNOWN        : CALI:Import:rC:NONE:v0 (auto-composite)
DRHO     .g/cm3       UNKNOWN        : DRHO:Import:rC:NONE:v0 (auto-composite)
DT       .us/ft       UNKNOWN        : DT:Import:rC:NONE:v0 (auto-composite)
GR       .API         UNKNOWN        : GR:Import:rC:NONE:v0 (auto-composite)
ILD      .ohm.m       UNKNOWN        : ILD:Import:rC:NONE:v0 (auto-composite)
LLD      .ohm.m       UNKNOWN        : LLD:Import:rC:NONE:v0 (auto-composite)
LLS      .ohm.m       UNKNOWN        : LLS:Import:rC:NONE:v0 (auto-composite)
MSFL     .ohm.m       UNKNOWN        : MSFL:Import:rC:NONE:v0 (auto-composite)
NPHI     .v/v_decimal UNKNOWN        : NPHI:Import:rC:NONE:v0 (auto-composite)
RHOB     .g/cm3       UNKNOWN        : RHOB:Import:rC:NONE:v0 (auto-composite)
SIGM     .cu          UNKNOWN        : SIGM:Import:rC:NONE:v0 (auto-composite)
~A     DEPTH         CALI         DRHO           DT           GR          ILD          LLD          LLS         MSFL         NPHI         RHOB         SIGM
# ...
   2648.5920       8.2220       0.0210      55.9030      66.7190    -999.2500     179.7540     240.3700      11.6010       0.0675       2.7490      10.0360
   2648.7444       8.2220       0.0190      55.2660      59.8280    -999.2500     279.8220     305.6240      16.2780       0.0621       2.7650      10.1710
   2648.8967       8.2220       0.0080      54.3750      52.8680    -999.2500     670.2570     517.9730      16.1880       0.0542       2.7570      10.2670
   2649.0491       8.2220       0.0000      53.2200      45.6560    -999.2500     968.2010     739.0760      15.7400       0.0480       2.7500      10.3040
   2649.2017       8.2220       0.0020      51.1030      40.3600    -999.2500     926.8700     991.9900      13.9900       0.0467       2.7510      10.2550
   2649.3540       8.2220       0.0040      49.4440      42.0270    -999.2500     862.6050    1215.8690      12.6530       0.0467       2.7540      10.1720
   2649.5063       8.2220       0.0120      49.4440      42.2510    -999.2500     714.5820    1334.7080      12.8110       0.0469       2.7640      10.1050
   2649.6587       8.2220       0.0140      49.4440      37.2530    -999.2500     573.6530    1458.9280      13.9290       0.0477       2.7710      10.0560
   2649.8113       8.2220       0.0030      49.4440      33.4520    -999.2500     458.7630    1602.7200      18.5410       0.0497       2.7680      10.0000
   2649.9636       8.2220      -0.0060      49.5230      34.0040    -999.2500     337.2280    1608.8870      21.9570       0.0536       2.7590       9.9460
   2650.1160       8.2220      -0.0050      49.8870      35.1110    -999.2500     191.4060    1116.7841      21.0410       0.0611       2.7280       9.9070
   2650.2683       8.2220      -0.0020      53.8080      38.2220    -999.2500      68.7760     652.7050      18.9900       0.0721       2.6660       9.9270
   2650.4209       8.2220       0.0060      70.6730      42.6280    -999.2500      30.5490     290.6060      12.8070       0.0932       2.4860       9.9850
   2650.5732       8.2220       0.0170      80.5260      51.7440    -999.2500       0.5650       6.9300       8.5370       0.1505       2.3450      10.0400
   2650.7256       8.2220       0.0350      64.9770      58.8630    -999.2500       0.7320       7.3990      11.1960       0.2621       2.3510      10.1020
   2650.8779       8.2220       0.0570      52.8340      58.7430    -999.2500      38.5780       8.7290      13.2730       0.3163       2.3660      10.1740
   2651.0303       8.2220       0.0930      53.0970      58.3610    -999.2500     213.6380      13.1970      13.2330       0.2345       2.4150      10.3420
   2651.1829       8.2220       0.1220      54.2030      57.0220    -999.2500     314.4450      21.5550      13.1520       0.1496       2.4870      10.7110
   2651.3352       8.2220       0.1210      58.3730      55.0040    -999.2500     143.4560      44.0200      12.9190       0.1332       2.6440      11.3960
   2651.4875       8.2220       0.1180      66.5530      50.5200    -999.2500       9.4470      61.5760      11.8780       0.1421       2.7630      12.4360
   2651.6399       8.2220       0.1090      89.3500      45.0510    -999.2500      10.2080      61.2440       7.8950       0.1643       2.7430      13.3970
   2651.7925       8.2100       0.0930     104.1630      35.9920    -999.2500      23.1820      59.0510       5.5520       0.2043       2.7040      13.4870
   2651.9448       8.1550       0.0500      90.0020      31.7680    -999.2500      80.8960      50.1080       9.1590       0.2676       2.5930      12.5940
   2652.0972       8.1110       0.0170      78.8890      45.0960    -999.2500     125.3780      43.0890      11.3300       0.3128       2.5350      11.5330
   2652.2495       8.1110       0.0170      78.8890      53.8820    -999.2500     121.6010      43.0890       8.2620       0.3082       2.6680      10.8400
   2652.4021       8.0990       0.0180      81.1090      46.1010    -999.2500     110.3050      43.0890       6.1460       0.2759       2.7710      10.6960
   2652.5544       8.0430       0.0210      91.3900      40.0000    -999.2500      71.4430      43.0890       7.4840       0.2192       2.7680      11.1820
   2652.7068       8.0000       0.0300      99.3300      40.0000    -999.2500      41.2020      43.2730       8.3480       0.1647       2.7610      12.2120
   2652.8591       8.0000       0.0630      98.8050      40.2490    -999.2500      42.4260      44.1230       7.4970       0.1302       2.7450      13.4950
   2653.0115       8.0000       0.0840      97.3100      41.4050    -999.2500     111.9050      46.9870       8.4830       0.1155       2.7260      14.1030
   2653.1641       8.0000       0.0590      92.2920      44.8210    -999.2500     431.7840      57.1670      16.1490       0.1267       2.6990      13.5900
   2653.3164       8.0000       0.0390      85.8930      56.4470    -999.2500     681.1750     124.8100      21.9810       0.1397       2.6780      12.7590
   2653.4688       8.0000       0.0390      74.4950      65.5080    -999.2500     673.1040     400.3590      21.1800       0.1410       2.6780      12.2280
   2653.6211       8.0000       0.0390      65.5560      65.2850    -999.2500     645.7060     607.6860      18.6760       0.1366       2.6880      12.1980
   2653.7737       8.0000       0.0370      65.5560      64.7190    -999.2500     548.0280     566.9100       9.9820       0.1268       2.7350      12.5470
   2653.9260       8.0000       0.0320      67.1780      62.9020    -999.2500     425.3190     502.9560       3.2430       0.1090       2.7720      12.8840
   2654.0784       8.0000       0.0100      74.6750      59.3950    -999.2500     211.1190     355.0740       3.5830       0.0809       2.7700      12.9000
   2654.2307       8.0000      -0.0050      78.3400      49.7710    -999.2500      46.5970     220.6210       5.1030       0.0600       2.7650      12.5710
   2654.3833       8.0000       0.0000      68.0580      42.4280    -999.2500      62.8700     135.0370      10.9240       0.0593       2.7480      12.1130
   2654.5356       8.0000       0.0110      64.7440      43.3850    -999.2500      69.6740      63.5560      14.5490       0.0692       2.7230      11.6300
   2654.6880       8.0020       0.0420      86.6790      46.8110    -999.2500      41.8390      43.1760      10.2230       0.0905       2.6700      11.1860
   2654.8403       8.0080       0.0660     103.8630      59.1820    -999.2500      20.1620      27.2540       7.5990       0.1309       2.6290      10.8340
   2654.9927       8.0260       0.0620     103.7390      68.7690    -999.2500      20.9150      27.5660      11.1760       0.1976       2.6350      10.7340
   2655.1453       8.0480       0.0540     101.4490      68.2140    -999.2500      22.9900      28.3920      13.8340       0.2492       2.6380      11.0650
   2655.2976       8.0830       0.0340      91.2980      67.8980    -999.2500      29.9040      31.0820      13.1650       0.2566       2.6350      11.9190
   2655.4500       8.1110       0.0170      84.4700      68.4530    -999.2500      50.9560      35.4210      12.0940       0.2452       2.6330      13.1580
   2655.6023       8.1110       0.0170      89.7500      68.7300    -999.2500     123.5320      45.7690       9.5550       0.2225       2.6350      14.5010
   2655.7549       8.1110       0.0170      92.7490      67.9940    -999.2500     176.9610      59.3640       7.8590       0.1894       2.6390      15.3770
   2655.9072       8.1120       0.0180      87.4740      65.6560    -999.2500     160.2460      84.7420       9.2190       0.1452       2.6500      15.7220
   2656.0596       8.1150       0.0190      84.1100      57.5070    -999.2500     147.3750     114.2970       9.8730       0.1123       2.6610      15.6330
   2656.2119       8.1290       0.0210      87.7230      51.1620    -999.2500     148.5250     159.0900       7.9760       0.1071       2.6770      15.2470
   2656.3645       8.1500       0.0240      90.0590      51.3980    -999.2500     151.4420     201.3670       6.5210       0.1124       2.6890      14.4670
