#------------------------------------------------------------------------------
#
#   Created by  : [OpenWorks] Log Export Utility (LEXP)
#   Created on  : 2016-05-19 10:54:47
#   Project     : CANT971
#   User        : R5K
#   Interpreter : PEP
#
#------------------------------------------------------------------------------
~VERSION INFORMATION
VERS. 2.0 : CWLS Log ASCII Standard - version 2.0
WRAP.  NO : One line per depth step
~WELL INFORMATION
#MNEMONIC   .UNIT                                           VALUE :DESCRIPTION
#------------------------------------------------------------------------------
STRT        .M                                          1271.4729 :START DEPTH
STOP        .M                                          2683.3064 :STOP DEPTH
STEP        .M                                             0.1524 :STEP
NULL        .                                           -999.2500 :NULL VALUE
COMP        .                                   PEMEX EXPL & PROD :COMPANY
WELL        .                                                269D :WELL
FLD         .                                           CANTARELL :FIELD
LOC         .                                             UNKNOWN :LOCATION
CNTY        .                                      CD. DEL CARMEN :COUNTY
STAT        .                                            CAMPECHE :STATE
CTRY        .                                              MEXICO :COUNTRY
SRVC        .                                             UNKNOWN :SERVICE COMPANY
DATE        .                                             UNKNOWN :LOG DATE
UWI         .                                          3060000596 :UNIQUE WELL ID
XCOORD      .                                       597309.970000 :SURFACE X
YCOORD      .                                      2143042.390000 :SURFACE Y
LAT         .                                           19.380314 :LATITUDE
LON         .                                          -92.073359 :LONGITUDE
ELEV        .M                                            27.7000 :SURFACE ELEV
ELEV_TYPE   .                                                  KB :ELEV TYPE
~CURVE INFORMATION
#MNEMONIC.UNIT        API CODE       : CURVE DESCRIPTION
#------------------------------------------------------------------------------
DEPTH    .M                          : Measured Depth
CALI     .inches      UNKNOWN        : CALI:Import:rC:NONE:v0 (auto-composite)
CGR      .API         UNKNOWN        : CGR:Import:rC:NONE:v0 (auto-composite)
DRHO     .g/cm3       UNKNOWN        : DRHO:Import:rC:NONE:v0 (auto-composite)
DT       .us/ft       UNKNOWN        : DT:Import:rC:NONE:v0 (auto-composite)
GR       .API         UNKNOWN        : GR:Import:rC:NONE:v0 (auto-composite)
ILD      .ohm.m       UNKNOWN        : ILD:Import:rC:NONE:v0 (auto-composite)
ILM      .ohm.m       UNKNOWN        : ILM:Import:rC:NONE:v0 (auto-composite)
LLD      .ohm.m       UNKNOWN        : LLD:Import:rC:NONE:v0 (auto-composite)
LLS      .ohm.m       UNKNOWN        : LLS:Import:rC:NONE:v0 (auto-composite)
MSFL     .ohm.m       UNKNOWN        : MSFL:Import:rC:NONE:v0 (auto-composite)
NPHI     .v/v_decimal UNKNOWN        : NPHI:Import:rC:NONE:v0 (auto-composite)
PEF      .b/elec      UNKNOWN        : PEF:Import:rC:NONE:v0 (auto-composite)
POTA     .wtpercent   UNKNOWN        : POTA:Import:rC:NONE:v0 (auto-composite)
RHOB     .g/cm3       UNKNOWN        : RHOB:Import:rC:NONE:v0 (auto-composite)
SP       .mV          UNKNOWN        : SP:Import:rC:NONE:v0 (auto-composite)
THOR     .ppm         UNKNOWN        : THOR:Import:rC:NONE:v0 (auto-composite)
URAN     .ppm         UNKNOWN        : URAN:Import:rC:NONE:v0 (auto-composite)
~A     DEPTH         CALI          CGR         DRHO           DT           GR          ILD          ILM          LLD          LLS         MSFL         NPHI          PEF         POTA         RHOB           SP         THOR         URAN
# ...
   2455.6208       8.8100       1.1320       0.0900      43.6500      15.7130    -999.2500    -999.2500    3964.4219     245.8903    2000.5000       0.0631       2.7510       0.0240       2.6250     -26.4640       0.2370       1.6130
   2455.7732       8.6861       0.8250       0.0654      42.9520      15.6216    -999.2500    -999.2500    6094.4658     366.1009    2000.5000       0.0549       2.8509       0.0235       2.6908     -26.5584       0.1404       1.6320
   2455.9258       8.5620       0.5190       0.0410      42.2550      15.5300    -999.2500    -999.2500    8227.9941     486.5314    2000.5000       0.0469       2.9500       0.0230       2.7560     -26.6530       0.0440       1.6510
   2456.0781       8.5620       0.5380       0.0520      41.1924      15.1710    -999.2500    -999.2500    6132.0068     462.8549    2000.5000       0.0456       2.9927       0.0240       2.7550     -26.9049       0.0455       1.6115
   2456.2305       8.5620       0.5570       0.0630      40.1310      14.8130    -999.2500    -999.2500    4042.1899     439.2454    2000.5000       0.0462       3.0350       0.0250       2.7540     -27.1561       0.0470       1.5720
   2456.3828       8.6287       0.8113       0.0811      40.3351      15.0288    -999.2500    -999.2500    4190.9277     417.7070    2000.5000       0.0463       2.9813       0.0360       2.7620     -27.7849       0.0645       1.5845
   2456.5354       8.6950       1.0650       0.0990      40.5390      15.2430    -999.2500    -999.2500    4339.3364     396.3334    2000.5000       0.0452       2.9280       0.0470       2.7700     -28.4092       0.0820       1.5970
   2456.6877       8.6599       0.9904       0.0945      42.5765      15.6894    -999.2500    -999.2500   11372.6475     522.8213    2000.5000       0.0415       3.0339       0.0365       2.7881     -29.5365       0.1180       1.6360
   2456.8401       8.6250       0.9160       0.0900      44.6120      16.1340    -999.2500    -999.2500   18375.7051     648.7794    2000.5000       0.0385       3.1390       0.0260       2.8060     -30.6591       0.1540       1.6750
   2456.9924       8.6615       1.0091       0.0850      47.8389      16.5162    -999.2500    -999.2500   16367.0391     623.6548    2000.5000       0.0413       2.9077       0.0260       2.7618     -31.2243       0.1940       1.7110
   2457.1450       8.6980       1.1020       0.0800      51.0630      16.8980    -999.2500    -999.2500   14359.8330     598.5494    2000.5000       0.0489       2.6780       0.0260       2.7180     -31.7890       0.2340       1.7470
   2457.2974       8.7542       1.2091       0.0825      52.5305      16.8343    -999.2500    -999.2500   10360.4746     501.6910    2000.5000       0.0666       2.7387       0.0260       2.6573     -31.9790       0.2765       1.7345
   2457.4497       8.8100       1.3160       0.0850      53.9970      16.7710    -999.2500    -999.2500    6383.8232     405.3701    2000.5000       0.0834       2.7990       0.0260       2.5970     -32.1678       0.3190       1.7220
   2457.6021       8.8311       1.4121       0.0915      53.7377      16.6222    -999.2500    -999.2500    7945.5288     410.9670    2000.5000       0.0854       2.8628       0.0330       2.6050     -30.9154       0.3015       1.6935
   2457.7544       8.8520       1.5080       0.0980      53.4790      16.4750    -999.2500    -999.2500    9491.1621     416.5078    2000.5000       0.0813       2.9260       0.0400       2.6130     -29.6759       0.2840       1.6650
   2457.9070       8.8520       1.8684       0.0960      52.0615      16.3079    -999.2500    -999.2500    9011.7764     447.6207    2000.5000       0.0734       2.8477       0.0730       2.6251     -28.9238       0.2370       1.6019
   2458.0593       8.8520       2.2280       0.0940      50.6470      16.1420    -999.2500    -999.2500    8535.6133     478.5208    2000.5000       0.0664       2.7700       0.1060       2.6370     -28.1770       0.1900       1.5390
   2458.2117       8.8520       1.4437       0.0995      48.8818      15.8550    -999.2500    -999.2500    7570.0630     508.6926    2000.5000       0.0668       2.8428       0.0865       2.6360     -27.9892       0.1304       1.5971
   2458.3640       8.8520       0.6610       0.1050      47.1200      15.5690    -999.2500    -999.2500    6607.9487     538.7560    2000.5000       0.0691       2.9150       0.0670       2.6350     -27.8020       0.0710       1.6550
   2458.5166       8.9381       0.7406       0.1155      46.3538      15.6266    -999.2500    -999.2500    5854.5142     497.9129    2000.5000       0.0692       3.0265       0.0465       2.6832     -28.0232       0.0985       1.6500
   2458.6689       9.0240       0.8200       0.1260      45.5890      15.6840    -999.2500    -999.2500    5102.4111     457.1450    2000.5000       0.0668       3.1370       0.0260       2.7310     -28.2440       0.1260       1.6450
   2458.8213       9.3632       1.3555       0.1506      44.4360      15.8304    -999.2500    -999.2500    4055.0137     458.2172    2000.5000       0.0587       3.1224       0.0300       2.7215     -28.0586       0.2086       1.6175
   2458.9736       9.7030       1.8900       0.1750      43.2850      15.9770    -999.2500    -999.2500    3006.1680     459.2911    2000.5000       0.0508       3.1080       0.0340       2.7120     -27.8730       0.2910       1.5900
   2459.1262       9.5939       1.8234       0.2347      41.7158      16.3243    -999.2500    -999.2500    3174.7866     465.4680    2000.5000       0.0508       3.0864       0.0300       2.7150     -27.6859       0.3806       1.6235
   2459.2786       9.4850       1.7570       0.2940      40.1490      16.6710    -999.2500    -999.2500    3343.1641     471.6367    2000.5000       0.0544       3.0650       0.0260       2.7180     -27.4992       0.4700       1.6570
   2459.4309       9.3807       1.6258       0.2699      40.8355      17.1701    -999.2500    -999.2500    3715.1152     538.6777    2000.5000       0.0619       3.0550       0.0270       2.7632     -28.3468       0.4245       1.7240
   2459.5833       9.2770       1.4950       0.2460      41.5210      17.6660    -999.2500    -999.2500    4084.7471     605.3020    2000.5000       0.0679       3.0450       0.0280       2.8080     -29.1891       0.3790       1.7910
   2459.7356       9.2524       1.2456       0.1802      42.1804      18.2869    -999.2500    -999.2500    4403.5776     683.6028    2000.5000       0.0645       3.0405       0.0275       2.7965     -29.7544       0.2779       1.8776
   2459.8882       9.2280       0.9970       0.1150      42.8390      18.9050    -999.2500    -999.2500    4721.1479     761.5527    2000.5000       0.0581       3.0360       0.0270       2.7850     -30.3171       0.1770       1.9640
   2460.0405       9.1289       1.0946       0.0633      42.3692      19.9576    -999.2500    -999.2500    6589.2646     909.7445    2000.5000       0.0516       2.9090       0.0265       2.7549     -30.9145       0.2110       2.0821
   2460.1929       9.0300       1.1920       0.0120      41.9000      21.0090    -999.2500    -999.2500    8456.2031    1057.7640    2000.5000       0.0460       2.7830       0.0260       2.7250     -31.5109       0.2450       2.2000
   2460.3452       8.9501       1.1349       0.0200      42.2037      20.8362    -999.2500    -999.2500   19490.9902    1337.2203    2000.5000       0.0431       2.8131       0.0265       2.7340     -31.0759       0.2260       2.1890
   2460.4978       8.8700       1.0780       0.0280      42.5070      20.6630    -999.2500    -999.2500   30546.7246    1617.2679    2000.5000       0.0410       2.8430       0.0270       2.7430     -30.6399       0.2070       2.1780
   2460.6501       8.8610       0.8347       0.0436      43.2433      20.9674    -999.2500    -999.2500   17577.5703    1572.8785    2000.5000       0.0381       2.8982       0.0270       2.7626     -30.0466       0.1275       2.2600
   2460.8025       8.8520       0.5920       0.0590      43.9790      21.2710    -999.2500    -999.2500    4642.9658    1528.6012    2000.4999       0.0360       2.9530       0.0270       2.7820     -29.4549       0.0480       2.3420
