#------------------------------------------------------------------------------
#
#   Created by  : [OpenWorks] Log Export Utility (LEXP)
#   Created on  : 2016-05-19 10:54:47
#   Project     : CANT971
#   User        : R5K
#   Interpreter : PEP
#
#------------------------------------------------------------------------------
~VERSION INFORMATION
VERS. 2.0 : CWLS Log ASCII Standard - version 2.0
WRAP.  NO : One line per depth step
~WELL INFORMATION
#MNEMONIC   .UNIT                                           VALUE :DESCRIPTION
#------------------------------------------------------------------------------
STRT        .M                                          1271.4729 :START DEPTH
STOP        .M                                          2683.3064 :STOP DEPTH
STEP        .M                                             0.1524 :STEP
NULL        .                                           -999.2500 :NULL VALUE
COMP        .                                   PEMEX EXPL & PROD :COMPANY
WELL        .                                                269D :WELL
FLD         .                                           CANTARELL :FIELD
LOC         .                                             UNKNOWN :LOCATION
CNTY        .                                      CD. DEL CARMEN :COUNTY
STAT        .                                            CAMPECHE :STATE
CTRY        .                                              MEXICO :COUNTRY
SRVC        .                                             UNKNOWN :SERVICE COMPANY
DATE        .                                             UNKNOWN :LOG DATE
UWI         .                                          3060000596 :UNIQUE WELL ID
XCOORD      .                                       597309.970000 :SURFACE X
YCOORD      .                                      2143042.390000 :SURFACE Y
LAT         .                                           19.380314 :LATITUDE
LON         .                                          -92.073359 :LONGITUDE
ELEV        .M                                            27.7000 :SURFACE ELEV
ELEV_TYPE   .                                                  KB :ELEV TYPE
~CURVE INFORMATION
#MNEMONIC.UNIT        API CODE       : CURVE DESCRIPTION
#------------------------------------------------------------------------------
DEPTH    .M                          : Measured Depth
CALI     .inches      UNKNOWN        : CALI:Import:rC:NONE:v0 (auto-composite)
CGR      .API         UNKNOWN        : CGR:Import:rC:NONE:v0 (auto-composite)
DRHO     .g/cm3       UNKNOWN        : DRHO:Import:rC:NONE:v0 (auto-composite)
DT       .us/ft       UNKNOWN        : DT:Import:rC:NONE:v0 (auto-composite)
GR       .API         UNKNOWN        : GR:Import:rC:NONE:v0 (auto-composite)
ILD      .ohm.m       UNKNOWN        : ILD:Import:rC:NONE:v0 (auto-composite)
ILM      .ohm.m       UNKNOWN        : ILM:Import:rC:NONE:v0 (auto-composite)
LLD      .ohm.m       UNKNOWN        : LLD:Import:rC:NONE:v0 (auto-composite)
LLS      .ohm.m       UNKNOWN        : LLS:Import:rC:NONE:v0 (auto-composite)
MSFL     .ohm.m       UNKNOWN        : MSFL:Import:rC:NONE:v0 (auto-composite)
NPHI     .v/v_decimal UNKNOWN        : NPHI:Import:rC:NONE:v0 (auto-composite)
PEF      .b/elec      UNKNOWN        : PEF:Import:rC:NONE:v0 (auto-composite)
POTA     .wtpercent   UNKNOWN        : POTA:Import:rC:NONE:v0 (auto-composite)
RHOB     .g/cm3       UNKNOWN        : RHOB:Import:rC:NONE:v0 (auto-composite)
SP       .mV          UNKNOWN        : SP:Import:rC:NONE:v0 (auto-composite)
THOR     .ppm         UNKNOWN        : THOR:Import:rC:NONE:v0 (auto-composite)
URAN     .ppm         UNKNOWN        : URAN:Import:rC:NONE:v0 (auto-composite)
~A     DEPTH         CALI          CGR         DRHO           DT           GR          ILD          ILM          LLD          LLS         MSFL         NPHI          PEF         POTA         RHOB           SP         THOR         URAN
# ...
   2316.9370       8.5620       2.9640       0.0530      55.4540      38.8280    -999.2500    -999.2500      22.6919      25.9158    2000.5000       0.0764       4.3270       0.0980       2.5690     -31.5130       0.3970       3.9770
   2317.0894       8.5620       4.2550       0.0465      54.3766      38.1125    -999.2500    -999.2500      21.7372      23.7698    2000.5000       0.0713       4.4631       0.1750       2.5981     -31.6078       0.5436       3.7529
   2317.2417       8.5620       5.5450       0.0400      53.3000      37.4009    -999.2500    -999.2500      20.7880      21.6360    2000.5000       0.0632       4.5980       0.2520       2.6270     -31.7020       0.6900       3.5290
   2317.3940       8.5504       6.0402       0.0295      52.4706      32.8591    -999.2500    -999.2500      21.0554      22.0587    2000.5000       0.0544       4.5548       0.2325       2.6260     -31.5160       0.7670       3.0043
   2317.5464       8.5390       6.5350       0.0190      51.6430      28.3640    -999.2500    -999.2500      21.3217      22.4784    2000.5000       0.0450       4.5120       0.2130       2.6250     -31.3318       0.8440       2.4800
   2317.6990       8.4803       5.4042       0.0295      51.2351      27.8838    -999.2500    -999.2500      33.6775      36.5668    2000.5000       0.0350       4.5708       0.2030       2.6376     -30.3935       0.6014       2.5220
   2317.8513       8.4220       4.2740       0.0400      50.8280      27.4070    -999.2500    -999.2500      45.9474      50.5570    2000.5000       0.0270       4.6290       0.1930       2.6500     -29.4619       0.3590       2.5640
   2318.0037       8.4220       3.8144       0.0505      50.7634      27.3704    -999.2500    -999.2500      56.2461      60.9910    2000.5000       0.0226       4.5923       0.1790       2.6480     -28.9915       0.2775       2.6145
   2318.1560       8.4220       3.3550       0.0610      50.6990      27.3340    -999.2500    -999.2500      66.5064      71.3863    2000.5000       0.0208       4.5560       0.1650       2.6460     -28.5232       0.1960       2.6650
   2318.3086       8.4220       3.2365       0.0741      51.1019      27.6543    -999.2500    -999.2500      69.2996      74.6694    2000.5000       0.0207       4.4867       0.1755       2.6631     -29.2444       0.1465       2.6975
   2318.4609       8.4220       3.1180       0.0870      51.5040      27.9740    -999.2500    -999.2500      72.0865      77.9456    2000.5000       0.0210       4.4180       0.1860       2.6800     -29.9642       0.0970       2.7300
   2318.6133       8.4220       3.6700       0.0770      51.9869      29.3800    -999.2500    -999.2500      68.7404      74.1103    2000.5000       0.0211       4.5285       0.2125       2.6700     -30.7466       0.1040       2.8535
   2318.7656       8.4220       4.2210       0.0670      52.4690      30.7881    -999.2500    -999.2500      65.3898      70.2698    2000.5000       0.0218       4.6380       0.2390       2.6600     -31.5302       0.1110       2.9770
   2318.9182       8.4410       3.2587       0.0695      52.4630      33.2667    -999.2500    -999.2500      63.5718      68.1150    2000.5000       0.0236       4.8651       0.1550       2.6595     -32.3764       0.2575       3.3345
   2319.0706       8.4600       2.2980       0.0720      52.4570      35.7410    -999.2500    -999.2500      61.7553      65.9628    2000.5000       0.0275       5.0900       0.0710       2.6590     -33.2209       0.4040       3.6920
   2319.2229       8.4951       2.4156       0.0760      52.1713      36.0104    -999.2500    -999.2500      49.1535      53.6584    2000.5000       0.0338       5.0508       0.0535       2.6525     -32.9395       0.5131       3.7170
   2319.3752       8.5300       2.5330       0.0800      51.8860      36.2780    -999.2500    -999.2500      36.6329      41.4329    2000.5000       0.0389       5.0120       0.0360       2.6460     -32.6599       0.6220       3.7420
   2319.5276       8.5460       2.2293       0.0905      51.7694      34.4498    -999.2500    -999.2500      36.0070      40.6747    2000.5000       0.0404       5.1552       0.0370       2.6601     -32.2239       0.5259       3.5714
   2319.6802       8.5620       1.9260       0.1010      51.6530      32.6300    -999.2500    -999.2500      35.3834      39.9195    2000.5000       0.0423       5.2970       0.0380       2.6740     -31.7900       0.4300       3.4010
   2319.8325       8.5620       1.6348       0.0995      51.8651      31.7369    -999.2500    -999.2500      31.2709      35.3661    2000.5000       0.0476       5.2076       0.0350       2.6660     -31.6044       0.3469       3.3255
   2319.9849       8.5620       1.3440       0.0980      52.0770      30.8450    -999.2500    -999.2500      27.1637      30.8188    2000.5000       0.0535       5.1190       0.0320       2.6580     -31.4190       0.2640       3.2500
   2320.1372       8.5895       1.7447       0.0854      52.0660      30.0298    -999.2500    -999.2500      25.0878      28.8383    2000.5000       0.0580       4.9643       0.0320       2.6590     -31.2647       0.3936       3.1279
   2320.2898       8.6170       2.1450       0.0730      52.0550      29.2130    -999.2500    -999.2500      23.0080      26.8540    2000.5000       0.0610       4.8110       0.0320       2.6600     -31.1101       0.5230       3.0060
   2320.4421       8.6095       2.3496       0.0660      51.9399      29.0438    -999.2500    -999.2500      22.9189      26.4565    2000.5000       0.0631       4.4860       0.0330       2.6570     -31.3298       0.5865       2.9610
   2320.5945       8.6020       2.5540       0.0590      51.8250      28.8750    -999.2500    -999.2500      22.8298      26.0598    2000.5000       0.0687       4.1640       0.0340       2.6540     -31.5489       0.6500       2.9160
   2320.7468       8.6135       2.5540       0.0630      51.5924      28.7445    -999.2500    -999.2500      21.0408      23.7695    2000.5000       0.0805       4.2328       0.0690       2.6555     -31.0185       0.5480       2.8950
   2320.8994       8.6250       2.5540       0.0670      51.3600      28.6150    -999.2500    -999.2500      19.2647      21.4958    2000.5000       0.0879       4.3010       0.1040       2.6570     -30.4919       0.4460       2.8740
   2321.0518       8.6641       4.6753       0.0635      50.9308      30.0118    -999.2500    -999.2500      17.2858      19.7433    2000.5000       0.0833       4.2869       0.1845       2.6706     -30.1167       0.6201       2.8000
   2321.2041       8.7030       6.7950       0.0600      50.5020      31.4030    -999.2500    -999.2500      15.3153      17.9982    2000.5000       0.0711       4.2730       0.2650       2.6840     -29.7431       0.7940       2.7260
   2321.3564       8.7030       7.5758       0.0474      51.3715      31.7481    -999.2500    -999.2500      17.3765      19.6347    2000.5000       0.0547       4.2750       0.3050       2.6850     -30.0257       0.8685       2.6780
   2321.5088       8.7030       8.3560       0.0350      52.2390      32.0930    -999.2500    -999.2500      19.4358      21.2699    2000.5000       0.0457       4.2770       0.3450       2.6860     -30.3082       0.9430       2.6300
   2321.6614       8.6990       9.2887       0.0224      53.3672      32.5798    -999.2500    -999.2500      17.7683      19.9343    2000.5000       0.0511       4.5045       0.4030       2.6493     -31.1535       0.8365       2.5805
   2321.8137       8.6950      10.2210       0.0100      54.4930      33.0640    -999.2500    -999.2500      16.1099      18.6059    2000.5000       0.0587       4.7300       0.4610       2.6130     -31.9941       0.7300       2.5310
   2321.9661       8.6950      11.6529       0.0105      54.2412      34.0585    -999.2500    -999.2500      15.3778      17.8878    2000.5000       0.0599       4.6321       0.5215       2.6165     -32.5936       0.9806       2.4810
   2322.1184       8.6950      13.0820       0.0110      53.9900      35.0430    -999.2500    -999.2500      14.6534      17.1773    2000.5000       0.0580       4.5350       0.5820       2.6200     -33.1870       1.2310       2.4310
