#------------------------------------------------------------------------------
#
#   Created by  : [OpenWorks] Log Export Utility (LEXP)
#   Created on  : 2016-05-19 10:54:47
#   Project     : CANT971
#   User        : R5K
#   Interpreter : PEP
#
#------------------------------------------------------------------------------
~VERSION INFORMATION
VERS. 2.0 : CWLS Log ASCII Standard - version 2.0
WRAP.  NO : One line per depth step
~WELL INFORMATION
#MNEMONIC   .UNIT                                           VALUE :DESCRIPTION
#------------------------------------------------------------------------------
STRT        .M                                          1271.4729 :START DEPTH
STOP        .M                                          2683.3064 :STOP DEPTH
STEP        .M                                             0.1524 :STEP
NULL        .                                           -999.2500 :NULL VALUE
COMP        .                                   PEMEX EXPL & PROD :COMPANY
WELL        .                                                269D :WELL
FLD         .                                           CANTARELL :FIELD
LOC         .                                             UNKNOWN :LOCATION
CNTY        .                                      CD. DEL CARMEN :COUNTY
STAT        .                                            CAMPECHE :STATE
CTRY        .                                              MEXICO :COUNTRY
SRVC        .                                             UNKNOWN :SERVICE COMPANY
DATE        .                                             UNKNOWN :LOG DATE
UWI         .                                          3060000596 :UNIQUE WELL ID
XCOORD      .                                       597309.970000 :SURFACE X
YCOORD      .                                      2143042.390000 :SURFACE Y
LAT         .                                           19.380314 :LATITUDE
LON         .                                          -92.073359 :LONGITUDE
ELEV        .M                                            27.7000 :SURFACE ELEV
ELEV_TYPE   .                                                  KB :ELEV TYPE
~CURVE INFORMATION
#MNEMONIC.UNIT        API CODE       : CURVE DESCRIPTION
#------------------------------------------------------------------------------
DEPTH    .M                          : Measured Depth
CALI     .inches      UNKNOWN        : CALI:Import:rC:NONE:v0 (auto-composite)
CGR      .API         UNKNOWN        : CGR:Import:rC:NONE:v0 (auto-composite)
DRHO     .g/cm3       UNKNOWN        : DRHO:Import:rC:NONE:v0 (auto-composite)
DT       .us/ft       UNKNOWN        : DT:Import:rC:NONE:v0 (auto-composite)
GR       .API         UNKNOWN        : GR:Import:rC:NONE:v0 (auto-composite)
ILD      .ohm.m       UNKNOWN        : ILD:Import:rC:NONE:v0 (auto-composite)
ILM      .ohm.m       UNKNOWN        : ILM:Import:rC:NONE:v0 (auto-composite)
LLD      .ohm.m       UNKNOWN        : LLD:Import:rC:NONE:v0 (auto-composite)
LLS      .ohm.m       UNKNOWN        : LLS:Import:rC:NONE:v0 (auto-composite)
MSFL     .ohm.m       UNKNOWN        : MSFL:Import:rC:NONE:v0 (auto-composite)
NPHI     .v/v_decimal UNKNOWN        : NPHI:Import:rC:NONE:v0 (auto-composite)
PEF      .b/elec      UNKNOWN        : PEF:Import:rC:NONE:v0 (auto-composite)
POTA     .wtpercent   UNKNOWN        : POTA:Import:rC:NONE:v0 (auto-composite)
RHOB     .g/cm3       UNKNOWN        : RHOB:Import:rC:NONE:v0 (auto-composite)
SP       .mV          UNKNOWN        : SP:Import:rC:NONE:v0 (auto-composite)
THOR     .ppm         UNKNOWN        : THOR:Import:rC:NONE:v0 (auto-composite)
URAN     .ppm         UNKNOWN        : URAN:Import:rC:NONE:v0 (auto-composite)
~A     DEPTH         CALI          CGR         DRHO           DT           GR          ILD          ILM          LLD          LLS         MSFL         NPHI          PEF         POTA         RHOB           SP         THOR         URAN
# ...
   2514.2949       9.9124       1.5587       0.0365      44.4461      21.6718    -999.2500    -999.2500    9671.6113     957.0251      10.2571       0.0437       2.9711       0.0270       2.7371     -35.1749       0.3605       2.2310
   2514.4473       9.8670       1.6940       0.0370      44.5640      22.0900    -999.2500    -999.2500   13801.9834    1254.0989       9.4610       0.0408       2.8630       0.0270       2.7510     -35.3009       0.4030       2.2680
   2514.5996       9.8865       1.4822       0.0305      45.0168      22.2969    -999.2500    -999.2500   12999.8662    1165.0137      10.7683       0.0370       3.0356       0.0270       2.7485     -34.9907       0.3340       2.3135
   2514.7522       9.9060       1.2710       0.0240      45.4690      22.5030    -999.2500    -999.2500   12201.0303    1076.3124      12.0700       0.0340       3.2070       0.0270       2.7460     -34.6819       0.2650       2.3590
   2514.9045       9.8750       1.4102       0.0305      45.1368      22.5781    -999.2500    -999.2500    9616.0947     877.4893      11.6029       0.0335       3.1322       0.0275       2.7330     -34.1207       0.3105       2.3510
   2515.0569       9.8440       1.5490       0.0370      44.8050      22.6530    -999.2500    -999.2500    7038.1011     679.1838      11.1370       0.0342       3.0580       0.0280       2.7200     -33.5609       0.3560       2.3430
   2515.2092       9.8440       1.3798       0.0671      43.8616      22.3346    -999.2500    -999.2500    6453.7588     608.1133      10.6067       0.0351       3.0209       0.0275       2.7255     -32.8437       0.3014       2.3275
   2515.3618       9.8440       1.2110       0.0970      42.9190      22.0160    -999.2500    -999.2500    5868.9985     536.9923      10.0760       0.0362       2.9840       0.0270       2.7310     -32.1260       0.2470       2.3120
   2515.5142       9.8480       1.0854       0.1236      41.8151      22.1807    -999.2500    -999.2500    5308.0347     493.5954       9.9088       0.0372       3.0598       0.0270       2.7425     -31.8757       0.2070       2.3380
   2515.6665       9.8520       0.9600       0.1500      40.7120      22.3450    -999.2500    -999.2500    4748.4004     450.3012       9.7420       0.0384       3.1350       0.0270       2.7540     -31.6261       0.1670       2.3640
   2515.8188       9.8490       0.9079       0.1420      41.7386      22.5427    -999.2500    -999.2500    4237.0498     412.6325      10.3185       0.0399       3.0281       0.0270       2.7811     -32.1916       0.1490       2.3890
   2515.9712       9.8460       0.8560       0.1340      42.7630      22.7390    -999.2500    -999.2500    3729.3416     375.2281      10.8910       0.0421       2.9220       0.0270       2.8080     -32.7531       0.1310       2.4140
   2516.1238       9.8390       0.9437       0.1014      44.2821      22.5706    -999.2500    -999.2500    3773.0122     365.9550       9.4928       0.0460       2.9250       0.0275       2.7965     -33.4755       0.1570       2.3960
   2516.2761       9.8320       1.0310       0.0690      45.7980      22.4030    -999.2500    -999.2500    3816.4519     356.7310       8.1020       0.0494       2.9280       0.0280       2.7850     -34.1941       0.1830       2.3780
   2516.4285       9.7674       0.9599       0.0399      46.7910      22.5306    -999.2500    -999.2500    3862.2788     342.8679       8.1601       0.0503       2.9661       0.0315       2.7659     -34.8843       0.1520       2.3955
   2516.5808       9.7030       0.8890       0.0110      47.7820      22.6580    -999.2500    -999.2500    3908.0491     329.0321       8.2180       0.0488       3.0040       0.0350       2.7470     -35.5730       0.1210       2.4130
   2516.7334       9.7030       0.8094       0.0115      48.8090      23.1207    -999.2500    -999.2500    4281.3848     337.4177       9.1709       0.0440       3.0451       0.0320       2.7299     -35.7936       0.1055       2.4706
   2516.8857       9.7030       0.7300       0.0120      49.8340      23.5810    -999.2500    -999.2500    4652.7642     345.7610      10.1190       0.0389       3.0860       0.0290       2.7130     -36.0129       0.0900       2.5280
   2517.0381       9.7030       0.7726       0.0130      49.7835      24.4592    -999.2500    -999.2500    4384.5566     336.9965      12.1513       0.0353       3.0840       0.0280       2.6909     -35.5451       0.1090       2.6241
   2517.1904       9.7030       0.8150       0.0140      49.7330      25.3289    -999.2500    -999.2500    4118.9438     328.3170      14.1640       0.0346       3.0820       0.0270       2.6690     -35.0819       0.1280       2.7200
   2517.3430       9.7030       0.8491       0.0205      48.9494      26.0628    -999.2500    -999.2500    3822.1482     310.9963      12.3577       0.0387       2.9881       0.0275       2.6730     -34.3310       0.1250       2.7981
   2517.4954       9.7030       0.8830       0.0270      48.1670      26.7920    -999.2500    -999.2500    3527.2388     293.7861      10.5630       0.0431       2.8950       0.0280       2.6770     -33.5850       0.1220       2.8760
   2517.6477       9.7345       0.9967       0.0416      47.2098      26.2276    -999.2500    -999.2500    3161.1526     264.3083      12.0418       0.0443       3.0044       0.0285       2.6926     -33.3987       0.1630       2.8074
   2517.8000       9.7660       1.1100       0.0560      46.2540      25.6650    -999.2500    -999.2500    2796.2471     234.9212      13.5160       0.0439       3.1130       0.0290       2.7080     -33.2130       0.2040       2.7390
   2517.9524       9.7345       0.9528       0.0706      49.1179      25.8571    -999.2500    -999.2500    2959.1624     237.2621      11.3600       0.0427       3.2269       0.0290       2.7261     -33.3696       0.1545       2.7725
   2518.1050       9.7030       0.7960       0.0850      51.9780      26.0490    -999.2500    -999.2500    3121.8372     239.6000       9.2070       0.0404       3.3400       0.0290       2.7440     -33.5261       0.1050       2.8060
   2518.2573       9.7030       0.7224       0.0915      55.5367      25.4351    -999.2500    -999.2500    3093.4534     244.0885       8.5565       0.0360       3.1854       0.0280       2.7596     -33.9348       0.0830       2.7410
   2518.4097       9.7030       0.6490       0.0980      59.0910      24.8250    -999.2500    -999.2500    3065.1692     248.5500       7.9100       0.0353       3.0320       0.0270       2.7750     -34.3410       0.0610       2.6760
   2518.5620       9.7949       0.6630       0.0844      58.2310      24.4372    -999.2500    -999.2500    2348.2837     191.2402       7.6162       0.0443       2.8573       0.0275       2.6701     -34.5314       0.0665       2.6324
   2518.7146       9.8860       0.6770       0.0710      57.3720      24.0530    -999.2500    -999.2500    1637.9070     134.4493       7.3250       0.0616       2.6840       0.0280       2.5660     -34.7200       0.0720       2.5890
   2518.8669       9.9392       0.7626       0.0630      55.4856      23.8088    -999.2500    -999.2500    1072.7302      87.6469       5.8197       0.0886       2.8396       0.0280       2.5876     -34.8464       0.0990       2.5530
   2519.0193       9.9920       0.8480       0.0550      53.6010      23.5660    -999.2500    -999.2500     510.8564      41.1143       4.3230       0.1069       2.9940       0.0280       2.6090     -34.9721       0.1260       2.5170
   2519.1716       9.9569       0.9737       0.0349      50.9539      23.3466    -999.2500    -999.2500     390.5943      31.1980       3.5379       0.0991       2.9865       0.0285       2.6276     -35.4746       0.1791       2.4790
   2519.3242       9.9220       1.0990       0.0150      48.3090      23.1280    -999.2500    -999.2500     270.8366      21.3221       2.7560       0.0803       2.9790       0.0290       2.6460     -35.9751       0.2320       2.4410
   2519.4766       9.9370       1.2122       0.0391      48.5066      22.9988    -999.2500    -999.2500     324.9625      25.3141       3.5519       0.0598       3.0442       0.0320       2.6927     -36.3520       0.2065       2.4155
