#------------------------------------------------------------------------------
#
#   Created by  : [OpenWorks] Log Export Utility (LEXP)
#   Created on  : 2016-05-19 10:54:47
#   Project     : CANT971
#   User        : R5K
#   Interpreter : PEP
#
#------------------------------------------------------------------------------
~VERSION INFORMATION
VERS. 2.0 : CWLS Log ASCII Standard - version 2.0
WRAP.  NO : One line per depth step
~WELL INFORMATION
#MNEMONIC   .UNIT                                           VALUE :DESCRIPTION
#------------------------------------------------------------------------------
STRT        .M                                          1271.4729 :START DEPTH
STOP        .M                                          2683.3064 :STOP DEPTH
STEP        .M                                             0.1524 :STEP
NULL        .                                           -999.2500 :NULL VALUE
COMP        .                                   PEMEX EXPL & PROD :COMPANY
WELL        .                                                269D :WELL
FLD         .                                           CANTARELL :FIELD
LOC         .                                             UNKNOWN :LOCATION
CNTY        .                                      CD. DEL CARMEN :COUNTY
STAT        .                                            CAMPECHE :STATE
CTRY        .                                              MEXICO :COUNTRY
SRVC        .                                             UNKNOWN :SERVICE COMPANY
DATE        .                                             UNKNOWN :LOG DATE
UWI         .                                          3060000596 :UNIQUE WELL ID
XCOORD      .                                       597309.970000 :SURFACE X
YCOORD      .                                      2143042.390000 :SURFACE Y
LAT         .                                           19.380314 :LATITUDE
LON         .                                          -92.073359 :LONGITUDE
ELEV        .M                                            27.7000 :SURFACE ELEV
ELEV_TYPE   .                                                  KB :ELEV TYPE
~CURVE INFORMATION
#MNEMONIC.UNIT        API CODE       : CURVE DESCRIPTION
#------------------------------------------------------------------------------
DEPTH    .M                          : Measured Depth
CALI     .inches      UNKNOWN        : CALI:Import:rC:NONE:v0 (auto-composite)
CGR      .API         UNKNOWN        : CGR:Import:rC:NONE:v0 (auto-composite)
DRHO     .g/cm3       UNKNOWN        : DRHO:Import:rC:NONE:v0 (auto-composite)
DT       .us/ft       UNKNOWN        : DT:Import:rC:NONE:v0 (auto-composite)
GR       .API         UNKNOWN        : GR:Import:rC:NONE:v0 (auto-composite)
ILD      .ohm.m       UNKNOWN        : ILD:Import:rC:NONE:v0 (auto-composite)
ILM      .ohm.m       UNKNOWN        : ILM:Import:rC:NONE:v0 (auto-composite)
LLD      .ohm.m       UNKNOWN        : LLD:Import:rC:NONE:v0 (auto-composite)
LLS      .ohm.m       UNKNOWN        : LLS:Import:rC:NONE:v0 (auto-composite)
MSFL     .ohm.m       UNKNOWN        : MSFL:Import:rC:NONE:v0 (auto-composite)
NPHI     .v/v_decimal UNKNOWN        : NPHI:Import:rC:NONE:v0 (auto-composite)
PEF      .b/elec      UNKNOWN        : PEF:Import:rC:NONE:v0 (auto-composite)
POTA     .wtpercent   UNKNOWN        : POTA:Import:rC:NONE:v0 (auto-composite)
RHOB     .g/cm3       UNKNOWN        : RHOB:Import:rC:NONE:v0 (auto-composite)
SP       .mV          UNKNOWN        : SP:Import:rC:NONE:v0 (auto-composite)
THOR     .ppm         UNKNOWN        : THOR:Import:rC:NONE:v0 (auto-composite)
URAN     .ppm         UNKNOWN        : URAN:Import:rC:NONE:v0 (auto-composite)
~A     DEPTH         CALI          CGR         DRHO           DT           GR          ILD          ILM          LLD          LLS         MSFL         NPHI          PEF         POTA         RHOB           SP         THOR         URAN
# ...
   2263.5969    -999.2500    -999.2500      -0.7130    -999.2500    -999.2500       2.4530       2.7320       0.5410       0.1430    -999.2500       0.2291      39.2720    -999.2500       2.4530     -35.4160    -999.2500    -999.2500
   2263.7493    -999.2500    -999.2500      -0.6974    -999.2500    -999.2500       2.4540       2.7335       0.4551       0.1535    -999.2500       0.2172      32.0979    -999.2500       2.5007     -35.6044    -999.2500    -999.2500
   2263.9016    -999.2500    -999.2500      -0.6820    -999.2500    -999.2500       2.4550       2.7350       0.3691       0.1640    -999.2500       0.2051      24.9950    -999.2500       2.5480     -35.7931    -999.2500    -999.2500
   2264.0542    -999.2500    -999.2500      -0.6931    -999.2500    -999.2500       2.4560       2.7375       1.3965       0.4067    -999.2500       0.1987      22.4756    -999.2500       2.5329     -36.2010    -999.2500    -999.2500
   2264.2065    -999.2500    -999.2500      -0.7040    -999.2500    -999.2500       2.4570       2.7400       2.4219       0.6553    -999.2500       0.1948      19.9810    -999.2500       2.5180     -36.6082    -999.2500    -999.2500
   2264.3589    -999.2500    -999.2500      -0.7025    -999.2500    -999.2500       2.4560       2.7390       1.4402      49.7905    -999.2500       0.1923      17.6432    -999.2500       2.5391     -37.5498    -999.2500    -999.2500
   2264.5112    -999.2500    -999.2500      -0.7010    -999.2500    -999.2500       2.4550       2.7380       0.4650      98.5937    -999.2500       0.1915      15.3280    -999.2500       2.5600     -38.4851    -999.2500    -999.2500
   2264.6638    -999.2500    -999.2500      -0.7126    -999.2500    -999.2500       2.4560       2.7380       0.7291      49.6626    -999.2500       0.1940      19.2372    -999.2500       2.5459     -39.0520    -999.2500    -999.2500
   2264.8162    -999.2500    -999.2500      -0.7240    -999.2500    -999.2500       2.4570       2.7380       0.9920       0.9719    -999.2500       0.1980      23.1090    -999.2500       2.5320     -39.6159    -999.2500    -999.2500
   2264.9685    -999.2500    -999.2500      -0.7215    -999.2500    -999.2500       2.4570       2.7380       0.6653       0.5726    -999.2500       0.2033      19.2001    -999.2500       2.5119     -39.1175    -999.2500    -999.2500
   2265.1208    -999.2500    -999.2500      -0.7190    -999.2500    -999.2500       2.4570       2.7380       0.3390       0.1740    -999.2500       0.2076      15.3280    -999.2500       2.4920     -38.6197    -999.2500    -999.2500
   2265.2732    -999.2500    -999.2500      -0.7170    -999.2500    -999.2500       2.4570       2.7390       0.2541       0.2140    -999.2500       0.2077      28.0623    -999.2500       2.4739     -37.5607    -999.2500    -999.2500
   2265.4258    -999.2500    -999.2500      -0.7150    -999.2500    -999.2500       2.4570       2.7400       0.1690       0.2541    -999.2500       0.2070      40.6780    -999.2500       2.4560     -36.4998    -999.2500    -999.2500
   2265.5781    -999.2500    -999.2500      -0.7150    -999.2500    -999.2500       2.4570       2.7400       0.1284       1.1333    -999.2500       0.2076      91.6038    -999.2500       2.4665     -35.8123    -999.2500    -999.2500
   2265.7305    -999.2500    -999.2500      -0.7150    -999.2500    -999.2500       2.4570       2.7400       0.0880       2.0162    -999.2500       0.2101     142.0620    -999.2500       2.4770     -35.1270    -999.2500    -999.2500
   2265.8828    -999.2500    -999.2500      -0.7235    -999.2500    -999.2500       2.4570       2.7400       0.1171      50.4921    -999.2500       0.2168     108.8123    -999.2500       2.4685     -34.9709    -999.2500    -999.2500
   2266.0354    -999.2500    -999.2500      -0.7320    -999.2500    -999.2500       2.4570       2.7400       0.1472      98.5947    -999.2500       0.2242      75.8640    -999.2500       2.4600     -34.8160    -999.2500    -999.2500
   2266.1877    -999.2500    -999.2500      -0.7476    -999.2500    -999.2500       2.4570       2.7400       8.6293      57.3531    -999.2500       0.2296      57.1328    -999.2500       2.4359     -34.6607    -999.2500    -999.2500
   2266.3401    -999.2500    -999.2500      -0.7630    -999.2500    -999.2500       2.4570       2.7400      17.0781      16.2872    -999.2500       0.2304      38.5690    -999.2500       2.4120     -34.5060    -999.2500    -999.2500
   2266.4924    -999.2500    -999.2500      -0.7560    -999.2500    -999.2500       2.4570       2.7400      38.8097      10.2352    -999.2500       0.2195      28.2309    -999.2500       2.4230     -34.3519    -999.2500    -999.2500
   2266.6450    -999.2500    -999.2500      -0.7490    -999.2500    -999.2500       2.4570       2.7400      60.5157       4.1887    -999.2500       0.1987      17.9840    -999.2500       2.4340     -34.1980    -999.2500    -999.2500
   2266.7974    -999.2500    -999.2500      -0.7364    -999.2500    -999.2500       2.4580       2.7400      30.2812       2.1521    -999.2500       0.1607      18.1328    -999.2500       2.4928     -34.0727    -999.2500    -999.2500
   2266.9497    -999.2500    -999.2500      -0.7240    -999.2500    -999.2500       2.4590       2.7400       0.2181       0.1270    -999.2500       0.1289      18.2800    -999.2500       2.5510     -33.9482    -999.2500    -999.2500
   2267.1021    -999.2500    -999.2500      -0.7305    -999.2500    -999.2500       2.4590       2.7400       0.6865       0.2607    -999.2500       0.1308      35.5873    -999.2500       2.5259     -34.8910    -999.2500    -999.2500
   2267.2544    -999.2500    -999.2500      -0.7370    -999.2500    -999.2500       2.4590       2.7400       1.1520       0.3932    -999.2500       0.1485      52.7190    -999.2500       2.5010     -35.8242    -999.2500    -999.2500
   2267.4070    -999.2500    -999.2500      -0.7486    -999.2500    -999.2500       2.4590       2.7410      15.0776       2.1507    -999.2500       0.1791      48.6380    -999.2500       2.4472     -36.6114    -999.2500    -999.2500
   2267.5593    -999.2500    -999.2500      -0.7600    -999.2500    -999.2500       2.4590       2.7420      28.9082       3.8958    -999.2500       0.2141      44.5980    -999.2500       2.3940     -37.3930    -999.2500    -999.2500
   2267.7117    -999.2500    -999.2500      -0.7650    -999.2500    -999.2500       2.4590    -999.2500      44.7432       2.0430    -999.2500       0.2494      35.7150    -999.2500       2.3458     -37.2382    -999.2500    -999.2500
   2267.8640    -999.2500    -999.2500      -0.7700    -999.2500    -999.2500       2.4590    -999.2500      60.5159       0.1970    -999.2500       0.2789      26.9200    -999.2500       2.2980     -37.0839    -999.2500    -999.2500
   2268.0166    -999.2500    -999.2500      -0.7665    -999.2500    -999.2500       2.4590    -999.2500      31.4295       0.2030    -999.2500       0.2921      23.7676    -999.2500       2.3040     -36.7411    -999.2500    -999.2500
   2268.1689    -999.2500    -999.2500      -0.7630    -999.2500    -999.2500       2.4590    -999.2500       2.3999       0.2090    -999.2500       0.2877      20.6460    -999.2500       2.3100     -36.3990    -999.2500    -999.2500
   2268.3213    -999.2500    -999.2500      -0.7519    -999.2500    -999.2500       2.4590    -999.2500       1.4406       0.3024    -999.2500       0.2495      19.1829    -999.2500       2.3572     -36.2761    -999.2500    -999.2500
   2268.4736    -999.2500    -999.2500      -0.7410    -999.2500    -999.2500       2.4590    -999.2500       0.4801       0.3960    -999.2500       0.2124      17.7340    -999.2500       2.4040     -36.1529    -999.2500    -999.2500
   2268.6262    -999.2500    -999.2500      -0.7420    -999.2500    -999.2500       2.4590    -999.2500       1.0886       0.5186    -999.2500       0.2092      40.9778    -999.2500       2.4236     -35.6545    -999.2500    -999.2500
   2268.7786    -999.2500    -999.2500      -0.7430    -999.2500    -999.2500       2.4590    -999.2500       1.6981       0.6432    -999.2500       0.2199      64.0000    -999.2500       2.4430     -35.1568    -999.2500    -999.2500
