#------------------------------------------------------------------------------
#
#   Created by  : [OpenWorks] Log Export Utility (LEXP)
#   Created on  : 2016-05-19 10:54:47
#   Project     : CANT971
#   User        : R5K
#   Interpreter : PEP
#
#------------------------------------------------------------------------------
~VERSION INFORMATION
VERS. 2.0 : CWLS Log ASCII Standard - version 2.0
WRAP.  NO : One line per depth step
~WELL INFORMATION
#MNEMONIC   .UNIT                                           VALUE :DESCRIPTION
#------------------------------------------------------------------------------
STRT        .M                                          1271.4729 :START DEPTH
STOP        .M                                          2683.3064 :STOP DEPTH
STEP        .M                                             0.1524 :STEP
NULL        .                                           -999.2500 :NULL VALUE
COMP        .                                   PEMEX EXPL & PROD :COMPANY
WELL        .                                                269D :WELL
FLD         .                                           CANTARELL :FIELD
LOC         .                                             UNKNOWN :LOCATION
CNTY        .                                      CD. DEL CARMEN :COUNTY
STAT        .                                            CAMPECHE :STATE
CTRY        .                                              MEXICO :COUNTRY
SRVC        .                                             UNKNOWN :SERVICE COMPANY
DATE        .                                             UNKNOWN :LOG DATE
UWI         .                                          3060000596 :UNIQUE WELL ID
XCOORD      .                                       597309.970000 :SURFACE X
YCOORD      .                                      2143042.390000 :SURFACE Y
LAT         .                                           19.380314 :LATITUDE
LON         .                                          -92.073359 :LONGITUDE
ELEV        .M                                            27.7000 :SURFACE ELEV
ELEV_TYPE   .                                                  KB :ELEV TYPE
~CURVE INFORMATION
#MNEMONIC.UNIT        API CODE       : CURVE DESCRIPTION
#------------------------------------------------------------------------------
DEPTH    .M                          : Measured Depth
CALI     .inches      UNKNOWN        : CALI:Import:rC:NONE:v0 (auto-composite)
CGR      .API         UNKNOWN        : CGR:Import:rC:NONE:v0 (auto-composite)
DRHO     .g/cm3       UNKNOWN        : DRHO:Import:rC:NONE:v0 (auto-composite)
DT       .us/ft       UNKNOWN        : DT:Import:rC:NONE:v0 (auto-composite)
GR       .API         UNKNOWN        : GR:Import:rC:NONE:v0 (auto-composite)
ILD      .ohm.m       UNKNOWN        : ILD:Import:rC:NONE:v0 (auto-composite)
ILM      .ohm.m       UNKNOWN        : ILM:Import:rC:NONE:v0 (auto-composite)
LLD      .ohm.m       UNKNOWN        : LLD:Import:rC:NONE:v0 (auto-composite)
LLS      .ohm.m       UNKNOWN        : LLS:Import:rC:NONE:v0 (auto-composite)
MSFL     .ohm.m       UNKNOWN        : MSFL:Import:rC:NONE:v0 (auto-composite)
NPHI     .v/v_decimal UNKNOWN        : NPHI:Import:rC:NONE:v0 (auto-composite)
PEF      .b/elec      UNKNOWN        : PEF:Import:rC:NONE:v0 (auto-composite)
POTA     .wtpercent   UNKNOWN        : POTA:Import:rC:NONE:v0 (auto-composite)
RHOB     .g/cm3       UNKNOWN        : RHOB:Import:rC:NONE:v0 (auto-composite)
SP       .mV          UNKNOWN        : SP:Import:rC:NONE:v0 (auto-composite)
THOR     .ppm         UNKNOWN        : THOR:Import:rC:NONE:v0 (auto-composite)
URAN     .ppm         UNKNOWN        : URAN:Import:rC:NONE:v0 (auto-composite)
~A     DEPTH         CALI          CGR         DRHO           DT           GR          ILD          ILM          LLD          LLS         MSFL         NPHI          PEF         POTA         RHOB           SP         THOR         URAN
# ...
   2487.6250       9.8230       2.1780       0.0850      47.8850      15.2740    -999.2500    -999.2500   30179.3594    1497.0205    1987.0430       0.0997       2.8120       0.0520       2.6940     -27.4701       0.4550       1.4550
   2487.7773       9.6921       2.2105       0.0860      50.3627      15.2815    -999.2500    -999.2500   28530.7129     982.5401    1989.2780       0.0916       2.9651       0.0375       2.7136     -27.8477       0.5215       1.4505
   2487.9297       9.5620       2.2430       0.0870      52.8380      15.2890    -999.2500    -999.2500   26890.8320     471.0355    1991.5000       0.0832       3.1170       0.0230       2.7330     -28.2232       0.5880       1.4460
   2488.0820       9.6329       2.0362       0.0795      54.5322      15.3237    -999.2500    -999.2500   18310.0371     325.4661    1989.2554       0.0718       3.0708       0.0280       2.7195     -29.1038       0.4784       1.4725
   2488.2346       9.7030       1.8300       0.0720      56.2250      15.3580    -999.2500    -999.2500    9820.4336     181.4136    1987.0341       0.0629       3.0250       0.0330       2.7060     -29.9751       0.3690       1.4990
   2488.3870       9.5620       2.3396       0.0564      56.0539      15.2878    -999.2500    -999.2500   19452.1738     339.6815    1984.7589       0.0650       2.9201       0.0590       2.6493     -30.7619       0.4366       1.4284
   2488.5393       9.4220       2.8480       0.0410      55.8830      15.2180    -999.2500    -999.2500   29014.3008     496.8250    1982.5000       0.0724       2.8160       0.0850       2.5930     -31.5429       0.5040       1.3580
   2488.6917       9.4220       2.2083       0.0430      55.1692      15.1278    -999.2500    -999.2500   26721.1992     494.9339    1983.5020       0.0850       2.8336       0.0540       2.5955     -31.2629       0.4434       1.4066
   2488.8440       9.4220       1.5700       0.0450      54.4570      15.0380    -999.2500    -999.2500   24436.8477     493.0500    1984.5000       0.0956       2.8510       0.0230       2.5980     -30.9839       0.3830       1.4550
   2488.9966       9.4335       1.9529       0.0325      53.4775      15.4164    -999.2500    -999.2500   22707.6992     499.7664    1983.4990       0.0945       2.9002       0.0380       2.6055     -30.6410       0.4591       1.4925
   2489.1489       9.4450       2.3350       0.0200      52.5000      15.7940    -999.2500    -999.2500   20982.2305     506.4692    1982.5001       0.0889       2.9490       0.0530       2.6130     -30.2990       0.5350       1.5300
   2489.3013       9.4400       2.6648       0.0210      51.8028      16.2457    -999.2500    -999.2500   20232.2539     531.8882    1988.9961       0.0807       2.9867       0.0450       2.6401     -30.2375       0.6516       1.5365
   2489.4536       9.4350       2.9940       0.0220      51.1070      16.6980    -999.2500    -999.2500   19482.1953     557.3418    1995.5000       0.0720       3.0240       0.0370       2.6670     -30.1760       0.7680       1.5430
   2489.6062       9.4050       3.1212       0.0335      51.5659      17.1259    -999.2500    -999.2500   26642.8047     845.9924    1990.6595       0.0641       3.0747       0.0525       2.6565     -30.3346       0.6924       1.5670
   2489.7585       9.3750       3.2480       0.0450      52.0240      17.5530    -999.2500    -999.2500   33789.0430    1134.1132    1985.8279       0.0587       3.1250       0.0680       2.6460     -30.4930       0.6170       1.5910
   2489.9109       9.4889       3.7278       0.0570      54.6467      17.4457    -999.2500    -999.2500   28789.6504    1041.4872    1977.1357       0.0604       2.9473       0.0850       2.6018     -30.5878       0.7171       1.5274
   2490.0632       9.6020       4.2060       0.0690      57.2650      17.3390    -999.2500    -999.2500   23823.2598     949.4606    1968.5001       0.0646       2.7710       0.1020       2.5580     -30.6820       0.8170       1.4640
   2490.2158       9.5995       3.7378       0.0800      60.9129      17.4202    -999.2500    -999.2500   24635.5625     807.9109    1976.0181       0.0696       2.9808       0.0880       2.6278     -30.8720       0.7409       1.5220
   2490.3682       9.5970       3.2710       0.0910      64.5550      17.5010    -999.2500    -999.2500   25443.3691     667.0336    1983.5000       0.0745       3.1890       0.0740       2.6970     -31.0610       0.6650       1.5800
   2490.5205       9.5134       2.4753       0.0955      62.3164      17.8938    -999.2500    -999.2500   20434.3574     405.6819    1981.9989       0.0783       3.1599       0.0495       2.6202     -30.9995       0.5069       1.7096
   2490.6729       9.4300       1.6820       0.1000      60.0810      18.2860    -999.2500    -999.2500   15432.7490     144.7094    1980.5001       0.0829       3.1310       0.0250       2.5440     -30.9381       0.3490       1.8390
   2490.8252       9.4999       1.2203       0.1281      57.9986      18.5932    -999.2500    -999.2500   12183.3242     192.0063    1990.4907       0.0911       3.0607       0.0250       2.4777     -31.6884       0.2309       1.9221
   2490.9778       9.5700       0.7600       0.1560      55.9190      18.9010    -999.2500    -999.2500    8928.9160     239.3927    2000.4999       0.0997       2.9910       0.0250       2.4120     -32.4401       0.1130       2.0050
   2491.1301       9.5675       1.3348       0.1510      56.0296      18.5645    -999.2500    -999.2500   16283.1699     318.8779    1986.9810       0.1061       2.8866       0.0490       2.5279     -33.2237       0.1835       1.9280
   2491.2825       9.5650       1.9080       0.1460      56.1400      18.2290    -999.2500    -999.2500   23615.1074     398.1408    1973.5000       0.1099       2.7830       0.0730       2.6430     -34.0050       0.2540       1.8510
   2491.4348       9.4656       1.5235       0.0747      56.4342      18.5984    -999.2500    -999.2500   14844.9258     490.5959    1975.4598       0.1081       2.9341       0.0500       2.5943     -34.1957       0.2445       1.9130
   2491.5874       9.3670       1.1400       0.0040      56.7280      18.9650    -999.2500    -999.2500    6141.1982     582.3627    1977.4052       0.1028       3.0840       0.0270       2.5460     -34.3849       0.2350       1.9750
   2491.7397       9.4973       1.2521       0.0055      57.6119      18.7100    -999.2500    -999.2500    8342.1426     657.6836    1984.9683       0.0921       3.0624       0.0385       2.5636     -33.7932       0.2050       1.9450
   2491.8921       9.6270       1.3640       0.0070      58.4950      18.4560    -999.2500    -999.2500   10533.5166     732.6912    1992.5000       0.0810       3.0410       0.0500       2.5810     -33.2039       0.1750       1.9150
   2492.0444       9.7160       1.7495       0.0165      57.8637      18.5145    -999.2500    -999.2500    8298.3867     518.6606    1986.9978       0.0738       3.0174       0.0810       2.6317     -32.8918       0.1299       1.8785
   2492.1970       9.8050       2.1340       0.0260      57.2330      18.5730    -999.2500    -999.2500    6065.3193     304.8062    1981.5000       0.0675       2.9940       0.1120       2.6820     -32.5800       0.0850       1.8420
   2492.3494       9.5112       1.9298       0.0235      53.7538      18.3088    -999.2500    -999.2500    6069.7480     331.0343    1983.1395       0.0602       3.0060       0.0975       2.6107     -32.4251       0.1005       1.8165
   2492.5017       9.2190       1.7260       0.0210      50.2770      18.0460    -999.2500    -999.2500    6075.5767     357.1194    1984.7700       0.0569       3.0180       0.0830       2.5400     -32.2710       0.1160       1.7910
   2492.6541       9.8628       1.5228       0.0240      47.9114      17.8199    -999.2500    -999.2500   19249.6094     528.8331    1986.1420       0.0678       3.1449       0.0705       2.4999     -32.1469       0.1530       1.7660
   2492.8064      10.5000       1.3200       0.0270      45.5510      17.5960    -999.2500    -999.2500   32287.9434     698.8104    1987.5000       0.0784       3.2710       0.0580       2.4600     -32.0240       0.1900       1.7410
