#------------------------------------------------------------------------------
#
#   Created by  : [OpenWorks] Log Export Utility (LEXP)
#   Created on  : 2016-05-19 10:54:47
#   Project     : CANT971
#   User        : R5K
#   Interpreter : PEP
#
#------------------------------------------------------------------------------
~VERSION INFORMATION
VERS. 2.0 : CWLS Log ASCII Standard - version 2.0
WRAP.  NO : One line per depth step
~WELL INFORMATION
#MNEMONIC   .UNIT                                           VALUE :DESCRIPTION
#------------------------------------------------------------------------------
STRT        .M                                          1271.4729 :START DEPTH
STOP        .M                                          2683.3064 :STOP DEPTH
STEP        .M                                             0.1524 :STEP
NULL        .                                           -999.2500 :NULL VALUE
COMP        .                                   PEMEX EXPL & PROD :COMPANY
WELL        .                                                269D :WELL
FLD         .                                           CANTARELL :FIELD
LOC         .                                             UNKNOWN :LOCATION
CNTY        .                                      CD. DEL CARMEN :COUNTY
STAT        .                                            CAMPECHE :STATE
CTRY        .                                              MEXICO :COUNTRY
SRVC        .                                             UNKNOWN :SERVICE COMPANY
DATE        .                                             UNKNOWN :LOG DATE
UWI         .                                          3060000596 :UNIQUE WELL ID
XCOORD      .                                       597309.970000 :SURFACE X
YCOORD      .                                      2143042.390000 :SURFACE Y
LAT         .                                           19.380314 :LATITUDE
LON         .                                          -92.073359 :LONGITUDE
ELEV        .M                                            27.7000 :SURFACE ELEV
ELEV_TYPE   .                                                  KB :ELEV TYPE
~CURVE INFORMATION
#MNEMONIC.UNIT        API CODE       : CURVE DESCRIPTION
#------------------------------------------------------------------------------
DEPTH    .M                          : Measured Depth
CALI     .inches      UNKNOWN        : CALI:Import:rC:NONE:v0 (auto-composite)
CGR      .API         UNKNOWN        : CGR:Import:rC:NONE:v0 (auto-composite)
DRHO     .g/cm3       UNKNOWN        : DRHO:Import:rC:NONE:v0 (auto-composite)
DT       .us/ft       UNKNOWN        : DT:Import:rC:NONE:v0 (auto-composite)
GR       .API         UNKNOWN        : GR:Import:rC:NONE:v0 (auto-composite)
ILD      .ohm.m       UNKNOWN        : ILD:Import:rC:NONE:v0 (auto-composite)
ILM      .ohm.m       UNKNOWN        : ILM:Import:rC:NONE:v0 (auto-composite)
LLD      .ohm.m       UNKNOWN        : LLD:Import:rC:NONE:v0 (auto-composite)
LLS      .ohm.m       UNKNOWN        : LLS:Import:rC:NONE:v0 (auto-composite)
MSFL     .ohm.m       UNKNOWN        : MSFL:Import:rC:NONE:v0 (auto-composite)
NPHI     .v/v_decimal UNKNOWN        : NPHI:Import:rC:NONE:v0 (auto-composite)
PEF      .b/elec      UNKNOWN        : PEF:Import:rC:NONE:v0 (auto-composite)
POTA     .wtpercent   UNKNOWN        : POTA:Import:rC:NONE:v0 (auto-composite)
RHOB     .g/cm3       UNKNOWN        : RHOB:Import:rC:NONE:v0 (auto-composite)
SP       .mV          UNKNOWN        : SP:Import:rC:NONE:v0 (auto-composite)
THOR     .ppm         UNKNOWN        : THOR:Import:rC:NONE:v0 (auto-composite)
URAN     .ppm         UNKNOWN        : URAN:Import:rC:NONE:v0 (auto-composite)
~A     DEPTH         CALI          CGR         DRHO           DT           GR          ILD          ILM          LLD          LLS         MSFL         NPHI          PEF         POTA         RHOB           SP         THOR         URAN
# ...
   2348.9409       9.2770      36.3880       0.0120      55.8000      68.6260    -999.2500    -999.2500       6.8780       5.9430     698.8046       0.1438       4.1410       1.9160       2.5850     -28.8340       1.5810       3.1340
   2349.0933       9.2050      36.8550       0.0235      58.8867      67.0104    -999.2500    -999.2500       6.9290       5.9880    1348.8041       0.1279       4.5487       1.9535       2.6031     -28.6781       1.6440       3.0485
   2349.2456       9.1330      37.3210       0.0350      61.9670      65.3930    -999.2500    -999.2500       6.9802       6.0331    1999.4996       0.1139       4.9530       1.9910       2.6210     -28.5220       1.7070       2.9630
   2349.3982       9.1330      37.0387       0.0440      61.8459      64.7329    -999.2500    -999.2500       8.3595       7.2368    1994.9952       0.1087       4.9204       1.9795       2.6200     -28.6802       1.6675       2.9795
   2349.5505       9.1330      36.7570       0.0530      61.7250      64.0740    -999.2500    -999.2500       9.7360       8.4380    1990.5001       0.1098       4.8880       1.9680       2.6190     -28.8381       1.6280       2.9960
   2349.7029       9.1330      32.1789       0.0645      60.1896      61.1398    -999.2500    -999.2500       9.6156       8.3457    1992.5067       0.1141       4.5767       1.7628       2.6080     -29.0899       1.2757       3.2182
   2349.8552       9.1330      27.6090       0.0760      58.6570      58.2250    -999.2500    -999.2500       9.4958       8.2539    1994.4999       0.1255       4.2680       1.5580       2.5970     -29.3402       0.9240       3.4400
   2350.0078       9.2698      27.8967       0.0956      58.9017      58.4205    -999.2500    -999.2500       7.6578       7.4454    1993.4974       0.1462       3.9791       1.5820       2.5483     -30.0313       0.8029       3.3945
   2350.1602       9.4060      28.1840       0.1150      59.1460      58.6150    -999.2500    -999.2500       5.8290       6.6409    1992.5004       0.1687       3.6930       1.6060       2.5000     -30.7192       0.6820       3.3490
   2350.3125       9.4055      28.0689       0.1341      59.0384      58.5930    -999.2500    -999.2500       5.9626       5.8788    1996.5034       0.1877       3.7412       1.6010       2.5447     -31.4398       0.5184       3.3605
   2350.4648       9.4050      27.9540       0.1530      58.9310      58.5710    -999.2500    -999.2500       6.0959       5.1180    2000.4996       0.2062       3.7890       1.5960       2.5890     -32.1590       0.3550       3.3720
   2350.6172       9.3431      26.3839       0.1530      57.8307      58.0385    -999.2500    -999.2500       5.5914       4.7778    1996.0037       0.2267       3.6222       1.5034       2.5594     -32.3174       0.3750       3.4966
   2350.7698       9.2810      24.8160       0.1530      56.7320      57.5050    -999.2500    -999.2500       5.0860       4.4370    1991.5000       0.2410       3.4570       1.4110       2.5300     -32.4759       0.3950       3.6210
   2350.9221       9.3241      25.0141       0.1525      54.9283      57.6933    -999.2500    -999.2500       5.0895       4.4515    1991.6106       0.2442       3.4876       1.4205       2.5848     -32.1339       0.5651       3.6175
   2351.0745       9.3670      25.2120       0.1520      53.1270      57.8810    -999.2500    -999.2500       5.0930       4.4660    1991.7211       0.2287       3.5180       1.4300       2.6390     -31.7928       0.7350       3.6140
   2351.2268       9.3625      27.3042       0.1430      53.2816      59.8384    -999.2500    -999.2500       5.1447       4.6131    1993.0074       0.1926       3.8621       1.7047       2.6390     -30.9175       0.8661       3.5295
   2351.3794       9.3580      29.3940       0.1340      53.4360      61.7810    -999.2500    -999.2500       5.1961       4.7591    1994.2843       0.1609       4.2030       1.9790       2.6390     -30.0488       0.9970       3.4450
   2351.5317       9.3124      33.3596       0.0687      55.4380      65.3260    -999.2500    -999.2500       5.8069       5.4405    1997.3989       0.1490       4.0855       1.9775       2.6094     -29.2656       1.3577       3.5220
   2351.6841       9.2670      37.3210       0.0040      57.4380      68.8560    -999.2500    -999.2500       6.4150       6.1190    2000.5000       0.1486       3.9690       1.9760       2.5800     -28.4860       1.7180       3.5990
   2351.8364       9.2000      38.0098       0.0040      57.4325      69.4733    -999.2500    -999.2500       6.2109       5.8914    2000.5000       0.1513       4.1433       1.9590       2.5800     -28.4240       1.9356       3.5365
   2351.9890       9.1330      38.6980       0.0040      57.4270      70.0900    -999.2500    -999.2500       6.0070       5.6640    2000.5000       0.1560       4.3160       1.9420       2.5800     -28.3620       2.1530       3.4740
   2352.1414       9.1445      38.5805       0.0050      57.3545      70.0699    -999.2500    -999.2500       6.0301       5.6861    1999.9194       0.1628       4.2969       1.9600       2.5805     -28.1755       1.8224       3.6456
   2352.2937       9.1560      38.4630       0.0060      57.2820      70.0500    -999.2500    -999.2500       6.0530       5.7080    1999.3412       0.1677       4.2780       1.9780       2.5810     -27.9900       1.4920       3.8170
   2352.4460       9.1465      37.4008       0.0100      56.9897      69.6831    -999.2500    -999.2500       6.2626       5.9176    1988.3640       0.1683       4.0435       1.9640       2.5835     -27.8669       1.7826       3.7970
   2352.5984       9.1370      36.3410       0.0140      56.6980      69.3200    -999.2500    -999.2500       6.4700       6.1250    1977.5005       0.1624       3.8110       1.9500       2.5860     -27.7451       2.0730       3.7770
   2352.7510       8.9975      33.3348       0.0120      56.0023      67.4661    -999.2500    -999.2500       6.7675       6.5108    1984.0231       0.1498       3.8241       1.7660       2.5955     -28.0908       2.0410       3.6225
   2352.9033       8.8590      30.3350       0.0100      55.3080      65.6250    -999.2500    -999.2500       7.0631       6.8941    1990.4996       0.1316       3.8370       1.5820       2.6050     -28.4341       2.0090       3.4680
   2353.0557       8.8590      31.8370       0.0105      53.0457      63.7371    -999.2500    -999.2500       7.7408       8.1103    1985.4906       0.1091       3.9620       1.6555       2.6160     -28.7807       1.7239       3.4350
   2353.2080       8.8590      33.3360       0.0110      50.7880      61.8560    -999.2500    -999.2500       8.4162       9.3221    1980.5005       0.0919       4.0860       1.7290       2.6270     -29.1261       1.4390       3.4020
   2353.3606       8.8865      33.2009       0.0195      50.8255      61.4166    -999.2500    -999.2500       9.7410      10.8906    1987.0066       0.0858       4.0850       1.7230       2.6421     -29.5330       1.5395       3.2485
   2353.5129       8.9140      33.0660       0.0280      50.8630      60.9780    -999.2500    -999.2500      11.0632      12.4562    1993.4999       0.0860       4.0840       1.7170       2.6570     -29.9390       1.6400       3.0950
   2353.6653       8.8865      32.0011       0.0385      51.4625      60.6437    -999.2500    -999.2500      12.7065      14.6082    1992.5006       0.0882       3.8330       1.6685       2.6696     -30.0344       1.4999       3.1926
   2353.8176       8.8590      30.9380       0.0490      52.0610      60.3090    -999.2500    -999.2500      14.3519      16.7629    1991.5000       0.0915       3.5840       1.6200       2.6820     -30.1299       1.3600       3.2900
   2353.9702       8.8595      30.1584       0.0535      55.1245      59.0675    -999.2500    -999.2500      13.9321      16.1379    1991.6842       0.0958       3.5845       1.5655       2.6654     -29.8517       1.4696       3.2004
   2354.1226       8.8600      29.3800       0.0580      58.1830      57.8280    -999.2500    -999.2500      13.5124      15.5135    1991.8682       0.1034       3.5850       1.5110       2.6490     -29.5739       1.5790       3.1110
