#------------------------------------------------------------------------------
#
#   Created by  : [OpenWorks] Log Export Utility (LEXP)
#   Created on  : 2016-05-19 10:54:47
#   Project     : CANT971
#   User        : R5K
#   Interpreter : PEP
#
#------------------------------------------------------------------------------
~VERSION INFORMATION
VERS. 2.0 : CWLS Log ASCII Standard - version 2.0
WRAP.  NO : One line per depth step
~WELL INFORMATION
#MNEMONIC   .UNIT                                           VALUE :DESCRIPTION
#------------------------------------------------------------------------------
STRT        .M                                          1271.4729 :START DEPTH
STOP        .M                                          2683.3064 :STOP DEPTH
STEP        .M                                             0.1524 :STEP
NULL        .                                           -999.2500 :NULL VALUE
COMP        .                                   PEMEX EXPL & PROD :COMPANY
WELL        .                                                269D :WELL
FLD         .                                           CANTARELL :FIELD
LOC         .                                             UNKNOWN :LOCATION
CNTY        .                                      CD. DEL CARMEN :COUNTY
STAT        .                                            CAMPECHE :STATE
CTRY        .                                              MEXICO :COUNTRY
SRVC        .                                             UNKNOWN :SERVICE COMPANY
DATE        .                                             UNKNOWN :LOG DATE
UWI         .                                          3060000596 :UNIQUE WELL ID
XCOORD      .                                       597309.970000 :SURFACE X
YCOORD      .                                      2143042.390000 :SURFACE Y
LAT         .                                           19.380314 :LATITUDE
LON         .                                          -92.073359 :LONGITUDE
ELEV        .M                                            27.7000 :SURFACE ELEV
ELEV_TYPE   .                                                  KB :ELEV TYPE
~CURVE INFORMATION
#MNEMONIC.UNIT        API CODE       : CURVE DESCRIPTION
#------------------------------------------------------------------------------
DEPTH    .M                          : Measured Depth
CALI     .inches      UNKNOWN        : CALI:Import:rC:NONE:v0 (auto-composite)
CGR      .API         UNKNOWN        : CGR:Import:rC:NONE:v0 (auto-composite)
DRHO     .g/cm3       UNKNOWN        : DRHO:Import:rC:NONE:v0 (auto-composite)
DT       .us/ft       UNKNOWN        : DT:Import:rC:NONE:v0 (auto-composite)
GR       .API         UNKNOWN        : GR:Import:rC:NONE:v0 (auto-composite)
ILD      .ohm.m       UNKNOWN        : ILD:Import:rC:NONE:v0 (auto-composite)
ILM      .ohm.m       UNKNOWN        : ILM:Import:rC:NONE:v0 (auto-composite)
LLD      .ohm.m       UNKNOWN        : LLD:Import:rC:NONE:v0 (auto-composite)
LLS      .ohm.m       UNKNOWN        : LLS:Import:rC:NONE:v0 (auto-composite)
MSFL     .ohm.m       UNKNOWN        : MSFL:Import:rC:NONE:v0 (auto-composite)
NPHI     .v/v_decimal UNKNOWN        : NPHI:Import:rC:NONE:v0 (auto-composite)
PEF      .b/elec      UNKNOWN        : PEF:Import:rC:NONE:v0 (auto-composite)
POTA     .wtpercent   UNKNOWN        : POTA:Import:rC:NONE:v0 (auto-composite)
RHOB     .g/cm3       UNKNOWN        : RHOB:Import:rC:NONE:v0 (auto-composite)
SP       .mV          UNKNOWN        : SP:Import:rC:NONE:v0 (auto-composite)
THOR     .ppm         UNKNOWN        : THOR:Import:rC:NONE:v0 (auto-composite)
URAN     .ppm         UNKNOWN        : URAN:Import:rC:NONE:v0 (auto-composite)
~A     DEPTH         CALI          CGR         DRHO           DT           GR          ILD          ILM          LLD          LLS         MSFL         NPHI          PEF         POTA         RHOB           SP         THOR         URAN
# ...
   2428.9509       8.8559       2.6482       0.1740      53.1942      75.6189    -999.2500    -999.2500     340.6801     124.8843    1995.5610       0.0719       2.8116       0.0500       2.6967     -35.6343       0.5921       8.0993
   2429.1033       8.8280       3.1750       0.1630      60.3250      81.2928    -999.2500    -999.2500     418.6307     145.8453    2000.4998       0.0545       2.8420       0.0510       2.7400     -36.5080       0.7600       8.6880
   2429.2556       8.8280       4.0051       0.1439      70.9736      97.7476    -999.2500    -999.2500     611.6141     201.4775    1993.4849       0.0431       3.0663       0.0535       2.7982     -36.6673       0.9946      10.4514
   2429.4082       8.8280       4.8330       0.1250      81.6110     114.1326    -999.2500    -999.2500     803.8219     256.8786    1986.5000       0.0345       3.2890       0.0560       2.8560     -36.8259       1.2290      12.2130
   2429.5605       8.8045       4.1787       0.1019      81.5750     134.4572    -999.2500    -999.2500    1372.9702     440.6569    1987.5012       0.0283       3.2373       0.0610       2.8440     -36.2967       1.0149      14.5836
   2429.7129       8.7810       3.5260       0.0790      81.5390     154.7305    -999.2500    -999.2500    1940.5812     623.9594    1988.5000       0.0242       3.1860       0.0660       2.8320     -35.7689       0.8010      16.9520
   2429.8652       8.8250       2.5759       0.0584      79.0815     151.4779    -999.2500    -999.2500    1669.4142     535.5430    1988.2926       0.0245       3.1041       0.0650       2.7245     -35.4875       0.4934      16.5944
   2430.0178       8.8690       1.6280       0.0380      76.6260     148.2221    -999.2500    -999.2500    1398.0294     447.0562    1988.0836       0.0312       3.0230       0.0640       2.6180     -35.2060       0.1860      16.2370
   2430.1702       8.9486       1.5229       0.0435      70.9561     133.9711    -999.2500    -999.2500    1112.4954     355.9802    1954.7531       0.0530       2.8829       0.0600       2.4056     -34.9581       0.1725      14.6725
   2430.3225       9.0280       1.4180       0.0490      65.2900     119.7524    -999.2500    -999.2500     827.6202     265.1133    1921.5002       0.0739       2.7440       0.0560       2.1950     -34.7110       0.1590      13.1090
   2430.4749       9.0531       1.2578       0.0646      60.9899      98.4553    -999.2500    -999.2500     599.4618     198.1857    1927.9436       0.0780       2.7440       0.0505       2.2422     -34.6799       0.1350      10.7730
   2430.6272       9.0780       1.0980       0.0800      56.6990      77.3056    -999.2500    -999.2500     372.9131     131.7251    1934.3434       0.0761       2.7440       0.0450       2.2890     -34.6489       0.1110       8.4420
   2430.7798       9.0845       0.9779       0.0931      53.1229      65.8023    -999.2500    -999.2500     382.3377     134.0537    1967.0076       0.0735       2.7666       0.0435       2.4964     -34.0889       0.0825       7.1827
   2430.9321       9.0910       0.8580       0.1060      49.5540      54.3593    -999.2500    -999.2500     391.7223     136.3711    1999.4996       0.0690       2.7890       0.0420       2.7020     -33.5319       0.0540       5.9260
   2431.0845       9.1626       0.8635       0.0719      49.8363      54.8840    -999.2500    -999.2500     479.3466     164.2841    1990.4911       0.0602       2.8387       0.0420       2.6899     -33.1565       0.0565       5.9836
   2431.2368       9.2340       0.8690       0.0380      50.1180      55.4080    -999.2500    -999.2500     566.8217     192.1469    1981.5004       0.0524       2.8880       0.0420       2.6780     -32.7821       0.0590       6.0410
   2431.3894       9.2130       0.8860       0.0455      50.9277      55.2701    -999.2500    -999.2500     802.7281     287.2870    1990.9937       0.0514       3.0050       0.0420       2.6906     -33.2203       0.0650       6.0250
   2431.5417       9.1920       0.9030       0.0530      51.7360      55.1320    -999.2500    -999.2500    1038.9615     382.5589    2000.4999       0.0531       3.1210       0.0420       2.7030     -33.6592       0.0710       6.0090
   2431.6941       9.1074       0.9230       0.0907      52.4701      54.8260    -999.2500    -999.2500    1196.9283     379.7598    1998.8112       0.0560       3.0643       0.0420       2.6975     -34.5371       0.0770       5.9730
   2431.8464       9.0230       0.9430       0.1280      53.2030      54.5210    -999.2500    -999.2500    1354.3635     376.9698    1997.1270       0.0600       3.0080       0.0420       2.6920     -35.4122       0.0830       5.9370
   2431.9988       9.1375       1.0321       0.1230      54.1132      53.9804    -999.2500    -999.2500    1366.3552     373.0493    1970.7086       0.0660       2.8413       0.0415       2.6554     -36.2616       0.1125       5.8664
   2432.1514       9.2510       1.1210       0.1180      55.0220      53.4440    -999.2500    -999.2500    1378.2441     369.1595    1944.5005       0.0711       2.6760       0.0410       2.6190     -37.1040       0.1420       5.7960
   2432.3037       9.4069       0.9924       0.1055      57.0929      53.6104    -999.2500    -999.2500    1320.3088     357.6506    1955.2415       0.0713       2.7955       0.0415       2.6391     -36.9792       0.1000       5.8285
   2432.4561       9.5620       0.8640       0.0930      59.1610      53.7760    -999.2500    -999.2500    1262.6293     346.1931    1965.9337       0.0710       2.9140       0.0420       2.6590     -36.8550       0.0580       5.8610
   2432.6084       9.3864       0.8685       0.0669      60.7555      53.6239    -999.2500    -999.2500    1119.9218     298.4622    1983.2283       0.0745       2.8924       0.0415       2.6389     -36.9200       0.0600       5.8440
   2432.7610       9.2110       0.8730       0.0410      62.3480      53.4720    -999.2500    -999.2500     977.3951     250.7920    2000.4996       0.0798       2.8710       0.0410       2.6190     -36.9850       0.0620       5.8270
   2432.9133       9.6197       0.8880       0.0671      61.9948      52.8772    -999.2500    -999.2500     824.6530     200.5684    1992.4757       0.0872       2.7897       0.0415       2.5568     -36.8917       0.0670       5.7595
   2433.0657      10.0260       0.9030       0.0930      61.6420      52.2860    -999.2500    -999.2500     672.8165     150.6443    1984.5004       0.0931       2.7090       0.0420       2.4950     -36.7988       0.0720       5.6920
   2433.2180      10.5860       0.9190       0.1648      63.4544      51.4231    -999.2500    -999.2500     488.9343     108.0726    1992.5365       0.0926       2.5710       0.0415       2.5362     -36.0173       0.0770       5.5950
   2433.3706      11.1410       0.9350       0.2360      65.2650      50.5680    -999.2500    -999.2500     306.7154      65.8843    2000.4996       0.0938       2.4340       0.0410       2.5770     -35.2428       0.0820       5.4980
   2433.5229      10.6160       0.9540       0.2952      73.0330      50.6903    -999.2500    -999.2500     224.2549      47.7673    1990.4711       0.1070       2.4425       0.0415       2.5534     -34.4606       0.0875       5.5100
   2433.6753      10.0940       0.9730       0.3540      80.7940      50.8120    -999.2500    -999.2500     142.2797      29.7545    1980.5000       0.1256       2.4510       0.0420       2.5300     -33.6829       0.0930       5.5220
   2433.8276      10.5439       1.0176       0.3239      79.9652      51.3255    -999.2500    -999.2500     199.4691      43.3099    1982.0029       0.1494       2.4857       0.0425       2.4190     -33.1834       0.1040       5.5755
   2433.9800      10.9920       1.0620       0.2940      79.1370      51.8370    -999.2500    -999.2500     256.4933      56.8142    1983.5002       0.1789       2.5200       0.0430       2.3090     -32.6861       0.1150       5.6290
   2434.1326      10.7377       1.0465       0.2267      76.3206      52.3361    -999.2500    -999.2500     840.7330     139.0911    1988.5059       0.2208       2.5612       0.0430       2.0720     -33.0921       0.1105       5.6845
