#------------------------------------------------------------------------------
#
#   Created by  : [OpenWorks] Log Export Utility (LEXP)
#   Created on  : 2016-05-19 10:54:47
#   Project     : CANT971
#   User        : R5K
#   Interpreter : PEP
#
#------------------------------------------------------------------------------
~VERSION INFORMATION
VERS. 2.0 : CWLS Log ASCII Standard - version 2.0
WRAP.  NO : One line per depth step
~WELL INFORMATION
#MNEMONIC   .UNIT                                           VALUE :DESCRIPTION
#------------------------------------------------------------------------------
STRT        .M                                          1271.4729 :START DEPTH
STOP        .M                                          2683.3064 :STOP DEPTH
STEP        .M                                             0.1524 :STEP
NULL        .                                           -999.2500 :NULL VALUE
COMP        .                                   PEMEX EXPL & PROD :COMPANY
WELL        .                                                269D :WELL
FLD         .                                           CANTARELL :FIELD
LOC         .                                             UNKNOWN :LOCATION
CNTY        .                                      CD. DEL CARMEN :COUNTY
STAT        .                                            CAMPECHE :STATE
CTRY        .                                              MEXICO :COUNTRY
SRVC        .                                             UNKNOWN :SERVICE COMPANY
DATE        .                                             UNKNOWN :LOG DATE
UWI         .                                          3060000596 :UNIQUE WELL ID
XCOORD      .                                       597309.970000 :SURFACE X
YCOORD      .                                      2143042.390000 :SURFACE Y
LAT         .                                           19.380314 :LATITUDE
LON         .                                          -92.073359 :LONGITUDE
ELEV        .M                                            27.7000 :SURFACE ELEV
ELEV_TYPE   .                                                  KB :ELEV TYPE
~CURVE INFORMATION
#MNEMONIC.UNIT        API CODE       : CURVE DESCRIPTION
#------------------------------------------------------------------------------
DEPTH    .M                          : Measured Depth
CALI     .inches      UNKNOWN        : CALI:Import:rC:NONE:v0 (auto-composite)
CGR      .API         UNKNOWN        : CGR:Import:rC:NONE:v0 (auto-composite)
DRHO     .g/cm3       UNKNOWN        : DRHO:Import:rC:NONE:v0 (auto-composite)
DT       .us/ft       UNKNOWN        : DT:Import:rC:NONE:v0 (auto-composite)
GR       .API         UNKNOWN        : GR:Import:rC:NONE:v0 (auto-composite)
ILD      .ohm.m       UNKNOWN        : ILD:Import:rC:NONE:v0 (auto-composite)
ILM      .ohm.m       UNKNOWN        : ILM:Import:rC:NONE:v0 (auto-composite)
LLD      .ohm.m       UNKNOWN        : LLD:Import:rC:NONE:v0 (auto-composite)
LLS      .ohm.m       UNKNOWN        : LLS:Import:rC:NONE:v0 (auto-composite)
MSFL     .ohm.m       UNKNOWN        : MSFL:Import:rC:NONE:v0 (auto-composite)
NPHI     .v/v_decimal UNKNOWN        : NPHI:Import:rC:NONE:v0 (auto-composite)
PEF      .b/elec      UNKNOWN        : PEF:Import:rC:NONE:v0 (auto-composite)
POTA     .wtpercent   UNKNOWN        : POTA:Import:rC:NONE:v0 (auto-composite)
RHOB     .g/cm3       UNKNOWN        : RHOB:Import:rC:NONE:v0 (auto-composite)
SP       .mV          UNKNOWN        : SP:Import:rC:NONE:v0 (auto-composite)
THOR     .ppm         UNKNOWN        : THOR:Import:rC:NONE:v0 (auto-composite)
URAN     .ppm         UNKNOWN        : URAN:Import:rC:NONE:v0 (auto-composite)
~A     DEPTH         CALI          CGR         DRHO           DT           GR          ILD          ILM          LLD          LLS         MSFL         NPHI          PEF         POTA         RHOB           SP         THOR         URAN
# ...
   2594.3049       8.8520       0.8160       0.0430      40.9040      16.7020    -999.2500    -999.2500   24431.6250    5694.9727       2.2890       0.0411       2.9860       0.0230       2.7540     -38.6012       0.1420       1.7310
   2594.4573       8.8515       1.0314       0.0500      41.3529      16.9069    -999.2500    -999.2500   24359.2285    5676.7573       2.2825       0.0380       3.0281       0.0225       2.7771     -39.7879       0.2141       1.7465
   2594.6096       8.8510       1.2460       0.0570      41.8010      17.1120    -999.2500    -999.2500   24286.5879    5658.4360       2.2760       0.0351       3.0700       0.0220       2.8000     -40.9761       0.2860       1.7620
   2594.7622       8.8315       1.2390       0.0565      47.9594      16.9108    -999.2500    -999.2500   22652.3145    5260.3521       1.8526       0.0344       2.9692       0.0220       2.7970     -41.3860       0.2835       1.7490
   2594.9146       8.8120       1.2320       0.0560      54.1070      16.7100    -999.2500    -999.2500   21020.6719    4862.9463       1.4300       0.0401       2.8690       0.0220       2.7940     -41.7951       0.2810       1.7360
   2595.0669       8.8321       1.0778       0.0324      54.0495      16.7215    -999.2500    -999.2500   16955.4648    3449.0703       1.5444       0.0540       2.9894       0.0220       2.6937     -42.5179       0.2310       1.7385
   2595.2192       8.8520       0.9240       0.0090      53.9920      16.7330    -999.2500    -999.2500   12916.3057    2044.1959       1.6580       0.0664       3.1090       0.0220       2.5940     -43.2360       0.1810       1.7410
   2595.3716       8.8204       0.7643       0.0090      52.7301      16.9716    -999.2500    -999.2500    9222.2783    2047.3188       1.5693       0.0705       3.0965       0.0215       2.5970     -43.5503       0.1320       1.7885
   2595.5242       8.7890       0.6050       0.0090      51.4700      17.2090    -999.2500    -999.2500    5545.9458    2050.4917       1.4810       0.0659       3.0840       0.0210       2.6000     -43.8629       0.0830       1.8360
   2595.6765       8.8205       0.6060       0.0135      48.6861      17.3501    -999.2500    -999.2500    6145.9873    2169.9382       1.4820       0.0537       3.2209       0.0210       2.6868     -43.2090       0.0835       1.8530
   2595.8289       8.8520       0.6070       0.0180      45.9060      17.4910    -999.2500    -999.2500    6745.1484    2289.2273       1.4830       0.0429       3.3570       0.0210       2.7730     -42.5559       0.0840       1.8700
   2595.9812       8.8510       0.6240       0.0140      44.8073      17.7957    -999.2500    -999.2500    6676.2368    2286.0764       1.5035       0.0390       3.1574       0.0215       2.7444     -41.9630       0.0885       1.9020
   2596.1338       8.8500       0.6410       0.0100      43.7100      18.1010    -999.2500    -999.2500    6607.1987    2282.9133       1.5240       0.0408       2.9590       0.0220       2.7160     -41.3690       0.0930       1.9340
   2596.2861       8.7764       0.7117       0.0105      43.7240      18.4730    -999.2500    -999.2500    6640.0449    2224.2173       1.6702       0.0466       2.9590       0.0225       2.7170     -41.1512       0.1125       1.9580
   2596.4385       8.7030       0.7820       0.0110      43.7380      18.8440    -999.2500    -999.2500    6672.8643    2165.6787       1.8160       0.0518       2.9590       0.0230       2.7180     -40.9340       0.1320       1.9820
   2596.5908       8.7045       1.0435       0.0180      44.0401      18.8335    -999.2500    -999.2500    7380.2471    2186.1680       1.5560       0.0537       2.9630       0.0235       2.7386     -40.7483       0.2136       1.9785
   2596.7434       8.7060       1.3040       0.0250      44.3420      18.8230    -999.2500    -999.2500    8082.4937    2206.5100       1.2980       0.0527       2.9670       0.0240       2.7590     -40.5640       0.2950       1.9750
   2596.8958       8.7300       1.5239       0.0380      45.8802      18.6311    -999.2500    -999.2500    9591.6650    2628.0564       1.2980       0.0498       2.9725       0.0240       2.7585     -40.2839       0.3651       1.9169
   2597.0481       8.7540       1.7430       0.0510      47.4170      18.4400    -999.2500    -999.2500   11095.1289    3047.9121       1.2980       0.0472       2.9780       0.0240       2.7580     -40.0052       0.4350       1.8590
   2597.2004       8.7845       1.5672       0.0505      47.3535      18.1684    -999.2500    -999.2500   17036.1367    3778.2410       1.6151       0.0463       3.0242       0.0240       2.7490     -41.3822       0.3779       1.8290
   2597.3528       8.8150       1.3920       0.0500      47.2900      17.8970    -999.2500    -999.2500   22972.1992    4508.0454       1.9320       0.0468       3.0700       0.0240       2.7400     -42.7578       0.3210       1.7990
   2597.5054       8.8646       1.4160       0.0410      46.1897      16.8874    -999.2500    -999.2500   22774.8516    4475.8438       1.9260       0.0484       3.0595       0.0295       2.6958     -41.5992       0.3285       1.7344
   2597.6577       8.9140       1.4400       0.0320      45.0900      15.8831    -999.2500    -999.2500   22578.0762    4443.7803       1.9200       0.0519       3.0490       0.0350       2.6520     -40.4471       0.3360       1.6700
   2597.8101       8.9080       2.0767       0.0330      44.2862      15.8920    -999.2500    -999.2500   17031.4727    3442.8591       1.8170       0.0578       2.8629       0.0345       2.6540     -40.9205       0.5417       1.5784
   2597.9624       8.9020       2.7110       0.0340      43.4840      15.9010    -999.2500    -999.2500   11541.1973    2451.9451       1.7150       0.0625       2.6780       0.0340       2.6560     -41.3890       0.7470       1.4870
   2598.1150       8.8022       2.3464       0.0320      43.0891      16.0515    -999.2500    -999.2500   12795.6035    2752.9980       1.4782       0.0639       3.0237       0.0290       2.7172     -41.1387       0.6299       1.4900
   2598.2673       8.7030       1.9830       0.0300      42.6950      16.2010    -999.2500    -999.2500   14041.4414    3052.0835       1.2430       0.0597       3.3670       0.0240       2.7780     -40.8901       0.5130       1.4930
   2598.4197       8.7696       2.1132       0.0300      41.9773      16.5671    -999.2500    -999.2500   14023.0684    2798.5544       1.2710       0.0490       3.1533       0.0235       2.7630     -41.2683       0.5560       1.5601
   2598.5720       8.8360       2.2430       0.0300      41.2610      16.9320    -999.2500    -999.2500   14004.5840    2545.8691       1.2990       0.0402       2.9410       0.0230       2.7480     -41.6449       0.5990       1.6270
   2598.7246       8.7694       2.2185       0.0370      41.3271      16.6503    -999.2500    -999.2500   12101.1289    2550.6438       1.1489       0.0384       2.9440       0.0235       2.7671     -41.0839       0.5910       1.6260
   2598.8770       8.7030       2.1940       0.0440      41.3930      16.3690    -999.2500    -999.2500   10201.1143    2555.4229       0.9990       0.0394       2.9470       0.0240       2.7860     -40.5239       0.5830       1.6250
   2599.0293       8.7030       2.4910       0.0555      43.4391      16.4975    -999.2500    -999.2500   10314.2529    2642.7583       1.0120       0.0396       2.9931       0.0240       2.7860     -40.1809       0.6786       1.6030
   2599.1816       8.7030       2.7870       0.0670      45.4820      16.6260    -999.2500    -999.2500   10427.5693    2730.0989       1.0250       0.0394       3.0390       0.0240       2.7860     -39.8381       0.7740       1.5810
   2599.3340       8.7030       2.7765       0.0565      45.4805      16.5985    -999.2500    -999.2500   12449.9561    3225.0649       1.2924       0.0394       3.1393       0.0235       2.7494     -40.2147       0.7710       1.5059
   2599.4866       8.7030       2.7660       0.0460      45.4790      16.5710    -999.2500    -999.2500   14466.1221    3718.5342       1.5590       0.0410       3.2390       0.0230       2.7130     -40.5899       0.7680       1.4310
