#------------------------------------------------------------------------------
#
#   Created by  : [OpenWorks] Log Export Utility (LEXP)
#   Created on  : 2016-05-19 10:54:47
#   Project     : CANT971
#   User        : R5K
#   Interpreter : PEP
#
#------------------------------------------------------------------------------
~VERSION INFORMATION
VERS. 2.0 : CWLS Log ASCII Standard - version 2.0
WRAP.  NO : One line per depth step
~WELL INFORMATION
#MNEMONIC   .UNIT                                           VALUE :DESCRIPTION
#------------------------------------------------------------------------------
STRT        .M                                          1271.4729 :START DEPTH
STOP        .M                                          2683.3064 :STOP DEPTH
STEP        .M                                             0.1524 :STEP
NULL        .                                           -999.2500 :NULL VALUE
COMP        .                                   PEMEX EXPL & PROD :COMPANY
WELL        .                                                269D :WELL
FLD         .                                           CANTARELL :FIELD
LOC         .                                             UNKNOWN :LOCATION
CNTY        .                                      CD. DEL CARMEN :COUNTY
STAT        .                                            CAMPECHE :STATE
CTRY        .                                              MEXICO :COUNTRY
SRVC        .                                             UNKNOWN :SERVICE COMPANY
DATE        .                                             UNKNOWN :LOG DATE
UWI         .                                          3060000596 :UNIQUE WELL ID
XCOORD      .                                       597309.970000 :SURFACE X
YCOORD      .                                      2143042.390000 :SURFACE Y
LAT         .                                           19.380314 :LATITUDE
LON         .                                          -92.073359 :LONGITUDE
ELEV        .M                                            27.7000 :SURFACE ELEV
ELEV_TYPE   .                                                  KB :ELEV TYPE
~CURVE INFORMATION
#MNEMONIC.UNIT        API CODE       : CURVE DESCRIPTION
#------------------------------------------------------------------------------
DEPTH    .M                          : Measured Depth
CALI     .inches      UNKNOWN        : CALI:Import:rC:NONE:v0 (auto-composite)
CGR      .API         UNKNOWN        : CGR:Import:rC:NONE:v0 (auto-composite)
DRHO     .g/cm3       UNKNOWN        : DRHO:Import:rC:NONE:v0 (auto-composite)
DT       .us/ft       UNKNOWN        : DT:Import:rC:NONE:v0 (auto-composite)
GR       .API         UNKNOWN        : GR:Import:rC:NONE:v0 (auto-composite)
ILD      .ohm.m       UNKNOWN        : ILD:Import:rC:NONE:v0 (auto-composite)
ILM      .ohm.m       UNKNOWN        : ILM:Import:rC:NONE:v0 (auto-composite)
LLD      .ohm.m       UNKNOWN        : LLD:Import:rC:NONE:v0 (auto-composite)
LLS      .ohm.m       UNKNOWN        : LLS:Import:rC:NONE:v0 (auto-composite)
MSFL     .ohm.m       UNKNOWN        : MSFL:Import:rC:NONE:v0 (auto-composite)
NPHI     .v/v_decimal UNKNOWN        : NPHI:Import:rC:NONE:v0 (auto-composite)
PEF      .b/elec      UNKNOWN        : PEF:Import:rC:NONE:v0 (auto-composite)
POTA     .wtpercent   UNKNOWN        : POTA:Import:rC:NONE:v0 (auto-composite)
RHOB     .g/cm3       UNKNOWN        : RHOB:Import:rC:NONE:v0 (auto-composite)
SP       .mV          UNKNOWN        : SP:Import:rC:NONE:v0 (auto-composite)
THOR     .ppm         UNKNOWN        : THOR:Import:rC:NONE:v0 (auto-composite)
URAN     .ppm         UNKNOWN        : URAN:Import:rC:NONE:v0 (auto-composite)
~A     DEPTH         CALI          CGR         DRHO           DT           GR          ILD          ILM          LLD          LLS         MSFL         NPHI          PEF         POTA         RHOB           SP         THOR         URAN
# ...
   2626.3088       8.4350       2.6450       0.0350      44.0320      14.2980    -999.2500    -999.2500   23587.8672    2234.5068       2.8330       0.0453       3.2410       0.0940       2.7620     -43.1749       0.3920       1.2600
   2626.4612       8.3815       2.0190       0.0500      42.9147      13.8315    -999.2500    -999.2500   15602.8418    1506.7931       2.2240       0.0487       3.2034       0.0650       2.7485     -42.5195       0.3264       1.2931
   2626.6138       8.3280       1.3960       0.0650      41.7990      13.3641    -999.2500    -999.2500    7604.5762     777.8298       1.6140       0.0572       3.1660       0.0360       2.7350     -41.8629       0.2610       1.3260
   2626.7661       8.3325       2.2996       0.0966      41.8866      13.4131    -999.2500    -999.2500    4079.5208     445.6685       1.6245       0.0741       3.0592       0.0405       2.7385     -41.4578       0.3867       1.2684
   2626.9185       8.3370       3.1990       0.1280      41.9740      13.4620    -999.2500    -999.2500     565.2699     114.5209       1.6350       0.0883       2.9530       0.0450       2.7420     -41.0541       0.5120       1.2110
   2627.0708       8.3877       3.1634       0.1230      43.7771      13.7566    -999.2500    -999.2500     575.4698     118.7218       2.0897       0.0918       3.1060       0.0811       2.7761     -41.3998       0.4109       1.2190
   2627.2234       8.4380       3.1280       0.1180      45.5780      14.0490    -999.2500    -999.2500     585.5963     122.9117       2.5410       0.0885       3.2580       0.1170       2.8100     -41.7430       0.3100       1.2270
   2627.3757       8.4300       2.9055       0.0884      45.5205      14.3261    -999.2500    -999.2500     645.6818     150.9346       2.2915       0.0805       3.1422       0.1120       2.7634     -41.4930       0.3165       1.2736
   2627.5281       8.4220       2.6840       0.0590      45.4630      14.6020    -999.2500    -999.2500     705.5066     178.8382       2.0430       0.0720       3.0270       0.1070       2.7170     -41.2440       0.3230       1.3200
   2627.6804       8.4260       2.1554       0.0319      44.9172      14.7366    -999.2500    -999.2500     746.6190     194.9885       2.4682       0.0654       3.0275       0.0659       2.7190     -40.9649       0.3565       1.3676
   2627.8330       8.4300       1.6290       0.0050      44.3720      14.8710    -999.2500    -999.2500     787.6962     211.1220       2.8930       0.0595       3.0280       0.0250       2.7210     -40.6859       0.3900       1.4150
   2627.9854       8.4260       1.6801       0.0050      44.3770      15.1363    -999.2500    -999.2500     891.4560     265.2451       2.8173       0.0534       3.1423       0.0250       2.7375     -40.3113       0.4125       1.4826
   2628.1377       8.4220       1.7310       0.0050      44.3820      15.4000    -999.2500    -999.2500     994.6475     319.0636       2.7420       0.0491       3.2560       0.0250       2.7540     -39.9390       0.4350       1.5500
   2628.2900       8.4220       2.6147       0.0075      44.4200      15.7483    -999.2500    -999.2500    1330.2817     312.2503       2.0736       0.0480       3.2179       0.0345       2.7485     -40.2235       0.6678       1.4964
   2628.4424       8.4220       3.4950       0.0100      44.4580      16.0930    -999.2500    -999.2500    1662.6941     305.5034       1.4120       0.0491       3.1800       0.0440       2.7430     -40.5051       0.9000       1.4430
   2628.5950       8.4220       3.4619       0.0130      44.6436      16.3624    -999.2500    -999.2500    4652.7090     557.1348       1.7883       0.0516       3.2171       0.0425       2.7505     -41.0400       0.8970       1.4485
   2628.7473       8.4220       3.4290       0.0160      44.8290      16.6300    -999.2500    -999.2500    7621.4800     807.0230       2.1620       0.0550       3.2540       0.0410       2.7580     -41.5711       0.8940       1.4540
   2628.8997       8.4220       3.0142       0.0160      45.4381      16.7071    -999.2500    -999.2500    6741.9072     782.9406       2.0518       0.0588       3.2309       0.0340       2.7550     -42.1046       0.7989       1.5071
   2629.0520       8.4220       2.6010       0.0160      46.0460      16.7840    -999.2500    -999.2500    5865.6636     758.9295       1.9420       0.0617       3.2080       0.0270       2.7520     -42.6361       0.7040       1.5600
   2629.2046       8.4220       2.6225       0.0145      46.1766      16.5808    -999.2500    -999.2500    5964.5864     623.1462       2.4060       0.0625       3.0555       0.0260       2.7294     -43.1381       0.7430       1.5390
   2629.3569       8.4220       2.6440       0.0130      46.3070      16.3780    -999.2500    -999.2500    6063.3750     487.6227       2.8690       0.0614       2.9040       0.0250       2.7070     -43.6390       0.7820       1.5180
   2629.5093       8.4220       2.8714       0.0170      46.5818      15.1689    -999.2500    -999.2500    6845.9131     503.9369       2.8410       0.0579       2.9155       0.0320       2.7256     -43.7344       0.7084       1.4054
   2629.6616       8.4220       3.0980       0.0210      46.8560      13.9581    -999.2500    -999.2500    7629.9106     520.2830       2.8130       0.0548       2.9270       0.0390       2.7440     -43.8300       0.6350       1.2930
   2629.8142       8.4220       4.4402       0.0155      47.6202      14.4133    -999.2500    -999.2500   12916.5898     665.6937       2.6564       0.0537       3.0158       0.0905       2.7415     -43.5187       0.6936       1.1494
   2629.9666       8.4220       5.7780       0.0100      48.3830      14.8679    -999.2500    -999.2500   18193.6914     810.8626       2.5000       0.0538       3.1040       0.1420       2.7390     -43.2079       0.7520       1.0060
   2630.1189       8.4220       5.7324       0.0100      49.1006      14.7471    -999.2500    -999.2500   17974.3359    1213.4788       2.5371       0.0545       3.0252       0.1330       2.7255     -42.7705       1.1218       1.0115
   2630.2712       8.4220       5.6870       0.0100      49.8170      14.6270    -999.2500    -999.2500   17756.0996    1613.5452       2.5740       0.0563       2.9470       0.1240       2.7120     -42.3360       1.4910       1.0170
   2630.4236       8.4100       5.3968       0.0190      50.5095      14.7242    -999.2500    -999.2500   14369.2197    1525.7593       2.9794       0.0600       2.9756       0.0789       2.7095     -42.1180       1.4595       1.0596
   2630.5762       8.3980       5.1080       0.0280      51.2010      14.8210    -999.2500    -999.2500   10998.4131    1438.3506       3.3830       0.0653       3.0040       0.0340       2.7070     -41.9010       1.4280       1.1020
   2630.7285       8.4005       4.6214       0.0265      51.8324      15.3257    -999.2500    -999.2500   11063.7520    1441.8326       2.8501       0.0723       2.9960       0.0630       2.7005     -41.6223       1.2387       1.1981
   2630.8809       8.4030       4.1370       0.0250      52.4630      15.8299    -999.2500    -999.2500   11128.9121    1445.3158       2.3180       0.0777       2.9880       0.0920       2.6940     -41.3440       1.0500       1.2940
   2631.0332       8.4125       3.6429       0.0155      52.4130      16.2391    -999.2500    -999.2500   10150.9023    1471.4054       2.5902       0.0789       2.8842       0.0890       2.6825     -41.0643       0.8037       1.3921
   2631.1858       8.4220       3.1510       0.0060      52.3630      16.6490    -999.2500    -999.2500    9171.0342    1497.5483       2.8630       0.0772       2.7810       0.0860       2.6710     -40.7841       0.5580       1.4900
   2631.3381       8.4220       2.7937       0.0065      51.9378      17.0656    -999.2500    -999.2500    9209.9873    1646.8490       2.8525       0.0735       2.7880       0.0950       2.6580     -41.3479       0.3582       1.5976
   2631.4905       8.4220       2.4380       0.0070      51.5130      17.4810    -999.2500    -999.2500    9248.8506    1795.7552       2.8420       0.0703       2.7950       0.1040       2.6450     -41.9101       0.1590       1.7050
