#------------------------------------------------------------------------------
#
#   Created by  : [OpenWorks] Log Export Utility (LEXP)
#   Created on  : 2016-05-19 10:54:47
#   Project     : CANT971
#   User        : R5K
#   Interpreter : PEP
#
#------------------------------------------------------------------------------
~VERSION INFORMATION
VERS. 2.0 : CWLS Log ASCII Standard - version 2.0
WRAP.  NO : One line per depth step
~WELL INFORMATION
#MNEMONIC   .UNIT                                           VALUE :DESCRIPTION
#------------------------------------------------------------------------------
STRT        .M                                          1271.4729 :START DEPTH
STOP        .M                                          2683.3064 :STOP DEPTH
STEP        .M                                             0.1524 :STEP
NULL        .                                           -999.2500 :NULL VALUE
COMP        .                                   PEMEX EXPL & PROD :COMPANY
WELL        .                                                269D :WELL
FLD         .                                           CANTARELL :FIELD
LOC         .                                             UNKNOWN :LOCATION
CNTY        .                                      CD. DEL CARMEN :COUNTY
STAT        .                                            CAMPECHE :STATE
CTRY        .                                              MEXICO :COUNTRY
SRVC        .                                             UNKNOWN :SERVICE COMPANY
DATE        .                                             UNKNOWN :LOG DATE
UWI         .                                          3060000596 :UNIQUE WELL ID
XCOORD      .                                       597309.970000 :SURFACE X
YCOORD      .                                      2143042.390000 :SURFACE Y
LAT         .                                           19.380314 :LATITUDE
LON         .                                          -92.073359 :LONGITUDE
ELEV        .M                                            27.7000 :SURFACE ELEV
ELEV_TYPE   .                                                  KB :ELEV TYPE
~CURVE INFORMATION
#MNEMONIC.UNIT        API CODE       : CURVE DESCRIPTION
#------------------------------------------------------------------------------
DEPTH    .M                          : Measured Depth
CALI     .inches      UNKNOWN        : CALI:Import:rC:NONE:v0 (auto-composite)
CGR      .API         UNKNOWN        : CGR:Import:rC:NONE:v0 (auto-composite)
DRHO     .g/cm3       UNKNOWN        : DRHO:Import:rC:NONE:v0 (auto-composite)
DT       .us/ft       UNKNOWN        : DT:Import:rC:NONE:v0 (auto-composite)
GR       .API         UNKNOWN        : GR:Import:rC:NONE:v0 (auto-composite)
ILD      .ohm.m       UNKNOWN        : ILD:Import:rC:NONE:v0 (auto-composite)
ILM      .ohm.m       UNKNOWN        : ILM:Import:rC:NONE:v0 (auto-composite)
LLD      .ohm.m       UNKNOWN        : LLD:Import:rC:NONE:v0 (auto-composite)
LLS      .ohm.m       UNKNOWN        : LLS:Import:rC:NONE:v0 (auto-composite)
MSFL     .ohm.m       UNKNOWN        : MSFL:Import:rC:NONE:v0 (auto-composite)
NPHI     .v/v_decimal UNKNOWN        : NPHI:Import:rC:NONE:v0 (auto-composite)
PEF      .b/elec      UNKNOWN        : PEF:Import:rC:NONE:v0 (auto-composite)
POTA     .wtpercent   UNKNOWN        : POTA:Import:rC:NONE:v0 (auto-composite)
RHOB     .g/cm3       UNKNOWN        : RHOB:Import:rC:NONE:v0 (auto-composite)
SP       .mV          UNKNOWN        : SP:Import:rC:NONE:v0 (auto-composite)
THOR     .ppm         UNKNOWN        : THOR:Import:rC:NONE:v0 (auto-composite)
URAN     .ppm         UNKNOWN        : URAN:Import:rC:NONE:v0 (auto-composite)
~A     DEPTH         CALI          CGR         DRHO           DT           GR          ILD          ILM          LLD          LLS         MSFL         NPHI          PEF         POTA         RHOB           SP         THOR         URAN
# ...
   2567.6350       8.8490       1.3979       0.0115      46.2120      11.6761    -999.2500    -999.2500   25443.4883    3817.2542       1.4672       0.0429       3.3474       0.0185       2.7250     -41.8357       0.3516       1.1415
   2567.7874       8.8520       1.6130       0.0070      46.8080      12.0090    -999.2500    -999.2500   28093.3086    4361.0010       1.5270       0.0448       3.1730       0.0190       2.7140     -41.5871       0.4180       1.1540
   2567.9397       8.8520       1.4157       0.0095      46.9326      11.6730    -999.2500    -999.2500   29076.9551    4806.2905       1.3803       0.0492       3.1304       0.0190       2.7090     -41.9637       0.3539       1.1310
   2568.0920       8.8520       1.2190       0.0120      47.0570      11.3380    -999.2500    -999.2500   30056.7402    5250.1626       1.2340       0.0526       3.0880       0.0190       2.7040     -42.3391       0.2900       1.1080
   2568.2444       8.8440       1.5931       0.0170      46.8003      10.8081    -999.2500    -999.2500   23475.0352    4622.4116       1.3211       0.0528       3.1537       0.0340       2.7160     -42.6538       0.3065       1.0179
   2568.3970       8.8360       1.9660       0.0220      46.5440      10.2790    -999.2500    -999.2500   16903.2383    3995.5391       1.4080       0.0506       3.2190       0.0490       2.7280     -42.9680       0.3230       0.9280
   2568.5493       8.8515       1.7978       0.0260      45.0050      10.3592    -999.2500    -999.2500   13815.3984    3456.2122       1.2450       0.0471       3.1769       0.0635       2.7295     -43.0633       0.2079       0.9565
   2568.7017       8.8670       1.6300       0.0300      43.4680      10.4390    -999.2500    -999.2500   10746.5195    2920.1963       1.0830       0.0439       3.1350       0.0780       2.7310     -43.1578       0.0930       0.9850
   2568.8540       8.8524       1.5674       0.0340      42.6095      10.3797    -999.2500    -999.2500    7889.0864    2204.4958       1.2066       0.0419       3.1872       0.0730       2.7506     -41.7790       0.1366       0.9715
   2569.0066       8.8380       1.5050       0.0380      41.7520      10.3210    -999.2500    -999.2500    5058.0708    1495.3459       1.3290       0.0405       3.2390       0.0680       2.7700     -40.4131       0.1800       0.9580
   2569.1589       8.8094       1.7280       0.0480      42.3133      10.2819    -999.2500    -999.2500    4737.5308    1464.2473       1.2964       0.0397       3.3805       0.0615       2.7750     -40.8825       0.2346       0.9410
   2569.3113       8.7810       1.9500       0.0580      42.8740      10.2430    -999.2500    -999.2500    4419.0229    1433.3530       1.2640       0.0396       3.5210       0.0550       2.7800     -41.3491       0.2890       0.9240
   2569.4636       8.8166       2.2832       0.0555      43.7604      10.3452    -999.2500    -999.2500    5681.8677    1887.0215       1.3482       0.0403       3.3263       0.0725       2.7599     -41.9463       0.3321       0.8965
   2569.6162       8.8520       2.6150       0.0530      44.6460      10.4470    -999.2500    -999.2500    6939.5215    2338.8245       1.4320       0.0414       3.1330       0.0900       2.7400     -42.5411       0.3750       0.8690
   2569.7686       8.8440       2.2959       0.0510      44.1558      10.4906    -999.2500    -999.2500    8671.5146    2744.4973       1.4475       0.0424       3.2223       0.0770       2.7370     -42.9501       0.3244       0.8985
   2569.9209       8.8360       1.9780       0.0490      43.6660      10.5340    -999.2500    -999.2500   10399.3457    3149.1848       1.4630       0.0427       3.3110       0.0640       2.7340     -43.3581       0.2740       0.9280
   2570.0732       8.8435       2.1068       0.0455      42.8337      10.6180    -999.2500    -999.2500   12531.5195    2888.0674       1.2111       0.0420       3.1499       0.0660       2.7395     -44.0138       0.3005       0.9395
   2570.2256       8.8510       2.2350       0.0420      42.0020      10.7020    -999.2500    -999.2500   14665.3340    2626.6936       0.9590       0.0407       2.9900       0.0680       2.7450     -44.6702       0.3270       0.9510
   2570.3782       8.8515       2.1148       0.0430      42.2921      10.9458    -999.2500    -999.2500   13943.0205    2306.4170       1.1272       0.0387       3.1460       0.0705       2.7686     -45.6122       0.3080       0.9760
   2570.5305       8.8520       1.9950       0.0440      42.5820      11.1890    -999.2500    -999.2500   13222.4121    1986.8376       1.2950       0.0373       3.3010       0.0730       2.7920     -46.5519       0.2890       1.0010
   2570.6829       8.7968       1.8257       0.0365      43.5170      11.4755    -999.2500    -999.2500   13835.2324    1948.9172       1.1972       0.0371       3.2749       0.0465       2.7699     -45.6774       0.3791       1.0566
   2570.8352       8.7420       1.6570       0.0290      44.4500      11.7600    -999.2500    -999.2500   14444.7930    1911.2653       1.1000       0.0374       3.2490       0.0200       2.7480     -44.8086       0.4690       1.1120
   2570.9878       8.7535       1.9946       0.0210      45.3859      12.0738    -999.2500    -999.2500   24649.6855    2602.2661       1.1496       0.0379       3.2390       0.0275       2.7365     -42.3684       0.5271       1.1200
   2571.1401       8.7650       2.3310       0.0130      46.3200      12.3860    -999.2500    -999.2500   34800.9883    3289.7561       1.1990       0.0392       3.2290       0.0350       2.7250     -39.9409       0.5850       1.1280
   2571.2925       8.7850       2.1322       0.0160      47.9620      12.4215    -999.2500    -999.2500   30573.0781    3026.1157       1.2761       0.0420       3.2456       0.0310       2.7235     -39.4369       0.5179       1.1470
   2571.4448       8.8050       1.9340       0.0190      49.6010      12.4570    -999.2500    -999.2500   26352.7969    2762.9177       1.3530       0.0459       3.2620       0.0270       2.7220     -38.9340       0.4510       1.1660
   2571.5974       8.7560       1.8368       0.0150      50.8766      12.6124    -999.2500    -999.2500   22404.5156    2399.5913       1.3250       0.0509       3.1923       0.0525       2.6969     -39.1548       0.3529       1.1800
   2571.7498       8.7070       1.7400       0.0110      52.1500      12.7680    -999.2500    -999.2500   18450.5195    2035.7063       1.2970       0.0561       3.1230       0.0780       2.6720     -39.3760       0.2550       1.1940
   2571.9021       8.7010       1.7700       0.0115      50.2801      12.9428    -999.2500    -999.2500   17797.7129    1924.1412       1.2579       0.0611       3.1551       0.0705       2.6590     -39.5648       0.2230       1.2285
   2572.0544       8.6950       1.8000       0.0120      48.4130      13.1170    -999.2500    -999.2500   17147.0215    1812.9368       1.2190       0.0626       3.1870       0.0630       2.6460     -39.7530       0.1910       1.2630
   2572.2068       8.7462       1.6142       0.0130      46.4951      12.8911    -999.2500    -999.2500   17038.3379    1718.7615       1.3741       0.0593       3.2402       0.0410       2.6425     -40.0060       0.3366       1.2360
   2572.3594       8.7970       1.4290       0.0140      44.5800      12.6670    -999.2500    -999.2500   16930.4062    1625.3212       1.5280       0.0538       3.2930       0.0190       2.6390     -40.2570       0.4820       1.2090
   2572.5117       8.7629       1.5116       0.0255      43.3407      12.5998    -999.2500    -999.2500   15832.3193    1574.8435       1.2915       0.0486       3.1902       0.0195       2.6766     -40.1638       0.4265       1.2225
   2572.6641       8.7290       1.5940       0.0370      42.1030      12.5330    -999.2500    -999.2500   14739.3652    1524.5938       1.0560       0.0448       3.0880       0.0200       2.7140     -40.0709       0.3710       1.2360
   2572.8164       8.7045       1.7562       0.0440      41.3320      12.3539    -999.2500    -999.2500   15761.6631    1700.3470       1.2136       0.0425       3.0669       0.0205       2.7371     -39.6371       0.4401       1.1904
