#------------------------------------------------------------------------------
#
#   Created by  : [OpenWorks] Log Export Utility (LEXP)
#   Created on  : 2016-05-19 10:54:47
#   Project     : CANT971
#   User        : R5K
#   Interpreter : PEP
#
#------------------------------------------------------------------------------
~VERSION INFORMATION
VERS. 2.0 : CWLS Log ASCII Standard - version 2.0
WRAP.  NO : One line per depth step
~WELL INFORMATION
#MNEMONIC   .UNIT                                           VALUE :DESCRIPTION
#------------------------------------------------------------------------------
STRT        .M                                          1271.4729 :START DEPTH
STOP        .M                                          2683.3064 :STOP DEPTH
STEP        .M                                             0.1524 :STEP
NULL        .                                           -999.2500 :NULL VALUE
COMP        .                                   PEMEX EXPL & PROD :COMPANY
WELL        .                                                269D :WELL
FLD         .                                           CANTARELL :FIELD
LOC         .                                             UNKNOWN :LOCATION
CNTY        .                                      CD. DEL CARMEN :COUNTY
STAT        .                                            CAMPECHE :STATE
CTRY        .                                              MEXICO :COUNTRY
SRVC        .                                             UNKNOWN :SERVICE COMPANY
DATE        .                                             UNKNOWN :LOG DATE
UWI         .                                          3060000596 :UNIQUE WELL ID
XCOORD      .                                       597309.970000 :SURFACE X
YCOORD      .                                      2143042.390000 :SURFACE Y
LAT         .                                           19.380314 :LATITUDE
LON         .                                          -92.073359 :LONGITUDE
ELEV        .M                                            27.7000 :SURFACE ELEV
ELEV_TYPE   .                                                  KB :ELEV TYPE
~CURVE INFORMATION
#MNEMONIC.UNIT        API CODE       : CURVE DESCRIPTION
#------------------------------------------------------------------------------
DEPTH    .M                          : Measured Depth
CALI     .inches      UNKNOWN        : CALI:Import:rC:NONE:v0 (auto-composite)
CGR      .API         UNKNOWN        : CGR:Import:rC:NONE:v0 (auto-composite)
DRHO     .g/cm3       UNKNOWN        : DRHO:Import:rC:NONE:v0 (auto-composite)
DT       .us/ft       UNKNOWN        : DT:Import:rC:NONE:v0 (auto-composite)
GR       .API         UNKNOWN        : GR:Import:rC:NONE:v0 (auto-composite)
ILD      .ohm.m       UNKNOWN        : ILD:Import:rC:NONE:v0 (auto-composite)
ILM      .ohm.m       UNKNOWN        : ILM:Import:rC:NONE:v0 (auto-composite)
LLD      .ohm.m       UNKNOWN        : LLD:Import:rC:NONE:v0 (auto-composite)
LLS      .ohm.m       UNKNOWN        : LLS:Import:rC:NONE:v0 (auto-composite)
MSFL     .ohm.m       UNKNOWN        : MSFL:Import:rC:NONE:v0 (auto-composite)
NPHI     .v/v_decimal UNKNOWN        : NPHI:Import:rC:NONE:v0 (auto-composite)
PEF      .b/elec      UNKNOWN        : PEF:Import:rC:NONE:v0 (auto-composite)
POTA     .wtpercent   UNKNOWN        : POTA:Import:rC:NONE:v0 (auto-composite)
RHOB     .g/cm3       UNKNOWN        : RHOB:Import:rC:NONE:v0 (auto-composite)
SP       .mV          UNKNOWN        : SP:Import:rC:NONE:v0 (auto-composite)
THOR     .ppm         UNKNOWN        : THOR:Import:rC:NONE:v0 (auto-composite)
URAN     .ppm         UNKNOWN        : URAN:Import:rC:NONE:v0 (auto-composite)
~A     DEPTH         CALI          CGR         DRHO           DT           GR          ILD          ILM          LLD          LLS         MSFL         NPHI          PEF         POTA         RHOB           SP         THOR         URAN
# ...
   2290.2668       9.3563      22.3622       0.0400      65.0224      52.6389    -999.2500    -999.2500       4.1884       4.7725    1999.9451       0.1777       3.5993       0.9880       2.5005     -32.3719       2.0005       3.3435
   2290.4192       9.4450      21.3240       0.0300      66.2590      50.9390    -999.2500    -999.2500       4.0310       4.6400    2000.4984       0.1851       3.8910       0.9230       2.4910     -32.7470       2.0350       3.2580
   2290.5718       9.3799      20.7624       0.0335      66.1499      50.6049    -999.2500    -999.2500       4.0335       4.6756    1986.4723       0.1864       3.7171       0.9010       2.4855     -32.5285       1.9610       3.3080
   2290.7241       9.3150      20.2010       0.0370      66.0410      50.2720    -999.2500    -999.2500       4.0359       4.7109    1972.5016       0.1794       3.5450       0.8790       2.4800     -32.3109       1.8870       3.3580
   2290.8765       9.2440      19.0623       0.0400      64.8248      50.9071    -999.2500    -999.2500       3.5133       4.1848    1986.5044       0.1601       3.7179       0.8575       2.5006     -31.7818       1.6319       3.5425
   2291.0288       9.1730      17.9240       0.0430      63.6110      51.5420    -999.2500    -999.2500       2.9911       3.6592    2000.4998       0.1338       3.8890       0.8360       2.5210     -31.2531       1.3770       3.7270
   2291.1814       9.1529      17.5154       0.0656      61.3339      51.7380    -999.2500    -999.2500       4.0708       5.0568    1997.8490       0.1026       4.1382       0.8275       2.6104     -31.4742       1.2820       3.7925
   2291.3337       9.1330      17.1070       0.0880      59.0610      51.9330    -999.2500    -999.2500       5.1450       6.4470    1995.2091       0.0814       4.3850       0.8190       2.6990     -31.6940       1.1870       3.8580
   2291.4861       9.1400      16.4034       0.0830      56.6449      51.2502    -999.2500    -999.2500       5.4208       6.8515    1969.7294       0.0840       4.5387       0.7525       2.6689     -31.5689       1.3455       3.8000
   2291.6384       9.1470      15.7000       0.0780      54.2330      50.5740    -999.2500    -999.2500       5.6940       7.2520    1944.5015       0.0936       4.6910       0.6860       2.6390     -31.4449       1.5040       3.7420
   2291.7910       9.2067      16.7980       0.0981      55.4405      50.3623    -999.2500    -999.2500       5.7386       7.1552    1957.5432       0.0987       4.5644       0.7295       2.5682     -31.0085       1.6075       3.6555
   2291.9434       9.2660      17.8960       0.1180      56.6460      50.1520    -999.2500    -999.2500       5.7830       7.0590    1970.4983       0.1076       4.4390       0.7730       2.4980     -30.5748       1.7110       3.5690
   2292.0957       9.2735      19.9260       0.1562      59.2900      50.8626    -999.2500    -999.2500       5.9352       7.2603    1955.4230       0.1285       4.2958       0.8290       2.5131     -29.8567       2.0853       3.4104
   2292.2480       9.2810      21.9530       0.1940      61.9300      51.5710    -999.2500    -999.2500       6.0868       7.4608    1940.3917       0.1506       4.1540       0.8850       2.5280     -29.1409       2.4590       3.2520
   2292.4004       9.3886      20.7817       0.1935      63.4681      52.6893    -999.2500    -999.2500       4.4717       5.4439    1902.9180       0.1655       3.7838       0.8069       2.5375     -28.8607       2.6051       3.5172
   2292.5530       9.4960      19.6120       0.1930      65.0040      53.8060    -999.2500    -999.2500       2.8590       3.4300    1865.5077       0.1763       3.4170       0.7290       2.5470     -28.5811       2.7510       3.7820
   2292.7053       9.6455      18.4488       0.1588      65.3967      54.7594    -999.2500    -999.2500       3.0762       3.6020    1933.2128       0.1846       3.1754       0.6870       2.4907     -28.9898       2.4243       4.0091
   2292.8577       9.7940      17.2870       0.1250      65.7890      55.7070    -999.2500    -999.2500       3.2920       3.7730    2000.4979       0.1906       2.9360       0.6450       2.4350     -29.3963       2.0980       4.2360
   2293.0100       9.8462      16.3805       0.0954      65.8235      55.2404    -999.2500    -999.2500       3.4326       3.9066    1981.7312       0.1936       3.1138       0.6025       2.4089     -30.5264       2.1795       4.3821
   2293.1626       9.8980      15.4750       0.0660      65.8580      54.7779    -999.2500    -999.2500       3.5723       4.0393    1963.1306       0.1942       3.2900       0.5600       2.3830     -31.6461       2.2610       4.5280
   2293.3149       9.9140      13.9512       0.0534      65.1927      51.7787    -999.2500    -999.2500       5.5992       6.8289    1907.6517       0.1924       3.8761       0.5850       2.3860     -32.2764       1.5276       4.2664
   2293.4673       9.9300      12.4290       0.0410      64.5280      48.7969    -999.2500    -999.2500       7.6140       9.6019    1852.5068       0.1932       4.4570       0.6100       2.3890     -32.9029       0.7950       4.0050
   2293.6196       9.8163      12.9362       0.0666      60.4294      46.2627    -999.2500    -999.2500       7.3369       8.4656    1912.5344       0.2010       4.3852       0.5445       2.4684     -32.4670       1.3157       3.6734
   2293.7722       9.7030      13.4430       0.0920      56.3410      43.7390    -999.2500    -999.2500       7.0608       7.3339    1972.3121       0.2085       4.3140       0.4790       2.5470     -32.0328       1.8360       3.3420
   2293.9246       9.7240      13.9802       0.1061      59.3160      44.7136    -999.2500    -999.2500       5.5776       6.7302    1982.4185       0.2096       3.9991       0.5135       2.5274     -31.3776       1.8035       3.4435
   2294.0769       9.7450      14.5170       0.1200      62.2840      45.6861    -999.2500    -999.2500       4.0980       6.1279    1992.4872       0.2166       3.6870       0.5480       2.5080     -30.7238       1.7710       3.5450
   2294.2292       9.7650      15.4378       0.1090      64.7928      47.2783    -999.2500    -999.2500       4.2759       5.2778    1879.0425       0.2404       3.3566       0.6030       2.3810     -30.0366       1.8155       3.5795
   2294.3816       9.7850      16.3580       0.0980      67.2960      48.8721    -999.2500    -999.2500       4.4547       4.4295    1765.5117       0.2590       3.0290       0.6580       2.2550     -29.3490       1.8600       3.6140
   2294.5342       9.9317      19.2362       0.0849      61.9083      52.6376    -999.2500    -999.2500       9.7182      26.6644    1869.9777       0.2539       3.2893       0.8315       2.2575     -29.4756       1.6850       3.7760
   2294.6865      10.0780      22.1130       0.0720      56.5320      56.3950    -999.2500    -999.2500      14.9695      48.8477    1974.2135       0.2411       3.5470       1.0050       2.2600     -29.6021       1.5100       3.9380
   2294.8389       9.8588      21.7544       0.0655      65.4123      57.5007    -999.2500    -999.2500      11.0989      28.7941    1987.4020       0.2316       3.4978       1.0395       2.3947     -29.9167       1.4500       4.0130
   2294.9912       9.6410      21.3960       0.0590      74.2750      58.5990    -999.2500    -999.2500       7.2549       8.8778    2000.5000       0.2302       3.4490       1.0740       2.5280     -30.2290       1.3900       4.0880
   2295.1438       9.6956      21.7610       0.0399      66.6249      59.2025    -999.2500    -999.2500       6.3130       7.5099    2000.0509       0.2411       3.5661       1.0455       2.5265     -30.2626       1.4860       4.1655
   2295.2961       9.7500      22.1260       0.0210      58.9890      59.8030    -999.2500    -999.2500       5.3758       6.1488    1999.6040       0.2426       3.6820       1.0170       2.5250     -30.2960       1.5820       4.2430
   2295.4485       9.5859      21.6030       0.0170      63.1951      60.5792    -999.2500    -999.2500       3.9396       4.6260    1999.1030       0.2163       3.4680       0.9925       2.5054     -30.4842       1.6775       4.3430
