#------------------------------------------------------------------------------
#
#   Created by  : [OpenWorks] Log Export Utility (LEXP)
#   Created on  : 2016-05-19 10:54:47
#   Project     : CANT971
#   User        : R5K
#   Interpreter : PEP
#
#------------------------------------------------------------------------------
~VERSION INFORMATION
VERS. 2.0 : CWLS Log ASCII Standard - version 2.0
WRAP.  NO : One line per depth step
~WELL INFORMATION
#MNEMONIC   .UNIT                                           VALUE :DESCRIPTION
#------------------------------------------------------------------------------
STRT        .M                                          1271.4729 :START DEPTH
STOP        .M                                          2683.3064 :STOP DEPTH
STEP        .M                                             0.1524 :STEP
NULL        .                                           -999.2500 :NULL VALUE
COMP        .                                   PEMEX EXPL & PROD :COMPANY
WELL        .                                                269D :WELL
FLD         .                                           CANTARELL :FIELD
LOC         .                                             UNKNOWN :LOCATION
CNTY        .                                      CD. DEL CARMEN :COUNTY
STAT        .                                            CAMPECHE :STATE
CTRY        .                                              MEXICO :COUNTRY
SRVC        .                                             UNKNOWN :SERVICE COMPANY
DATE        .                                             UNKNOWN :LOG DATE
UWI         .                                          3060000596 :UNIQUE WELL ID
XCOORD      .                                       597309.970000 :SURFACE X
YCOORD      .                                      2143042.390000 :SURFACE Y
LAT         .                                           19.380314 :LATITUDE
LON         .                                          -92.073359 :LONGITUDE
ELEV        .M                                            27.7000 :SURFACE ELEV
ELEV_TYPE   .                                                  KB :ELEV TYPE
~CURVE INFORMATION
#MNEMONIC.UNIT        API CODE       : CURVE DESCRIPTION
#------------------------------------------------------------------------------
DEPTH    .M                          : Measured Depth
CALI     .inches      UNKNOWN        : CALI:Import:rC:NONE:v0 (auto-composite)
CGR      .API         UNKNOWN        : CGR:Import:rC:NONE:v0 (auto-composite)
DRHO     .g/cm3       UNKNOWN        : DRHO:Import:rC:NONE:v0 (auto-composite)
DT       .us/ft       UNKNOWN        : DT:Import:rC:NONE:v0 (auto-composite)
GR       .API         UNKNOWN        : GR:Import:rC:NONE:v0 (auto-composite)
ILD      .ohm.m       UNKNOWN        : ILD:Import:rC:NONE:v0 (auto-composite)
ILM      .ohm.m       UNKNOWN        : ILM:Import:rC:NONE:v0 (auto-composite)
LLD      .ohm.m       UNKNOWN        : LLD:Import:rC:NONE:v0 (auto-composite)
LLS      .ohm.m       UNKNOWN        : LLS:Import:rC:NONE:v0 (auto-composite)
MSFL     .ohm.m       UNKNOWN        : MSFL:Import:rC:NONE:v0 (auto-composite)
NPHI     .v/v_decimal UNKNOWN        : NPHI:Import:rC:NONE:v0 (auto-composite)
PEF      .b/elec      UNKNOWN        : PEF:Import:rC:NONE:v0 (auto-composite)
POTA     .wtpercent   UNKNOWN        : POTA:Import:rC:NONE:v0 (auto-composite)
RHOB     .g/cm3       UNKNOWN        : RHOB:Import:rC:NONE:v0 (auto-composite)
SP       .mV          UNKNOWN        : SP:Import:rC:NONE:v0 (auto-composite)
THOR     .ppm         UNKNOWN        : THOR:Import:rC:NONE:v0 (auto-composite)
URAN     .ppm         UNKNOWN        : URAN:Import:rC:NONE:v0 (auto-composite)
~A     DEPTH         CALI          CGR         DRHO           DT           GR          ILD          ILM          LLD          LLS         MSFL         NPHI          PEF         POTA         RHOB           SP         THOR         URAN
# ...
   2402.2810       8.8520       1.5260       0.0890      46.9580      64.0060    -999.2500    -999.2500     191.7659     115.0935    1980.5005       0.0784       2.7710       0.0410       2.6580     -24.9280       0.2780       6.9270
   2402.4333       8.8520       1.1766       0.0835      47.1726      61.8102    -999.2500    -999.2500     207.1608     124.5996    1990.0276       0.0792       2.8046       0.0400       2.6645     -24.9611       0.1675       6.6979
   2402.5857       8.8520       0.8280       0.0780      47.3870      59.6270    -999.2500    -999.2500     222.4699     134.0522    1999.5000       0.0767       2.8380       0.0390       2.6710     -24.9940       0.0570       6.4690
   2402.7380       8.8244       1.0342       0.0594      49.7189      55.1369    -999.2500    -999.2500     254.4771     156.3613    1998.9974       0.0720       3.0027       0.0390       2.6866     -24.8382       0.1260       5.9813
   2402.8904       8.7970       1.2400       0.0410      52.0490      50.6931    -999.2500    -999.2500     286.1708     178.4448    1998.5000       0.0642       3.1660       0.0390       2.7020     -24.6841       0.1950       5.4940
   2403.0430       9.1693       1.0913       0.0425      57.8599      49.3949    -999.2500    -999.2500     457.3643     283.7122    1999.5035       0.0520       3.1188       0.0395       2.7166     -25.4066       0.1450       5.3485
   2403.1953       9.5390       0.9430       0.0440      63.6670      48.1060    -999.2500    -999.2500     627.3325     388.2339    2000.5000       0.0422       3.0720       0.0400       2.7310     -26.1240       0.0950       5.2030
   2403.3477       9.1202       1.2779       0.0661      67.5716      47.0641    -999.2500    -999.2500     598.6778     368.6080    1999.5613       0.0408       3.1508       0.0400       2.7099     -26.2828       0.2031       5.0869
   2403.5000       8.7030       1.6120       0.0880      71.4680      46.0260    -999.2500    -999.2500     570.1174     349.0516    1998.6241       0.0502       3.2290       0.0400       2.6890     -26.4411       0.3110       4.9710
   2403.6526       8.7030       1.4889       0.0759      70.7152      41.5747    -999.2500    -999.2500     441.2611     269.6075    1965.0277       0.0750       3.1708       0.0370       2.5188     -27.0988       0.2760       4.4955
   2403.8049       8.7030       1.3660       0.0640      69.9640      37.1321    -999.2500    -999.2500     312.6636     190.3223    1931.5006       0.0977       3.1130       0.0340       2.3500     -27.7551       0.2410       4.0210
   2403.9573       8.7105       1.0252       0.0705      66.4853      37.3578    -999.2500    -999.2500     202.4292     123.7497    1942.2085       0.1041       3.2847       0.0340       2.3796     -28.0379       0.1389       4.0475
   2404.1096       8.7180       0.6850       0.0770      63.0130      37.5840    -999.2500    -999.2500      92.0620      57.0923    1952.9314       0.0960       3.4550       0.0340       2.4090     -28.3209       0.0370       4.0740
   2404.2622       8.7425       0.6950       0.1036      55.6881      39.2159    -999.2500    -999.2500     100.3002      62.4290    1976.7372       0.0718       3.3917       0.0345       2.5867     -27.6989       0.0390       4.2582
   2404.4146       8.7670       0.7050       0.1300      48.3760      40.8450    -999.2500    -999.2500     108.5496      67.7624    2000.5000       0.0494       3.3290       0.0350       2.7630     -27.0779       0.0410       4.4420
   2404.5669       8.7911       0.7330       0.1290      49.1736      43.9403    -999.2500    -999.2500     328.1602     184.1964    2000.5000       0.0430       3.0785       0.0360       2.7133     -26.6716       0.0460       4.7833
   2404.7192       8.8150       0.7610       0.1280      49.9700      47.0159    -999.2500    -999.2500     546.3330     299.8787    2000.5000       0.0445       2.8300       0.0370       2.6640     -26.2679       0.0510       5.1240
   2404.8716       8.9428       0.7810       0.1230      52.9077      48.5240    -999.2500    -999.2500     497.1765     294.6159    2000.5000       0.0484       2.8712       0.0375       2.7047     -25.7061       0.0555       5.2886
   2405.0242       9.0700       0.8010       0.1180      55.8410      50.0250    -999.2500    -999.2500     448.2573     289.3772    2000.5000       0.0538       2.9120       0.0380       2.7450     -25.1469       0.0600       5.4530
   2405.1765       8.9609       0.8165       0.0949      59.1978      50.6860    -999.2500    -999.2500     458.4652     275.1675    2000.5000       0.0609       2.8277       0.0380       2.7214     -24.6160       0.0640       5.5245
   2405.3289       8.8520       0.8320       0.0720      62.5500      51.3460    -999.2500    -999.2500     468.6539     260.9766    2000.5000       0.0731       2.7440       0.0380       2.6980     -24.0859       0.0680       5.5960
   2405.4812       8.8795       0.8505       0.0775      64.9365      52.3305    -999.2500    -999.2500     434.5908     234.9332    2000.5000       0.0947       2.8353       0.0380       2.6388     -23.5884       0.0740       5.7031
   2405.6338       8.9070       0.8690       0.0830      67.3200      53.3170    -999.2500    -999.2500     400.4539     208.8380    2000.5000       0.1115       2.9260       0.0380       2.5800     -23.0899       0.0800       5.8100
   2405.7861       8.9881       1.2307       0.1001      69.4262      54.8411    -999.2500    -999.2500     309.2825     171.9208    2000.5000       0.1103       3.1534       0.0380       2.5308     -22.7159       0.1936       5.9021
   2405.9385       9.0690       1.5920       0.1170      71.5300      56.3610    -999.2500    -999.2500     218.3733     135.1054    2000.5000       0.1135       3.3790       0.0380       2.4820     -22.3430       0.3070       5.9940
   2406.0908       9.1287       1.2706       0.1070      70.8522      56.2677    -999.2500    -999.2500     246.0427     123.6447    2000.5000       0.1406       3.2841       0.0385       2.2741     -22.1859       0.2039       6.0420
   2406.2434       9.1880       0.9500       0.0970      70.1750      56.1750    -999.2500    -999.2500     273.5024     112.2686    2000.4998       0.1665       3.1900       0.0390       2.0680     -22.0301       0.1010       6.0900
   2406.3958       9.1214       0.9986       0.1196      67.6754      55.9035    -999.2500    -999.2500     251.6912     105.5961    1995.9906       0.1706       2.9826       0.0390       2.1177     -22.7205       0.1165       6.0520
   2406.5481       9.0550       1.0470       0.1420      65.1780      55.6330    -999.2500    -999.2500     229.9714      98.9515    1991.5001       0.1574       2.7770       0.0390       2.1670     -23.4082       0.1320       6.0140
   2406.7004       9.0625       1.2032       0.1420      62.3407      55.7741    -999.2500    -999.2500     233.2736     108.2059    1992.9596       0.1264       2.7986       0.0390       2.3136     -24.4721       0.1810       6.0245
   2406.8528       9.0700       1.3590       0.1420      59.5100      55.9150    -999.2500    -999.2500     236.5724     117.4529    1994.4181       0.1003       2.8200       0.0390       2.4590     -25.5352       0.2300       6.0350
   2407.0054       9.0976       1.5592       0.1380      57.4858      56.2504    -999.2500    -999.2500     231.8962     115.9508    1997.4674       0.0986       2.8642       0.0400       2.5594     -26.3514       0.2895       6.0635
   2407.1577       9.1250       1.7590       0.1340      55.4660      56.5840    -999.2500    -999.2500     227.2428     114.4561    2000.5000       0.1035       2.9080       0.0410       2.6590     -27.1631       0.3490       6.0920
   2407.3101       9.0270       1.6714       0.1204      55.7603      57.0046    -999.2500    -999.2500     201.0825      97.7135    2000.5000       0.1021       2.9060       0.0410       2.6977     -27.5742       0.3215       6.1446
   2407.4624       8.9300       1.5840       0.1070      56.0540      57.4210    -999.2500    -999.2500     175.1942      81.1410    2000.4939       0.0952       2.9040       0.0410       2.7360     -27.9809       0.2940       6.1970
