#------------------------------------------------------------------------------
#
#   Created by  : [OpenWorks] Log Export Utility (LEXP)
#   Created on  : 2016-05-19 10:54:47
#   Project     : CANT971
#   User        : R5K
#   Interpreter : PEP
#
#------------------------------------------------------------------------------
~VERSION INFORMATION
VERS. 2.0 : CWLS Log ASCII Standard - version 2.0
WRAP.  NO : One line per depth step
~WELL INFORMATION
#MNEMONIC   .UNIT                                           VALUE :DESCRIPTION
#------------------------------------------------------------------------------
STRT        .M                                          1271.4729 :START DEPTH
STOP        .M                                          2683.3064 :STOP DEPTH
STEP        .M                                             0.1524 :STEP
NULL        .                                           -999.2500 :NULL VALUE
COMP        .                                   PEMEX EXPL & PROD :COMPANY
WELL        .                                                269D :WELL
FLD         .                                           CANTARELL :FIELD
LOC         .                                             UNKNOWN :LOCATION
CNTY        .                                      CD. DEL CARMEN :COUNTY
STAT        .                                            CAMPECHE :STATE
CTRY        .                                              MEXICO :COUNTRY
SRVC        .                                             UNKNOWN :SERVICE COMPANY
DATE        .                                             UNKNOWN :LOG DATE
UWI         .                                          3060000596 :UNIQUE WELL ID
XCOORD      .                                       597309.970000 :SURFACE X
YCOORD      .                                      2143042.390000 :SURFACE Y
LAT         .                                           19.380314 :LATITUDE
LON         .                                          -92.073359 :LONGITUDE
ELEV        .M                                            27.7000 :SURFACE ELEV
ELEV_TYPE   .                                                  KB :ELEV TYPE
~CURVE INFORMATION
#MNEMONIC.UNIT        API CODE       : CURVE DESCRIPTION
#------------------------------------------------------------------------------
DEPTH    .M                          : Measured Depth
CALI     .inches      UNKNOWN        : CALI:Import:rC:NONE:v0 (auto-composite)
CGR      .API         UNKNOWN        : CGR:Import:rC:NONE:v0 (auto-composite)
DRHO     .g/cm3       UNKNOWN        : DRHO:Import:rC:NONE:v0 (auto-composite)
DT       .us/ft       UNKNOWN        : DT:Import:rC:NONE:v0 (auto-composite)
GR       .API         UNKNOWN        : GR:Import:rC:NONE:v0 (auto-composite)
ILD      .ohm.m       UNKNOWN        : ILD:Import:rC:NONE:v0 (auto-composite)
ILM      .ohm.m       UNKNOWN        : ILM:Import:rC:NONE:v0 (auto-composite)
LLD      .ohm.m       UNKNOWN        : LLD:Import:rC:NONE:v0 (auto-composite)
LLS      .ohm.m       UNKNOWN        : LLS:Import:rC:NONE:v0 (auto-composite)
MSFL     .ohm.m       UNKNOWN        : MSFL:Import:rC:NONE:v0 (auto-composite)
NPHI     .v/v_decimal UNKNOWN        : NPHI:Import:rC:NONE:v0 (auto-composite)
PEF      .b/elec      UNKNOWN        : PEF:Import:rC:NONE:v0 (auto-composite)
POTA     .wtpercent   UNKNOWN        : POTA:Import:rC:NONE:v0 (auto-composite)
RHOB     .g/cm3       UNKNOWN        : RHOB:Import:rC:NONE:v0 (auto-composite)
SP       .mV          UNKNOWN        : SP:Import:rC:NONE:v0 (auto-composite)
THOR     .ppm         UNKNOWN        : THOR:Import:rC:NONE:v0 (auto-composite)
URAN     .ppm         UNKNOWN        : URAN:Import:rC:NONE:v0 (auto-composite)
~A     DEPTH         CALI          CGR         DRHO           DT           GR          ILD          ILM          LLD          LLS         MSFL         NPHI          PEF         POTA         RHOB           SP         THOR         URAN
# ...
   2375.6108       8.7922       0.7960       0.0746      58.2586      46.8701    -999.2500    -999.2500     448.6223     427.6846    1921.7362       0.0867       3.2473       0.0350       2.5915     -25.8815       0.0730       5.0870
   2375.7632       8.5780       0.8040       0.1020      57.8800      46.4700    -999.2500    -999.2500     395.2767     389.9144    1849.5010       0.0892       3.2030       0.0350       2.5880     -26.6610       0.0750       5.0570
   2375.9158       8.6952       0.8561       0.1020      55.7682      46.1183    -999.2500    -999.2500     273.7840     266.9818    1863.1053       0.0999       3.0227       0.0355       2.5724     -26.8824       0.0900       5.0155
   2376.0681       8.8120       0.9080       0.1020      53.6610      45.7680    -999.2500    -999.2500     152.7685     144.5252    1876.6609       0.1099       2.8440       0.0360       2.5570     -27.1028       0.1050       4.9740
   2376.2205       8.8035       1.0431       0.1010      50.9987      44.5397    -999.2500    -999.2500     156.3619     147.7910    1932.2523       0.1130       2.9655       0.0360       2.6449     -26.3871       0.1480       4.8065
   2376.3728       8.7950       1.1780       0.1000      48.3420      43.3120    -999.2500    -999.2500     159.9557     151.0562    1987.8135       0.1114       3.0860       0.0360       2.7320     -25.6719       0.1910       4.6390
   2376.5254       8.7098       1.4708       0.0588      47.1814      43.3757    -999.2500    -999.2500     181.0776     168.7253    1994.1735       0.1073       3.0714       0.0365       2.6979     -25.0152       0.2835       4.6420
   2376.6777       8.6250       1.7630       0.0180      46.0230      43.4390    -999.2500    -999.2500     202.0947     186.3174    2000.4996       0.1011       3.0570       0.0370       2.6640     -24.3619       0.3760       4.6450
   2376.8301       8.6642       1.4702       0.0190      46.5170      43.8073    -999.2500    -999.2500     255.9096     408.4792    1995.9775       0.0932       2.9937       0.0365       2.7052     -23.9549       0.2814       4.6780
   2376.9824       8.7030       1.1780       0.0200      47.0100      44.1720    -999.2500    -999.2500     309.2138     628.4509    1991.5004       0.0838       2.9310       0.0360       2.7460     -23.5520       0.1870       4.7110
   2377.1350       8.7020       1.2115       0.0255      50.8032      44.7524    -999.2500    -999.2500     491.1450     626.5517    1996.0150       0.0729       2.8723       0.0365       2.7420     -23.4898       0.1975       4.7951
   2377.2874       8.7010       1.2450       0.0310      54.5900      45.3290    -999.2500    -999.2500     671.8611     624.6630    2000.4996       0.0654       2.8140       0.0370       2.7380     -23.4280       0.2080       4.8790
   2377.4397       8.6865       1.4201       0.0370      54.5470      45.8789    -999.2500    -999.2500     569.2908     595.3168    1995.9924       0.0644       2.8260       0.0370       2.7144     -23.2417       0.2640       4.9225
   2377.5920       8.6720       1.5950       0.0430      54.5040      46.4270    -999.2500    -999.2500     467.0591     566.0608    1991.5001       0.0685       2.8380       0.0370       2.6910     -23.0560       0.3200       4.9660
   2377.7444       8.6170       2.1559       0.0345      54.1638      47.2931    -999.2500    -999.2500     467.9868     490.4998    1992.4628       0.0765       3.0047       0.0370       2.6453     -22.9324       0.5001       5.0330
   2377.8970       8.5620       2.7160       0.0260      53.8240      48.1580    -999.2500    -999.2500     468.9140     415.0542    1993.4242       0.0842       3.1700       0.0370       2.6000     -22.8091       0.6800       5.1000
   2378.0493       8.5620       2.1626       0.0300      53.0015      49.0658    -999.2500    -999.2500     477.0454     417.5830    1996.9731       0.0888       3.0927       0.0375       2.6045     -23.3432       0.4959       5.1806
   2378.2017       8.5620       1.6100       0.0340      52.1800      49.9680    -999.2500    -999.2500     485.1285     420.0969    2000.5000       0.0908       3.0160       0.0380       2.6090     -23.8741       0.3120       5.2610
   2378.3540       8.5349       2.7472       0.0325      51.5256      54.2662    -999.2500    -999.2500     505.3979     432.9935    2000.5000       0.0908       3.0255       0.0395       2.6246     -24.3151       0.6737       5.4426
   2378.5066       8.5080       3.8830       0.0310      50.8720      58.5250    -999.2500    -999.2500     525.4884     445.7726    2000.5000       0.0888       3.0350       0.0410       2.6400     -24.7521       1.0350       5.6240
   2378.6589       8.5140       3.5803       0.0325      50.6109      58.1419    -999.2500    -999.2500     600.8474     469.4646    2000.5000       0.0853       3.1098       0.0410       2.6546     -25.3494       0.9379       5.8471
   2378.8113       8.5200       3.2780       0.0340      50.3500      57.7610    -999.2500    -999.2500     675.7545     493.0192    2000.4993       0.0815       3.1840       0.0410       2.6690     -25.9431       0.8410       6.0700
   2378.9636       8.5410       2.1015       0.0390      50.5456      56.1587    -999.2500    -999.2500     672.0413     540.1164    1988.9753       0.0785       3.1493       0.0405       2.6630     -26.2578       0.4673       6.0365
   2379.1162       8.5620       0.9280       0.0440      50.7410      54.5630    -999.2500    -999.2500     668.3420     587.0149    1977.5000       0.0755       3.1150       0.0400       2.6570     -26.5709       0.0940       6.0030
   2379.2686       8.5505       0.9891       0.0480      52.2736      53.6609    -999.2500    -999.2500     652.6860     584.8998    1978.1593       0.0717       2.9899       0.0395       2.6751     -26.0107       0.1140       5.8654
   2379.4209       8.5390       1.0500       0.0520      53.8050      52.7610    -999.2500    -999.2500     637.0670     582.7889    1978.8173       0.0691       2.8660       0.0390       2.6930     -25.4520       0.1340       5.7280
   2379.5732       8.5415       1.4279       0.0580      53.4176      52.2038    -999.2500    -999.2500     612.9418     567.1365    1982.1483       0.0690       2.7410       0.0385       2.6332     -25.5774       0.2570       5.6385
   2379.7256       8.5440       1.8050       0.0640      53.0310      51.6460    -999.2500    -999.2500     588.7888     551.4676    1985.4823       0.0718       2.6170       0.0380       2.5740     -25.7031       0.3800       5.5490
   2379.8782       8.5730       1.7319       0.0766      51.3942      50.4967    -999.2500    -999.2500     515.3682     501.0496    1988.9951       0.0772       2.7857       0.0380       2.5815     -26.1110       0.3585       5.4065
   2380.0305       8.6020       1.6590       0.0890      49.7610      49.3500    -999.2500    -999.2500     442.1175     450.7454    1992.5000       0.0814       2.9530       0.0380       2.5890     -26.5177       0.3370       5.2640
   2380.1829       8.5975       1.8817       0.0850      48.5327      49.5642    -999.2500    -999.2500     445.6781     456.6230    1992.5000       0.0819       2.9440       0.0375       2.6392     -25.3282       0.4110       5.2850
   2380.3352       8.5930       2.1040       0.0810      47.3070      49.7770    -999.2500    -999.2500     449.2165     462.4619    1992.5002       0.0794       2.9350       0.0370       2.6890     -24.1470       0.4850       5.3060
   2380.4878       8.5113       1.6731       0.0564      45.6969      50.9781    -999.2500    -999.2500     469.3214     490.1582    1996.5105       0.0748       2.8823       0.0370       2.6860     -24.1801       0.3400       5.4385
   2380.6401       8.4300       1.2430       0.0320      44.0900      52.1730    -999.2500    -999.2500     489.3284     517.7148    2000.4996       0.0700       2.8300       0.0370       2.6830     -24.2130       0.1950       5.5710
   2380.7925       8.4845       1.3286       0.0330      44.3362      55.4459    -999.2500    -999.2500     548.6693     574.5559    1994.9946       0.0664       2.8320       0.0380       2.6890     -24.1204       0.2215       5.9593
