#------------------------------------------------------------------------------
#
#   Created by  : [OpenWorks] Log Export Utility (LEXP)
#   Created on  : 2016-05-19 10:54:47
#   Project     : CANT971
#   User        : R5K
#   Interpreter : PEP
#
#------------------------------------------------------------------------------
~VERSION INFORMATION
VERS. 2.0 : CWLS Log ASCII Standard - version 2.0
WRAP.  NO : One line per depth step
~WELL INFORMATION
#MNEMONIC   .UNIT                                           VALUE :DESCRIPTION
#------------------------------------------------------------------------------
STRT        .M                                          1271.4729 :START DEPTH
STOP        .M                                          2683.3064 :STOP DEPTH
STEP        .M                                             0.1524 :STEP
NULL        .                                           -999.2500 :NULL VALUE
COMP        .                                   PEMEX EXPL & PROD :COMPANY
WELL        .                                                269D :WELL
FLD         .                                           CANTARELL :FIELD
LOC         .                                             UNKNOWN :LOCATION
CNTY        .                                      CD. DEL CARMEN :COUNTY
STAT        .                                            CAMPECHE :STATE
CTRY        .                                              MEXICO :COUNTRY
SRVC        .                                             UNKNOWN :SERVICE COMPANY
DATE        .                                             UNKNOWN :LOG DATE
UWI         .                                          3060000596 :UNIQUE WELL ID
XCOORD      .                                       597309.970000 :SURFACE X
YCOORD      .                                      2143042.390000 :SURFACE Y
LAT         .                                           19.380314 :LATITUDE
LON         .                                          -92.073359 :LONGITUDE
ELEV        .M                                            27.7000 :SURFACE ELEV
ELEV_TYPE   .                                                  KB :ELEV TYPE
~CURVE INFORMATION
#MNEMONIC.UNIT        API CODE       : CURVE DESCRIPTION
#------------------------------------------------------------------------------
DEPTH    .M                          : Measured Depth
CALI     .inches      UNKNOWN        : CALI:Import:rC:NONE:v0 (auto-composite)
CGR      .API         UNKNOWN        : CGR:Import:rC:NONE:v0 (auto-composite)
DRHO     .g/cm3       UNKNOWN        : DRHO:Import:rC:NONE:v0 (auto-composite)
DT       .us/ft       UNKNOWN        : DT:Import:rC:NONE:v0 (auto-composite)
GR       .API         UNKNOWN        : GR:Import:rC:NONE:v0 (auto-composite)
ILD      .ohm.m       UNKNOWN        : ILD:Import:rC:NONE:v0 (auto-composite)
ILM      .ohm.m       UNKNOWN        : ILM:Import:rC:NONE:v0 (auto-composite)
LLD      .ohm.m       UNKNOWN        : LLD:Import:rC:NONE:v0 (auto-composite)
LLS      .ohm.m       UNKNOWN        : LLS:Import:rC:NONE:v0 (auto-composite)
MSFL     .ohm.m       UNKNOWN        : MSFL:Import:rC:NONE:v0 (auto-composite)
NPHI     .v/v_decimal UNKNOWN        : NPHI:Import:rC:NONE:v0 (auto-composite)
PEF      .b/elec      UNKNOWN        : PEF:Import:rC:NONE:v0 (auto-composite)
POTA     .wtpercent   UNKNOWN        : POTA:Import:rC:NONE:v0 (auto-composite)
RHOB     .g/cm3       UNKNOWN        : RHOB:Import:rC:NONE:v0 (auto-composite)
SP       .mV          UNKNOWN        : SP:Import:rC:NONE:v0 (auto-composite)
THOR     .ppm         UNKNOWN        : THOR:Import:rC:NONE:v0 (auto-composite)
URAN     .ppm         UNKNOWN        : URAN:Import:rC:NONE:v0 (auto-composite)
~A     DEPTH         CALI          CGR         DRHO           DT           GR          ILD          ILM          LLD          LLS         MSFL         NPHI          PEF         POTA         RHOB           SP         THOR         URAN
# ...
   2679.6489       6.6870    -999.2500       0.1290      61.7000      43.0743    -999.2500    -999.2500       6.5520       5.3360       1.3480       0.1472       4.7750       0.0000       2.5300     -44.2677       0.0000       0.0000
   2679.8013       6.6870    -999.2500       0.1295    -999.2500      38.3621    -999.2500    -999.2500       6.6100       5.3500       1.3480       0.1555       4.6567       0.0000       2.5310     -41.8337       0.0000       0.0000
   2679.9536       6.6870    -999.2500       0.1300    -999.2500      33.6437    -999.2500    -999.2500       6.6680       5.3640       1.3480       0.1602       4.5390       0.0000       2.5320     -39.3980       0.0000       0.0000
   2680.1062       6.6810    -999.2500       0.1320    -999.2500      32.0202    -999.2500    -999.2500       6.6540       5.3440       1.3480       0.1531       4.6684       0.0000       2.5345     -47.1881       0.0000       0.0000
   2680.2585       6.6750    -999.2500       0.1340    -999.2500      30.4002    -999.2500    -999.2500       6.6400       5.3240       1.3480       0.1428       4.7970       0.0000       2.5370     -54.9621       0.0000       0.0000
   2680.4109       6.6810    -999.2500       0.1330    -999.2500      33.2077    -999.2500    -999.2500       6.6079       5.3325       1.3480       0.1351       4.7865       0.0000       2.5360     -48.1596       0.0000       0.0000
   2680.5632       6.6870    -999.2500       0.1320    -999.2500      35.9976    -999.2500    -999.2500       6.5760       5.3410       1.3480       0.1313       4.7760       0.0000       2.5350     -41.4025       0.0000       0.0000
   2680.7158       6.6755    -999.2500       0.1300    -999.2500      33.5565    -999.2500    -999.2500       6.5254       5.3310       1.3480       0.1381       4.7218       0.0000       2.5310     -45.0998       0.0000       0.0000
   2680.8682       6.6640    -999.2500       0.1280    -999.2500      31.1263    -999.2500    -999.2500       6.4750       5.3210       1.3480       0.1470       4.6680       0.0000       2.5270     -48.7792       0.0000       0.0000
   2681.0205       6.6525    -999.2500       0.1270    -999.2500      27.4278    -999.2500    -999.2500       6.4885       5.3270       1.3480       0.1519       4.8109       0.0000       2.5270     -50.0951       0.0000       0.0000
   2681.1729       6.6410    -999.2500       0.1260    -999.2500      23.7345    -999.2500    -999.2500       6.5020       5.3330       1.3480       0.1531       4.9530       0.0000       2.5270     -51.4086       0.0000       0.0000
   2681.3252       6.6640    -999.2500       0.1245    -999.2500      22.9044    -999.2500    -999.2500       6.5325       5.3315       1.3480       0.1467       4.9440       0.0000       2.5245     -48.2561       0.0000       0.0000
   2681.4778       6.6870    -999.2500       0.1230    -999.2500      22.0731    -999.2500    -999.2500       6.5630       5.3300       1.3480       0.1431       4.9350       0.0000       2.5220     -45.0984       0.0000       0.0000
   2681.6301       6.6525    -999.2500       0.1240    -999.2500      23.7862    -999.2500    -999.2500       6.6641       5.3235       1.3480       0.1576       4.9200       0.0000       2.5240     -48.0095       0.0000       0.0000
   2681.7825       6.6180    -999.2500       0.1250    -999.2500      25.4948    -999.2500    -999.2500       6.7650       5.3170       1.3480    -999.2500       4.9050       0.0000       2.5260     -50.9119       0.0000       0.0000
   2681.9348       6.6526    -999.2500       0.1280    -999.2500      26.4188    -999.2500    -999.2500       6.6435       5.3260       1.3480    -999.2500       4.8428       0.0000       2.5330     -49.9428       0.0000       0.0000
   2682.0874       6.6870    -999.2500       0.1310    -999.2500      27.3359    -999.2500    -999.2500       6.5230       5.3350       1.3480    -999.2500       4.7810       0.0000       2.5400     -48.9806       0.0000       0.0000
   2682.2397       6.6755    -999.2500       0.1295    -999.2500      28.3765    -999.2500    -999.2500       6.5380       5.3500       1.3480    -999.2500       4.8437       0.0000       2.5390     -46.3196       0.0000       0.0000
   2682.3921       6.6640    -999.2500       0.1280    -999.2500      29.4129    -999.2500    -999.2500       6.5530       5.3650       1.3480    -999.2500       4.9060       0.0000       2.5380     -43.6702       0.0000       0.0000
   2682.5444       6.6755    -999.2500       0.1280    -999.2500      33.4650    -999.2500    -999.2500       6.5770       5.3655       1.3480    -999.2500       4.8338       0.0000       2.5330     -44.8607       0.0000       0.0000
   2682.6970    -999.2500    -999.2500    -999.2500    -999.2500    -999.2500    -999.2500    -999.2500    -999.2500    -999.2500    -999.2500    -999.2500    -999.2500       0.0000    -999.2500    -999.2500       0.0000       0.0000
   2682.8494    -999.2500    -999.2500    -999.2500    -999.2500    -999.2500    -999.2500    -999.2500    -999.2500    -999.2500    -999.2500    -999.2500    -999.2500       0.0000    -999.2500    -999.2500       0.0000       0.0000
   2683.0017    -999.2500    -999.2500    -999.2500    -999.2500    -999.2500    -999.2500    -999.2500    -999.2500    -999.2500    -999.2500    -999.2500    -999.2500       0.0000    -999.2500    -999.2500       0.0000       0.0000
   2683.1541    -999.2500    -999.2500    -999.2500    -999.2500    -999.2500    -999.2500    -999.2500    -999.2500    -999.2500    -999.2500    -999.2500    -999.2500       0.0000    -999.2500    -999.2500       0.0000       0.0000
   2683.3064    -999.2500    -999.2500    -999.2500    -999.2500    -999.2500    -999.2500    -999.2500    -999.2500    -999.2500    -999.2500    -999.2500    -999.2500       0.0000    -999.2500    -999.2500       0.0000       0.0000
