#------------------------------------------------------------------------------
#
#   Created by  : [OpenWorks] Log Export Utility (LEXP)
#   Created on  : 2016-05-19 10:54:47
#   Project     : CANT971
#   User        : R5K
#   Interpreter : PEP
#
#------------------------------------------------------------------------------
~VERSION INFORMATION
VERS. 2.0 : CWLS Log ASCII Standard - version 2.0
WRAP.  NO : One line per depth step
~WELL INFORMATION
#MNEMONIC   .UNIT                                           VALUE :DESCRIPTION
#------------------------------------------------------------------------------
STRT        .M                                          1271.4729 :START DEPTH
STOP        .M                                          2683.3064 :STOP DEPTH
STEP        .M                                             0.1524 :STEP
NULL        .                                           -999.2500 :NULL VALUE
COMP        .                                   PEMEX EXPL & PROD :COMPANY
WELL        .                                                269D :WELL
FLD         .                                           CANTARELL :FIELD
LOC         .                                             UNKNOWN :LOCATION
CNTY        .                                      CD. DEL CARMEN :COUNTY
STAT        .                                            CAMPECHE :STATE
CTRY        .                                              MEXICO :COUNTRY
SRVC        .                                             UNKNOWN :SERVICE COMPANY
DATE        .                                             UNKNOWN :LOG DATE
UWI         .                                          3060000596 :UNIQUE WELL ID
XCOORD      .                                       597309.970000 :SURFACE X
YCOORD      .                                      2143042.390000 :SURFACE Y
LAT         .                                           19.380314 :LATITUDE
LON         .                                          -92.073359 :LONGITUDE
ELEV        .M                                            27.7000 :SURFACE ELEV
ELEV_TYPE   .                                                  KB :ELEV TYPE
~CURVE INFORMATION
#MNEMONIC.UNIT        API CODE       : CURVE DESCRIPTION
#------------------------------------------------------------------------------
DEPTH    .M                          : Measured Depth
CALI     .inches      UNKNOWN        : CALI:Import:rC:NONE:v0 (auto-composite)
CGR      .API         UNKNOWN        : CGR:Import:rC:NONE:v0 (auto-composite)
DRHO     .g/cm3       UNKNOWN        : DRHO:Import:rC:NONE:v0 (auto-composite)
DT       .us/ft       UNKNOWN        : DT:Import:rC:NONE:v0 (auto-composite)
GR       .API         UNKNOWN        : GR:Import:rC:NONE:v0 (auto-composite)
ILD      .ohm.m       UNKNOWN        : ILD:Import:rC:NONE:v0 (auto-composite)
ILM      .ohm.m       UNKNOWN        : ILM:Import:rC:NONE:v0 (auto-composite)
LLD      .ohm.m       UNKNOWN        : LLD:Import:rC:NONE:v0 (auto-composite)
LLS      .ohm.m       UNKNOWN        : LLS:Import:rC:NONE:v0 (auto-composite)
MSFL     .ohm.m       UNKNOWN        : MSFL:Import:rC:NONE:v0 (auto-composite)
NPHI     .v/v_decimal UNKNOWN        : NPHI:Import:rC:NONE:v0 (auto-composite)
PEF      .b/elec      UNKNOWN        : PEF:Import:rC:NONE:v0 (auto-composite)
POTA     .wtpercent   UNKNOWN        : POTA:Import:rC:NONE:v0 (auto-composite)
RHOB     .g/cm3       UNKNOWN        : RHOB:Import:rC:NONE:v0 (auto-composite)
SP       .mV          UNKNOWN        : SP:Import:rC:NONE:v0 (auto-composite)
THOR     .ppm         UNKNOWN        : THOR:Import:rC:NONE:v0 (auto-composite)
URAN     .ppm         UNKNOWN        : URAN:Import:rC:NONE:v0 (auto-composite)
~A     DEPTH         CALI          CGR         DRHO           DT           GR          ILD          ILM          LLD          LLS         MSFL         NPHI          PEF         POTA         RHOB           SP         THOR         URAN
# ...
   2652.9790       8.7386       6.4459       0.0721      74.1652      31.1335    -999.2500    -999.2500      51.2254      28.1740       3.0240       0.1409       2.9601       0.2995       2.2965     -40.8489       0.6387       2.6874
   2653.1313       8.7800       7.0070       0.1030      72.7200      31.1410    -999.2500    -999.2500      30.6634      17.4768       2.8710       0.1820       2.6890       0.3240       2.3010     -41.3790       0.8420       2.6010
   2653.2837       8.9112       8.7021       0.1301      67.7729      31.2056    -999.2500    -999.2500      23.3185      13.4533       2.8024       0.2549       2.8626       0.4026       2.3321     -41.0980       0.7905       2.4549
   2653.4360       9.0420      10.3890       0.1570      62.8340      31.2700    -999.2500    -999.2500      15.9976       9.4433       2.7340       0.3182       3.0350       0.4810       2.3630     -40.8179       0.7390       2.3090
   2653.5884       9.1381      11.8540       0.1821      63.2088      31.4376    -999.2500    -999.2500      11.3826       6.8607       2.4558       0.3293       2.9843       0.5431       2.4583     -39.9748       0.7891       2.1823
   2653.7410       9.2340      13.3120       0.2070      63.5830      31.6050    -999.2500    -999.2500       6.7751       4.2822       2.1780       0.3095       2.9340       0.6050       2.5530     -39.1333       0.8390       2.0560
   2653.8933       9.1900      13.0900       0.1985      65.8216      32.0009    -999.2500    -999.2500       7.4480       4.7000       1.6276       0.2582       2.9425       0.5875       2.5229     -40.9166       0.9922       2.0780
   2654.0457       9.1460      12.8690       0.1900      68.0570      32.3969    -999.2500    -999.2500       8.1215       5.1180       1.0770       0.2101       2.9510       0.5700       2.4930     -42.7000       1.1450       2.1000
   2654.1980       8.9988      13.4267       0.1599      67.8233      32.2192    -999.2500    -999.2500      13.7556       8.9758       1.5472       0.1971       2.9881       0.7032       2.4930     -42.4201       1.0999       2.0459
   2654.3506       8.8520      13.9820       0.1300      67.5900      32.0420    -999.2500    -999.2500      19.3730      12.8227       2.0160       0.1998       3.0250       0.8360       2.4930     -42.1409       1.0550       1.9920
   2654.5029       8.8520      15.8491       0.0879      65.9270      32.1027    -999.2500    -999.2500      19.2261      12.6710       1.8390       0.2107       3.0802       0.8315       2.4559     -41.6740       1.2202       1.7952
   2654.6553       8.8520      17.7080       0.0460      64.2660      32.1630    -999.2500    -999.2500      19.0800      12.5200       1.6630       0.2208       3.1350       0.8270       2.4190     -41.2099       1.3850       1.5990
   2654.8076       8.7718      17.5587       0.0485      60.7552      32.5617    -999.2500    -999.2500      18.5534      11.8652       3.0864       0.2224       3.2834       0.8090       2.4360     -40.3952       1.3770       1.6476
   2654.9602       8.6920      17.4100       0.0510      57.2480      32.9590    -999.2500    -999.2500      18.0291      11.2131       4.5039       0.2216       3.4310       0.7910       2.4530     -39.5840       1.3690       1.6960
   2655.1125       8.4822      16.7822       0.0485      54.8019      33.6818    -999.2500    -999.2500      18.6744      11.5509       3.9803       0.2224       3.7459       0.7645       2.5137     -39.8038       1.3380       1.8477
   2655.2649       8.2730      16.1570       0.0460      52.3580      34.4029    -999.2500    -999.2500      19.3183      11.8880       3.4580       0.2195       4.0590       0.7380       2.5740     -40.0230       1.3070       1.9990
   2655.4172       8.2730      15.3048       0.0254      51.0160      34.2101    -999.2500    -999.2500      22.7224      13.6547       2.3626       0.2054       4.2701       0.6985       2.6171     -40.3069       1.2479       2.0981
   2655.5696       8.2730      14.4560       0.0050      49.6750      34.0170    -999.2500    -999.2500      26.1303      15.4229       1.2661       0.1732       4.4800       0.6590       2.6600     -40.5910       1.1890       2.1970
   2655.7222       8.2730      13.5518       0.0050      49.1303      34.2518    -999.2500    -999.2500      41.4942      24.1807       2.7536       0.1031       4.4609       0.6365       2.6826     -40.7487       1.0809       2.3692
   2655.8745       8.2730      12.6510       0.0050      48.5860      34.4860    -999.2500    -999.2500      56.8219      32.9193       4.2379       0.0383       4.4420       0.6140       2.7050     -40.9060       0.9730       2.5410
   2656.0269       8.2610      12.8399       0.0080      48.5870      35.1683    -999.2500    -999.2500      56.0146      32.8181       3.9179       0.0215       4.3848       0.6295       2.7035     -41.1900       0.8263       2.5230
   2656.1792       8.2490      13.0280       0.0110      48.5880      35.8459    -999.2500    -999.2500      55.2130      32.7170       3.6000       0.0218       4.3280       0.6450       2.7020     -41.4720       0.6800       2.5050
   2656.3318       8.2064      14.1736       0.0296      48.6340      35.8144    -999.2500    -999.2500      55.3408      32.3706       3.6807       0.0237       4.4615       0.7046       2.6960     -41.1281       0.7971       2.4369
   2656.4841       8.1640      15.3150       0.0480      48.6800      35.7830    -999.2500    -999.2500      55.4678      32.0260       3.7610       0.0254       4.5940       0.7640       2.6900     -40.7861       0.9140       2.3690
   2656.6365       8.1955      14.4338       0.0475      48.9402      35.4747    -999.2500    -999.2500      52.9334      30.4186       3.9837       0.0259       4.5840       0.7420       2.6910     -41.3501       0.8740       2.3094
   2656.7888       8.2270      13.5570       0.0470      49.2000      35.1670    -999.2500    -999.2500      50.4034      28.8141       4.2060       0.0257       4.5740       0.7200       2.6920     -41.9130       0.8340       2.2500
   2656.9414       8.2150      13.6467       0.0410      49.7930      34.3862    -999.2500    -999.2500      43.7612      25.1180       4.3619       0.0249       4.5003       0.7265       2.6709     -42.2588       0.7178       2.2250
   2657.0938       8.2030      13.7360       0.0350      50.3850      33.6041    -999.2500    -999.2500      37.1100      21.4163       4.5180       0.0243       4.4270       0.7330       2.6500     -42.6050       0.6020       2.2000
   2657.2461       8.2120      14.1710       0.0375      51.0741      34.2840    -999.2500    -999.2500      37.5242      21.7080       5.0313       0.0243       4.2871       0.7711       2.6520     -42.8269       0.3581       2.2446
   2657.3984       8.2210      14.6040       0.0400      51.7620      34.9619    -999.2500    -999.2500      37.9371      21.9990       5.5430       0.0254       4.1480       0.8090       2.6540     -43.0480       0.1150       2.2890
   2657.5508       8.2471      16.4027       0.0465      51.5734      38.0713    -999.2500    -999.2500      39.2347      22.9120       5.4672       0.0287       3.8084       0.9277       2.6751     -42.7664       0.2061       2.5118
   2657.7034       8.2730      18.1930       0.0530      51.3850      41.1566    -999.2500    -999.2500      40.5220      23.8179       5.3920       0.0316       3.4710       1.0460       2.6960     -42.4869       0.2970       2.7340
   2657.8557       8.2339      22.4788       0.0319      50.7100      46.0897    -999.2500    -999.2500      40.3501      23.7032       4.6915       0.0312       4.0418       1.2543       2.6830     -42.0810       0.5459       2.7290
   2658.0081       8.1950      26.7450       0.0110      50.0360      51.0004    -999.2500    -999.2500      40.1792      23.5890       3.9941       0.0291       4.6090       1.4620       2.6700     -41.6771       0.7940       2.7240
   2658.1604       8.1950      24.8272       0.0150      49.1144      49.0136    -999.2500    -999.2500      42.2210      24.4054       4.1336       0.0254       4.5814       1.3453       2.6730     -42.1159       0.8946       2.6604
