#------------------------------------------------------------------------------
#
#   Created by  : [OpenWorks] Log Export Utility (LEXP)
#   Created on  : 2016-05-19 10:54:47
#   Project     : CANT971
#   User        : R5K
#   Interpreter : PEP
#
#------------------------------------------------------------------------------
~VERSION INFORMATION
VERS. 2.0 : CWLS Log ASCII Standard - version 2.0
WRAP.  NO : One line per depth step
~WELL INFORMATION
#MNEMONIC   .UNIT                                           VALUE :DESCRIPTION
#------------------------------------------------------------------------------
STRT        .M                                          1271.4729 :START DEPTH
STOP        .M                                          2683.3064 :STOP DEPTH
STEP        .M                                             0.1524 :STEP
NULL        .                                           -999.2500 :NULL VALUE
COMP        .                                   PEMEX EXPL & PROD :COMPANY
WELL        .                                                269D :WELL
FLD         .                                           CANTARELL :FIELD
LOC         .                                             UNKNOWN :LOCATION
CNTY        .                                      CD. DEL CARMEN :COUNTY
STAT        .                                            CAMPECHE :STATE
CTRY        .                                              MEXICO :COUNTRY
SRVC        .                                             UNKNOWN :SERVICE COMPANY
DATE        .                                             UNKNOWN :LOG DATE
UWI         .                                          3060000596 :UNIQUE WELL ID
XCOORD      .                                       597309.970000 :SURFACE X
YCOORD      .                                      2143042.390000 :SURFACE Y
LAT         .                                           19.380314 :LATITUDE
LON         .                                          -92.073359 :LONGITUDE
ELEV        .M                                            27.7000 :SURFACE ELEV
ELEV_TYPE   .                                                  KB :ELEV TYPE
~CURVE INFORMATION
#MNEMONIC.UNIT        API CODE       : CURVE DESCRIPTION
#------------------------------------------------------------------------------
DEPTH    .M                          : Measured Depth
CALI     .inches      UNKNOWN        : CALI:Import:rC:NONE:v0 (auto-composite)
CGR      .API         UNKNOWN        : CGR:Import:rC:NONE:v0 (auto-composite)
DRHO     .g/cm3       UNKNOWN        : DRHO:Import:rC:NONE:v0 (auto-composite)
DT       .us/ft       UNKNOWN        : DT:Import:rC:NONE:v0 (auto-composite)
GR       .API         UNKNOWN        : GR:Import:rC:NONE:v0 (auto-composite)
ILD      .ohm.m       UNKNOWN        : ILD:Import:rC:NONE:v0 (auto-composite)
ILM      .ohm.m       UNKNOWN        : ILM:Import:rC:NONE:v0 (auto-composite)
LLD      .ohm.m       UNKNOWN        : LLD:Import:rC:NONE:v0 (auto-composite)
LLS      .ohm.m       UNKNOWN        : LLS:Import:rC:NONE:v0 (auto-composite)
MSFL     .ohm.m       UNKNOWN        : MSFL:Import:rC:NONE:v0 (auto-composite)
NPHI     .v/v_decimal UNKNOWN        : NPHI:Import:rC:NONE:v0 (auto-composite)
PEF      .b/elec      UNKNOWN        : PEF:Import:rC:NONE:v0 (auto-composite)
POTA     .wtpercent   UNKNOWN        : POTA:Import:rC:NONE:v0 (auto-composite)
RHOB     .g/cm3       UNKNOWN        : RHOB:Import:rC:NONE:v0 (auto-composite)
SP       .mV          UNKNOWN        : SP:Import:rC:NONE:v0 (auto-composite)
THOR     .ppm         UNKNOWN        : THOR:Import:rC:NONE:v0 (auto-composite)
URAN     .ppm         UNKNOWN        : URAN:Import:rC:NONE:v0 (auto-composite)
~A     DEPTH         CALI          CGR         DRHO           DT           GR          ILD          ILM          LLD          LLS         MSFL         NPHI          PEF         POTA         RHOB           SP         THOR         URAN
# ...
   2540.9648       9.7110       1.2230       0.0230      49.6180      12.3320    -999.2500    -999.2500    1480.3251      33.6500       0.5040       0.0983       2.9470       0.0440       2.6090     -39.1921       0.1310       1.2310
   2541.1172       9.7615       1.6727       0.0290      47.7132      12.1372    -999.2500    -999.2500    1619.3910      36.3296       0.4605       0.1002       2.9631       0.0625       2.6271     -39.7866       0.1915       1.1625
   2541.2698       9.8120       2.1210       0.0350      45.8110      11.9420    -999.2500    -999.2500    1758.7134      39.0140       0.4170       0.1005       2.9790       0.0810       2.6450     -40.3821       0.2520       1.0940
   2541.4221       9.6538       2.6973       0.0345      44.9019      12.0186    -999.2500    -999.2500    1979.8729      45.3696       0.4736       0.0944       3.0899       0.1040       2.6821     -41.1657       0.3130       1.0340
   2541.5745       9.4960       3.2720       0.0340      43.9940      12.0950    -999.2500    -999.2500    2200.4397      51.7069       0.5300       0.0828       3.2000       0.1270       2.7190     -41.9471       0.3740       0.9740
   2541.7268       9.4589       3.0522       0.0240      44.1116      11.9369    -999.2500    -999.2500    2901.6833      65.0271       0.5571       0.0664       3.3210       0.1105       2.7351     -42.4204       0.3965       0.9800
   2541.8794       9.4220       2.8330       0.0140      44.2290      11.7800    -999.2500    -999.2500    3597.6404      78.2468       0.5840       0.0516       3.4410       0.0940       2.7510     -42.8899       0.4190       0.9860
   2542.0317       9.4496       2.8550       0.0085      44.6632      11.6011    -999.2500    -999.2500    4325.3364     107.4924       0.5715       0.0429       3.3361       0.0960       2.7435     -42.2350       0.4060       0.9770
   2542.1841       9.4770       2.8770       0.0030      45.0970      11.4230    -999.2500    -999.2500    5049.8408     136.6145       0.5590       0.0402       3.2320       0.0980       2.7360     -41.5828       0.3930       0.9680
   2542.3364       9.4240       2.6803       0.0055      45.4677      11.1179    -999.2500    -999.2500    4673.3467     130.0291       0.5875       0.0431       3.2626       0.0835       2.7325     -40.5843       0.4160       0.9410
   2542.4890       9.3710       2.4840       0.0080      45.8380      10.8130    -999.2500    -999.2500    4297.1982     123.4491       0.6160       0.0476       3.2930       0.0690       2.7290     -39.5868       0.4390       0.9140
   2542.6414       9.3259       2.9945       0.0140      45.9641      10.7403    -999.2500    -999.2500    3923.8867     107.9454       0.6732       0.0508       3.2508       0.0885       2.7240     -38.5835       0.4826       0.8534
   2542.7937       9.2810       3.5030       0.0200      46.0900      10.6680    -999.2500    -999.2500    3552.7134      92.5283       0.7300       0.0531       3.2090       0.1080       2.7190     -37.5860       0.5260       0.7930
   2542.9460       9.3006       3.0065       0.0220      46.2971      10.4469    -999.2500    -999.2500    3667.2593      92.6205       0.6737       0.0547       3.1689       0.1125       2.7240     -37.6182       0.3643       0.8205
   2543.0984       9.3200       2.5120       0.0240      46.5040      10.2280    -999.2500    -999.2500    3780.7717      92.7120       0.6180       0.0559       3.1290       0.1170       2.7290     -37.6500       0.2030       0.8480
   2543.2510       9.2969       2.6558       0.0190      46.2864       9.9280    -999.2500    -999.2500    5258.9854     131.7448       0.6185       0.0569       3.0427       0.1115       2.7165     -37.4016       0.2641       0.8040
   2543.4033       9.2740       2.7990       0.0140      46.0690       9.6300    -999.2500    -999.2500    6727.1528     170.5083       0.6190       0.0567       2.9570       0.1060       2.7040     -37.1551       0.3250       0.7600
   2543.5557       9.2424       2.6182       0.0170      45.4614       9.6621    -999.2500    -999.2500    9953.4258     273.2881       0.6906       0.0549       2.9871       0.0855       2.7125     -37.4692       0.3931       0.7790
   2543.7080       9.2110       2.4380       0.0200      44.8550       9.6940    -999.2500    -999.2500   13167.5957     375.6981       0.7620       0.0504       3.0170       0.0650       2.7210     -37.7821       0.4610       0.7980
   2543.8606       9.2460       2.1605       0.0225      44.6368       9.8897    -999.2500    -999.2500   11864.3154     402.1545       0.7535       0.0422       3.1349       0.0540       2.7345     -38.2520       0.3469       0.8511
   2544.0129       9.2810       1.8840       0.0250      44.4190      10.0850    -999.2500    -999.2500   10563.4678     428.5595       0.7450       0.0355       3.2520       0.0430       2.7480     -38.7210       0.2330       0.9040
   2544.1653       9.2011       2.4505       0.0300      44.8579      10.3408    -999.2500    -999.2500    8979.0674     373.6641       0.7140       0.0341       3.2410       0.0850       2.7465     -38.9423       0.2670       0.8765
   2544.3176       9.1210       3.0150       0.0350      45.2960      10.5970    -999.2500    -999.2500    7392.3374     318.6881       0.6830       0.0351       3.2300       0.1270       2.7450     -39.1641       0.3010       0.8490
   2544.4702       9.0564       2.6599       0.0395      45.9575      10.3448    -999.2500    -999.2500    5290.1719     238.2530       0.7215       0.0364       3.2245       0.1165       2.7350     -39.9142       0.2695       0.8340
   2544.6226       8.9920       2.3060       0.0440      46.6180      10.0930    -999.2500    -999.2500    3191.6260     157.9496       0.7600       0.0377       3.2190       0.1060       2.7250     -40.6631       0.2380       0.8190
   2544.7749       9.0116       2.4397       0.0520      46.5339       9.9616    -999.2500    -999.2500    2733.2554     145.6470       0.9265       0.0394       3.2787       0.0920       2.7255     -41.0744       0.2950       0.8255
   2544.9272       9.0310       2.5730       0.0600      46.4500       9.8310    -999.2500    -999.2500    2277.8059     133.4232       1.0920       0.0423       3.3380       0.0780       2.7260     -41.4829       0.3520       0.8320
   2545.0796       8.9413       2.7247       0.0590      45.9727      10.1793    -999.2500    -999.2500    2168.0667     127.5010       0.9221       0.0472       3.2050       0.0965       2.7155     -41.1401       0.3155       0.8595
   2545.2322       8.8520       2.8760       0.0580      45.4960      10.5260    -999.2500    -999.2500    2058.7937     121.6061       0.7530       0.0511       3.0730       0.1150       2.7050     -40.7989       0.2790       0.8870
   2545.3845       8.8885       2.2100       0.0600      44.4228      10.7176    -999.2500    -999.2500    1587.0558     100.1088       0.7895       0.0522       3.0098       0.0910       2.7120     -40.2070       0.1934       0.9645
   2545.5369       8.9250       1.5460       0.0620      43.3510      10.9090    -999.2500    -999.2500    1115.9601      78.6384       0.8260       0.0504       2.9470       0.0670       2.7190     -39.6160       0.1080       1.0420
   2545.6892       9.0289       1.1710       0.0700      42.5540      11.3655    -999.2500    -999.2500    1117.2787      80.5855       1.0008       0.0456       2.9284       0.0465       2.7411     -39.3668       0.1410       1.1211
   2545.8418       9.1330       0.7970       0.0780      41.7580      11.8230    -999.2500    -999.2500    1118.6338      82.5370       1.1760       0.0396       2.9100       0.0260       2.7630     -39.1170       0.1740       1.2000
   2545.9941       9.1295       0.9082       0.0695      41.5594      11.5682    -999.2500    -999.2500    1456.0585     115.3628       1.1650       0.0337       2.9752       0.0220       2.7725     -38.9938       0.2075       1.1725
   2546.1465       9.1260       1.0190       0.0610      41.3610      11.3140    -999.2500    -999.2500    1792.5768     148.1033       1.1540       0.0288       3.0400       0.0180       2.7820     -38.8710       0.2410       1.1450
