#------------------------------------------------------------------------------
#
#   Created by  : [OpenWorks] Log Export Utility (LEXP)
#   Created on  : 2016-05-18 11:18:07
#   Project     : CANT971
#   User        : R5K
#   Interpreter : PEP
#
#------------------------------------------------------------------------------
~VERSION INFORMATION
VERS. 2.0 : CWLS Log ASCII Standard - version 2.0
WRAP.  NO : One line per depth step
~WELL INFORMATION
#MNEMONIC   .UNIT                                           VALUE :DESCRIPTION
#------------------------------------------------------------------------------
STRT        .M                                            51.3586 :START DEPTH
STOP        .M                                          2955.0359 :STOP DEPTH
STEP        .M                                             0.1524 :STEP
NULL        .                                           -999.2500 :NULL VALUE
COMP        .                                   PEMEX EXPL & PROD :COMPANY
WELL        .                                                 283 :WELL
FLD         .                                           CANTARELL :FIELD
LOC         .                                             UNKNOWN :LOCATION
CNTY        .                                      CD. DEL CARMEN :COUNTY
STAT        .                                            CAMPECHE :STATE
CTRY        .                                              MEXICO :COUNTRY
SRVC        .                                             UNKNOWN :SERVICE COMPANY
DATE        .                                             UNKNOWN :LOG DATE
UWI         .                                          3060000202 :UNIQUE WELL ID
XCOORD      .                                       597306.720000 :SURFACE X
YCOORD      .                                      2143045.610000 :SURFACE Y
LAT         .                                           19.380344 :LATITUDE
LON         .                                          -92.073390 :LONGITUDE
ELEV        .M                                            27.7000 :SURFACE ELEV
ELEV_TYPE   .                                                  KB :ELEV TYPE
~CURVE INFORMATION
#MNEMONIC.UNIT        API CODE       : CURVE DESCRIPTION
#------------------------------------------------------------------------------
DEPTH    .M                          : Measured Depth
CALI     .inches      UNKNOWN        : CALI:Import:rC:NONE:v0 (auto-composite)
DRHO     .g/cm3       UNKNOWN        : DRHO:Import:rC:NONE:v0 (auto-composite)
DT       .us/ft       UNKNOWN        : DT:Import:rC:NONE:v0 (auto-composite)
GR       .API         UNKNOWN        : GR:Import:rC:NONE:v0 (auto-composite)
ILD      .ohm.m       UNKNOWN        : ILD:Import:rC:NONE:v0 (auto-composite)
LLD      .ohm.m       UNKNOWN        : LLD:Import:rC:NONE:v0 (auto-composite)
LLS      .ohm.m       UNKNOWN        : LLS:Import:rC:NONE:v0 (auto-composite)
MSFL     .ohm.m       UNKNOWN        : MSFL:Import:rC:NONE:v0 (auto-composite)
NPHI     .v/v_decimal UNKNOWN        : NPHI:Import:rC:NONE:v0 (auto-composite)
RHOB     .g/cm3       UNKNOWN        : RHOB:Import:rC:NONE:v0 (auto-composite)
~A     DEPTH         CALI         DRHO           DT           GR          ILD          LLD          LLS         MSFL         NPHI         RHOB
# ...
   2799.4353    -999.2500    -999.2500    -999.2500    -999.2500    -999.2500    -999.2500    -999.2500    -999.2500    -999.2500    -999.2500
   2799.5879    -999.2500    -999.2500    -999.2500    -999.2500    -999.2500    -999.2500    -999.2500    -999.2500    -999.2500    -999.2500
   2799.7402    -999.2500    -999.2500    -999.2500    -999.2500    -999.2500    -999.2500    -999.2500    -999.2500    -999.2500    -999.2500
   2799.8926    -103.3710    -103.3710     -67.5090     100.0000    -999.2500    -999.2500       0.1860       0.1860    -999.2500    -101.6220
   2800.0449     -49.1401     -51.7023      16.7989      81.7292    -999.2500    -999.2500       0.7644       0.5012      -0.4871     -49.6786
   2800.1973       5.2100       0.1630     101.6990      63.3300    -999.2500       1.1320       1.3440       0.8170       0.1071       2.3790
   2800.3499       5.7439       0.1585     106.1780      63.9622    -999.2500       1.3951       1.6596       3.1488       0.2386       2.4414
   2800.5022       6.2790       0.1540     110.6890      64.5990    -999.2500       1.6600       1.9760       5.4860       0.2728       2.5040
   2800.6545       6.3060       0.1410     103.2446      65.0449    -999.2500       1.8822       2.0909       6.4069       0.2745       2.5015
   2800.8069       6.3330       0.1280      95.7460      65.4940    -999.2500       2.1060       2.2060       7.3300       0.2705       2.4990
   2800.9595       6.3330       0.1225      93.9442      63.6718    -999.2500       2.3949       2.4212       6.3133       0.2703       2.5190
   2801.1118       6.3330       0.1170      92.1290      61.8360    -999.2500       2.6860       2.6370       5.2940       0.2718       2.5390
   2801.2642       6.3330       0.1370      98.1367      60.9214    -999.2500       2.4956       2.7488       4.7178       0.2782       2.5230
   2801.4165       6.3330       0.1570     104.1800      60.0000    -999.2500       2.3040       2.8610       4.1400       0.2857       2.5070
   2801.5691       6.3829       0.1894      96.0595      63.0120    -999.2500       1.9934       2.4186       4.5779       0.2937       2.5255
   2801.7214       6.4330       0.2220      87.8900      66.0470    -999.2500       1.6810       1.9750       5.0170       0.3018       2.5440
   2801.8738       6.4385       0.2190      99.8964      69.1250    -999.2500       1.5210       1.7074       4.1777       0.3096       2.4981
   2802.0261       6.4440       0.2160     111.9770      72.2220    -999.2500       1.3600       1.4390       3.3360       0.3154       2.4520
   2802.1785       6.4440       0.1916     109.0547      70.8977    -999.2500       1.5135       1.5219       3.7199       0.3106       2.4455
   2802.3311       6.4440       0.1670     106.1140      69.5650    -999.2500       1.6680       1.6050       4.1050       0.3022       2.4390
   2802.4834       6.4440       0.1461     100.3620      66.7451    -999.2500       1.9511       1.7832       5.0889       0.2850       2.4665
   2802.6357       6.4440       0.1250      94.5730      63.9070    -999.2500       2.2360       1.9620       6.0760       0.2680       2.4940
   2802.7881       6.4001       0.1155      97.3469      62.5828    -999.2500       2.3446       1.9810       5.7850       0.2612       2.5125
   2802.9407       6.3560       0.1060     100.1390      61.2500    -999.2500       2.4540       2.0000       5.4930       0.2570       2.5310
   2803.0930       6.3445       0.1160     107.4835      62.2372    -999.2500       2.2377       2.1502       4.9020       0.2570       2.5155
   2803.2454       6.3330       0.1260     114.8770      63.2310    -999.2500       2.0200       2.3010       4.3090       0.2562       2.5000
   2803.3977       6.3330       0.1285     105.3624      62.1467    -999.2500       1.9761       2.1353       4.6619       0.2463       2.5080
   2803.5503       6.3330       0.1310      95.7830      61.0550    -999.2500       1.9320       1.9690       5.0160       0.2356       2.5160
   2803.7026       6.3330       0.1305      90.9488      58.7530    -999.2500       2.1473       2.0134       6.1978       0.2299       2.5410
   2803.8550       6.3330       0.1300      86.0810      56.4350    -999.2500       2.3640       2.0580       7.3840       0.2268       2.5660
   2804.0073       6.3710       0.1140      93.2397      55.0310    -999.2500       2.4656       2.2992       9.0017       0.2337       2.5810
   2804.1597       6.4090       0.0980     100.4490      53.6170    -999.2500       2.5680       2.5410      10.6230       0.2425       2.5960
   2804.3123       6.4255       0.1070      92.0746      54.4640    -999.2500       2.8570       3.0104       7.7699       0.2518       2.5805
   2804.4646       6.4420       0.1160      83.6400      55.3170    -999.2500       3.1480       3.4810       4.9100       0.2608       2.5650
   2804.6169       6.4889       0.1060      92.7696      57.7397    -999.2500       2.7893       3.2073       4.4840       0.2671       2.5510
   2804.7693       6.5360       0.0960     101.9660      60.1800    -999.2500       2.4280       2.9330       4.0570       0.2727       2.5370
   2804.9219       6.5120       0.0795      98.5507      61.7507    -999.2500       2.3045       2.8431       4.2348       0.2762       2.5245
   2805.0742       6.4880       0.0630      95.1100      63.3330    -999.2500       2.1800       2.7530       4.4130       0.2775       2.5120
   2805.2266       6.5195       0.0480      93.7495      62.0802    -999.2500       2.5978       2.3810       5.6708       0.2680       2.5040
   2805.3789       6.5510       0.0330      92.3810      60.8180    -999.2500       3.0180       2.0080       6.9320       0.2568       2.4960
   2805.5315       6.5959       0.0450     101.4340      58.2245    -999.2500       3.1910       2.2621       6.2749       0.2467       2.5040
   2805.6838       6.6410       0.0570     110.5420      55.6110    -999.2500       3.3650       2.5170       5.6160       0.2395       2.5120
   2805.8362       6.6510       0.0690     101.0908      55.2775    -999.2500       2.9299       2.9838       4.4967       0.2493       2.5190
   2805.9885       6.6610       0.0810      91.5810      54.9420    -999.2500       2.4920       3.4520       3.3740       0.2618       2.5260
   2806.1409       6.6086       0.0860      96.4242      59.4582    -999.2500       2.2049       2.8729       3.6556       0.2728       2.5040
   2806.2935       6.5560       0.0910     101.2980      64.0030    -999.2500       1.9160       2.2920       3.9380       0.2818       2.4820
   2806.4458       6.5810       0.0995      99.2516      64.7770    -999.2500       1.7331       2.0115       3.6824       0.2799       2.4975
   2806.5981       6.6060       0.1080      97.1920      65.5560    -999.2500       1.5490       1.7300       3.4260       0.2741       2.5130
   2806.7505       6.6345       0.0940      94.9693      64.8339    -999.2500       2.3005       1.7929       4.8636       0.2559       2.5380
   2806.9031       6.6630       0.0800      92.7320      64.1070    -999.2500       3.0570       1.8560       6.3060       0.2388       2.5630
   2807.0554       6.6650       0.0526     101.4582      61.3777    -999.2500       2.6708       2.4649       6.0355       0.2414       2.5675
   2807.2078       6.6670       0.0250     110.2430      58.6300    -999.2500       2.2820       3.0760       5.7640       0.2477       2.5720
   2807.3601       6.6081       0.0315     101.6987      58.1083    -999.2500       2.1813       2.7491       5.0124       0.2567       2.5635
   2807.5127       6.5490       0.0380      93.0960      57.5830    -999.2500       2.0800       2.4210       4.2580       0.2650       2.5550
   2807.6650       6.5001       0.0694      97.6337      60.6443    -999.2500       2.2459       2.1785       4.6807       0.2654       2.5430
   2807.8174       6.4510       0.1010     102.2030      63.7270    -999.2500       2.4130       1.9350       5.1050       0.2654       2.5310
