#------------------------------------------------------------------------------
#
#   Created by  : [OpenWorks] Log Export Utility (LEXP)
#   Created on  : 2016-05-18 11:18:07
#   Project     : CANT971
#   User        : R5K
#   Interpreter : PEP
#
#------------------------------------------------------------------------------
~VERSION INFORMATION
VERS. 2.0 : CWLS Log ASCII Standard - version 2.0
WRAP.  NO : One line per depth step
~WELL INFORMATION
#MNEMONIC   .UNIT                                           VALUE :DESCRIPTION
#------------------------------------------------------------------------------
STRT        .M                                            51.3586 :START DEPTH
STOP        .M                                          2955.0359 :STOP DEPTH
STEP        .M                                             0.1524 :STEP
NULL        .                                           -999.2500 :NULL VALUE
COMP        .                                   PEMEX EXPL & PROD :COMPANY
WELL        .                                                 283 :WELL
FLD         .                                           CANTARELL :FIELD
LOC         .                                             UNKNOWN :LOCATION
CNTY        .                                      CD. DEL CARMEN :COUNTY
STAT        .                                            CAMPECHE :STATE
CTRY        .                                              MEXICO :COUNTRY
SRVC        .                                             UNKNOWN :SERVICE COMPANY
DATE        .                                             UNKNOWN :LOG DATE
UWI         .                                          3060000202 :UNIQUE WELL ID
XCOORD      .                                       597306.720000 :SURFACE X
YCOORD      .                                      2143045.610000 :SURFACE Y
LAT         .                                           19.380344 :LATITUDE
LON         .                                          -92.073390 :LONGITUDE
ELEV        .M                                            27.7000 :SURFACE ELEV
ELEV_TYPE   .                                                  KB :ELEV TYPE
~CURVE INFORMATION
#MNEMONIC.UNIT        API CODE       : CURVE DESCRIPTION
#------------------------------------------------------------------------------
DEPTH    .M                          : Measured Depth
CALI     .inches      UNKNOWN        : CALI:Import:rC:NONE:v0 (auto-composite)
DRHO     .g/cm3       UNKNOWN        : DRHO:Import:rC:NONE:v0 (auto-composite)
DT       .us/ft       UNKNOWN        : DT:Import:rC:NONE:v0 (auto-composite)
GR       .API         UNKNOWN        : GR:Import:rC:NONE:v0 (auto-composite)
ILD      .ohm.m       UNKNOWN        : ILD:Import:rC:NONE:v0 (auto-composite)
LLD      .ohm.m       UNKNOWN        : LLD:Import:rC:NONE:v0 (auto-composite)
LLS      .ohm.m       UNKNOWN        : LLS:Import:rC:NONE:v0 (auto-composite)
MSFL     .ohm.m       UNKNOWN        : MSFL:Import:rC:NONE:v0 (auto-composite)
NPHI     .v/v_decimal UNKNOWN        : NPHI:Import:rC:NONE:v0 (auto-composite)
RHOB     .g/cm3       UNKNOWN        : RHOB:Import:rC:NONE:v0 (auto-composite)
~A     DEPTH         CALI         DRHO           DT           GR          ILD          LLD          LLS         MSFL         NPHI         RHOB
# ...
   2876.2449       6.1110       0.0310      68.2986      43.3942    -999.2500       9.2385       8.5537      41.7398       0.2009       2.5765
   2876.3975       6.1110       0.0310      68.2640      42.2220    -999.2500       9.5560       8.6970      54.4590       0.2016       2.5860
   2876.5498       6.1110       0.0305      68.0218      42.3207    -999.2500      10.0888       9.1010      42.6125       0.2016       2.5840
   2876.7021       6.1110       0.0300      67.7780      42.4200    -999.2500      10.6250       9.5070      30.7080       0.2012       2.5820
   2876.8545       6.1110       0.0475      67.7780      43.9295    -999.2500      10.9933       9.8945      41.0804       0.1992       2.5840
   2877.0071       6.1110       0.0650      67.7780      45.4490    -999.2500      11.3640      10.2840      51.5050       0.1158       2.5860
   2877.1594       6.1110       0.0520      67.7780      44.4883    -999.2500      11.1258      10.0840      36.2278       0.1153       2.5955
   2877.3118       6.1110       0.0390      67.7780      43.5210    -999.2500      10.8860       9.8830      20.8720       0.1151       2.6050
   2877.4641       6.1110       0.0390      67.7780      43.9505    -999.2500       9.5566       9.1335      21.4345       0.1158       2.6015
   2877.6167       6.1110       0.0390      67.7780      44.3830    -999.2500       8.2180       8.3800      22.0000       0.1169       2.5980
   2877.7690       6.1110       0.0465      67.7366      46.7831    -999.2500       8.2504       8.3800      24.6349       0.1190       2.6005
   2877.9214       6.1110       0.0540      67.6950      49.2000    -999.2500       8.2830       8.3800      27.2840       0.1253       2.6030
   2878.0737       6.1110       0.0440      67.2321      53.3278    -999.2500       8.4230       8.3800      26.2329       0.1261       2.6145
   2878.2261       6.1110       0.0340      66.7660      57.4850    -999.2500       8.5640       8.3800      25.1760       0.1250       2.6260
   2878.3787       6.1110       0.0345      67.2373      60.6784    -999.2500       8.6915       8.4408      25.4826       0.1246       2.6410
   2878.5310       6.1110       0.0350      67.7120      63.8950    -999.2500       8.8200       8.5020      25.7910       0.1247       2.6560
   2878.6833       6.1110       0.0445      67.4933      67.4748    -999.2500       8.8200       8.8719      28.9573       0.1255       2.6555
   2878.8357       6.1110       0.0540      67.2730      71.0810    -999.2500       8.8200       9.2440      32.1420       0.1260       2.6550
   2878.9883       6.1110       0.0460      66.5487      70.4663    -999.2500       8.8758       9.9834      45.6340       0.1244       2.6520
   2879.1406       6.1110       0.0380      65.8190      69.8470    -999.2500       8.9320      10.7260      59.1840       0.1210       2.6490
   2879.2930       6.1110       0.0405      66.2457      67.5149    -999.2500       9.4843      11.5996      55.4073       0.1153       2.6420
   2879.4453       6.1110       0.0430      66.6750      65.1650    -999.2500      10.0400      12.4770      51.6140       0.1008       2.6350
   2879.5977       6.1110       0.0520      69.0651      63.2699    -999.2500      12.8189      14.8441      39.0167       0.0951       2.6285
   2879.7502       6.1110       0.0610      71.4700      61.3600    -999.2500      15.6150      17.2220      26.3620       0.0913       2.6220
   2879.9026       6.1110       0.0575      76.6407      59.0911    -999.2500      23.2575      23.0050      32.8643       0.0892       2.6135
   2880.0549       6.1110       0.0540      81.8440      56.8080    -999.2500      30.9480      28.8150      39.3970       0.0879       2.6050
   2880.2073       6.1060       0.0390      73.5934      56.9102    -999.2500      37.4023      39.8375     128.8362       0.0852       2.6055
   2880.3599       6.1010       0.0240      65.2900      57.0130    -999.2500      43.8980      50.9130     218.7050       0.0817       2.6060
   2880.5122       6.0506       0.0036      66.0520      56.5002    -999.2500      59.7317      70.1441     173.7766       0.0762       2.6040
   2880.6646       6.0000      -0.0170      66.8190      55.9840    -999.2500      75.6690      89.4700     128.6270       0.0695       2.6020
   2880.8169       6.0000      -0.0384      72.0316      53.5556    -999.2500     128.7925     116.6528      75.9292       0.0709       2.5910
   2880.9695       6.0000      -0.0600      77.2790      51.1110    -999.2500     182.2700     143.9730      22.9650       0.0727       2.5800
   2881.1218       6.0145      -0.0794      73.9379      51.2560    -999.2500     178.4734     140.6107      51.1361       0.0760       2.5571
   2881.2742       6.0290      -0.0990      70.5740      51.4020    -999.2500     174.6510     137.2310      79.4530       0.0789       2.5340
   2881.4265       6.0699      -0.1229      71.1615      51.8096    -999.2500     159.9877     127.1862      67.3741       0.0827       2.4926
   2881.5789       6.1110      -0.1470      71.7530      52.2200    -999.2500     145.2230     117.0880      55.2310       0.0761       2.4510
   2881.7314       6.1110      -0.1899      76.4594      52.4118    -999.2500     124.1034     104.9928      31.0841       0.0728       2.4520
   2881.8838       6.1110      -0.2330      81.1990      52.6050    -999.2500     102.8350      92.8320       6.8060       0.0705       2.4530
   2882.0361       6.1110      -0.2889     105.1776      53.7678    -999.2500     106.4216      96.0725       6.8698       0.0682       2.4655
   2882.1885       6.1110      -0.3450     129.3280      54.9390    -999.2500     110.0340      99.3310       6.9340       0.0648       2.4780
   2882.3411       6.1110      -0.3904     128.0372      57.0209    -999.2500     108.0124      95.3892       7.9656       0.0565       2.5313
   2882.4934       6.1110      -0.4360     126.7370      59.1180    -999.2500     105.9760      91.4250       9.0030       0.0566       2.5850
   2882.6458       6.1095      -0.4689     112.5591      60.5298    -999.2500      81.9048      79.0280      42.2558       0.0593       2.5815
   2882.7981       6.1080      -0.5020      98.2760      61.9520    -999.2500      57.6550      66.5590      75.7020       0.0648       2.5780
   2882.9507       6.0542      -0.5484     104.5742      63.4643    -999.2500      58.5247      56.7516      67.6334       0.0678       2.5780
   2883.1030       6.0000      -0.5950     110.9200      64.9880    -999.2500      59.4010      46.8860      59.5170       0.0707       2.5780
   2883.2554       6.0000      -0.6389     106.1824      62.1942    -999.2500      76.1208      62.1517      40.7100       0.0728       2.5785
   2883.4077       6.0000      -0.6830     101.4160      59.3790    -999.2500      92.9420      77.5100      21.7890       0.0751       2.5790
   2883.5601       6.0110      -0.7074     112.9558      59.3974    -999.2500      82.6857      77.3050      23.1379       0.0780       2.5810
   2883.7126       6.0220      -0.7320     124.5670      59.4160    -999.2500      72.3660      77.0990      24.4930       0.0805       2.5830
   2883.8650       6.0664      -0.7380     108.4529      58.4780    -999.2500      73.7646      72.7053      28.9730       0.0830       2.5880
   2884.0173       6.1110      -0.7440      92.2370      57.5340    -999.2500      75.1720      68.2910      33.4740       0.0810       2.5930
   2884.1697       6.1085      -0.7440      94.1105      53.8125    -999.2500      81.8654      75.3270     134.0469       0.0827       2.5985
   2884.3223       6.1060      -0.7440      95.9960      50.0670    -999.2500      88.6020      82.3970     235.1060       0.0894       2.6040
   2884.4746       6.0531      -0.7440      95.9870      46.0313    -999.2500      84.2996      79.5850     190.8986       0.0970       2.6120
   2884.6270       6.0000      -0.7440      95.9780      41.9690    -999.2500      79.9690      76.7590     146.4720       0.1047       2.6200
