#------------------------------------------------------------------------------
#
#   Created by  : [OpenWorks] Log Export Utility (LEXP)
#   Created on  : 2016-05-18 11:18:07
#   Project     : CANT971
#   User        : R5K
#   Interpreter : PEP
#
#------------------------------------------------------------------------------
~VERSION INFORMATION
VERS. 2.0 : CWLS Log ASCII Standard - version 2.0
WRAP.  NO : One line per depth step
~WELL INFORMATION
#MNEMONIC   .UNIT                                           VALUE :DESCRIPTION
#------------------------------------------------------------------------------
STRT        .M                                            51.3586 :START DEPTH
STOP        .M                                          2955.0359 :STOP DEPTH
STEP        .M                                             0.1524 :STEP
NULL        .                                           -999.2500 :NULL VALUE
COMP        .                                   PEMEX EXPL & PROD :COMPANY
WELL        .                                                 283 :WELL
FLD         .                                           CANTARELL :FIELD
LOC         .                                             UNKNOWN :LOCATION
CNTY        .                                      CD. DEL CARMEN :COUNTY
STAT        .                                            CAMPECHE :STATE
CTRY        .                                              MEXICO :COUNTRY
SRVC        .                                             UNKNOWN :SERVICE COMPANY
DATE        .                                             UNKNOWN :LOG DATE
UWI         .                                          3060000202 :UNIQUE WELL ID
XCOORD      .                                       597306.720000 :SURFACE X
YCOORD      .                                      2143045.610000 :SURFACE Y
LAT         .                                           19.380344 :LATITUDE
LON         .                                          -92.073390 :LONGITUDE
ELEV        .M                                            27.7000 :SURFACE ELEV
ELEV_TYPE   .                                                  KB :ELEV TYPE
~CURVE INFORMATION
#MNEMONIC.UNIT        API CODE       : CURVE DESCRIPTION
#------------------------------------------------------------------------------
DEPTH    .M                          : Measured Depth
CALI     .inches      UNKNOWN        : CALI:Import:rC:NONE:v0 (auto-composite)
DRHO     .g/cm3       UNKNOWN        : DRHO:Import:rC:NONE:v0 (auto-composite)
DT       .us/ft       UNKNOWN        : DT:Import:rC:NONE:v0 (auto-composite)
GR       .API         UNKNOWN        : GR:Import:rC:NONE:v0 (auto-composite)
ILD      .ohm.m       UNKNOWN        : ILD:Import:rC:NONE:v0 (auto-composite)
LLD      .ohm.m       UNKNOWN        : LLD:Import:rC:NONE:v0 (auto-composite)
LLS      .ohm.m       UNKNOWN        : LLS:Import:rC:NONE:v0 (auto-composite)
MSFL     .ohm.m       UNKNOWN        : MSFL:Import:rC:NONE:v0 (auto-composite)
NPHI     .v/v_decimal UNKNOWN        : NPHI:Import:rC:NONE:v0 (auto-composite)
RHOB     .g/cm3       UNKNOWN        : RHOB:Import:rC:NONE:v0 (auto-composite)
~A     DEPTH         CALI         DRHO           DT           GR          ILD          LLD          LLS         MSFL         NPHI         RHOB
# ...
   2825.0386       6.0000       0.0191      83.7020      39.5171    -999.2500       8.6031      12.5367      23.8157       0.0972       2.7320
   2825.1909       6.0000      -0.0050      74.9840      42.0960    -999.2500      11.8660      16.9410      13.2630       0.0718       2.7320
   2825.3433       6.0000      -0.0050      70.3435      42.0686    -999.2500      17.5458      21.9674      13.3219       0.0721       2.7145
   2825.4958       6.0000      -0.0050      65.6740      42.0410    -999.2500      23.2610      27.0090      13.3810       0.0740       2.6970
   2825.6482       6.0000       0.0174      63.2283      39.5788    -999.2500      39.4769      29.6998      25.2723       0.0740       2.6975
   2825.8005       6.0000       0.0400      60.7670      37.1010    -999.2500      55.7960      32.3990      37.2010       0.0735       2.6980
   2825.9529       6.0000       0.0470      59.6411      35.3033    -999.2500      96.8619      44.8277      37.0687       0.0659       2.6930
   2826.1055       6.0000       0.0540      58.5080      33.4940    -999.2500     138.1940      57.2970      36.9360       0.0578       2.6880
   2826.2578       6.0000       0.0779      57.3249      31.7981    -999.2500     132.7346      92.0436      28.7699       0.0507       2.6980
   2826.4102       6.0000       0.1020      56.1340      30.0910    -999.2500     127.2390     126.9080      20.5760       0.0439       2.7080
   2826.5625       6.0000       0.1020      54.6719      27.2770    -999.2500     127.4598     137.8772      23.1989       0.0402       2.7080
   2826.7151       6.0000       0.1020      53.2000      24.4440    -999.2500     127.6820     148.8850      25.8310       0.0369       2.7080
   2826.8674       6.0000       0.0726      52.5896      24.4555    -999.2500     142.2525     187.8230      25.8215       0.0367       2.6985
   2827.0198       6.0000       0.0430      51.9750      24.4670    -999.2500     156.9230     226.9030      25.8120       0.0367       2.6890
   2827.1721       6.0000       0.0430      52.6486      25.1227    -999.2500     178.5744     226.3680      23.2089       0.0367       2.6890
   2827.3245       6.0000       0.0430      53.3270      25.7830    -999.2500     200.3770     225.8310      20.5960       0.0366       2.6890
   2827.4771       6.0000       0.0530      52.8188      28.4321    -999.2500     199.4478     201.5024      20.6449       0.0350       2.7110
   2827.6294       6.0000       0.0630      52.3070      31.1000    -999.2500     198.5120     177.0790      20.6940       0.0334       2.7330
   2827.7817       6.0000       0.0625      52.3229      31.4403    -999.2500     162.1980     138.9367      26.0762       0.0334       2.7325
   2827.9341       6.0000       0.0620      52.3390      31.7830    -999.2500     125.6210     100.6410      31.4800       0.0336       2.7320
   2828.0867       6.0000       0.0485      53.0499      32.5083    -999.2500      86.3876      72.4490      28.0222       0.0368       2.7016
   2828.2390       6.0000       0.0350      53.7660      33.2390    -999.2500      46.8650      44.1400      24.5500       0.0407       2.6710
   2828.3914       6.0005       0.0310      54.4774      35.5000    -999.2500      49.3736      45.1199      27.5556       0.0571       2.6456
   2828.5437       6.0010       0.0270      55.1930      37.7780    -999.2500      51.8970      46.1040      30.5740       0.0735       2.6200
   2828.6963       6.0215       0.0245      55.7608      37.7611    -999.2500      51.6089      45.9159      30.4907       0.0741       2.6210
   2828.8486       6.0420       0.0220      56.3320      37.7440    -999.2500      51.3190      45.7270      30.4070       0.0737       2.6220
   2829.0010       6.0764       0.0205      56.6754      36.2102    -999.2500      36.2901      39.5994      24.6504       0.0670       2.6425
   2829.1533       6.1110       0.0190      57.0210      34.6670    -999.2500      21.1690      33.4540      18.8770       0.0604       2.6630
   2829.3057       6.1110       0.0125      58.2053      34.6800    -999.2500      21.1845      27.9234      19.0937       0.0617       2.6845
   2829.4583       6.1110       0.0060      59.3970      34.6930    -999.2500      21.2000      22.3760      19.3110       0.0633       2.7060
   2829.6106       6.1110       0.0065      59.3472      35.5468    -999.2500      23.8879      26.8479      40.4849       0.0633       2.7055
   2829.7629       6.1110       0.0070      59.2970      36.4060    -999.2500      26.5930      31.3340      61.7260       0.0633       2.7050
   2829.9153       6.1110       0.0180      57.6294      35.4815    -999.2500      21.9506      25.1781      42.8142       0.0624       2.6945
   2830.0679       6.1110       0.0290      55.9510      34.5510    -999.2500      17.2780      19.0020      23.8400       0.0615       2.6840
   2830.2202       6.1110       0.0285      56.0008      34.6861    -999.2500      18.7506      20.0557      27.9190       0.0616       2.6845
   2830.3726       6.1110       0.0280      56.0510      34.8220    -999.2500      20.2330      21.1130      32.0120       0.0620       2.6850
   2830.5249       6.1110       0.0066      58.4788      34.8175    -999.2500      20.1014      21.0816      31.9486       0.0703       2.7080
   2830.6775       6.1110      -0.0150      60.9230      34.8130    -999.2500      19.9690      21.0500      31.8850       0.0785       2.7310
   2830.8298       6.1110      -0.0145      60.3021      34.6894    -999.2500      15.2343      20.0568      21.8310       0.0779       2.7305
   2830.9822       6.1110      -0.0140      59.6770      34.5650    -999.2500      10.4670      19.0600      11.7400       0.0771       2.7300
   2831.1345       6.1110      -0.0055      59.9550      34.4713    -999.2500      19.4739      15.8042      11.8014       0.0785       2.7140
   2831.2869       6.1110       0.0030      60.2350      34.3770    -999.2500      28.5440      12.5360      11.8630       0.0799       2.6980
   2831.4395       6.1110       0.0135      58.1365      30.7465    -999.2500      28.5405      30.7293      13.8541       0.0799       2.7155
   2831.5918       6.1110       0.0240      56.0230      27.0900    -999.2500      28.5370      48.9940      15.8530       0.0795       2.7330
   2831.7441       6.1110       0.0405      56.0275      27.0930    -999.2500      23.6772      48.8598      21.9731       0.0720       2.7330
   2831.8965       6.1110       0.0570      56.0320      27.0960    -999.2500      18.7820      48.7250      28.1180       0.0644       2.7330
   2832.0491       6.1110       0.0565      56.2004      29.0543    -999.2500      19.3643      36.1742      37.7464       0.0642       2.7265
   2832.2014       6.1110       0.0560      56.3700      31.0270    -999.2500      19.9510      23.5710      47.4150       0.0644       2.7200
   2832.3538       6.1110       0.0355      57.8491      31.0195    -999.2500      19.7022      23.8045      34.7198       0.0681       2.6966
   2832.5061       6.1110       0.0150      59.3370      31.0120    -999.2500      19.4520      24.0390      21.9700       0.0719       2.6730
   2832.6587       6.1110       0.0150      59.3071      30.7988    -999.2500      19.4789      34.7932      21.9765       0.0719       2.6710
   2832.8110       6.1110       0.0150      59.2770      30.5840    -999.2500      19.5060      45.5950      21.9830       0.0716       2.6690
   2832.9634       6.1110       0.0185      58.1495      28.8379    -999.2500      20.2427      42.1898      36.7025       0.0655       2.6505
   2833.1157       6.1110       0.0220      57.0150      27.0810    -999.2500      20.9840      38.7690      51.4890       0.0593       2.6320
   2833.2681       6.1110       0.0564      57.1182      27.1149    -999.2500      24.3499      38.8179      41.7079       0.0592       2.6320
   2833.4207       6.1110       0.0910      57.2220      27.1490    -999.2500      27.7370      38.8670      31.8810       0.0592       2.6320
