#------------------------------------------------------------------------------
#
#   Created by  : [OpenWorks] Log Export Utility (LEXP)
#   Created on  : 2016-05-18 11:18:07
#   Project     : CANT971
#   User        : R5K
#   Interpreter : PEP
#
#------------------------------------------------------------------------------
~VERSION INFORMATION
VERS. 2.0 : CWLS Log ASCII Standard - version 2.0
WRAP.  NO : One line per depth step
~WELL INFORMATION
#MNEMONIC   .UNIT                                           VALUE :DESCRIPTION
#------------------------------------------------------------------------------
STRT        .M                                            51.3586 :START DEPTH
STOP        .M                                          2955.0359 :STOP DEPTH
STEP        .M                                             0.1524 :STEP
NULL        .                                           -999.2500 :NULL VALUE
COMP        .                                   PEMEX EXPL & PROD :COMPANY
WELL        .                                                 283 :WELL
FLD         .                                           CANTARELL :FIELD
LOC         .                                             UNKNOWN :LOCATION
CNTY        .                                      CD. DEL CARMEN :COUNTY
STAT        .                                            CAMPECHE :STATE
CTRY        .                                              MEXICO :COUNTRY
SRVC        .                                             UNKNOWN :SERVICE COMPANY
DATE        .                                             UNKNOWN :LOG DATE
UWI         .                                          3060000202 :UNIQUE WELL ID
XCOORD      .                                       597306.720000 :SURFACE X
YCOORD      .                                      2143045.610000 :SURFACE Y
LAT         .                                           19.380344 :LATITUDE
LON         .                                          -92.073390 :LONGITUDE
ELEV        .M                                            27.7000 :SURFACE ELEV
ELEV_TYPE   .                                                  KB :ELEV TYPE
~CURVE INFORMATION
#MNEMONIC.UNIT        API CODE       : CURVE DESCRIPTION
#------------------------------------------------------------------------------
DEPTH    .M                          : Measured Depth
CALI     .inches      UNKNOWN        : CALI:Import:rC:NONE:v0 (auto-composite)
DRHO     .g/cm3       UNKNOWN        : DRHO:Import:rC:NONE:v0 (auto-composite)
DT       .us/ft       UNKNOWN        : DT:Import:rC:NONE:v0 (auto-composite)
GR       .API         UNKNOWN        : GR:Import:rC:NONE:v0 (auto-composite)
ILD      .ohm.m       UNKNOWN        : ILD:Import:rC:NONE:v0 (auto-composite)
LLD      .ohm.m       UNKNOWN        : LLD:Import:rC:NONE:v0 (auto-composite)
LLS      .ohm.m       UNKNOWN        : LLS:Import:rC:NONE:v0 (auto-composite)
MSFL     .ohm.m       UNKNOWN        : MSFL:Import:rC:NONE:v0 (auto-composite)
NPHI     .v/v_decimal UNKNOWN        : NPHI:Import:rC:NONE:v0 (auto-composite)
RHOB     .g/cm3       UNKNOWN        : RHOB:Import:rC:NONE:v0 (auto-composite)
~A     DEPTH         CALI         DRHO           DT           GR          ILD          LLD          LLS         MSFL         NPHI         RHOB
# ...
   2927.4514       6.0638    -999.2500      68.8144      51.5924    -999.2500     346.4822     266.8589      62.7878       0.0987       2.6005
   2927.6038       6.1110    -999.2500      63.2590      50.2740    -999.2500     301.6870     224.8750     111.8060       0.0929       2.6120
   2927.7561       6.1035    -999.2500      54.7010      48.4766    -999.2500     400.6116     324.3532     100.9678       0.0848       2.6324
   2927.9087       6.0960    -999.2500      46.0850      46.6670    -999.2500     500.2070     424.5060      90.0560       0.0790       2.6530
   2928.0610       6.0756    -999.2500      47.6606      46.6670    -999.2500     815.6696     736.1025      72.2655       0.0656       2.6819
   2928.2134       6.0550    -999.2500      49.2470      46.6670    -999.2500    1133.3130    1049.8530      54.3520       0.0545       2.7110
   2928.3657       6.0685    -999.2500      52.7666      47.4577    -999.2500    1445.3965    1265.8748      43.4429       0.0325       2.7090
   2928.5181       6.0820    -999.2500      56.3110      48.2540    -999.2500    1759.6750    1483.4160      32.4570       0.0206       2.7070
   2928.6707       6.0964    -999.2500      61.8158      47.9132    -999.2500    2220.3435    1618.6111      28.4060       0.0202       2.7035
   2928.8230       6.1110    -999.2500      67.3600      47.5700    -999.2500    2684.3130    1754.7750      24.3260       0.0212       2.7000
   2928.9753       6.1110    -999.2500      61.9577      46.5512    -999.2500    2447.8894    1798.5437      20.8170       0.0225       2.7005
   2929.1277       6.1110    -999.2500      56.5160      45.5250    -999.2500    2209.7429    1842.5610      17.2880       0.0229       2.7010
   2929.2803       6.1015    -999.2500      61.4895      44.2856    -999.2500    1710.9563    1890.8859      18.2178       0.0217       2.7035
   2929.4326       6.0920    -999.2500      66.5000      43.0370    -999.2500    1208.4690    1939.4910      19.1530       0.0198       2.7060
   2929.5850       6.0461    -999.2500      65.8928      43.3737    -999.2500    1213.0891    1698.0710      18.6006       0.0175       2.7095
   2929.7373       6.0000    -999.2500      65.2810      43.7130    -999.2500    1217.7440    1455.2190      18.0450       0.0155       2.7130
   2929.8899       6.0214    -999.2500      69.2493      44.2913    -999.2500    1116.1178    1237.1615      16.5924       0.0132       2.7150
   2930.0422       6.0430    -999.2500      73.2480      44.8740    -999.2500    1013.7120    1017.7840      15.1310       0.0118       2.7170
   2930.1946       6.0714    -999.2500      84.9418      46.5360    -999.2500     841.0006     887.9854      13.5265       0.0125       2.7115
   2930.3469       6.1000    -999.2500      96.7080      48.2110    -999.2500     667.2210     757.3840      11.9120       0.0145       2.7060
   2930.4993       6.1120    -999.2500      82.9519      52.0991    -999.2500     567.7521     629.2565      14.4684       0.0186       2.6920
   2930.6519       6.1240    -999.2500      69.1090      56.0180    -999.2500     467.6560     500.3210      17.0410       0.0209       2.6780
   2930.8042       6.1728    -999.2500      70.6102      59.8397    -999.2500     418.4644     431.3804      48.2306       0.0233       2.6576
   2930.9565       6.2220    -999.2500      72.1210      63.6860    -999.2500     368.9560     361.9960      79.6210       0.0461       2.6370
   2931.1089       6.2041    -999.2500      81.6886      66.2790    -999.2500     339.4019     300.2316      66.0635       0.0913       2.6186
   2931.2615       6.1860    -999.2500      91.3190      68.8890    -999.2500     309.6540     238.0620      52.4170       0.0905       2.6000
   2931.4138       6.1486    -999.2500      89.0910      67.6845    -999.2500     285.6015     241.9405      31.9729       0.0876       2.6299
   2931.5662       6.1110    -999.2500      86.8480      66.4720    -999.2500     261.3880     245.8450      11.3920       0.0840       2.6600
   2931.7185       6.1603    -999.2500      87.6403      63.5430    -999.2500     281.7845     266.1708      33.6019       0.0767       2.6575
   2931.8711       6.2100    -999.2500      88.4380      60.5940    -999.2500     302.3200     286.6350      55.9630       0.0500       2.6550
   2932.0234       6.1771    -999.2500      82.7393      62.3419    -999.2500     390.4445     337.6265      55.5479       0.0556       2.6565
   2932.1758       6.1440    -999.2500      77.0010      64.1020    -999.2500     479.1810     388.9720      55.1300       0.0542       2.6580
   2932.3281       6.0723    -999.2500      70.6649      70.2662    -999.2500     461.2279     374.0248      52.0808       0.0464       2.6739
   2932.4805       6.0000    -999.2500      64.2840      76.4740    -999.2500     443.1480     358.9720      49.0100       0.0333       2.6900
   2932.6331       6.0209    -999.2500      62.3385      86.4117    -999.2500     495.8728     382.6677      35.0448       0.0189       2.7074
   2932.7854       6.0420    -999.2500      60.3790      96.4210    -999.2500     548.9770     406.5340      20.9790       0.0103       2.7250
   2932.9377       6.0764    -999.2500      66.4035     105.3618    -999.2500     680.9546     489.4785      22.0536       0.0085       2.7290
   2933.0901       6.1110    -999.2500      72.4720     114.3680    -999.2500     813.8980     573.0300      23.1360       0.0076       2.7330
   2933.2427       6.0557    -999.2500      62.3771     112.1413    -999.2500     982.8835     714.7820      29.4774       0.0068       2.7315
   2933.3950       6.0000    -999.2500      52.2070     109.8980    -999.2500    1153.1281     857.5900      35.8660       0.0067       2.7300
   2933.5474       6.0115    -999.2500      53.9006     104.9677    -999.2500    1328.7667     842.4935      27.8429       0.0065       2.7260
   2933.6997       6.0230    -999.2500      55.6070     100.0000    -999.2500    1505.7350     827.3070      19.7720       0.0067       2.7220
   2933.8523       6.0504    -999.2500      63.0015     101.0455    -999.2500    1655.0175     926.0012      22.5650       0.0078       2.7220
   2934.0046       6.0780    -999.2500      70.4530     102.0990    -999.2500    1805.4500    1025.2960      25.3750       0.0087       2.7220
   2934.1570       6.0944    -999.2500      66.9623     101.4665    -999.2500    1636.6476     901.9918      36.1650       0.0096       2.7220
   2934.3093       6.1110    -999.2500      63.4500     100.8300    -999.2500    1466.7960     777.9210      47.0220       0.0100       2.7220
   2934.4617       6.0557    -999.2500      71.9386      99.1603    -999.2500    1181.0878     589.9432      39.4944       0.0098       2.7275
   2934.6143       6.0000    -999.2500      80.4810      97.4800    -999.2500     893.5690     400.7740      31.9190       0.0096       2.7330
   2934.7666       6.0080    -999.2500      72.9509      95.7257    -999.2500     726.1819     251.2970      32.3965       0.0101       2.7315
   2934.9189       6.0160    -999.2500      65.3720      93.9600    -999.2500     557.7120     100.8530      32.8770       0.0114       2.7300
   2935.0713       6.0633    -999.2500      71.8297      94.2221    -999.2500     471.8414     172.2876      29.1064       0.0132       2.7230
   2935.2239       6.1110    -999.2500      78.3300      94.4860    -999.2500     385.4050     244.1930      25.3110       0.0152       2.7160
   2935.3762       6.0911    -999.2500      77.4415      94.8034    -999.2500     350.9000     224.3611      19.3152       0.0182       2.7075
   2935.5286       6.0710    -999.2500      76.5470      95.1230    -999.2500     316.1630     204.3960      13.2790       0.0204       2.6990
   2935.6809       6.0356    -999.2500      81.6560      96.3737    -999.2500     399.5223     185.9671       9.9429       0.0239       2.6761
   2935.8335       6.0000    -999.2500      86.8000      97.6330    -999.2500     483.4520     167.4120       6.5840       0.0737       2.6530
