#------------------------------------------------------------------------------
#
#   Created by  : [OpenWorks] Log Export Utility (LEXP)
#   Created on  : 2016-05-18 11:18:07
#   Project     : CANT971
#   User        : R5K
#   Interpreter : PEP
#
#------------------------------------------------------------------------------
~VERSION INFORMATION
VERS. 2.0 : CWLS Log ASCII Standard - version 2.0
WRAP.  NO : One line per depth step
~WELL INFORMATION
#MNEMONIC   .UNIT                                           VALUE :DESCRIPTION
#------------------------------------------------------------------------------
STRT        .M                                            51.3586 :START DEPTH
STOP        .M                                          2955.0359 :STOP DEPTH
STEP        .M                                             0.1524 :STEP
NULL        .                                           -999.2500 :NULL VALUE
COMP        .                                   PEMEX EXPL & PROD :COMPANY
WELL        .                                                 283 :WELL
FLD         .                                           CANTARELL :FIELD
LOC         .                                             UNKNOWN :LOCATION
CNTY        .                                      CD. DEL CARMEN :COUNTY
STAT        .                                            CAMPECHE :STATE
CTRY        .                                              MEXICO :COUNTRY
SRVC        .                                             UNKNOWN :SERVICE COMPANY
DATE        .                                             UNKNOWN :LOG DATE
UWI         .                                          3060000202 :UNIQUE WELL ID
XCOORD      .                                       597306.720000 :SURFACE X
YCOORD      .                                      2143045.610000 :SURFACE Y
LAT         .                                           19.380344 :LATITUDE
LON         .                                          -92.073390 :LONGITUDE
ELEV        .M                                            27.7000 :SURFACE ELEV
ELEV_TYPE   .                                                  KB :ELEV TYPE
~CURVE INFORMATION
#MNEMONIC.UNIT        API CODE       : CURVE DESCRIPTION
#------------------------------------------------------------------------------
DEPTH    .M                          : Measured Depth
CALI     .inches      UNKNOWN        : CALI:Import:rC:NONE:v0 (auto-composite)
DRHO     .g/cm3       UNKNOWN        : DRHO:Import:rC:NONE:v0 (auto-composite)
DT       .us/ft       UNKNOWN        : DT:Import:rC:NONE:v0 (auto-composite)
GR       .API         UNKNOWN        : GR:Import:rC:NONE:v0 (auto-composite)
ILD      .ohm.m       UNKNOWN        : ILD:Import:rC:NONE:v0 (auto-composite)
LLD      .ohm.m       UNKNOWN        : LLD:Import:rC:NONE:v0 (auto-composite)
LLS      .ohm.m       UNKNOWN        : LLS:Import:rC:NONE:v0 (auto-composite)
MSFL     .ohm.m       UNKNOWN        : MSFL:Import:rC:NONE:v0 (auto-composite)
NPHI     .v/v_decimal UNKNOWN        : NPHI:Import:rC:NONE:v0 (auto-composite)
RHOB     .g/cm3       UNKNOWN        : RHOB:Import:rC:NONE:v0 (auto-composite)
~A     DEPTH         CALI         DRHO           DT           GR          ILD          LLD          LLS         MSFL         NPHI         RHOB
# ...
   2842.1074       6.2033       0.1640      86.2745      59.8734    -999.2500       4.1244       3.7990      16.0985       0.2206       2.5925
   2842.2598       6.3160       0.1590      73.7110      59.7460    -999.2500       3.4030       2.9610      27.2460       0.2179       2.6060
   2842.4121       6.3100       0.0907      77.1801      58.1878    -999.2500       3.4912       2.9939      26.3292       0.1861       2.6080
   2842.5647       6.3040       0.0220      80.6730      56.6190    -999.2500       3.5800       3.0270      25.4090       0.1546       2.6100
   2842.7170       6.2366       0.0230      78.4817      53.9767    -999.2500       4.9138       3.4592      18.4691       0.1547       2.6160
   2842.8694       6.1690       0.0240      76.2750      51.3160    -999.2500       6.2570       3.8930      11.5030       0.1550       2.6220
   2843.0217       6.0847       0.0365      76.5904      47.6610    -999.2500       6.1932       5.0717      11.6921       0.1573       2.6045
   2843.1741       6.0000       0.0490      76.9080      43.9800    -999.2500       6.1290       6.2550      11.8820       0.1598       2.5870
   2843.3267       6.0050       0.0715      85.8307      44.1080    -999.2500       5.5132       6.1627      15.3056       0.1663       2.6040
   2843.4790       6.0100       0.0940      94.8180      44.2370    -999.2500       4.8930       6.0700      18.7430       0.1730       2.6210
   2843.6313       6.0619       0.1175      94.3502      47.9279    -999.2500       4.2534       5.2427      13.3157       0.1886       2.6015
   2843.7837       6.1140       0.1410      93.8790      51.6460    -999.2500       3.6090       4.4120       7.8660       0.2042       2.5820
   2843.9363       6.1679       0.1210      88.8842      51.6057    -999.2500       3.6633       3.8702       7.9753       0.2024       2.5835
   2844.0886       6.2220       0.1010      83.8520      51.5650    -999.2500       3.7180       3.3260       8.0850       0.1999       2.5850
   2844.2410       6.2185       0.1025      76.2798      50.8502    -999.2500       5.2688       3.3724      12.0962       0.1788       2.6409
   2844.3933       6.2150       0.1040      68.6620      50.1300    -999.2500       6.8290       3.4190      16.1250       0.1572       2.6970
   2844.5459       6.1791       0.1025      69.4291      46.7581    -999.2500       6.3958       3.9673      16.0322       0.1437       2.6960
   2844.6982       6.1430       0.1010      70.2010      43.3600    -999.2500       5.9600       4.5180      15.9390       0.1305       2.6950
   2844.8506       6.0777       0.0666      70.0689      40.2283    -999.2500       5.9645       5.0498      14.2554       0.1266       2.6835
   2845.0029       6.0120       0.0320      69.9360      37.0770    -999.2500       5.9690       5.5840      12.5640       0.1228       2.6720
   2845.1553       6.0170       0.0465      67.7530      36.1898    -999.2500       6.0926       6.1511      12.8628       0.1159       2.6625
   2845.3079       6.0220       0.0610      65.5560      35.2970    -999.2500       6.2170       6.7210      13.1630       0.1091       2.6530
   2845.4602       6.0664       0.0555      65.6178      34.3182    -999.2500       7.1729       7.4348      18.1792       0.1091       2.6580
   2845.6125       6.1110       0.0500      65.6800      33.3330    -999.2500       8.1350       8.1520      23.2200       0.1093       2.6630
   2845.7649       6.1110       0.0510      66.3842      33.4207    -999.2500       8.0568       8.1096      22.9676       0.1114       2.6625
   2845.9175       6.1110       0.0520      67.0930      33.5090    -999.2500       7.9780       8.0670      22.7140       0.1138       2.6620
   2846.0698       6.1110       0.0615      68.6398      34.4658    -999.2500       7.2450       7.5404      20.3202       0.1211       2.6530
   2846.2222       6.1110       0.0710      70.1970      35.4290    -999.2500       6.5070       7.0120      17.9180       0.1286       2.6440
   2846.3745       6.1100       0.0939      72.5389      37.3359    -999.2500       5.5862       5.3441      12.7799       0.1396       2.6265
   2846.5271       6.1090       0.1170      74.8970      39.2560    -999.2500       4.6590       3.6700       7.6230       0.1503       2.6090
   2846.6794       6.0546       0.0816      74.5353      41.7034    -999.2500       3.9515       3.7633       7.7198       0.1503       2.6200
   2846.8318       6.0000       0.0460      74.1710      44.1680    -999.2500       3.2390       3.8570       7.8170       0.1495       2.6310
   2846.9841       6.0000       0.0485      70.0542      43.8711    -999.2500       3.6660       5.1475      21.2601       0.1368       2.6270
   2847.1365       6.0000       0.0510      65.9080      43.5720    -999.2500       4.0960       6.4430      34.7560       0.1241       2.6230
   2847.2891       6.0000       0.0510      66.2557      39.1894    -999.2500       4.0711       6.2903      32.9067       0.1250       2.6240
   2847.4414       6.0000       0.0510      66.6060      34.7750    -999.2500       4.0460       6.1370      31.0500       0.1267       2.6250
   2847.5938       6.0005       0.0475      71.5607      35.0206    -999.2500       3.6275       4.8701      21.6037       0.1386       2.6230
   2847.7461       6.0010       0.0440      76.5520      35.2680    -999.2500       3.2060       3.5980      12.1180       0.1509       2.6210
   2847.8987       6.0100       0.0445      75.8581      37.5469    -999.2500       3.2349       4.1503      10.8328       0.1654       2.5921
   2848.0510       6.0190       0.0450      75.1590      39.8430    -999.2500       3.2640       4.7050       9.5420       0.1794       2.5630
   2848.2034       6.0649       0.0475      75.3738      42.7285    -999.2500       3.5272       4.6691       8.8071       0.1783       2.5630
   2848.3557       6.1110       0.0500      75.5900      45.6360    -999.2500       3.7920       4.6330       8.0690       0.1767       2.5630
   2848.5081       6.1110       0.0445      85.6884      48.5905    -999.2500       3.7556       3.9196       7.7467       0.1769       2.5655
   2848.6606       6.1110       0.0390      95.8490      51.5680    -999.2500       3.7190       3.2030       7.4230       0.1772       2.5680
   2848.8130       6.1110       0.0415      90.1514      54.0756    -999.2500       3.4239       3.6145       6.9736       0.1792       2.5720
   2848.9653       6.1110       0.0440      84.4180      56.5990    -999.2500       3.1270       4.0280       6.5220       0.1813       2.5760
   2849.1177       6.1110       0.0425      84.6777      56.5168    -999.2500       2.8349       3.9427       6.4093       0.1843       2.5810
   2849.2703       6.1110       0.0410      84.9390      56.4340    -999.2500       2.5410       3.8570       6.2960       0.1873       2.5860
   2849.4226       6.1085       0.0295      90.5850      55.6610    -999.2500       2.2714       3.2949       5.6147       0.1922       2.5990
   2849.5750       6.1060       0.0180      96.2680      54.8830    -999.2500       2.0000       2.7300       4.9300       0.1968       2.6120
   2849.7273       6.0531       0.0350      95.1776      53.5330    -999.2500       2.0698       2.2328       5.0103       0.1966       2.6170
   2849.8799       6.0000       0.0520      94.0800      52.1740    -999.2500       2.1400       1.7330       5.0910       0.1959       2.6220
   2850.0322       6.0000       0.0510      85.3626      50.5371    -999.2500       6.5929       1.8658       7.8710       0.1901       2.6549
   2850.1846       6.0000       0.0500      76.5860      48.8890    -999.2500      11.0760       1.9990      10.6610       0.1832       2.6880
   2850.3369       6.0000       0.0405      79.5463      49.1680    -999.2500       8.4795       5.8114      10.5672       0.1573       2.6496
   2850.4893       6.0000       0.0310      82.5270      49.4490    -999.2500       5.8650       9.6380      10.4730       0.1317       2.6110
