#------------------------------------------------------------------------------
#
#   Created by  : [OpenWorks] Log Export Utility (LEXP)
#   Created on  : 2016-05-18 11:18:07
#   Project     : CANT971
#   User        : R5K
#   Interpreter : PEP
#
#------------------------------------------------------------------------------
~VERSION INFORMATION
VERS. 2.0 : CWLS Log ASCII Standard - version 2.0
WRAP.  NO : One line per depth step
~WELL INFORMATION
#MNEMONIC   .UNIT                                           VALUE :DESCRIPTION
#------------------------------------------------------------------------------
STRT        .M                                            51.3586 :START DEPTH
STOP        .M                                          2955.0359 :STOP DEPTH
STEP        .M                                             0.1524 :STEP
NULL        .                                           -999.2500 :NULL VALUE
COMP        .                                   PEMEX EXPL & PROD :COMPANY
WELL        .                                                 283 :WELL
FLD         .                                           CANTARELL :FIELD
LOC         .                                             UNKNOWN :LOCATION
CNTY        .                                      CD. DEL CARMEN :COUNTY
STAT        .                                            CAMPECHE :STATE
CTRY        .                                              MEXICO :COUNTRY
SRVC        .                                             UNKNOWN :SERVICE COMPANY
DATE        .                                             UNKNOWN :LOG DATE
UWI         .                                          3060000202 :UNIQUE WELL ID
XCOORD      .                                       597306.720000 :SURFACE X
YCOORD      .                                      2143045.610000 :SURFACE Y
LAT         .                                           19.380344 :LATITUDE
LON         .                                          -92.073390 :LONGITUDE
ELEV        .M                                            27.7000 :SURFACE ELEV
ELEV_TYPE   .                                                  KB :ELEV TYPE
~CURVE INFORMATION
#MNEMONIC.UNIT        API CODE       : CURVE DESCRIPTION
#------------------------------------------------------------------------------
DEPTH    .M                          : Measured Depth
CALI     .inches      UNKNOWN        : CALI:Import:rC:NONE:v0 (auto-composite)
DRHO     .g/cm3       UNKNOWN        : DRHO:Import:rC:NONE:v0 (auto-composite)
DT       .us/ft       UNKNOWN        : DT:Import:rC:NONE:v0 (auto-composite)
GR       .API         UNKNOWN        : GR:Import:rC:NONE:v0 (auto-composite)
ILD      .ohm.m       UNKNOWN        : ILD:Import:rC:NONE:v0 (auto-composite)
LLD      .ohm.m       UNKNOWN        : LLD:Import:rC:NONE:v0 (auto-composite)
LLS      .ohm.m       UNKNOWN        : LLS:Import:rC:NONE:v0 (auto-composite)
MSFL     .ohm.m       UNKNOWN        : MSFL:Import:rC:NONE:v0 (auto-composite)
NPHI     .v/v_decimal UNKNOWN        : NPHI:Import:rC:NONE:v0 (auto-composite)
RHOB     .g/cm3       UNKNOWN        : RHOB:Import:rC:NONE:v0 (auto-composite)
~A     DEPTH         CALI         DRHO           DT           GR          ILD          LLD          LLS         MSFL         NPHI         RHOB
# ...
   2901.8481       6.0155    -999.2500      81.9209      53.3603    -999.2500     306.7550     289.9634      18.6818       0.0382       2.6695
   2902.0005       6.0310    -999.2500      78.6590      57.6910    -999.2500     299.4660     288.0750      18.0430       0.0349       2.6690
   2902.1531       6.0704    -999.2500      83.7221      63.0500    -999.2500     250.0667     273.2124      16.0977       0.0266       2.6565
   2902.3054       6.1100    -999.2500      88.8230      68.4490    -999.2500     200.2990     258.2630      14.1410       0.0238       2.6440
   2902.4578       6.0552    -999.2500      86.8031      73.5855    -999.2500     214.0390     229.7232      12.4087       0.0214       2.5991
   2902.6101       6.0000    -999.2500      84.7680      78.7610    -999.2500     227.8830     201.0130      10.6660       0.0180       2.5540
   2902.7627       6.0000    -999.2500      77.3297      80.6926    -999.2500     277.2522     216.4335      12.0164       0.0151       2.5724
   2902.9150       6.0000    -999.2500      69.8340      82.6390    -999.2500     327.0020     231.9480      13.3750       0.0136       2.5910
   2903.0674       6.0000    -999.2500      69.9860      79.1130    -999.2500     378.4684     300.8133      19.5343       0.0159       2.6264
   2903.2197       6.0000    -999.2500      70.1390      75.5650    -999.2500     430.2550     370.1070      25.7320       0.0196       2.6620
   2903.3721       6.0000    -999.2500      68.5067      67.8559    -999.2500     469.9312     355.3224      36.5507       0.0255       2.6670
   2903.5247       6.0000    -999.2500      66.8640      60.0980    -999.2500     509.8590     340.4440      47.4380       0.0337       2.6720
   2903.6770       6.0000    -999.2500      75.2822      56.1727    -999.2500     571.1715     351.9243      33.1592       0.0389       2.6720
   2903.8293       6.0000    -999.2500      83.7550      52.2220    -999.2500     632.8810     363.4790      18.7880       0.0408       2.6720
   2903.9817       6.0000    -999.2500      73.6787      52.4114    -999.2500     683.0526     465.4676      21.5571       0.0416       2.6690
   2904.1343       6.0000    -999.2500      63.5360      52.6020    -999.2500     733.5550     567.9650      24.3400       0.0423       2.6660
   2904.2866       6.0000    -999.2500      65.1077      54.3671    -999.2500     707.8176     545.7593      24.0712       0.0433       2.6605
   2904.4390       6.0000    -999.2500      66.6900      56.1440    -999.2500     681.9070     523.4400      23.8010       0.0439       2.6550
   2904.5913       6.0414    -999.2500      69.5906      55.7832    -999.2500     615.9214     418.0851      22.8764       0.0546       2.6515
   2904.7439       6.0830    -999.2500      72.5110      55.4200    -999.2500     549.4840     312.1780      21.9470       0.0800       2.6480
   2904.8962       6.0685    -999.2500      71.3685      52.7787    -999.2500     571.6696     334.3510      16.8188       0.1175       2.6445
   2905.0486       6.0540    -999.2500      70.2180      50.1190    -999.2500     594.0100     356.6430      11.6630       0.1139       2.6410
   2905.2009       6.0271    -999.2500      67.1703      52.0726    -999.2500     667.6555     432.8906      13.2516       0.1038       2.6345
   2905.3533       6.0000    -999.2500      64.1010      54.0400    -999.2500     741.8240     509.5570      14.8490       0.0811       2.6280
   2905.5059       6.0000    -999.2500      60.2848      53.7979    -999.2500     837.4063     597.9578      13.3043       0.0595       2.6290
   2905.6582       6.0000    -999.2500      56.4410      53.5540    -999.2500     933.6800     686.8550      11.7510       0.0508       2.6300
   2905.8105       6.0130    -999.2500      60.4986      53.8683    -999.2500    1029.9934     845.7719      11.7530       0.0465       2.6345
   2905.9629       6.0260    -999.2500      64.5860      54.1850    -999.2500    1127.0150    1005.6020      11.7550       0.0470       2.6390
   2906.1155       6.0684    -999.2500      64.1432      53.6794    -999.2500    1061.7454     966.6548      14.0204       0.0489       2.6535
   2906.2678       6.1110    -999.2500      63.6970      53.1700    -999.2500     995.9870     927.4790      16.2990       0.0503       2.6680
   2906.4202       6.1100    -999.2500      61.9237      52.1444    -999.2500     881.1468     792.3987      16.0911       0.0512       2.6680
   2906.5725       6.1090    -999.2500      60.1370      51.1110    -999.2500     765.4330     656.5080      15.8820       0.0502       2.6680
   2906.7251       6.0547    -999.2500      64.8667      51.2798    -999.2500     853.1042     743.8965      13.6867       0.0528       2.6655
   2906.8774       6.0000    -999.2500      69.6330      51.4500    -999.2500     941.4540     831.8200      11.4780       0.0589       2.6630
   2907.0298       6.0000    -999.2500      63.7668      52.0870    -999.2500     927.5395     821.1240      12.0427       0.0618       2.6600
   2907.1821       6.0000    -999.2500      57.8640      52.7280    -999.2500     913.5380     810.3610      12.6110       0.0660       2.6570
   2907.3345       6.0000    -999.2500      58.5513      53.3540    -999.2500     838.2729     734.2057      14.5159       0.0675       2.6545
   2907.4871       6.0000    -999.2500      59.2430      53.9840    -999.2500     762.5280     657.5650      16.4330       0.0637       2.6520
   2907.6394       6.0000    -999.2500      67.4523      55.2349    -999.2500     612.5175     535.5942      15.7248       0.0597       2.6480
   2907.7917       6.0000    -999.2500      75.7150      56.4940    -999.2500     461.5310     412.8300      15.0120       0.0558       2.6440
   2907.9441       5.9527    -999.2500      66.5319      56.4083    -999.2500     501.1612     445.1853      12.9693       0.0500       2.6470
   2908.0967       5.9050    -999.2500      57.2880      56.3220    -999.2500     541.0540     477.7550      10.9130       0.0507       2.6500
   2908.2490       5.9229    -999.2500      59.3151      55.1465    -999.2500     648.0375     591.4717      11.0984       0.0523       2.6460
   2908.4014       5.9410    -999.2500      61.3560      53.9630    -999.2500     755.7440     705.9570      11.2850       0.0532       2.6420
   2908.5537       5.9829    -999.2500      73.0323      51.5174    -999.2500     740.5254     701.4783      14.8621       0.0521       2.6435
   2908.7063       6.0250    -999.2500      84.7890      49.0550    -999.2500     725.2020     696.9760      18.4580       0.0518       2.6450
   2908.8586       6.0679    -999.2500      73.3969      51.1078    -999.2500     756.4724     674.5325      15.4002       0.0523       2.6495
   2909.0110       6.1110    -999.2500      61.9250      53.1750    -999.2500     787.9620     651.9680      12.3260       0.0534       2.6540
   2909.1633       6.0557    -999.2500      63.1740      56.9092    -999.2500     774.0352     619.2469      13.4813       0.0569       2.6271
   2909.3157       6.0000    -999.2500      64.4320      60.6700    -999.2500     760.0090     586.3450      14.6430       0.0595       2.6000
   2909.4683       6.0000    -999.2500      66.9215      61.6948    -999.2500     719.5480     598.0684      24.5944       0.0598       2.6015
   2909.6206       6.0000    -999.2500      69.4290      62.7270    -999.2500     678.7930     609.8580      34.6020       0.0587       2.6030
   2909.7729       6.0000    -999.2500      70.3685      62.0978    -999.2500     598.2041     568.8260      31.0298       0.0576       2.6234
   2909.9253       6.0000    -999.2500      71.3150      61.4640    -999.2500     517.0200     527.5570      27.4370       0.0598       2.6440
   2910.0779       6.0369    -999.2500      76.6405      58.2710    -999.2500     544.7488     418.1457      22.2049       0.0651       2.6978
   2910.2302       6.0740    -999.2500      82.0060      55.0540    -999.2500     572.6860     308.0890      16.9420       0.0559       2.7520
