#------------------------------------------------------------------------------
#
#   Created by  : [OpenWorks] Log Export Utility (LEXP)
#   Created on  : 2016-05-18 11:18:07
#   Project     : CANT971
#   User        : R5K
#   Interpreter : PEP
#
#------------------------------------------------------------------------------
~VERSION INFORMATION
VERS. 2.0 : CWLS Log ASCII Standard - version 2.0
WRAP.  NO : One line per depth step
~WELL INFORMATION
#MNEMONIC   .UNIT                                           VALUE :DESCRIPTION
#------------------------------------------------------------------------------
STRT        .M                                            51.3586 :START DEPTH
STOP        .M                                          2955.0359 :STOP DEPTH
STEP        .M                                             0.1524 :STEP
NULL        .                                           -999.2500 :NULL VALUE
COMP        .                                   PEMEX EXPL & PROD :COMPANY
WELL        .                                                 283 :WELL
FLD         .                                           CANTARELL :FIELD
LOC         .                                             UNKNOWN :LOCATION
CNTY        .                                      CD. DEL CARMEN :COUNTY
STAT        .                                            CAMPECHE :STATE
CTRY        .                                              MEXICO :COUNTRY
SRVC        .                                             UNKNOWN :SERVICE COMPANY
DATE        .                                             UNKNOWN :LOG DATE
UWI         .                                          3060000202 :UNIQUE WELL ID
XCOORD      .                                       597306.720000 :SURFACE X
YCOORD      .                                      2143045.610000 :SURFACE Y
LAT         .                                           19.380344 :LATITUDE
LON         .                                          -92.073390 :LONGITUDE
ELEV        .M                                            27.7000 :SURFACE ELEV
ELEV_TYPE   .                                                  KB :ELEV TYPE
~CURVE INFORMATION
#MNEMONIC.UNIT        API CODE       : CURVE DESCRIPTION
#------------------------------------------------------------------------------
DEPTH    .M                          : Measured Depth
CALI     .inches      UNKNOWN        : CALI:Import:rC:NONE:v0 (auto-composite)
DRHO     .g/cm3       UNKNOWN        : DRHO:Import:rC:NONE:v0 (auto-composite)
DT       .us/ft       UNKNOWN        : DT:Import:rC:NONE:v0 (auto-composite)
GR       .API         UNKNOWN        : GR:Import:rC:NONE:v0 (auto-composite)
ILD      .ohm.m       UNKNOWN        : ILD:Import:rC:NONE:v0 (auto-composite)
LLD      .ohm.m       UNKNOWN        : LLD:Import:rC:NONE:v0 (auto-composite)
LLS      .ohm.m       UNKNOWN        : LLS:Import:rC:NONE:v0 (auto-composite)
MSFL     .ohm.m       UNKNOWN        : MSFL:Import:rC:NONE:v0 (auto-composite)
NPHI     .v/v_decimal UNKNOWN        : NPHI:Import:rC:NONE:v0 (auto-composite)
RHOB     .g/cm3       UNKNOWN        : RHOB:Import:rC:NONE:v0 (auto-composite)
~A     DEPTH         CALI         DRHO           DT           GR          ILD          LLD          LLS         MSFL         NPHI         RHOB
# ...
   2884.7793       6.0095      -0.7445      85.1572      39.3268    -999.2500      63.6740      57.4631      94.7012       0.1262       2.6335
   2884.9319       6.0190      -0.7450      74.2640      36.6670    -999.2500      47.2700      38.0690      42.6670       0.1421       2.6470
   2885.0842       6.0494      -0.7475      75.2835      36.6670    -999.2500      49.0714      39.0081      56.0721       0.1494       2.6794
   2885.2366       6.0800      -0.7500      76.3100      36.6670    -999.2500      50.8850      39.9520      69.5470       0.1585       2.7120
   2885.3889       6.0955      -0.7500      79.5044      36.8165    -999.2500      57.1647      52.1898      67.6865       0.1680       2.7120
   2885.5413       6.1110      -0.7500      82.7210      36.9670    -999.2500      63.4880      64.4930      65.8160       0.1754       2.7120
   2885.6938       6.1110    -999.2500     100.6251      37.5235    -999.2500      71.5998      62.9552      55.1257       0.1737       2.7080
   2885.8462       6.1110    -999.2500     118.6560      38.0840    -999.2500      79.7690      61.4090      44.3770       0.1638       2.7040
   2885.9985       6.1110    -999.2500     118.5858      39.9891    -999.2500      76.2033      56.5640      29.8247       0.1357       2.6910
   2886.1509       6.1110    -999.2500     118.5150      41.9080    -999.2500      72.6120      51.6920      15.1910       0.1070       2.6780
   2886.3035       6.1110    -999.2500     111.2521      47.5812    -999.2500      62.1225      47.1814      17.0452       0.0949       2.6496
   2886.4558       6.1110    -999.2500     103.9360      53.2960    -999.2500      51.5560      42.6450      18.9100       0.0948       2.6210
   2886.6082       6.1110    -999.2500     116.0598      60.9779    -999.2500      41.1742      37.9268      29.8924       0.0980       2.6240
   2886.7605       6.1110    -999.2500     128.2740      68.7170    -999.2500      30.7150      33.1810      40.9390       0.0970       2.6270
   2886.9131       6.1110    -999.2500     125.0009      76.9871    -999.2500      31.0951      28.6076      39.7321       0.0952       2.6355
   2887.0654       6.1110    -999.2500     121.7030      85.3200    -999.2500      31.4780      24.0070      38.5180       0.0988       2.6440
   2887.2178       6.1055    -999.2500     109.7599      82.6089    -999.2500      34.3572      24.9137      35.7131       0.1012       2.6490
   2887.3701       6.1000    -999.2500      97.7440      79.8770    -999.2500      37.2540      25.8260      32.8910       0.0866       2.6540
   2887.5225       6.0501    -999.2500      85.2508      72.3351    -999.2500      44.1590      29.5040      30.8153       0.0812       2.6600
   2887.6750       6.0000    -999.2500      72.6800      64.7340    -999.2500      51.1070      33.1990      28.7300       0.0705       2.6660
   2887.8274       6.0000    -999.2500      81.6864      64.8302    -999.2500      66.5201      37.1342      18.7202       0.0520       2.6725
   2887.9797       6.0000    -999.2500      90.7500      64.9270    -999.2500      82.0310      41.0880       8.6630       0.0399       2.6790
   2888.1321       6.0000    -999.2500      90.7211      64.0429    -999.2500      75.1827      43.0407      35.0887       0.0293       2.6840
   2888.2847       6.0000    -999.2500      90.6920      63.1530    -999.2500      68.2900      45.0030      61.6430       0.0265       2.6890
   2888.4370       6.0035    -999.2500      87.6515      60.0657    -999.2500      68.3951      45.4155      58.1362       0.0243       2.6935
   2888.5894       6.0070    -999.2500      84.5910      56.9580    -999.2500      68.5010      45.8300      54.6120       0.0221       2.6980
   2888.7417       6.0349    -999.2500      76.2017      53.7264    -999.2500      72.0222      48.2269      45.0769       0.0216       2.7030
   2888.8943       6.0630    -999.2500      67.7560      50.4730    -999.2500      75.5670      50.6360      35.4930       0.0242       2.7080
   2889.0466       6.0316    -999.2500      63.7796      46.0003    -999.2500      72.5349      49.7134      28.9826       0.0292       2.7095
   2889.1990       6.0000    -999.2500      59.7760      41.4970    -999.2500      69.4820      48.7860      22.4380       0.0380       2.7110
   2889.3513       6.0145    -999.2500      55.4332      42.0172    -999.2500      57.9443      45.6474      24.3494       0.0568       2.7095
   2889.5037       6.0290    -999.2500      51.0600      42.5410    -999.2500      46.3260      42.4920      26.2710       0.0757       2.7080
   2889.6562       6.0649    -999.2500      51.8303      44.5374    -999.2500      51.3800      40.0008      75.4659       0.0895       2.7035
   2889.8086       6.1010    -999.2500      52.6060      46.5480    -999.2500      56.4700      37.4960     124.9310       0.0764       2.6990
   2889.9609       6.0676    -999.2500      57.8097      48.7725    -999.2500      75.0573      43.6038      81.7030       0.0713       2.6935
   2890.1133       6.0340    -999.2500      63.0510      51.0130    -999.2500      93.7790      49.7460      38.2320       0.0497       2.6880
   2890.2659       6.0724    -999.2500      74.2846      52.7222    -999.2500     101.0164      45.3312      72.7095       0.0471       2.6800
   2890.4182       6.1110    -999.2500      85.6010      54.4440    -999.2500     108.3070      40.8910     107.3850       0.0455       2.6720
   2890.5706       6.0985    -999.2500     105.2146      54.1934    -999.2500     117.1325      41.9554     103.7422       0.0446       2.6655
   2890.7229       6.0860    -999.2500     124.9750      53.9410    -999.2500     126.0240      43.0260     100.0780       0.0436       2.6590
   2890.8755       6.0431    -999.2500     122.7330      53.1216    -999.2500     152.6436     118.3177     100.8043       0.0417       2.6485
   2891.0278       6.0000    -999.2500     120.4740      52.2960    -999.2500     179.4660     194.0610     101.5350       0.0375       2.6380
   2891.1802       6.0169    -999.2500     107.3238      51.7058    -999.2500     163.8304     166.1570      96.5782       0.0309       2.6220
   2891.3325       6.0340    -999.2500      94.0930      51.1110    -999.2500     148.0990     138.0820      91.5910       0.0257       2.6060
   2891.4849       6.0724    -999.2500      94.2789      51.3122    -999.2500     115.1136      95.1701      67.1757       0.0231       2.6060
   2891.6375       6.1110    -999.2500      94.4660      51.5150    -999.2500      81.9220      52.0590      42.6470       0.0222       2.6060
   2891.7898       6.1110    -999.2500      98.9143      52.2985    -999.2500      60.5791      41.6663      72.0449       0.0218       2.6065
   2891.9421       6.1110    -999.2500     103.3910      53.0870    -999.2500      39.1000      31.2240     101.5830       0.0215       2.6070
   2892.0945       6.0965    -999.2500     120.5502      51.2804    -999.2500      39.7723      31.9991      67.4795       0.0215       2.6100
   2892.2471       6.0820    -999.2500     137.8210      49.4620    -999.2500      40.4490      32.7780      33.2090       0.0217       2.6130
   2892.3994       6.0436    -999.2500     134.1123      49.7436    -999.2500      55.7413      35.3924      38.4494       0.0231       2.6180
   2892.5518       6.0050    -999.2500     130.3790      50.0270    -999.2500      71.1350      38.0200      43.7160       0.0243       2.6230
   2892.7041       6.0215    -999.2500     117.2663      51.2329    -999.2500      60.4959      42.5773     124.2831       0.0268       2.6270
   2892.8567       6.0380    -999.2500     104.0650      52.4470    -999.2500      49.7850      47.1580     205.2650       0.0320       2.6310
   2893.0090       6.0744    -999.2500     116.0457      54.8158    -999.2500      55.4764      58.5061     175.0451       0.0399       2.6375
   2893.1614       6.1110    -999.2500     128.1090      57.2010    -999.2500      61.2070      69.9140     144.6660       0.0440       2.6440
