#------------------------------------------------------------------------------
#
#   Created by  : [OpenWorks] Log Export Utility (LEXP)
#   Created on  : 2016-05-18 11:18:07
#   Project     : CANT971
#   User        : R5K
#   Interpreter : PEP
#
#------------------------------------------------------------------------------
~VERSION INFORMATION
VERS. 2.0 : CWLS Log ASCII Standard - version 2.0
WRAP.  NO : One line per depth step
~WELL INFORMATION
#MNEMONIC   .UNIT                                           VALUE :DESCRIPTION
#------------------------------------------------------------------------------
STRT        .M                                            51.3586 :START DEPTH
STOP        .M                                          2955.0359 :STOP DEPTH
STEP        .M                                             0.1524 :STEP
NULL        .                                           -999.2500 :NULL VALUE
COMP        .                                   PEMEX EXPL & PROD :COMPANY
WELL        .                                                 283 :WELL
FLD         .                                           CANTARELL :FIELD
LOC         .                                             UNKNOWN :LOCATION
CNTY        .                                      CD. DEL CARMEN :COUNTY
STAT        .                                            CAMPECHE :STATE
CTRY        .                                              MEXICO :COUNTRY
SRVC        .                                             UNKNOWN :SERVICE COMPANY
DATE        .                                             UNKNOWN :LOG DATE
UWI         .                                          3060000202 :UNIQUE WELL ID
XCOORD      .                                       597306.720000 :SURFACE X
YCOORD      .                                      2143045.610000 :SURFACE Y
LAT         .                                           19.380344 :LATITUDE
LON         .                                          -92.073390 :LONGITUDE
ELEV        .M                                            27.7000 :SURFACE ELEV
ELEV_TYPE   .                                                  KB :ELEV TYPE
~CURVE INFORMATION
#MNEMONIC.UNIT        API CODE       : CURVE DESCRIPTION
#------------------------------------------------------------------------------
DEPTH    .M                          : Measured Depth
CALI     .inches      UNKNOWN        : CALI:Import:rC:NONE:v0 (auto-composite)
DRHO     .g/cm3       UNKNOWN        : DRHO:Import:rC:NONE:v0 (auto-composite)
DT       .us/ft       UNKNOWN        : DT:Import:rC:NONE:v0 (auto-composite)
GR       .API         UNKNOWN        : GR:Import:rC:NONE:v0 (auto-composite)
ILD      .ohm.m       UNKNOWN        : ILD:Import:rC:NONE:v0 (auto-composite)
LLD      .ohm.m       UNKNOWN        : LLD:Import:rC:NONE:v0 (auto-composite)
LLS      .ohm.m       UNKNOWN        : LLS:Import:rC:NONE:v0 (auto-composite)
MSFL     .ohm.m       UNKNOWN        : MSFL:Import:rC:NONE:v0 (auto-composite)
NPHI     .v/v_decimal UNKNOWN        : NPHI:Import:rC:NONE:v0 (auto-composite)
RHOB     .g/cm3       UNKNOWN        : RHOB:Import:rC:NONE:v0 (auto-composite)
~A     DEPTH         CALI         DRHO           DT           GR          ILD          LLD          LLS         MSFL         NPHI         RHOB
# ...
   2816.5042       6.1110       0.0320      68.1145      45.0497    -999.2500       5.2944       5.6449       8.9432       0.1494       2.5905
   2816.6565       6.1110       0.0280      69.5170      47.0300    -999.2500       3.5920       3.7520       4.8670       0.1614       2.5860
   2816.8091       6.1110       0.0300      72.2863      46.9184    -999.2500       2.9534       3.1278       8.5930       0.1727       2.5755
   2816.9614       6.1110       0.0320      75.0720      46.8060    -999.2500       2.3110       2.5020      12.3290       0.1840       2.5650
   2817.1138       6.1110       0.0200      78.5694      45.6295    -999.2500       3.0014       3.2524      15.0616       0.1952       2.5485
   2817.2661       6.1110       0.0080      82.0880      44.4440    -999.2500       3.6960       4.0050      17.8020       0.2050       2.5320
   2817.4185       6.1110       0.0115      84.0495      44.6148    -999.2500       4.9825       5.1618      17.5299       0.2023       2.5490
   2817.5710       6.1110       0.0150      86.0230      44.7870    -999.2500       6.2770       6.3220      17.2570       0.1979       2.5660
   2817.7234       6.1110       0.0165      85.4578      45.4504    -999.2500       6.0313       6.1712      15.6974       0.1898       2.5665
   2817.8757       6.1110       0.0180      84.8890      46.1180    -999.2500       5.7840       6.0200      14.1330       0.1821       2.5670
   2818.0281       6.1110       0.0295      90.8344      46.3861    -999.2500       4.8640       4.8863      12.7981       0.1815       2.5795
   2818.1807       6.1110       0.0410      96.8180      46.6560    -999.2500       3.9380       3.7490      11.4590       0.1818       2.5920
   2818.3330       6.1110       0.0505      86.6055      47.1977    -999.2500       3.5637       3.7195      12.0261       0.1841       2.5825
   2818.4854       6.1110       0.0600      76.3260      47.7430    -999.2500       3.1870       3.6900      12.5950       0.1867       2.5730
   2818.6377       6.1110       0.0391      82.9384      47.2068    -999.2500       3.6330       4.0199      13.7520       0.1921       2.5670
   2818.7903       6.1110       0.0180      89.5950      46.6670    -999.2500       4.0820       4.3510      14.9130       0.1974       2.5610
   2818.9426       6.1110       0.0150      91.0979      47.3258    -999.2500       4.2843       4.3136      13.8873       0.1992       2.5805
   2819.0950       6.1110       0.0120      92.6110      47.9890    -999.2500       4.4880       4.2760      12.8580       0.2004       2.6000
   2819.2473       6.1110       0.0270      86.7089      48.9910    -999.2500       3.9384       3.8663       8.0265       0.1987       2.5900
   2819.3997       6.1110       0.0420      80.7660      50.0000    -999.2500       3.3850       3.4550       3.1770       0.1968       2.5800
   2819.5522       6.1110       0.0430      78.9026      49.5426    -999.2500       3.1518       3.1281       5.2830       0.1953       2.5765
   2819.7046       6.1110       0.0440      77.0260      49.0820    -999.2500       2.9170       2.8000       7.3970       0.1940       2.5730
   2819.8569       6.1110       0.0445      78.9028      48.4323    -999.2500       2.7815       2.7341       9.3906       0.1934       2.5645
   2820.0093       6.1110       0.0450      80.7930      47.7780    -999.2500       2.6450       2.6680      11.3920       0.1928       2.5560
   2820.1619       6.1110       0.0470      88.5342      47.7780    -999.2500       3.1686       3.2318      10.7299       0.1898       2.5595
   2820.3142       6.1110       0.0490      96.3320      47.7780    -999.2500       3.6960       3.7980      10.0650       0.1870       2.5630
   2820.4666       6.1110       0.0560      96.5319      47.2400    -999.2500       3.5285       3.5281       8.9653       0.1883       2.5620
   2820.6189       6.1110       0.0630      96.7330      46.6980    -999.2500       3.3600       3.2570       7.8610       0.1891       2.5610
   2820.7715       6.1110       0.0555      97.1164      45.3576    -999.2500       3.7209       3.7405      13.1221       0.1799       2.5580
   2820.9238       6.1110       0.0480      97.5020      44.0070    -999.2500       4.0840       4.2260      18.4060       0.1690       2.5550
   2821.0762       6.1110       0.0146      90.0651      43.1652    -999.2500       5.6906       4.6030      14.3248       0.1467       2.5890
   2821.2285       6.1110      -0.0190      82.5830      42.3170    -999.2500       7.3070       4.9810      10.2320       0.1239       2.6230
   2821.3809       6.1110      -0.0125      80.5174      41.0121    -999.2500       8.2271       5.2915      14.8551       0.1075       2.6450
   2821.5334       6.1110      -0.0060      78.4390      39.6970    -999.2500       9.1530       5.6030      19.4920       0.0926       2.6670
   2821.6858       6.1110       0.0244      76.5709      37.9485    -999.2500       8.4303       5.7842      20.9393       0.0888       2.6720
   2821.8381       6.1110       0.0550      74.6910      36.1890    -999.2500       7.7030       5.9660      22.3910       0.0868       2.6770
   2821.9905       6.1110       0.0430      70.0071      35.0861    -999.2500       6.9180       6.5820      16.5804       0.0942       2.6745
   2822.1431       6.1110       0.0310      65.2930      33.9760    -999.2500       6.1280       7.2000      10.7510       0.1022       2.6720
   2822.2954       6.1110       0.0245      68.5543      38.1682    -999.2500       5.6625      11.2207      12.2744       0.1085       2.6460
   2822.4478       6.1110       0.0180      71.8370      42.3880    -999.2500       5.1940      15.2550      13.8030       0.1143       2.6200
   2822.6001       6.1110       0.0040      72.7594      44.4277    -999.2500       5.5478      28.2244      17.4167       0.1171       2.6135
   2822.7527       6.1110      -0.0100      73.6880      46.4810    -999.2500       5.9040      41.2390      21.0430       0.1180       2.6070
   2822.9050       6.1110       0.0249      64.4042      39.4166    -999.2500       7.0675      48.6860      21.1743       0.0990       2.6534
   2823.0574       6.1110       0.0600      55.0570      32.3040    -999.2500       8.2390      56.1600      21.3060       0.0797       2.7000
   2823.2097       6.1110       0.0450      55.0625      34.3444    -999.2500       6.1523      36.8331      18.8341       0.0783       2.6995
   2823.3621       6.1110       0.0300      55.0680      36.3990    -999.2500       4.0510      17.4340      16.3530       0.0800       2.6990
   2823.5146       6.1110       0.0425      58.6558      44.6632    -999.2500       3.3729      10.4730      10.4155       0.1042       2.6616
   2823.6670       6.1110       0.0550      62.2690      52.9860    -999.2500       2.6900       3.4850       4.4550       0.1319       2.6240
   2823.8193       6.1110       0.0475      69.8527      57.8036    -999.2500       2.1579       2.7046       4.4585       0.1827       2.5621
   2823.9717       6.1110       0.0400      77.4910      62.6560    -999.2500       1.6220       1.9210       4.4620       0.2323       2.5000
   2824.1243       6.1110       0.0455      91.4313      62.6281    -999.2500       1.6230       1.9235       5.4295       0.2356       2.5000
   2824.2766       6.1110       0.0510     105.4740      62.6000    -999.2500       1.6240       1.9260       6.4010       0.2345       2.5000
   2824.4290       6.0556       0.0510     105.4271      57.6525    -999.2500       1.8513       2.5771      20.4582       0.2197       2.5235
   2824.5813       6.0000       0.0510     105.3800      52.6680    -999.2500       2.0800       3.2310      34.5750       0.2024       2.5470
   2824.7339       6.0000       0.0470      98.8929      44.8427    -999.2500       3.7151       5.6826      34.4568       0.1641       2.6393
   2824.8862       6.0000       0.0430      92.3670      36.9580    -999.2500       5.3600       8.1450      34.3380       0.1249       2.7320
