#------------------------------------------------------------------------------
#
#   Created by  : [OpenWorks] Log Export Utility (LEXP)
#   Created on  : 2016-05-18 11:18:07
#   Project     : CANT971
#   User        : R5K
#   Interpreter : PEP
#
#------------------------------------------------------------------------------
~VERSION INFORMATION
VERS. 2.0 : CWLS Log ASCII Standard - version 2.0
WRAP.  NO : One line per depth step
~WELL INFORMATION
#MNEMONIC   .UNIT                                           VALUE :DESCRIPTION
#------------------------------------------------------------------------------
STRT        .M                                            51.3586 :START DEPTH
STOP        .M                                          2955.0359 :STOP DEPTH
STEP        .M                                             0.1524 :STEP
NULL        .                                           -999.2500 :NULL VALUE
COMP        .                                   PEMEX EXPL & PROD :COMPANY
WELL        .                                                 283 :WELL
FLD         .                                           CANTARELL :FIELD
LOC         .                                             UNKNOWN :LOCATION
CNTY        .                                      CD. DEL CARMEN :COUNTY
STAT        .                                            CAMPECHE :STATE
CTRY        .                                              MEXICO :COUNTRY
SRVC        .                                             UNKNOWN :SERVICE COMPANY
DATE        .                                             UNKNOWN :LOG DATE
UWI         .                                          3060000202 :UNIQUE WELL ID
XCOORD      .                                       597306.720000 :SURFACE X
YCOORD      .                                      2143045.610000 :SURFACE Y
LAT         .                                           19.380344 :LATITUDE
LON         .                                          -92.073390 :LONGITUDE
ELEV        .M                                            27.7000 :SURFACE ELEV
ELEV_TYPE   .                                                  KB :ELEV TYPE
~CURVE INFORMATION
#MNEMONIC.UNIT        API CODE       : CURVE DESCRIPTION
#------------------------------------------------------------------------------
DEPTH    .M                          : Measured Depth
CALI     .inches      UNKNOWN        : CALI:Import:rC:NONE:v0 (auto-composite)
DRHO     .g/cm3       UNKNOWN        : DRHO:Import:rC:NONE:v0 (auto-composite)
DT       .us/ft       UNKNOWN        : DT:Import:rC:NONE:v0 (auto-composite)
GR       .API         UNKNOWN        : GR:Import:rC:NONE:v0 (auto-composite)
ILD      .ohm.m       UNKNOWN        : ILD:Import:rC:NONE:v0 (auto-composite)
LLD      .ohm.m       UNKNOWN        : LLD:Import:rC:NONE:v0 (auto-composite)
LLS      .ohm.m       UNKNOWN        : LLS:Import:rC:NONE:v0 (auto-composite)
MSFL     .ohm.m       UNKNOWN        : MSFL:Import:rC:NONE:v0 (auto-composite)
NPHI     .v/v_decimal UNKNOWN        : NPHI:Import:rC:NONE:v0 (auto-composite)
RHOB     .g/cm3       UNKNOWN        : RHOB:Import:rC:NONE:v0 (auto-composite)
~A     DEPTH         CALI         DRHO           DT           GR          ILD          LLD          LLS         MSFL         NPHI         RHOB
# ...
   2833.5730       6.1110       0.0566      56.9454      27.8816    -999.2500      29.5651      39.9048      32.0392       0.0612       2.6325
   2833.7253       6.1110       0.0220      56.6670      28.6190    -999.2500      31.4050      40.9460      32.1980       0.0633       2.6330
   2833.8777       6.1110       0.0220      56.6670      29.5510    -999.2500      34.4426      43.7718      35.7122       0.0633       2.6505
   2834.0303       6.1110       0.0220      56.6670      30.4890    -999.2500      37.5000      46.6070      39.2380       0.0633       2.6680
   2834.1826       6.1110       0.0444      56.6740      29.6917    -999.2500      37.3799      46.4887      42.4190       0.0625       2.6645
   2834.3350       6.1110       0.0670      56.6810      28.8890    -999.2500      37.2590      46.3700      45.6110       0.0617       2.6610
   2834.4873       6.1110       0.0660      58.1385      28.9921    -999.2500      29.6793      43.7133      45.1244       0.0618       2.6620
   2834.6399       6.1110       0.0650      59.6060      29.0960    -999.2500      22.0480      41.0470      44.6360       0.0619       2.6630
   2834.7922       6.1110       0.0535      59.5756      31.0433    -999.2500      22.2224      28.9315      33.5401       0.0638       2.6785
   2834.9446       6.1110       0.0420      59.5450      33.0040    -999.2500      22.3980      16.7710      22.4030       0.0657       2.6940
   2835.0969       6.1110       0.0400      58.5121      34.2755    -999.2500      28.2474      16.9976      28.0507       0.0664       2.7060
   2835.2493       6.1110       0.0380      57.4720      35.5560    -999.2500      34.1380      17.2250      33.7200       0.0671       2.7180
   2835.4019       6.1110       0.0190      57.5173      36.2306    -999.2500      33.8884      22.4581      33.4046       0.0710       2.7170
   2835.5542       6.1110       0.0000      57.5630      36.9100    -999.2500      33.6370      27.7120      33.0880       0.0749       2.7160
   2835.7065       6.1110       0.0000      58.3735      37.6234    -999.2500      29.6765      27.5044      25.6936       0.0824       2.6960
   2835.8589       6.1110       0.0000      59.1900      38.3420    -999.2500      25.6870      27.2960      18.2690       0.0899       2.6760
   2836.0115       6.1110       0.0040      61.0899      41.6079    -999.2500      16.8782      23.8617      22.2182       0.0895       2.6605
   2836.1638       6.1110       0.0080      63.0040      44.8980    -999.2500       8.0040      20.4130      26.1840       0.0891       2.6450
   2836.3162       6.1110       0.0205      59.9177      44.6763    -999.2500      20.5213      13.5209      24.7147       0.0812       2.6455
   2836.4685       6.1110       0.0330      56.8130      44.4530    -999.2500      33.1130       6.5990      23.2390       0.0734       2.6460
   2836.6211       6.1110       0.0265      57.1410      36.9638    -999.2500      32.5043       6.8145      42.3454       0.0658       2.6490
   2836.7734       6.1110       0.0200      57.4710      29.4170    -999.2500      31.8920       7.0310      61.5370       0.0582       2.6520
   2836.9258       6.1110       0.0290      64.7425      29.6009    -999.2500      24.4845      26.1023      58.4331       0.0591       2.6739
   2837.0781       6.1110       0.0380      72.0590      29.7860    -999.2500      17.0310      45.2610      55.3150       0.0600       2.6960
   2837.2305       6.1110       0.0365      71.9882      32.7172    -999.2500      12.1579      44.6395      30.1748       0.0753       2.6945
   2837.3831       6.1110       0.0350      71.9170      35.6670    -999.2500       7.2540      44.0150       4.9160       0.0908       2.6930
   2837.5354       6.1110       0.0365      70.1273      40.0414    -999.2500       6.4122      24.9463       5.2035       0.1282       2.6541
   2837.6877       6.1110       0.0380      68.3260      44.4440    -999.2500       5.5650       5.8160       5.4920       0.1660       2.6150
   2837.8401       6.1110       0.0190      68.3390      44.2785    -999.2500       5.7230       5.8874      17.1340       0.1646       2.6584
   2837.9927       6.1110       0.0000      68.3520      44.1120    -999.2500       5.8820       5.9590      28.8150       0.1628       2.7020
   2838.1450       6.1110       0.0005      74.9429      39.4880    -999.2500      12.8357      11.0252      28.4461       0.1310       2.7015
   2838.2974       6.1110       0.0010      81.5780      34.8330    -999.2500      19.8360      16.1090      28.0760       0.0989       2.7010
   2838.4497       6.1110       0.0130      81.4684      34.8435    -999.2500      19.3905      16.0401      23.8317       0.0996       2.6711
   2838.6023       6.1110       0.0250      81.3580      34.8540    -999.2500      18.9420      15.9710      19.5720       0.1005       2.6410
   2838.7546       6.1110       0.0240      79.8876      35.1136    -999.2500      14.5129      14.8087      14.7605       0.1123       2.6590
   2838.9070       6.1110       0.0230      78.4070      35.3750    -999.2500      10.0530      13.6420       9.9310       0.1243       2.6770
   2839.0593       6.1110       0.0115      78.0403      36.9589    -999.2500       8.5792      10.5684      19.0424       0.1273       2.6770
   2839.2117       6.1110       0.0000      77.6710      38.5540    -999.2500       7.0950       7.4830      28.1890       0.1302       2.6770
   2839.3643       6.1110       0.0015      76.8211      39.9455    -999.2500       6.1444       6.5239      22.1905       0.1319       2.6720
   2839.5166       6.1110       0.0030      75.9650      41.3470    -999.2500       5.1870       5.5610      16.1680       0.1336       2.6670
   2839.6689       6.1110       0.0324      79.9967      43.3113    -999.2500       5.1930       5.3310      17.4703       0.1430       2.6311
   2839.8213       6.1110       0.0620      84.0580      45.2900    -999.2500       5.1990       5.1000      18.7780       0.1525       2.5950
   2839.9739       6.1110       0.0485      83.9698      43.9659    -999.2500       6.0015       6.8169      13.5661       0.1465       2.6085
   2840.1262       6.1110       0.0350      83.8810      42.6320    -999.2500       6.8100       8.5410       8.3320       0.1404       2.6220
   2840.2786       6.1145       0.0355      79.5131      42.7271    -999.2500       6.7572       8.3903       8.5356       0.1404       2.6210
   2840.4309       6.1180       0.0360      75.1190      42.8230    -999.2500       6.7040       8.2390       8.7400       0.1405       2.6200
   2840.5835       6.1664       0.0619      75.4944      44.1743    -999.2500       5.3302       6.1711      20.2347       0.1422       2.5921
   2840.7358       6.2150       0.0880      75.8720      45.5360    -999.2500       3.9480       4.0940      31.7810       0.1441       2.5640
   2840.8882       6.2095       0.0875      83.4778      48.3148    -999.2500       3.9889       4.1015      20.3150       0.1721       2.5795
   2841.0405       6.2040       0.0870      91.1310      51.1110    -999.2500       4.0300       4.1090       8.7960       0.2000       2.5950
   2841.1929       6.1022       0.0685      89.1842      51.2027    -999.2500       4.6700       4.5689       9.0504       0.1992       2.5726
   2841.3455       6.0000       0.0500      87.2250      51.2950    -999.2500       5.3140       5.0310       9.3060       0.1983       2.5500
   2841.4978       6.0035       0.0525      93.6228      52.5395    -999.2500       5.2986       5.0185      14.9578       0.1989       2.5510
   2841.6501       6.0070       0.0550     100.0620      53.7920    -999.2500       5.2830       5.0060      20.6280       0.1995       2.5520
   2841.8025       6.0489       0.1119      99.4101      56.8858    -999.2500       5.0627       4.8203      12.8222       0.2112       2.5655
   2841.9551       6.0910       0.1690      98.7540      60.0000    -999.2500       4.8410       4.6340       4.9900       0.2229       2.5790
