#------------------------------------------------------------------------------
#
#   Created by  : [OpenWorks] Log Export Utility (LEXP)
#   Created on  : 2016-05-18 11:18:07
#   Project     : CANT971
#   User        : R5K
#   Interpreter : PEP
#
#------------------------------------------------------------------------------
~VERSION INFORMATION
VERS. 2.0 : CWLS Log ASCII Standard - version 2.0
WRAP.  NO : One line per depth step
~WELL INFORMATION
#MNEMONIC   .UNIT                                           VALUE :DESCRIPTION
#------------------------------------------------------------------------------
STRT        .M                                            51.3586 :START DEPTH
STOP        .M                                          2955.0359 :STOP DEPTH
STEP        .M                                             0.1524 :STEP
NULL        .                                           -999.2500 :NULL VALUE
COMP        .                                   PEMEX EXPL & PROD :COMPANY
WELL        .                                                 283 :WELL
FLD         .                                           CANTARELL :FIELD
LOC         .                                             UNKNOWN :LOCATION
CNTY        .                                      CD. DEL CARMEN :COUNTY
STAT        .                                            CAMPECHE :STATE
CTRY        .                                              MEXICO :COUNTRY
SRVC        .                                             UNKNOWN :SERVICE COMPANY
DATE        .                                             UNKNOWN :LOG DATE
UWI         .                                          3060000202 :UNIQUE WELL ID
XCOORD      .                                       597306.720000 :SURFACE X
YCOORD      .                                      2143045.610000 :SURFACE Y
LAT         .                                           19.380344 :LATITUDE
LON         .                                          -92.073390 :LONGITUDE
ELEV        .M                                            27.7000 :SURFACE ELEV
ELEV_TYPE   .                                                  KB :ELEV TYPE
~CURVE INFORMATION
#MNEMONIC.UNIT        API CODE       : CURVE DESCRIPTION
#------------------------------------------------------------------------------
DEPTH    .M                          : Measured Depth
CALI     .inches      UNKNOWN        : CALI:Import:rC:NONE:v0 (auto-composite)
DRHO     .g/cm3       UNKNOWN        : DRHO:Import:rC:NONE:v0 (auto-composite)
DT       .us/ft       UNKNOWN        : DT:Import:rC:NONE:v0 (auto-composite)
GR       .API         UNKNOWN        : GR:Import:rC:NONE:v0 (auto-composite)
ILD      .ohm.m       UNKNOWN        : ILD:Import:rC:NONE:v0 (auto-composite)
LLD      .ohm.m       UNKNOWN        : LLD:Import:rC:NONE:v0 (auto-composite)
LLS      .ohm.m       UNKNOWN        : LLS:Import:rC:NONE:v0 (auto-composite)
MSFL     .ohm.m       UNKNOWN        : MSFL:Import:rC:NONE:v0 (auto-composite)
NPHI     .v/v_decimal UNKNOWN        : NPHI:Import:rC:NONE:v0 (auto-composite)
RHOB     .g/cm3       UNKNOWN        : RHOB:Import:rC:NONE:v0 (auto-composite)
~A     DEPTH         CALI         DRHO           DT           GR          ILD          LLD          LLS         MSFL         NPHI         RHOB
# ...
   2893.3137       6.0985    -999.2500     123.7069      57.1696    -999.2500      87.1660      85.6176      96.7738       0.0505       2.6555
   2893.4661       6.0860    -999.2500     119.2740      57.1380    -999.2500     113.3070     101.4060      48.6230       0.0545       2.6670
   2893.6187       6.0431    -999.2500     104.3757      56.3966    -999.2500     162.2687     122.9485      35.1796       0.0583       2.6655
   2893.7710       6.0000    -999.2500      89.3710      55.6500    -999.2500     211.5800     144.6100      21.6620       0.0631       2.6640
   2893.9233       6.0000    -999.2500      76.3139      55.8592    -999.2500     343.3073     177.3096      21.9367       0.0671       2.6570
   2894.0757       6.0000    -999.2500      63.1620      56.0700    -999.2500     475.9910     210.1940      22.2130       0.0708       2.6500
   2894.2283       6.0000    -999.2500      60.0889      57.4743    -999.2500     645.0625     269.9554      27.0510       0.0752       2.6500
   2894.3806       6.0000    -999.2500      56.9930      58.8890    -999.2500     815.3840     330.0620      31.9170       0.0775       2.6500
   2894.5330       6.0000    -999.2500      56.6782      58.3804    -999.2500     868.1323     453.8818      24.0552       0.0777       2.6495
   2894.6853       6.0000    -999.2500      56.3610      57.8680    -999.2500     921.2770     578.4330      16.1470       0.0773       2.6490
   2894.8379       6.0000    -999.2500      55.7847      56.1346    -999.2500    1058.6294     711.1814      17.8514       0.0766       2.6475
   2894.9902       6.0000    -999.2500      55.2040      54.3880    -999.2500    1197.0320     844.7300      19.5660       0.0765       2.6460
   2895.1426       6.0000    -999.2500      53.9937      52.2045    -999.2500    1296.8157     914.7130      25.5954       0.0760       2.6450
   2895.2949       6.0000    -999.2500      52.7760      50.0040    -999.2500    1397.2140     985.1270      31.6620       0.0739       2.6440
   2895.4473       6.0000    -999.2500      52.9654      50.2241    -999.2500    1320.3085    1068.6198      26.6223       0.0713       2.6335
   2895.5999       6.0000    -999.2500      53.1560      50.4460    -999.2500    1242.9200    1152.6370      21.5510       0.0690       2.6230
   2895.7522       6.0000    -999.2500      58.8742      51.5206    -999.2500    1276.6863    1186.3982      24.6266       0.0660       2.6290
   2895.9045       6.0000    -999.2500      64.6290      52.6020    -999.2500    1310.6689    1220.3760      27.7220       0.0621       2.6350
   2896.0569       6.0000    -999.2500      61.9522      56.0986    -999.2500    1241.8074    1161.1669      23.5423       0.0506       2.6350
   2896.2095       6.0000    -999.2500      59.2580      59.6180    -999.2500    1172.4960    1101.6660      19.3420       0.0459       2.6350
   2896.3618       6.0484    -999.2500      60.1221      59.3609    -999.2500     906.7386     969.0757      24.2616       0.0465       2.6220
   2896.5142       6.0970    -999.2500      60.9920      59.1020    -999.2500     639.2100     835.8160      29.2060       0.0477       2.6090
   2896.6665       6.0486    -999.2500      66.8138      57.7660    -999.2500     641.8376     726.4313      27.6510       0.0492       2.6090
   2896.8191       6.0000    -999.2500      72.6750      56.4210    -999.2500     644.4830     616.4800      26.0880       0.0518       2.6090
   2896.9714       6.0000    -999.2500      67.4904      54.1170    -999.2500     670.7441     616.4800      17.8209       0.0545       2.6255
   2897.1238       6.0000    -999.2500      62.2700      51.7970    -999.2500     697.1870     616.4800       9.5100       0.0554       2.6420
   2897.2761       6.0000    -999.2500      63.4484      51.9799    -999.2500     683.0004     613.7519      11.0837       0.0546       2.6400
   2897.4285       6.0000    -999.2500      64.6350      52.1640    -999.2500     668.7140     611.0090      12.6660       0.0559       2.6380
   2897.5811       6.0000    -999.2500      70.0620      51.6394    -999.2500     629.6561     588.7862      12.1799       0.0578       2.6390
   2897.7334       6.0000    -999.2500      75.5280      51.1110    -999.2500     590.3180     566.4400      11.6910       0.0576       2.6400
   2897.8857       6.0000    -999.2500      74.7294      52.0112    -999.2500     547.0174     522.0053      13.1778       0.0577       2.6430
   2898.0381       6.0000    -999.2500      73.9250      52.9180    -999.2500     503.4010     477.3180      14.6730       0.0585       2.6460
   2898.1907       6.0035    -999.2500      71.3680      56.5450    -999.2500     511.0800     483.8964      22.0296       0.0593       2.6510
   2898.3430       6.0070    -999.2500      68.7920      60.1990    -999.2500     518.8160     490.5130      29.4290       0.0630       2.6560
   2898.4954       6.0369    -999.2500      75.8055      60.1293    -999.2500     577.1982     537.9801      24.2309       0.0670       2.6620
   2898.6477       6.0670    -999.2500      82.8720      60.0590    -999.2500     636.0210     585.7290      19.0020       0.0691       2.6680
   2898.8003       6.0336    -999.2500      78.9436      58.8855    -999.2500     626.1310     576.7467      20.9057       0.0669       2.6690
   2898.9526       6.0000    -999.2500      74.9850      57.7030    -999.2500     616.1650     567.7100      22.8210       0.0690       2.6700
   2899.1050       6.0160    -999.2500      75.0324      53.4965    -999.2500     593.9507     541.7853      46.2350       0.0730       2.6720
   2899.2573       6.0320    -999.2500      75.0800      49.2640    -999.2500     571.5990     515.7000      69.7940       0.0766       2.6740
   2899.4097       6.0689    -999.2500      77.9709      49.3996    -999.2500     550.2429     493.5653      68.0076       0.0738       2.6765
   2899.5623       6.1060    -999.2500      80.8800      49.5360    -999.2500     528.7520     471.2910      66.2100       0.0702       2.6790
   2899.7146       6.0532    -999.2500      75.7500      50.1734    -999.2500     531.3481     460.6443      55.3166       0.0639       2.6830
   2899.8669       6.0000    -999.2500      70.5870      50.8150    -999.2500     533.9610     449.9290      44.3530       0.0568       2.6870
   2900.0193       6.0269    -999.2500      74.3805      50.3949    -999.2500     539.6598     496.2048      34.4680       0.0564       2.6940
   2900.1719       6.0540    -999.2500      78.1990      49.9720    -999.2500     545.3960     542.7100      24.5340       0.0615       2.7010
   2900.3242       6.0505    -999.2500      89.6168      48.4760    -999.2500     516.7215     525.1257      33.7187       0.0607       2.7090
   2900.4766       6.0470    -999.2500     101.1110      46.9700    -999.2500     487.8550     507.4520      42.9500       0.0561       2.7170
   2900.6289       6.0236    -999.2500      97.6339      45.3017    -999.2500     419.2229     435.3483      39.6456       0.0531       2.7160
   2900.7815       6.0000    -999.2500      94.1330      43.6220    -999.2500     350.1230     362.8690      36.3240       0.0481       2.7150
   2900.9338       6.0554    -999.2500      81.9578      42.5976    -999.2500     294.4863     301.6757      26.7361       0.0463       2.7090
   2901.0862       6.1110    -999.2500      69.6980      41.5660    -999.2500     238.4630     240.1560      17.0970       0.0452       2.7030
   2901.2385       6.1040    -999.2500      71.5634      42.3492    -999.2500     248.4856     233.8078      17.4635       0.0445       2.6920
   2901.3909       6.0970    -999.2500      73.4420      43.1380    -999.2500     258.5790     227.4250      17.8320       0.0439       2.6810
   2901.5435       6.0486    -999.2500      79.2795      46.0889    -999.2500     286.1856     259.5433      18.5724       0.0424       2.6755
   2901.6958       6.0000    -999.2500      85.1590      49.0610    -999.2500     313.9910     291.8410      19.3170       0.0405       2.6700
