#------------------------------------------------------------------------------
#
#   Created by  : [OpenWorks] Log Export Utility (LEXP)
#   Created on  : 2016-05-18 11:18:07
#   Project     : CANT971
#   User        : R5K
#   Interpreter : PEP
#
#------------------------------------------------------------------------------
~VERSION INFORMATION
VERS. 2.0 : CWLS Log ASCII Standard - version 2.0
WRAP.  NO : One line per depth step
~WELL INFORMATION
#MNEMONIC   .UNIT                                           VALUE :DESCRIPTION
#------------------------------------------------------------------------------
STRT        .M                                            51.3586 :START DEPTH
STOP        .M                                          2955.0359 :STOP DEPTH
STEP        .M                                             0.1524 :STEP
NULL        .                                           -999.2500 :NULL VALUE
COMP        .                                   PEMEX EXPL & PROD :COMPANY
WELL        .                                                 283 :WELL
FLD         .                                           CANTARELL :FIELD
LOC         .                                             UNKNOWN :LOCATION
CNTY        .                                      CD. DEL CARMEN :COUNTY
STAT        .                                            CAMPECHE :STATE
CTRY        .                                              MEXICO :COUNTRY
SRVC        .                                             UNKNOWN :SERVICE COMPANY
DATE        .                                             UNKNOWN :LOG DATE
UWI         .                                          3060000202 :UNIQUE WELL ID
XCOORD      .                                       597306.720000 :SURFACE X
YCOORD      .                                      2143045.610000 :SURFACE Y
LAT         .                                           19.380344 :LATITUDE
LON         .                                          -92.073390 :LONGITUDE
ELEV        .M                                            27.7000 :SURFACE ELEV
ELEV_TYPE   .                                                  KB :ELEV TYPE
~CURVE INFORMATION
#MNEMONIC.UNIT        API CODE       : CURVE DESCRIPTION
#------------------------------------------------------------------------------
DEPTH    .M                          : Measured Depth
CALI     .inches      UNKNOWN        : CALI:Import:rC:NONE:v0 (auto-composite)
DRHO     .g/cm3       UNKNOWN        : DRHO:Import:rC:NONE:v0 (auto-composite)
DT       .us/ft       UNKNOWN        : DT:Import:rC:NONE:v0 (auto-composite)
GR       .API         UNKNOWN        : GR:Import:rC:NONE:v0 (auto-composite)
ILD      .ohm.m       UNKNOWN        : ILD:Import:rC:NONE:v0 (auto-composite)
LLD      .ohm.m       UNKNOWN        : LLD:Import:rC:NONE:v0 (auto-composite)
LLS      .ohm.m       UNKNOWN        : LLS:Import:rC:NONE:v0 (auto-composite)
MSFL     .ohm.m       UNKNOWN        : MSFL:Import:rC:NONE:v0 (auto-composite)
NPHI     .v/v_decimal UNKNOWN        : NPHI:Import:rC:NONE:v0 (auto-composite)
RHOB     .g/cm3       UNKNOWN        : RHOB:Import:rC:NONE:v0 (auto-composite)
~A     DEPTH         CALI         DRHO           DT           GR          ILD          LLD          LLS         MSFL         NPHI         RHOB
# ...
   2807.9697       6.4181       0.1110     101.7033      63.1336    -999.2500       2.2296       1.9674       4.5785       0.2708       2.5350
   2808.1221       6.3850       0.1210     101.2000      62.5360    -999.2500       2.0450       2.0000       4.0500       0.2769       2.5390
   2808.2747       6.3591       0.1105     102.2188      62.6899    -999.2500       2.1905       1.9631       4.4507       0.2806       2.5470
   2808.4270       6.3330       0.1000     103.2450      62.8450    -999.2500       2.3370       1.9260       4.8530       0.2823       2.5550
   2808.5793       6.3330       0.0805      97.7517      63.0712    -999.2500       2.4526       1.8226       5.6175       0.2728       2.5580
   2808.7317       6.3330       0.0610      92.2180      63.2990    -999.2500       2.5690       1.7190       6.3840       0.2616       2.5610
   2808.8843       6.3330       0.0810      92.5443      60.9777    -999.2500       2.6392       1.9802       6.8714       0.2519       2.5425
   2809.0366       6.3330       0.1010      92.8730      58.6390    -999.2500       2.7100       2.2420       7.3600       0.2435       2.5240
   2809.1890       6.3330       0.1075      96.6347      58.6963    -999.2500       2.7439       2.2135       6.1092       0.2438       2.5295
   2809.3413       6.3330       0.1140     100.4190      58.7540    -999.2500       2.7780       2.1850       4.8550       0.2453       2.5350
   2809.4939       6.3330       0.0980      96.4631      59.0095    -999.2500       2.8692       2.2010       5.6009       0.2460       2.5315
   2809.6462       6.3330       0.0820      92.4830      59.2670    -999.2500       2.9610       2.2170       6.3490       0.2467       2.5280
   2809.7986       6.3330       0.0910      91.9467      58.5926    -999.2500       2.9201       2.5725       6.7908       0.2483       2.5285
   2809.9509       6.3330       0.1000      91.4070      57.9140    -999.2500       2.8790       2.9290       7.2340       0.2494       2.5290
   2810.1033       6.3330       0.1020      93.5278      59.9555    -999.2500       3.0156       2.7543       6.9854       0.2466       2.5450
   2810.2559       6.3330       0.1040      95.6620      62.0100    -999.2500       3.1530       2.5790       6.7360       0.2432       2.5610
   2810.4082       6.3330       0.0915      94.2536      61.0083    -999.2500       3.1615       2.4203       6.8269       0.2404       2.5685
   2810.5605       6.3330       0.0790      92.8360      60.0000    -999.2500       3.1700       2.2610       6.9180       0.2380       2.5760
   2810.7129       6.3330       0.0700      90.1389      60.0000    -999.2500       3.2552       2.3069       7.2734       0.2380       2.5710
   2810.8655       6.3330       0.0610      87.4240      60.0000    -999.2500       3.3410       2.3530       7.6300       0.2376       2.5660
   2811.0178       6.2936       0.0750      90.4334      60.0000    -999.2500       3.5548       2.6869       7.1469       0.2328       2.5695
   2811.1702       6.2540       0.0890      93.4630      60.0000    -999.2500       3.7700       3.0220       6.6620       0.2277       2.5730
   2811.3225       6.2385       0.0705      89.1418      58.9860    -999.2500       3.8298       2.5324       8.4098       0.2254       2.5805
   2811.4751       6.2230       0.0520      84.7910      57.9650    -999.2500       3.8900       2.0410      10.1640       0.2235       2.5880
   2811.6274       6.2130       0.0670      86.3774      57.2515    -999.2500       3.5851       2.5391       8.8580       0.2220       2.6080
   2811.7798       6.2030       0.0820      87.9750      56.5330    -999.2500       3.2780       3.0390       7.5470       0.2196       2.6280
   2811.9321       6.1571       0.0870      86.7768      55.6467    -999.2500       3.2366       3.0889       7.2606       0.2107       2.6170
   2812.0845       6.1110       0.0920      85.5700      54.7540    -999.2500       3.1950       3.1390       6.9730       0.2012       2.6060
   2812.2371       6.1110       0.0750      85.1490      53.7526    -999.2500       3.6334       2.9474       8.3767       0.1928       2.6110
   2812.3894       6.1110       0.0580      84.7250      52.7440    -999.2500       4.0750       2.7550       9.7860       0.1850       2.6160
   2812.5417       6.1110       0.0705      82.0354      52.0530    -999.2500       3.9365       3.2913       9.3316       0.1797       2.6050
   2812.6941       6.1110       0.0830      79.3260      51.3570    -999.2500       3.7970       3.8290       8.8760       0.1751       2.5940
   2812.8467       6.1110       0.0635      79.0142      50.1256    -999.2500       3.9614       4.0477       9.2750       0.1723       2.5980
   2812.9990       6.1110       0.0440      78.7000      48.8850    -999.2500       4.1270       4.2670       9.6750       0.1696       2.6020
   2813.1514       6.1110       0.0455      76.7200      47.3957    -999.2500       4.7402       3.9145       9.2062       0.1662       2.6230
   2813.3037       6.1110       0.0470      74.7280      45.8950    -999.2500       5.3570       3.5610       8.7360       0.1636       2.6440
   2813.4563       6.1110       0.0515      74.0326      44.6189    -999.2500       5.5649       3.8755       9.8604       0.1685       2.6400
   2813.6086       6.1110       0.0560      73.3330      43.3330    -999.2500       5.7740       4.1910      10.9880       0.1742       2.6360
   2813.7610       6.1110       0.0500      74.6449      44.4575    -999.2500       5.6962       4.7606      14.9809       0.1782       2.6375
   2813.9133       6.1110       0.0440      75.9650      45.5890    -999.2500       5.6180       5.3320      18.9860       0.1817       2.6390
   2814.0657       6.1110       0.0495      77.3586      49.5444    -999.2500       5.3638       4.9870      14.7617       0.1827       2.6220
   2814.2183       6.1110       0.0550      78.7610      53.5250    -999.2500       5.1080       4.6410      10.5240       0.1837       2.6050
   2814.3706       6.1110       0.0375      77.6740      54.2257    -999.2500       4.4795       4.3635       8.3117       0.1878       2.5955
   2814.5229       6.1110       0.0200      76.5800      54.9310    -999.2500       3.8470       4.0850       6.0920       0.1915       2.5860
   2814.6753       6.1110       0.0225      77.5114      53.0273    -999.2500       4.4500       4.0630       8.3337       0.1873       2.6030
   2814.8279       6.1110       0.0250      78.4490      51.1110    -999.2500       5.0570       4.0410      10.5830       0.1826       2.6200
   2814.9802       6.1110       0.0365      78.0389      51.1110    -999.2500       4.8372       3.8953      11.7889       0.1807       2.6195
   2815.1326       6.1110       0.0480      77.6260      51.1110    -999.2500       4.6160       3.7490      12.9990       0.1794       2.6190
   2815.2849       6.1110       0.0455      78.1786      51.1110    -999.2500       4.6030       4.0080      16.6149       0.1812       2.6030
   2815.4373       6.1110       0.0430      78.7350      51.1110    -999.2500       4.5900       4.2680      20.2440       0.1830       2.5870
   2815.5898       6.1110       0.0520      78.7998      48.9506    -999.2500       6.4081       4.7750      16.1353       0.1816       2.5990
   2815.7422       6.1110       0.0610      78.8650      46.7750    -999.2500       8.2390       5.2840      12.0110       0.1789       2.6110
   2815.8945       6.1110       0.0495      77.0086      44.8075    -999.2500       9.0915       6.9318      13.2571       0.1670       2.6230
   2816.0469       6.1110       0.0380      75.1390      42.8260    -999.2500       9.9500       8.5860      14.5080       0.1544       2.6350
   2816.1995       6.1110       0.0370      70.9448      42.9545    -999.2500       8.4739       8.0606      13.7600       0.1457       2.6150
   2816.3518       6.1110       0.0360      66.7200      43.0840    -999.2500       6.9870       7.5330      13.0090       0.1393       2.5950
