#------------------------------------------------------------------------------
#
#   Created by  : [OpenWorks] Log Export Utility (LEXP)
#   Created on  : 2016-05-18 11:18:07
#   Project     : CANT971
#   User        : R5K
#   Interpreter : PEP
#
#------------------------------------------------------------------------------
~VERSION INFORMATION
VERS. 2.0 : CWLS Log ASCII Standard - version 2.0
WRAP.  NO : One line per depth step
~WELL INFORMATION
#MNEMONIC   .UNIT                                           VALUE :DESCRIPTION
#------------------------------------------------------------------------------
STRT        .M                                            51.3586 :START DEPTH
STOP        .M                                          2955.0359 :STOP DEPTH
STEP        .M                                             0.1524 :STEP
NULL        .                                           -999.2500 :NULL VALUE
COMP        .                                   PEMEX EXPL & PROD :COMPANY
WELL        .                                                 283 :WELL
FLD         .                                           CANTARELL :FIELD
LOC         .                                             UNKNOWN :LOCATION
CNTY        .                                      CD. DEL CARMEN :COUNTY
STAT        .                                            CAMPECHE :STATE
CTRY        .                                              MEXICO :COUNTRY
SRVC        .                                             UNKNOWN :SERVICE COMPANY
DATE        .                                             UNKNOWN :LOG DATE
UWI         .                                          3060000202 :UNIQUE WELL ID
XCOORD      .                                       597306.720000 :SURFACE X
YCOORD      .                                      2143045.610000 :SURFACE Y
LAT         .                                           19.380344 :LATITUDE
LON         .                                          -92.073390 :LONGITUDE
ELEV        .M                                            27.7000 :SURFACE ELEV
ELEV_TYPE   .                                                  KB :ELEV TYPE
~CURVE INFORMATION
#MNEMONIC.UNIT        API CODE       : CURVE DESCRIPTION
#------------------------------------------------------------------------------
DEPTH    .M                          : Measured Depth
CALI     .inches      UNKNOWN        : CALI:Import:rC:NONE:v0 (auto-composite)
DRHO     .g/cm3       UNKNOWN        : DRHO:Import:rC:NONE:v0 (auto-composite)
DT       .us/ft       UNKNOWN        : DT:Import:rC:NONE:v0 (auto-composite)
GR       .API         UNKNOWN        : GR:Import:rC:NONE:v0 (auto-composite)
ILD      .ohm.m       UNKNOWN        : ILD:Import:rC:NONE:v0 (auto-composite)
LLD      .ohm.m       UNKNOWN        : LLD:Import:rC:NONE:v0 (auto-composite)
LLS      .ohm.m       UNKNOWN        : LLS:Import:rC:NONE:v0 (auto-composite)
MSFL     .ohm.m       UNKNOWN        : MSFL:Import:rC:NONE:v0 (auto-composite)
NPHI     .v/v_decimal UNKNOWN        : NPHI:Import:rC:NONE:v0 (auto-composite)
RHOB     .g/cm3       UNKNOWN        : RHOB:Import:rC:NONE:v0 (auto-composite)
~A     DEPTH         CALI         DRHO           DT           GR          ILD          LLD          LLS         MSFL         NPHI         RHOB
# ...
   2910.3826       6.0620    -999.2500      77.1336      49.7702    -999.2500     700.1074     333.5293      14.2112       0.0467       2.7480
   2910.5349       6.0500    -999.2500      72.2240      44.4460    -999.2500     828.5020     359.1230      11.4640       0.0437       2.7440
   2910.6873       6.0251    -999.2500      79.1212      40.0720    -999.2500    1068.1968     500.4752      16.9551       0.0618       2.7335
   2910.8398       6.0000    -999.2500      86.0720      35.6640    -999.2500    1309.7540     642.6970      22.4800       0.0767       2.7230
   2910.9922       6.0000    -999.2500      84.5293      36.1400    -999.2500    1259.9858     625.5270      20.3542       0.0778       2.7115
   2911.1445       6.0000    -999.2500      82.9770      36.6190    -999.2500    1209.9050     608.2490      18.2150       0.0526       2.7000
   2911.2969       6.0120    -999.2500      80.0648      38.4152    -999.2500    1069.5609     569.3795      24.4745       0.0230       2.6880
   2911.4495       6.0240    -999.2500      77.1340      40.2230    -999.2500     928.3180     530.2610      30.7740       0.0102       2.6760
   2911.6018       6.0674    -999.2500      71.3639      44.4198    -999.2500     928.3180     500.1539      29.0945       0.0094       2.6635
   2911.7542       6.1110    -999.2500      65.5560      48.6440    -999.2500     928.3180     469.8500      27.4040       0.0144       2.6510
   2911.9065       6.0577    -999.2500      68.2156      53.8696    -999.2500     893.1262     445.4019      23.9600       0.0163       2.6520
   2912.0591       6.0040    -999.2500      70.8930      59.1300    -999.2500     857.7000     420.7910      20.4930       0.0173       2.6530
   2912.2114       6.0070    -999.2500      80.4341      64.5272    -999.2500     695.6740     364.3571      18.7798       0.0183       2.6560
   2912.3638       6.0100    -999.2500      90.0400      69.9610    -999.2500     532.5480     307.5400      17.0550       0.0217       2.6590
   2912.5161       6.0379    -999.2500     106.7478      78.5757    -999.2500     395.0879     236.4844      14.7501       0.0249       2.6525
   2912.6685       6.0660    -999.2500     123.5710      87.2500    -999.2500     256.6780     165.0520      12.4330       0.0296       2.6460
   2912.8210       6.0331    -999.2500     121.6627      98.3529    -999.2500     195.6265     112.8940      12.9082       0.0377       2.6460
   2912.9734       6.0000    -999.2500     119.7410     109.5340    -999.2500     134.1450      60.4530      13.3860       0.0437       2.6460
   2913.1257       6.0464    -999.2500     111.7392     107.8530    -999.2500     161.8284     110.2222      14.2621       0.0550       2.6525
   2913.2781       6.0930    -999.2500     103.6800     106.1600    -999.2500     189.7100     160.2680      15.1430       0.0517       2.6590
   2913.4307       6.0496    -999.2500      84.9010      99.9113    -999.2500     362.1102     146.1122      19.9917       0.0489       2.6705
   2913.5830       6.0060    -999.2500      65.9850      93.6170    -999.2500     535.7680     131.8760      24.8680       0.0513       2.6820
   2913.7354       6.0583    -999.2500      68.0608      84.8201    -999.2500     355.3226      83.9293      15.9619       0.0532       2.6860
   2913.8877       6.1110    -999.2500      70.1520      75.9580    -999.2500     173.5390      35.7040       7.0040       0.0555       2.6900
   2914.0403       6.0841    -999.2500      63.4837      68.9046    -999.2500     198.9700      42.9949       7.8709       0.0592       2.6870
   2914.1926       6.0570    -999.2500      56.7650      61.7980    -999.2500     224.5930      50.3290       8.7430       0.0631       2.6840
   2914.3450       6.0615    -999.2500      59.5135      57.8985    -999.2500     352.0547     102.2526      29.2015       0.0610       2.6790
   2914.4973       6.0660    -999.2500      62.2830      53.9690    -999.2500     480.4940     154.4910      49.7840       0.0568       2.6740
   2914.6497       6.0884    -999.2500      59.8580      52.6282    -999.2500     762.4965     320.9130      36.9731       0.0388       2.6720
   2914.8022       6.1110    -999.2500      57.4140      51.2770    -999.2500    1046.6990     488.3640      24.0830       0.0364       2.6700
   2914.9546       6.1075    -999.2500      59.6086      53.3131    -999.2500    1311.1541     649.4709      68.4928       0.0340       2.6635
   2915.1069       6.1040    -999.2500      61.8170      55.3620    -999.2500    1577.2791     811.5950     113.1830       0.0342       2.6570
   2915.2593       6.0522    -999.2500      73.4331      59.9423    -999.2500    1462.5811     683.3502      89.6188       0.0362       2.6470
   2915.4119       6.0000    -999.2500      85.1240      64.5520    -999.2500    1347.1450     554.2800      65.9030       0.0390       2.6370
   2915.5642       6.0135    -999.2500     101.7160      68.4856    -999.2500    1073.0446     401.4125      47.0903       0.0406       2.6250
   2915.7166       6.0270    -999.2500     118.4170      72.4450    -999.2500     797.1440     247.5410      28.1540       0.0413       2.6130
   2915.8689       6.0689    -999.2500     108.9875      81.0547    -999.2500     528.1291     194.8053      25.3265       0.0415       2.6140
   2916.0215       6.1110    -999.2500      99.4950      89.7220    -999.2500     257.3150     141.7170      22.4800       0.0419       2.6150
   2916.1738       6.0557    -999.2500     114.5347      87.1797    -999.2500     292.0804     117.7577      19.0303       0.0429       2.6235
   2916.3262       6.0000    -999.2500     129.6770      84.6200    -999.2500     327.0830      93.6350      15.5570       0.0463       2.6320
   2916.4785       6.0000    -999.2500     123.4137      77.8520    -999.2500     421.8646     112.4319      16.6122       0.0550       2.6694
   2916.6309       6.0000    -999.2500     117.1070      71.0370    -999.2500     517.3040     131.3290      17.6730       0.0668       2.7070
   2916.7834       6.0000    -999.2500     108.3111      64.9266    -999.2500     644.2969     198.3551      19.3569       0.0693       2.7060
   2916.9358       6.0000    -999.2500      99.4530      58.7730    -999.2500     772.1880     265.7470      21.0500       0.0753       2.7050
   2917.0881       6.0155    -999.2500     103.9518      59.6573    -999.2500     759.1957     206.9946      20.7563       0.0764       2.6980
   2917.2405       6.0310    -999.2500     108.4830      60.5480    -999.2500     746.1100     147.9140      20.4610       0.0724       2.6910
   2917.3931       6.0709    -999.2500     116.9734      64.9329    -999.2500     684.6407      94.7039      18.5430       0.0665       2.6840
   2917.5454       6.1110    -999.2500     125.5260      69.3500    -999.2500     622.7210      41.1900      16.6140       0.0321       2.6770
   2917.6978       6.1085    -999.2500     117.4864      69.0377    -999.2500     518.6635      54.1078      17.1649       0.0250       2.6810
   2917.8501       6.1060    -999.2500     109.3870      68.7230    -999.2500     413.8310      67.1010      17.7190       0.0217       2.6850
   2918.0027       6.0532    -999.2500      92.0318      66.0845    -999.2500     426.8477     113.5296      16.5445       0.0248       2.6915
   2918.1550       6.0000    -999.2500      74.5450      63.4260    -999.2500     439.9630     160.2350      15.3630       0.0288       2.6980
   2918.3074       6.0000    -999.2500      76.5045      60.0674    -999.2500     499.3882     190.7999      12.5346       0.0368       2.7025
   2918.4597       6.0000    -999.2500      78.4790      56.6830    -999.2500     559.2710     221.5510       9.6890       0.0417       2.7070
   2918.6121       6.0000    -999.2500      83.5103      55.6635    -999.2500     551.3176     217.9846      15.8887       0.0414       2.7090
   2918.7646       6.0000    -999.2500      88.5810      54.6360    -999.2500     543.3020     214.3960      22.1270       0.0397       2.7110
