#------------------------------------------------------------------------------
#
#   Created by  : [OpenWorks] Log Export Utility (LEXP)
#   Created on  : 2016-05-18 11:18:07
#   Project     : CANT971
#   User        : R5K
#   Interpreter : PEP
#
#------------------------------------------------------------------------------
~VERSION INFORMATION
VERS. 2.0 : CWLS Log ASCII Standard - version 2.0
WRAP.  NO : One line per depth step
~WELL INFORMATION
#MNEMONIC   .UNIT                                           VALUE :DESCRIPTION
#------------------------------------------------------------------------------
STRT        .M                                            51.3586 :START DEPTH
STOP        .M                                          2955.0359 :STOP DEPTH
STEP        .M                                             0.1524 :STEP
NULL        .                                           -999.2500 :NULL VALUE
COMP        .                                   PEMEX EXPL & PROD :COMPANY
WELL        .                                                 283 :WELL
FLD         .                                           CANTARELL :FIELD
LOC         .                                             UNKNOWN :LOCATION
CNTY        .                                      CD. DEL CARMEN :COUNTY
STAT        .                                            CAMPECHE :STATE
CTRY        .                                              MEXICO :COUNTRY
SRVC        .                                             UNKNOWN :SERVICE COMPANY
DATE        .                                             UNKNOWN :LOG DATE
UWI         .                                          3060000202 :UNIQUE WELL ID
XCOORD      .                                       597306.720000 :SURFACE X
YCOORD      .                                      2143045.610000 :SURFACE Y
LAT         .                                           19.380344 :LATITUDE
LON         .                                          -92.073390 :LONGITUDE
ELEV        .M                                            27.7000 :SURFACE ELEV
ELEV_TYPE   .                                                  KB :ELEV TYPE
~CURVE INFORMATION
#MNEMONIC.UNIT        API CODE       : CURVE DESCRIPTION
#------------------------------------------------------------------------------
DEPTH    .M                          : Measured Depth
CALI     .inches      UNKNOWN        : CALI:Import:rC:NONE:v0 (auto-composite)
DRHO     .g/cm3       UNKNOWN        : DRHO:Import:rC:NONE:v0 (auto-composite)
DT       .us/ft       UNKNOWN        : DT:Import:rC:NONE:v0 (auto-composite)
GR       .API         UNKNOWN        : GR:Import:rC:NONE:v0 (auto-composite)
ILD      .ohm.m       UNKNOWN        : ILD:Import:rC:NONE:v0 (auto-composite)
LLD      .ohm.m       UNKNOWN        : LLD:Import:rC:NONE:v0 (auto-composite)
LLS      .ohm.m       UNKNOWN        : LLS:Import:rC:NONE:v0 (auto-composite)
MSFL     .ohm.m       UNKNOWN        : MSFL:Import:rC:NONE:v0 (auto-composite)
NPHI     .v/v_decimal UNKNOWN        : NPHI:Import:rC:NONE:v0 (auto-composite)
RHOB     .g/cm3       UNKNOWN        : RHOB:Import:rC:NONE:v0 (auto-composite)
~A     DEPTH         CALI         DRHO           DT           GR          ILD          LLD          LLS         MSFL         NPHI         RHOB
# ...
   2918.9170       6.0000    -999.2500      95.6431      52.8955    -999.2500     488.3159     204.4615      18.5942       0.0383       2.7110
   2919.0693       6.0000    -999.2500     102.7500      51.1440    -999.2500     432.9810     194.4640      15.0390       0.0347       2.7110
   2919.2217       6.0239    -999.2500     117.8457      52.3690    -999.2500     443.2403     181.5353      15.6246       0.0307       2.7110
   2919.3743       6.0480    -999.2500     133.0390      53.6020    -999.2500     453.5660     168.5230      16.2140       0.0253       2.7110
   2919.5266       6.1018    -999.2500     126.4288      57.0616    -999.2500     417.2000     160.3006      18.0784       0.0229       2.7110
   2919.6790       6.1560    -999.2500     119.7750      60.5440    -999.2500     380.5940     152.0240      19.9550       0.0212       2.7110
   2919.8313       6.1555    -999.2500     108.8985      69.0524    -999.2500     311.1194     151.0971      25.2223       0.0194       2.7120
   2919.9839       6.1550    -999.2500      97.9490      77.6180    -999.2500     241.1780     150.1640      30.5250       0.0182       2.7130
   2920.1362       6.1445    -999.2500     105.9735      76.5820    -999.2500     185.5416     131.4436      29.2289       0.0169       2.7170
   2920.2886       6.1340    -999.2500     114.0530      75.5390    -999.2500     129.5240     112.5950      27.9240       0.0163       2.7210
   2920.4409       6.0672    -999.2500     109.6548      70.8787    -999.2500     157.2304      85.0082      24.9568       0.0159       2.7185
   2920.5933       6.0000    -999.2500     105.2260      66.1860    -999.2500     185.1300      57.2290      21.9690       0.0157       2.7160
   2920.7458       6.0000    -999.2500      95.0362      61.3482    -999.2500     480.1053      90.4983      18.4923       0.0153       2.7020
   2920.8982       6.0000    -999.2500      84.7740      56.4760    -999.2500     777.1760     124.0040      14.9910       0.0152       2.6880
   2921.0505       6.0000    -999.2500      78.3158      56.8586    -999.2500     776.0331     296.4606      10.7748       0.0148       2.6581
   2921.2029       6.0000    -999.2500      71.8110      57.2440    -999.2500     774.8820     469.8860       6.5350       0.0137       2.6280
   2921.3555       6.0000    -999.2500      66.7008      56.3478    -999.2500     591.3282     395.5124      14.1845       0.0572       2.6360
   2921.5078       6.0000    -999.2500      61.5530      55.4450    -999.2500     406.4240     320.7120      21.8780       0.0617       2.6440
   2921.6602       6.0229    -999.2500      62.0800      51.7842    -999.2500     241.4842     231.3423      21.6841       0.0655       2.6610
   2921.8125       6.0460    -999.2500      62.6110      48.0960    -999.2500      75.3110     141.4480      21.4890       0.0591       2.6780
   2921.9651       6.0764    -999.2500      63.8961      48.3296    -999.2500     107.8318     170.9227      27.2577       0.0532       2.6755
   2922.1174       6.1070    -999.2500      65.1910      48.5650    -999.2500     140.6000     200.5740      33.0610       0.0472       2.6730
   2922.2698       6.1090    -999.2500      66.2539      47.7810    -999.2500     325.2936     341.4651      29.5378       0.0373       2.6690
   2922.4221       6.1110    -999.2500      67.3250      46.9910    -999.2500     511.4150     483.2190      25.9930       0.0395       2.6650
   2922.5745       6.1110    -999.2500      61.2917      45.9023    -999.2500     771.9935     665.4899      22.2327       0.0424       2.6735
   2922.7271       6.1110    -999.2500      55.2110      44.8050    -999.2500    1034.6210     848.8990      18.4490       0.0450       2.6820
   2922.8794       6.1110    -999.2500      55.5604      46.0201    -999.2500    1111.0349     818.6529      24.5406       0.0480       2.6805
   2923.0317       6.1110    -999.2500      55.9120      47.2430    -999.2500    1187.9360     788.2140      30.6710       0.0491       2.6790
   2923.1841       6.1110    -999.2500      60.6292      49.1528    -999.2500    1366.4376     818.8649      26.4672       0.0473       2.6750
   2923.3367       6.1110    -999.2500      65.3770      51.0750    -999.2500    1546.0990     849.7150      22.2360       0.0448       2.6710
   2923.4890       6.1110    -999.2500      62.8454      50.4042    -999.2500    1504.0120     965.6428      23.7505       0.0427       2.6650
   2923.6414       6.1110    -999.2500      60.2970      49.7290    -999.2500    1461.6460    1082.3390      25.2750       0.0385       2.6590
   2923.7937       6.1110    -999.2500      56.7021      47.8992    -999.2500    1396.9489    1071.4442      24.1119       0.0386       2.6675
   2923.9463       6.1110    -999.2500      53.0830      46.0570    -999.2500    1331.8149    1060.4760      22.9410       0.0423       2.6760
   2924.0986       6.1110    -999.2500      54.1962      48.2121    -999.2500    1264.7139     979.3038      20.0699       0.0442       2.6924
   2924.2510       6.1110    -999.2500      55.3170      50.3820    -999.2500    1197.1510     897.5730      17.1790       0.0400       2.7090
   2924.4033       6.0886    -999.2500      57.7908      50.3177    -999.2500    1067.9489     745.7730      18.7485       0.0344       2.7075
   2924.5557       6.0660    -999.2500      60.2820      50.2530    -999.2500     937.8420     592.9100      20.3290       0.0298       2.7060
   2924.7083       6.0391    -999.2500      68.5470      50.3003    -999.2500     803.6363     606.1368      17.9679       0.0253       2.7020
   2924.8606       6.0120    -999.2500      76.8710      50.3480    -999.2500     668.4730     619.4580      15.5900       0.0248       2.6980
   2925.0129       6.0344    -999.2500      69.8789      51.6453    -999.2500     717.1678     648.0383      12.9250       0.0260       2.6940
   2925.1653       6.0570    -999.2500      62.8360      52.9520    -999.2500     766.2160     676.7800      10.2450       0.0272       2.6900
   2925.3179       6.0839    -999.2500      65.3069      55.3745    -999.2500     880.2408     716.5244       7.2970       0.0273       2.6855
   2925.4702       6.1110    -999.2500      67.7960      57.8150    -999.2500     995.1080     756.4980       4.3320       0.0278       2.6810
   2925.6226       6.1110    -999.2500      74.9357      59.0384    -999.2500    1120.3722     713.9999       5.3779       0.0286       2.6765
   2925.7749       6.1110    -999.2500      82.1290      60.2710    -999.2500    1246.5770     671.2510       6.4300       0.0299       2.6720
   2925.9275       6.0572    -999.2500      73.3037      59.2081    -999.2500    1169.5718     532.3558      11.5536       0.0316       2.6720
   2926.0798       6.0030    -999.2500      64.4110      58.1370    -999.2500    1091.9780     392.6240      16.7080       0.0346       2.6720
   2926.2322       6.0070    -999.2500      65.3985      55.0848    -999.2500     939.4803     394.6328      34.2455       0.0405       2.6680
   2926.3845       6.0110    -999.2500      66.3920      52.0090    -999.2500     786.0440     396.6540      51.8910       0.0427       2.6640
   2926.5369       6.0369    -999.2500      72.4445      52.0115    -999.2500     708.4161     429.8453      48.4588       0.0444       2.6515
   2926.6895       6.0630    -999.2500      78.5350      52.0140    -999.2500     630.3010     463.2450      45.0050       0.0462       2.6390
   2926.8418       6.0869    -999.2500      77.8218      53.0183    -999.2500     591.2023     441.9607      36.0975       0.0484       2.6106
   2926.9941       6.1110    -999.2500      77.1040      54.0290    -999.2500     551.8530     420.5400      27.1330       0.0539       2.5820
   2927.1465       6.0642    -999.2500      75.7230      53.4673    -999.2500     471.6787     364.7346      20.6347       0.0695       2.5855
   2927.2991       6.0170    -999.2500      74.3330      52.9020    -999.2500     390.9810     308.5650      14.0940       0.1021       2.5890
