#------------------------------------------------------------------------------
#
#   Created by  : [OpenWorks] Log Export Utility (LEXP)
#   Created on  : 2016-05-18 11:18:07
#   Project     : CANT971
#   User        : R5K
#   Interpreter : PEP
#
#------------------------------------------------------------------------------
~VERSION INFORMATION
VERS. 2.0 : CWLS Log ASCII Standard - version 2.0
WRAP.  NO : One line per depth step
~WELL INFORMATION
#MNEMONIC   .UNIT                                           VALUE :DESCRIPTION
#------------------------------------------------------------------------------
STRT        .M                                            51.3586 :START DEPTH
STOP        .M                                          2955.0359 :STOP DEPTH
STEP        .M                                             0.1524 :STEP
NULL        .                                           -999.2500 :NULL VALUE
COMP        .                                   PEMEX EXPL & PROD :COMPANY
WELL        .                                                 283 :WELL
FLD         .                                           CANTARELL :FIELD
LOC         .                                             UNKNOWN :LOCATION
CNTY        .                                      CD. DEL CARMEN :COUNTY
STAT        .                                            CAMPECHE :STATE
CTRY        .                                              MEXICO :COUNTRY
SRVC        .                                             UNKNOWN :SERVICE COMPANY
DATE        .                                             UNKNOWN :LOG DATE
UWI         .                                          3060000202 :UNIQUE WELL ID
XCOORD      .                                       597306.720000 :SURFACE X
YCOORD      .                                      2143045.610000 :SURFACE Y
LAT         .                                           19.380344 :LATITUDE
LON         .                                          -92.073390 :LONGITUDE
ELEV        .M                                            27.7000 :SURFACE ELEV
ELEV_TYPE   .                                                  KB :ELEV TYPE
~CURVE INFORMATION
#MNEMONIC.UNIT        API CODE       : CURVE DESCRIPTION
#------------------------------------------------------------------------------
DEPTH    .M                          : Measured Depth
CALI     .inches      UNKNOWN        : CALI:Import:rC:NONE:v0 (auto-composite)
DRHO     .g/cm3       UNKNOWN        : DRHO:Import:rC:NONE:v0 (auto-composite)
DT       .us/ft       UNKNOWN        : DT:Import:rC:NONE:v0 (auto-composite)
GR       .API         UNKNOWN        : GR:Import:rC:NONE:v0 (auto-composite)
ILD      .ohm.m       UNKNOWN        : ILD:Import:rC:NONE:v0 (auto-composite)
LLD      .ohm.m       UNKNOWN        : LLD:Import:rC:NONE:v0 (auto-composite)
LLS      .ohm.m       UNKNOWN        : LLS:Import:rC:NONE:v0 (auto-composite)
MSFL     .ohm.m       UNKNOWN        : MSFL:Import:rC:NONE:v0 (auto-composite)
NPHI     .v/v_decimal UNKNOWN        : NPHI:Import:rC:NONE:v0 (auto-composite)
RHOB     .g/cm3       UNKNOWN        : RHOB:Import:rC:NONE:v0 (auto-composite)
~A     DEPTH         CALI         DRHO           DT           GR          ILD          LLD          LLS         MSFL         NPHI         RHOB
# ...
   2850.6418       6.0015       0.0205      78.8923      51.6149    -999.2500       6.0538       7.2730       9.1485       0.1318       2.6135
   2850.7942       6.0030       0.0100      75.2320      53.7960    -999.2500       6.2440       4.8990       7.8190       0.1336       2.6160
   2850.9465       6.0205      -0.0015      75.4089      55.1352    -999.2500       6.1603       5.0931       8.0366       0.1442       2.6160
   2851.0989       6.0380      -0.0130      75.5870      56.4840    -999.2500       6.0760       5.2880       8.2550       0.1554       2.6160
   2851.2515       6.0794      -0.0100      76.8892      57.2856    -999.2500       5.3422       5.1832       6.4926       0.1668       2.6095
   2851.4038       6.1210      -0.0070      78.2010      58.0930    -999.2500       4.6030       5.0780       4.7230       0.1781       2.6030
   2851.5562       6.1559       0.0135      87.3724      67.3845    -999.2500       3.1843       4.3326      15.3696       0.1874       2.5227
   2851.7085       6.1910       0.0340      96.6120      76.7450    -999.2500       1.7550       3.5840      26.0610       0.1961       2.4420
   2851.8611       6.2075       0.0430      91.0331      76.4342    -999.2500       1.8073       2.5228      25.1071       0.1950       2.4420
   2852.0134       6.2240       0.0520      85.4120      76.1210    -999.2500       1.8600       1.4570      24.1490       0.1934       2.4420
   2852.1658       6.2360       0.0964      91.5748      73.8985    -999.2500       2.9786       1.5348      19.1995       0.1936       2.4500
   2852.3181       6.2480       0.1410      97.7750      71.6590    -999.2500       4.1040       1.6130      14.2280       0.1941       2.4580
   2852.4705       6.2944       0.1400      93.0063      70.2794    -999.2500       4.0885       2.6117      11.9861       0.1970       2.5219
   2852.6230       6.3410       0.1390      88.2080      68.8890    -999.2500       4.0730       3.6150       9.7340       0.2005       2.5860
   2852.7754       6.3764       0.1071      93.1833      69.1193    -999.2500       3.8881       3.5317      23.3060       0.2093       2.5850
   2852.9277       6.4120       0.0750      98.1900      69.3510    -999.2500       3.7020       3.4480      36.9420       0.2189       2.5840
   2853.0801       6.4724       0.0790      97.6109      71.3356    -999.2500       3.0810       2.9522      36.2128       0.2341       2.5735
   2853.2327       6.5330       0.0830      97.0280      73.3330    -999.2500       2.4560       2.4540      35.4800       0.2489       2.5630
   2853.3850       6.5445       0.0800      89.1594      72.7793    -999.2500       2.4929       2.4839      31.3438       0.2488       2.5281
   2853.5374       6.5560       0.0770      81.2390      72.2220    -999.2500       2.5300       2.5140      27.1870       0.2470       2.4930
   2853.6897       6.5560       0.0575      81.4069      72.3830    -999.2500       2.8489       2.8412      40.9190       0.2348       2.4935
   2853.8423       6.5560       0.0380      81.5760      72.5450    -999.2500       3.1700       3.1700      54.7210       0.2227       2.4940
   2853.9946       6.5660       0.0390      87.5177      73.9691    -999.2500       3.1560       3.1630      54.0472       0.2225       2.5015
   2854.1470       6.5760       0.0400      93.5000      75.4030    -999.2500       3.1420       3.1560      53.3710       0.2234       2.5090
   2854.2993       6.6424       0.1148      89.1347      78.3124    -999.2500       3.0409       3.0806      31.5103       0.2283       2.5315
   2854.4517       6.7090       0.1900      84.7390      81.2420    -999.2500       2.9390       3.0050       9.5680       0.2340       2.5540
   2854.6042       6.9056       0.1850      85.4271      83.4327    -999.2500       2.7666       2.7345      10.6040       0.2479       2.5765
   2854.7566       7.1030       0.1800      86.1200      85.6390    -999.2500       2.5930       2.4630      11.6440       0.2614       2.5990
   2854.9089       7.0910       0.1421      93.6603      87.4863    -999.2500       2.6045       2.4745      10.0277       0.2613       2.5965
   2855.0613       7.0790       0.1040     101.2550      89.3470    -999.2500       2.6160       2.4860       8.4050       0.2599       2.5940
   2855.2139       6.9288       0.1085      93.1652      90.2258    -999.2500       2.6897       2.5658       8.8980       0.2519       2.6135
   2855.3662       6.7780       0.1130      85.0160      91.1110    -999.2500       2.7640       2.6460       9.3930       0.2439       2.6330
   2855.5186       6.7780       0.1514      91.5775      91.1110    -999.2500       2.7789       2.7233      29.2549       0.2445       2.6320
   2855.6709       6.7780       0.1900      98.1880      91.1110    -999.2500       2.7940       2.8010      49.2010       0.2455       2.6310
   2855.8235       6.7625       0.1845      89.7849      91.1110    -999.2500       2.8209       2.8309      47.1989       0.2431       2.6160
   2855.9758       6.7470       0.1790      81.3180      91.1110    -999.2500       2.8480       2.8610      45.1880       0.2407       2.6010
   2856.1282       6.6392       0.1805      86.7674      90.7524    -999.2500       2.9317       2.8740      32.3753       0.2419       2.6015
   2856.2805       6.5310       0.1820      92.2500      90.3910    -999.2500       3.0160       2.8870      19.5050       0.2433       2.6020
   2856.4329       6.3769       0.1920      90.1595      87.9336    -999.2500       3.1381       2.9808      21.7738       0.2420       2.6080
   2856.5854       6.2220       0.2020      88.0560      85.4570    -999.2500       3.2610       3.0750      24.0530       0.2400       2.6140
   2856.7378       6.2220       0.2095      73.8870      82.1425    -999.2500       3.9697       3.2102      23.5826       0.2308       2.6305
   2856.8901       6.2220       0.2170      59.6280      78.8070    -999.2500       4.6830       3.3460      23.1100       0.2210       2.6470
   2857.0425       6.2220       0.2150      60.4748      72.8034    -999.2500       5.6813       3.6413      20.5817       0.2097       2.6744
   2857.1951       6.2220       0.2130      61.3270      66.7610    -999.2500       6.6860       3.9380      18.0410       0.1972       2.7020
   2857.3474       6.2215       0.1816      68.7819      61.4426    -999.2500       7.1186       5.1061      16.6340       0.1709       2.7314
   2857.4998       6.2210       0.1500      76.2860      56.0890    -999.2500       7.5540       6.2800      15.2200       0.1453       2.7610
   2857.6521       6.1661       0.1530      75.2829      52.2215    -999.2500       7.4180       6.5538      13.8839       0.1435       2.7600
   2857.8047       6.1110       0.1560      74.2730      48.3280    -999.2500       7.2810       6.8290      12.5410       0.1439       2.7590
   2857.9570       6.1110       0.1555      68.7529      49.4183    -999.2500       7.2895       6.7497      12.5829       0.1470       2.7515
   2858.1094       6.1110       0.1550      63.1950      50.5160    -999.2500       7.2980       6.6700      12.6250       0.1498       2.7440
   2858.2617       6.1110       0.1405      61.0236      50.5030    -999.2500       7.3907       6.7328      16.0737       0.1473       2.7340
   2858.4141       6.1110       0.1260      58.8370      50.4900    -999.2500       7.4840       6.7960      19.5410       0.1446       2.7240
   2858.5667       6.1110       0.1265      59.3915      49.2494    -999.2500       8.1277       7.9712      19.4432       0.1448       2.7095
   2858.7190       6.1110       0.1270      59.9500      48.0000    -999.2500       8.7760       9.1510      19.3450       0.1457       2.6950
   2858.8713       6.1300       0.1270      64.1677      48.4728    -999.2500       8.3909       8.7189      16.9882       0.1518       2.6701
   2859.0237       6.1490       0.1270      68.4160      48.9490    -999.2500       8.0030       8.2850      14.6220       0.1601       2.6450
