#------------------------------------------------------------------------------
#
#   Created by  : [OpenWorks] Log Export Utility (LEXP)
#   Created on  : 2016-05-18 11:18:07
#   Project     : CANT971
#   User        : R5K
#   Interpreter : PEP
#
#------------------------------------------------------------------------------
~VERSION INFORMATION
VERS. 2.0 : CWLS Log ASCII Standard - version 2.0
WRAP.  NO : One line per depth step
~WELL INFORMATION
#MNEMONIC   .UNIT                                           VALUE :DESCRIPTION
#------------------------------------------------------------------------------
STRT        .M                                            51.3586 :START DEPTH
STOP        .M                                          2955.0359 :STOP DEPTH
STEP        .M                                             0.1524 :STEP
NULL        .                                           -999.2500 :NULL VALUE
COMP        .                                   PEMEX EXPL & PROD :COMPANY
WELL        .                                                 283 :WELL
FLD         .                                           CANTARELL :FIELD
LOC         .                                             UNKNOWN :LOCATION
CNTY        .                                      CD. DEL CARMEN :COUNTY
STAT        .                                            CAMPECHE :STATE
CTRY        .                                              MEXICO :COUNTRY
SRVC        .                                             UNKNOWN :SERVICE COMPANY
DATE        .                                             UNKNOWN :LOG DATE
UWI         .                                          3060000202 :UNIQUE WELL ID
XCOORD      .                                       597306.720000 :SURFACE X
YCOORD      .                                      2143045.610000 :SURFACE Y
LAT         .                                           19.380344 :LATITUDE
LON         .                                          -92.073390 :LONGITUDE
ELEV        .M                                            27.7000 :SURFACE ELEV
ELEV_TYPE   .                                                  KB :ELEV TYPE
~CURVE INFORMATION
#MNEMONIC.UNIT        API CODE       : CURVE DESCRIPTION
#------------------------------------------------------------------------------
DEPTH    .M                          : Measured Depth
CALI     .inches      UNKNOWN        : CALI:Import:rC:NONE:v0 (auto-composite)
DRHO     .g/cm3       UNKNOWN        : DRHO:Import:rC:NONE:v0 (auto-composite)
DT       .us/ft       UNKNOWN        : DT:Import:rC:NONE:v0 (auto-composite)
GR       .API         UNKNOWN        : GR:Import:rC:NONE:v0 (auto-composite)
ILD      .ohm.m       UNKNOWN        : ILD:Import:rC:NONE:v0 (auto-composite)
LLD      .ohm.m       UNKNOWN        : LLD:Import:rC:NONE:v0 (auto-composite)
LLS      .ohm.m       UNKNOWN        : LLS:Import:rC:NONE:v0 (auto-composite)
MSFL     .ohm.m       UNKNOWN        : MSFL:Import:rC:NONE:v0 (auto-composite)
NPHI     .v/v_decimal UNKNOWN        : NPHI:Import:rC:NONE:v0 (auto-composite)
RHOB     .g/cm3       UNKNOWN        : RHOB:Import:rC:NONE:v0 (auto-composite)
~A     DEPTH         CALI         DRHO           DT           GR          ILD          LLD          LLS         MSFL         NPHI         RHOB
# ...
   2859.1763       6.2583       0.0961      79.9017      53.4031    -999.2500       6.1772       6.2956       8.5935       0.1868       2.5492
   2859.3286       6.3680       0.0650      91.4720      57.8900    -999.2500       4.3380       4.2980       2.5400       0.2152       2.4530
   2859.4810       6.4309       0.0650      85.8092      71.9190    -999.2500       2.8580       2.7982       2.5709       0.2428       2.4750
   2859.6333       6.4940       0.0650      80.1040      86.0530    -999.2500       1.3670       1.2920       2.6020       0.2703       2.4970
   2859.7859       6.5249       0.0675      80.2270      85.2331    -999.2500       1.4716       1.3070       3.1812       0.2952       2.4965
   2859.9382       6.5560       0.0700      80.3510      84.4070    -999.2500       1.5770       1.3220       3.7630       0.3180       2.4960
   2860.0906       6.5375       0.0880      81.2941      79.4113    -999.2500       1.5252       1.4143       3.7415       0.3197       2.4731
   2860.2429       6.5190       0.1060      82.2430      74.3770    -999.2500       1.4730       1.5070       3.7200       0.3193       2.4500
   2860.3953       6.4262       0.1020      82.0765      69.5435    -999.2500       1.5513       1.6108       3.5524       0.3177       2.4515
   2860.5479       6.3330       0.0980      81.9090      64.6720    -999.2500       1.6300       1.7150       3.3840       0.3157       2.4530
   2860.7002       6.3330       0.0780      83.6838      64.8270    -999.2500       1.5966       1.7030       3.0857       0.3113       2.4680
   2860.8525       6.3330       0.0580      85.4700      64.9830    -999.2500       1.5630       1.6910       2.7860       0.3071       2.4830
   2861.0049       6.3330       0.0465      85.3419      65.9683    -999.2500       1.5640       1.5015       2.7276       0.3070       2.4695
   2861.1575       6.3330       0.0350      85.2130      66.9600    -999.2500       1.5650       1.3110       2.6690       0.3077       2.4560
   2861.3098       6.3330       0.0390      84.2038      68.5592    -999.2500       1.5859       1.3165       2.5009       0.3118       2.4590
   2861.4622       6.3330       0.0430      83.1880      70.1690    -999.2500       1.6070       1.3220       2.3320       0.3157       2.4620
   2861.6145       6.3435       0.1103      79.3370      74.3892    -999.2500       1.8552       1.3714       2.4367       0.3153       2.4790
   2861.7671       6.3540       0.1780      75.4600      78.6380    -999.2500       2.1050       1.4210       2.5420       0.3139       2.4960
   2861.9194       6.4383       0.1710      77.7087      77.7506    -999.2500       2.0896       1.5397       3.7683       0.3082       2.5259
   2862.0718       6.5230       0.1640      79.9730      76.8570    -999.2500       2.0740       1.6590       5.0010       0.3015       2.5560
   2862.2241       6.5110       0.1301      79.7323      79.8356    -999.2500       2.0919       1.7792       4.9252       0.2902       2.5366
   2862.3765       6.4990       0.0960      79.4900      82.8350    -999.2500       2.1100       1.9000       4.8490       0.2794       2.5170
   2862.5291       6.4386       0.0860      79.9703      82.5789    -999.2500       2.0921       1.8760       4.5152       0.2785       2.5210
   2862.6814       6.3780       0.0760      80.4540      82.3210    -999.2500       2.0740       1.8520       4.1800       0.2788       2.5250
   2862.8337       6.3032       0.0580      83.5343      82.7644    -999.2500       1.9694       1.7327       4.0173       0.2802       2.5225
   2862.9861       6.2280       0.0400      86.6370      83.2110    -999.2500       1.8640       1.6130       3.8540       0.2826       2.5200
   2863.1387       6.2804       0.0430      86.1473      83.0566    -999.2500       1.7474       1.4888       3.1904       0.2928       2.5070
   2863.2910       6.3330       0.0460      85.6540      82.9010    -999.2500       1.6300       1.3640       2.5240       0.3028       2.4940
   2863.4434       6.3255       0.0670      83.1345      81.8250    -999.2500       1.6604       1.3964       2.6946       0.3032       2.4870
   2863.5957       6.3180       0.0880      80.5960      80.7410    -999.2500       1.6910       1.4290       2.8660       0.3021       2.4800
   2863.7483       6.2646       0.0795      79.0011      78.9917    -999.2500       1.9415       1.6510       4.4480       0.2971       2.5219
   2863.9006       6.2110       0.0710      77.3940      77.2290    -999.2500       2.1940       1.8740       6.0370       0.2910       2.5640
   2864.0530       6.1057       0.0735      76.2560      76.6966    -999.2500       2.9228       2.2561      11.5829       0.2790       2.5580
   2864.2053       6.0000       0.0760      75.1110      76.1610    -999.2500       3.6560       2.6400      17.1540       0.2665       2.5520
   2864.3577       6.0534       0.1069      72.8770      74.5735    -999.2500       4.7481       3.1453      15.9623       0.2562       2.5550
   2864.5103       6.1070       0.1380      70.6290      72.9760    -999.2500       5.8470       3.6530      14.7650       0.2460       2.5580
   2864.6626       6.0536       0.1345      70.8702      70.3574    -999.2500       5.7065       4.0096      14.7785       0.2351       2.5735
   2864.8149       6.0000       0.1310      71.1130      67.7220    -999.2500       5.5650       4.3680      14.7920       0.2253       2.5890
   2864.9673       6.0000       0.1165      72.7731      65.0702    -999.2500       5.5650       4.5700      13.4059       0.2248       2.6020
   2865.1199       6.0000       0.1020      74.4440      62.4010    -999.2500       5.5650       4.7730      12.0130       0.2259       2.6150
   2865.2722       6.0000       0.0980      73.8749      60.3025    -999.2500       5.5650       4.7570      15.7890       0.2298       2.6120
   2865.4246       6.0000       0.0940      73.3020      58.1900    -999.2500       5.5650       4.7410      19.5840       0.2343       2.6090
   2865.5769       5.9501       0.0696      73.3962      58.6420    -999.2500       5.5650       4.6383      19.2264       0.2405       2.5950
   2865.7295       5.9000       0.0450      73.4910      59.0970    -999.2500       5.5650       4.5350      18.8670       0.2460       2.5810
   2865.8818       5.9000       0.0480      73.9678      62.2486    -999.2500       5.5072       4.5350      14.5844       0.2439       2.5710
   2866.0342       5.9000       0.0510      74.4480      65.4220    -999.2500       5.4490       4.5350      10.2790       0.2412       2.5610
   2866.1865       5.9105       0.0794      74.9029      65.3094    -999.2500       5.2004       4.5350      11.7884       0.2415       2.5770
   2866.3389       5.9210       0.1080      75.3610      65.1960    -999.2500       4.9500       4.5350      13.3060       0.2424       2.5930
   2866.4915       5.9604       0.1015      75.8642      65.3136    -999.2500       4.8489       4.5225      13.1358       0.2452       2.5905
   2866.6438       6.0000       0.0950      76.3710      65.4320    -999.2500       4.7470       4.5100      12.9650       0.2478       2.5880
   2866.7961       6.0000       0.0955      76.5185      65.3682    -999.2500       4.6309       4.4162      11.3663       0.2474       2.5800
   2866.9485       6.0000       0.0960      76.6670      65.3040    -999.2500       4.5140       4.3220       9.7610       0.2468       2.5720
   2867.1011       6.0110       0.1120      76.6670      67.0744    -999.2500       4.2415       4.1244       9.7635       0.2470       2.5685
   2867.2534       6.0220       0.1280      76.6670      68.8580    -999.2500       3.9670       3.9260       9.7660       0.2475       2.5650
   2867.4058       6.0664       0.1275      76.7572      68.5512    -999.2500       3.5700       3.7893       8.6679       0.2490       2.5296
   2867.5581       6.1110       0.1270      76.8480      68.2420    -999.2500       3.1700       3.6520       7.5650       0.2507       2.4940
