#------------------------------------------------------------------------------
#
#   Created by  : [OpenWorks] Log Export Utility (LEXP)
#   Created on  : 2016-05-18 11:18:07
#   Project     : CANT971
#   User        : R5K
#   Interpreter : PEP
#
#------------------------------------------------------------------------------
~VERSION INFORMATION
VERS. 2.0 : CWLS Log ASCII Standard - version 2.0
WRAP.  NO : One line per depth step
~WELL INFORMATION
#MNEMONIC   .UNIT                                           VALUE :DESCRIPTION
#------------------------------------------------------------------------------
STRT        .M                                            51.3586 :START DEPTH
STOP        .M                                          2955.0359 :STOP DEPTH
STEP        .M                                             0.1524 :STEP
NULL        .                                           -999.2500 :NULL VALUE
COMP        .                                   PEMEX EXPL & PROD :COMPANY
WELL        .                                                 283 :WELL
FLD         .                                           CANTARELL :FIELD
LOC         .                                             UNKNOWN :LOCATION
CNTY        .                                      CD. DEL CARMEN :COUNTY
STAT        .                                            CAMPECHE :STATE
CTRY        .                                              MEXICO :COUNTRY
SRVC        .                                             UNKNOWN :SERVICE COMPANY
DATE        .                                             UNKNOWN :LOG DATE
UWI         .                                          3060000202 :UNIQUE WELL ID
XCOORD      .                                       597306.720000 :SURFACE X
YCOORD      .                                      2143045.610000 :SURFACE Y
LAT         .                                           19.380344 :LATITUDE
LON         .                                          -92.073390 :LONGITUDE
ELEV        .M                                            27.7000 :SURFACE ELEV
ELEV_TYPE   .                                                  KB :ELEV TYPE
~CURVE INFORMATION
#MNEMONIC.UNIT        API CODE       : CURVE DESCRIPTION
#------------------------------------------------------------------------------
DEPTH    .M                          : Measured Depth
CALI     .inches      UNKNOWN        : CALI:Import:rC:NONE:v0 (auto-composite)
DRHO     .g/cm3       UNKNOWN        : DRHO:Import:rC:NONE:v0 (auto-composite)
DT       .us/ft       UNKNOWN        : DT:Import:rC:NONE:v0 (auto-composite)
GR       .API         UNKNOWN        : GR:Import:rC:NONE:v0 (auto-composite)
ILD      .ohm.m       UNKNOWN        : ILD:Import:rC:NONE:v0 (auto-composite)
LLD      .ohm.m       UNKNOWN        : LLD:Import:rC:NONE:v0 (auto-composite)
LLS      .ohm.m       UNKNOWN        : LLS:Import:rC:NONE:v0 (auto-composite)
MSFL     .ohm.m       UNKNOWN        : MSFL:Import:rC:NONE:v0 (auto-composite)
NPHI     .v/v_decimal UNKNOWN        : NPHI:Import:rC:NONE:v0 (auto-composite)
RHOB     .g/cm3       UNKNOWN        : RHOB:Import:rC:NONE:v0 (auto-composite)
~A     DEPTH         CALI         DRHO           DT           GR          ILD          LLD          LLS         MSFL         NPHI         RHOB
# ...
   2935.9858       6.0000    -999.2500      80.4830      97.1517    -999.2500     637.5361     255.4410       6.6194       0.0890       2.6111
   2936.1382       6.0000    -999.2500      74.1220      96.6670    -999.2500     792.6950     344.0840       6.6550       0.1134       2.5690
   2936.2905       6.0000    -999.2500      65.1927      97.2813    -999.2500     851.2233     632.0209       9.0077       0.1517       2.5207
   2936.4429       6.0000    -999.2500      56.2000      97.9000    -999.2500     910.1670     922.0010      11.3770       0.1674       2.4720
   2936.5955       6.0164    -999.2500      53.1112      97.7700    -999.2500     775.1246     722.1308      20.2948       0.1601       2.4745
   2936.7478       6.0330    -999.2500      50.0000      97.6390    -999.2500     639.1060     520.8160      29.2770       0.1550       2.4770
   2936.9001       6.0719    -999.2500      50.0000      97.4925    -999.2500     689.4127     535.6310      25.7923       0.1557       2.4850
   2937.0525       6.1110    -999.2500      50.0000      97.3450    -999.2500     740.0890     550.5550      22.2820       0.1560       2.4930
   2937.2051       6.1105    -999.2500      50.1460      98.6302    -999.2500     934.2387     645.7071      25.0267       0.1557       2.4825
   2937.3574       6.1100    -999.2500      50.2930      99.9250    -999.2500    1129.8409     741.5710      27.7920       0.1549       2.4720
   2937.5098       6.0552    -999.2500      50.6382      98.7007    -999.2500    1443.6045     912.4952      44.9615       0.1539       2.4725
   2937.6621       6.0000    -999.2500      50.9860      97.4670    -999.2500    1759.7531    1084.4440      62.2340       0.1531       2.4730
   2937.8147       6.0000    -999.2500      51.7281      98.2221    -999.2500    1754.4750    1240.6912      51.4809       0.1532       2.4760
   2937.9670       6.0000    -999.2500      52.4760      98.9830    -999.2500    1749.1560    1397.8940      40.6620       0.1533       2.4790
   2938.1194       6.0000    -999.2500      52.4396      98.0085    -999.2500    1614.2963    1385.6108      31.6053       0.1526       2.4830
   2938.2717       6.0000    -999.2500      52.4030      97.0280    -999.2500    1478.5940    1373.2510      22.4920       0.1521       2.4870
   2938.4241       6.0000    -999.2500      52.4847      97.7058    -999.2500    1260.1196    1255.8654      19.8315       0.1516       2.4905
   2938.5767       6.0000    -999.2500      52.5670      98.3880    -999.2500    1040.2540    1137.7321      17.1540       0.1526       2.4940
   2938.7290       6.0000    -999.2500      62.7439     100.2380    -999.2500    1042.0416     979.9428      21.8173       0.1535       2.4860
   2938.8813       6.0000    -999.2500      72.9870     102.1000    -999.2500    1043.8409     821.1280      26.5110       0.1543       2.4780
   2939.0337       6.0000    -999.2500      67.8998     102.0317    -999.2500    1121.1486     749.7029      24.3596       0.1538       2.4790
   2939.1863       6.0000    -999.2500      62.7790     101.9630    -999.2500    1198.9680     677.8050      22.1940       0.1529       2.4800
   2939.3386       6.0000    -999.2500      77.9523     101.8165    -999.2500    1159.1454     647.6508      22.7945       0.1526       2.4860
   2939.4910       6.0000    -999.2500      93.2280     101.6690    -999.2500    1119.0540     617.2930      23.3990       0.1525       2.4920
   2939.6433       6.0000    -999.2500      85.0556      99.9928    -999.2500     892.1727     487.3108      62.5993       0.1528       2.4915
   2939.7959       6.0000    -999.2500      76.8270      98.3050    -999.2500     663.7320     356.4350     102.0690       0.1536       2.4910
   2939.9482       6.0000    -999.2500      81.2884      98.4530    -999.2500     460.2916     262.2908      72.3372       0.1542       2.4905
   2940.1006       6.0000    -999.2500      85.7810      98.6020    -999.2500     255.4260     167.4870      42.3970       0.1546       2.4900
   2940.2529       6.0000    -999.2500      84.8274      99.1889    -999.2500     180.4930     132.7199      24.2312       0.1553       2.4875
   2940.4053       6.0000    -999.2500      83.8670      99.7800    -999.2500     105.0260      97.7050       5.9360       0.1557       2.4850
   2940.5579       6.0000    -999.2500      71.9602      99.6664    -999.2500     128.7095     102.8822       6.6504       0.1559       2.4825
   2940.7102       6.0000    -999.2500      59.9670      99.5520    -999.2500     152.5650     108.0970       7.3700       0.1575       2.4800
   2940.8625       6.0349    -999.2500      60.1932      99.2511    -999.2500     265.6328     132.4646      14.8230       0.1580       2.4780
   2941.0149       6.0700    -999.2500      60.4210      98.9480    -999.2500     379.5350     157.0120      22.3310       0.1585       2.4760
   2941.1675       6.0561    -999.2500      56.9715      97.8945    -999.2500     621.4608     220.1304      21.6047       0.1591       2.4740
   2941.3198       6.0420    -999.2500      53.4960      96.8330    -999.2500     865.2040     283.7230      20.8730       0.1595       2.4720
   2941.4722       6.0211    -999.2500      55.2488      97.2285    -999.2500    1003.7657     397.9653      26.5504       0.1587       2.4720
   2941.6245       6.0000    -999.2500      57.0150      97.6270    -999.2500    1143.3850     512.8960      32.2620       0.1568       2.4720
   2941.7771       6.0000    -999.2500      64.2713      96.9905    -999.2500    1185.0946     631.5269      30.2078       0.1558       2.4725
   2941.9294       6.0000    -999.2500      71.5840      96.3490    -999.2500    1227.1281     750.8870      28.1410       0.1556       2.4730
   2942.0818       6.0000    -999.2500      71.2964      95.1338    -999.2500    1289.3990     794.3152      62.9448       0.1559       2.4760
   2942.2341       6.0000    -999.2500      71.0070      93.9110    -999.2500    1352.0610     838.0160      97.9670       0.1562       2.4790
   2942.3865       6.0000    -999.2500      63.3146      92.9142    -999.2500    1374.9044     838.0160      93.9419       0.1564       2.4840
   2942.5391       6.0000    -999.2500      55.5730      91.9110    -999.2500    1397.8940     838.0160      89.8910       0.1560       2.4890
   2942.6914       6.0000    -999.2500      58.7456      94.6630    -999.2500    1397.8940     838.0160      67.6466       0.1547       2.4860
   2942.8438       6.0000    -999.2500      61.9390      97.4330    -999.2500    -999.2500     838.0160      45.2570       0.1534       2.4830
   2942.9961       5.9701    -999.2500      76.5205      97.3094    -999.2500    -999.2500     849.7365      27.2409       0.1528       2.4785
   2943.1487       5.9400    -999.2500      91.1990      97.1850    -999.2500    -999.2500     861.5350       9.1050       0.1527       2.4740
   2943.3010       5.9036    -999.2500      84.3806      98.3814    -999.2500    -999.2500     871.7389      14.8969       0.1535       2.4770
   2943.4534       5.8670    -999.2500      77.5160      99.5860    -999.2500    -999.2500     882.0120      20.7280       0.1543       2.4800
   2943.6057       5.8227    -999.2500      68.8997      98.8640    -999.2500    -999.2500     882.0120      45.1592       0.1539       2.4845
   2943.7581       5.7780    -999.2500      60.2240      98.1370    -999.2500    -999.2500     882.0120      69.7590       0.1546       2.4890
   2943.9106       5.7780    -999.2500      57.0098      96.4031    -999.2500    -999.2500     882.0120      60.6824       0.1553       2.4865
   2944.0630       5.7780    -999.2500      53.7730      94.6570    -999.2500    -999.2500     882.0120      51.5420       0.1559       2.4840
   2944.2153       5.8333    -999.2500      53.0003      96.1442    -999.2500    -999.2500     882.0120      37.9307       0.1558       2.4780
   2944.3677       5.8890    -999.2500      52.2220      97.6420    -999.2500    -999.2500     882.0120      24.2220       0.1548       2.4720
