#------------------------------------------------------------------------------
#
#   Created by  : [OpenWorks] Log Export Utility (LEXP)
#   Created on  : 2016-05-18 11:18:07
#   Project     : CANT971
#   User        : R5K
#   Interpreter : PEP
#
#------------------------------------------------------------------------------
~VERSION INFORMATION
VERS. 2.0 : CWLS Log ASCII Standard - version 2.0
WRAP.  NO : One line per depth step
~WELL INFORMATION
#MNEMONIC   .UNIT                                           VALUE :DESCRIPTION
#------------------------------------------------------------------------------
STRT        .M                                           550.4693 :START DEPTH
STOP        .M                                          2949.3977 :STOP DEPTH
STEP        .M                                             0.1524 :STEP
NULL        .                                           -999.2500 :NULL VALUE
COMP        .                                   PEMEX EXPL & PROD :COMPANY
WELL        .                                                 287 :WELL
FLD         .                                           CANTARELL :FIELD
LOC         .                                             UNKNOWN :LOCATION
CNTY        .                                      CD. DEL CARMEN :COUNTY
STAT        .                                            CAMPECHE :STATE
CTRY        .                                              MEXICO :COUNTRY
SRVC        .                                             UNKNOWN :SERVICE COMPANY
DATE        .                                             UNKNOWN :LOG DATE
UWI         .                                          3060000485 :UNIQUE WELL ID
XCOORD      .                                       597313.390000 :SURFACE X
YCOORD      .                                      2143045.860000 :SURFACE Y
LAT         .                                           19.380346 :LATITUDE
LON         .                                          -92.073326 :LONGITUDE
ELEV        .M                                            27.7000 :SURFACE ELEV
ELEV_TYPE   .                                                  KB :ELEV TYPE
~CURVE INFORMATION
#MNEMONIC.UNIT        API CODE       : CURVE DESCRIPTION
#------------------------------------------------------------------------------
DEPTH    .M                          : Measured Depth
CALI     .inches      UNKNOWN        : CALI:Import:rC:NONE:v0 (auto-composite)
DT       .us/ft       UNKNOWN        : DT:Import:rC:NONE:v0 (auto-composite)
GR       .API         UNKNOWN        : GR:Import:rC:NONE:v0 (auto-composite)
ILD      .ohm.m       UNKNOWN        : ILD:Import:rC:NONE:v0 (auto-composite)
LLD      .ohm.m       UNKNOWN        : LLD:Import:rC:NONE:v0 (auto-composite)
LLS      .ohm.m       UNKNOWN        : LLS:Import:rC:NONE:v0 (auto-composite)
MSFL     .ohm.m       UNKNOWN        : MSFL:Import:rC:NONE:v0 (auto-composite)
NPHI     .v/v_decimal UNKNOWN        : NPHI:Import:rC:NONE:v0 (auto-composite)
RHOB     .g/cm3       UNKNOWN        : RHOB:Import:rC:NONE:v0 (auto-composite)
~A     DEPTH         CALI           DT           GR          ILD          LLD          LLS         MSFL         NPHI         RHOB
# ...
   2345.7412    -999.2500    -999.2500       1.0970    -999.2500    -999.2500    -999.2500    -999.2500    -999.2500    -999.2500
   2345.8938    -999.2500    -999.2500       1.1040    -999.2500    -999.2500    -999.2500    -999.2500    -999.2500    -999.2500
   2346.0461    -999.2500    -999.2500       1.1110    -999.2500    -999.2500    -999.2500    -999.2500    -999.2500    -999.2500
   2346.1985    -999.2500    -999.2500       0.8418    -999.2500    -999.2500    -999.2500    -999.2500    -999.2500    -999.2500
   2346.3508    -999.2500    -999.2500       0.5730    -999.2500    -999.2500    -999.2500    -999.2500    -999.2500    -999.2500
   2346.5034    -999.2500    -999.2500       0.2863    -999.2500    -999.2500    -999.2500    -999.2500    -999.2500    -999.2500
   2346.6558    -999.2500    -999.2500       0.0000    -999.2500    -999.2500    -999.2500    -999.2500    -999.2500    -999.2500
   2346.8081    -999.2500    -999.2500       0.0000    -999.2500    -999.2500    -999.2500    -999.2500    -999.2500    -999.2500
   2346.9604    -999.2500    -999.2500       0.0000    -999.2500    -999.2500    -999.2500    -999.2500    -999.2500    -999.2500
   2347.1128    -999.2500    -999.2500       0.0000    -999.2500    -999.2500    -999.2500    -999.2500    -999.2500    -999.2500
   2347.2654    -999.2500    -999.2500       0.0000    -999.2500    -999.2500    -999.2500    -999.2500    -999.2500    -999.2500
   2347.4177    -999.2500    -999.2500       0.0000    -999.2500    -999.2500    -999.2500    -999.2500    -999.2500    -999.2500
   2347.5701    -999.2500    -999.2500       0.0000    -999.2500    -999.2500    -999.2500    -999.2500    -999.2500    -999.2500
   2347.7224    -999.2500    -999.2500       0.3157    -999.2500    -999.2500    -999.2500    -999.2500    -999.2500    -999.2500
   2347.8750    -999.2500    -999.2500       0.6310    -999.2500    -999.2500    -999.2500    -999.2500    -999.2500    -999.2500
   2348.0273    -999.2500    -999.2500       0.8471    -999.2500    -999.2500    -999.2500    -999.2500    -999.2500    -999.2500
   2348.1797    -999.2500    -999.2500       1.0630    -999.2500    -999.2500    -999.2500    -999.2500    -999.2500    -999.2500
   2348.3320    -999.2500    -999.2500       1.0870    -999.2500    -999.2500    -999.2500    -999.2500    -999.2500    -999.2500
   2348.4846    -999.2500    -999.2500       1.1110    -999.2500    -999.2500    -999.2500    -999.2500    -999.2500    -999.2500
   2348.6370    -999.2500    -999.2500       1.1110    -999.2500    -999.2500    -999.2500    -999.2500    -999.2500    -999.2500
   2348.7893    -999.2500    -999.2500       1.1110    -999.2500    -999.2500    -999.2500    -999.2500    -999.2500    -999.2500
   2348.9417    -999.2500    -999.2500       1.1110    -999.2500    -999.2500    -999.2500    -999.2500    -999.2500    -999.2500
   2349.0940    -999.2500    -999.2500       1.1110    -999.2500    -999.2500    -999.2500    -999.2500    -999.2500    -999.2500
   2349.2466    -999.2500    -999.2500       1.1110    -999.2500    -999.2500    -999.2500    -999.2500    -999.2500    -999.2500
   2349.3989    -121.7040     -86.5750       1.1110    -999.2500       0.1840       0.1840       0.1840    -999.2500    -119.9910
   2349.5513     -60.8401     -23.2751       1.1110    -999.2500       0.1920       0.1920       0.1920      -0.7493     -59.0086
   2349.7036       0.0000      40.0000       1.1110    -999.2500       0.2000       0.2000       0.2000      -0.2513       1.9500
   2349.8562       0.7691      41.0166       2.6149    -999.2500       0.8966       0.8041       5.2707      -0.0844       2.0080
   2350.0085       1.5380      42.0330       4.1160    -999.2500       1.5930       1.4080      10.3400      -0.0291       2.0660
   2350.1609       5.1208      46.7688      10.9269    -999.2500       5.7908       4.5872      54.0256      -0.0080       2.3355
   2350.3132       8.7030      51.5040      17.7260    -999.2500       9.9880       7.7660      97.7050       0.0009       2.6050
   2350.4658       9.1850      52.1410      18.6507    -999.2500      12.1975       9.0345      96.3770       0.0031       2.6415
   2350.6182       9.6670      52.7780      19.5740    -999.2500      14.4070      10.3030      95.0490       0.0037       2.6780
   2350.7705       9.6670      53.1870      20.9896    -999.2500      15.9609      10.5630      92.3387       0.0058       2.6780
   2350.9229       9.6670      53.5960      22.4030    -999.2500      17.5150      10.8230      89.6280       0.0085       2.6780
   2351.0752       9.6700      54.7634      24.3568    -999.2500      16.5971       9.9106      61.5758       0.0121       2.6700
   2351.2278       9.6730      55.9310      26.3080    -999.2500      15.6790       8.9980      33.5170       0.0162       2.6620
   2351.3801       9.7325      57.1403      27.5993    -999.2500      15.2391       8.4781      24.3672       0.0205       2.6495
   2351.5325       9.7920      58.3500      28.8890    -999.2500      14.7990       7.9580      15.2140       0.0251       2.6370
   2351.6848       9.8355      59.3318      28.6133    -999.2500      14.1597       7.7615      12.2937       0.0302       2.6325
   2351.8374       9.8790      60.3140      28.3380    -999.2500      13.5200       7.5650       9.3720       0.0354       2.6280
   2351.9897       9.9190      60.9223      28.4551    -999.2500      12.1219       7.5650       8.9736       0.0406       2.6235
   2352.1421       9.9590      61.5310      28.5720    -999.2500      10.7230       7.5650       8.5750       0.0453       2.6190
   2352.2944      10.0230      62.6366      27.7987    -999.2500      10.2472       7.4101       9.6326       0.0479       2.6180
   2352.4468      10.0870      63.7430      27.0260    -999.2500       9.7710       7.2550      10.6910       0.0491       2.6170
   2352.5994      10.0985      62.2776      25.8021    -999.2500      10.7101       7.0416       9.4445       0.0472       2.6320
   2352.7517      10.1100      60.8110      24.5810    -999.2500      11.6500       6.8280       8.1970       0.0454       2.6470
   2352.9041      10.1105      61.7230      23.9563    -999.2500      10.3741       6.7216       8.4404       0.0472       2.6545
   2353.0564      10.1110      62.6360      23.3330    -999.2500       9.0970       6.6150       8.6840       0.0491       2.6620
   2353.2090      10.1110      61.9319      23.9116    -999.2500       9.7202       6.8988       9.2057       0.0480       2.6645
   2353.3613      10.1110      61.2270      24.4890    -999.2500      10.3440       7.1830       9.7280       0.0466       2.6670
   2353.5137      10.1110      60.3353      24.5721    -999.2500      10.2770       7.3555      10.2511       0.0472       2.6670
   2353.6660      10.1110      59.4440      24.6550    -999.2500      10.2100       7.5280      10.7740       0.0486       2.6670
   2353.8186      10.1110      61.4287      23.5690    -999.2500      10.0325       7.7390      13.9174       0.0507       2.6640
   2353.9709      10.1110      63.4130      22.4850    -999.2500       9.8550       7.9500      17.0600       0.0534       2.6610
   2354.1233      10.1110      64.4856      21.7974    -999.2500      11.1591       7.6260      15.0114       0.0574       2.6610
   2354.2756      10.1110      65.5580      21.1110    -999.2500      12.4630       7.3020      12.9630       0.0601       2.6610
   2354.4280      10.1110      64.3675      21.3397    -999.2500      11.7935       6.7930      10.8855       0.0574       2.6575
   2354.5806      10.1110      63.1770      21.5680    -999.2500      11.1240       6.2840       8.8080       0.0529       2.6540
   2354.7329      10.1110      61.8221      22.8669    -999.2500      10.4475       6.0425      10.7349       0.0472       2.6480
   2354.8853      10.1110      60.4670      24.1640    -999.2500       9.7710       5.8010      12.6620       0.0419       2.6420
   2355.0376      10.1615      59.4521      26.1253    -999.2500      10.2474       5.0966      11.9786       0.0390       2.6405
