#------------------------------------------------------------------------------
#
#   Created by  : [OpenWorks] Log Export Utility (LEXP)
#   Created on  : 2016-05-18 11:18:07
#   Project     : CANT971
#   User        : R5K
#   Interpreter : PEP
#
#------------------------------------------------------------------------------
~VERSION INFORMATION
VERS. 2.0 : CWLS Log ASCII Standard - version 2.0
WRAP.  NO : One line per depth step
~WELL INFORMATION
#MNEMONIC   .UNIT                                           VALUE :DESCRIPTION
#------------------------------------------------------------------------------
STRT        .M                                           550.4693 :START DEPTH
STOP        .M                                          2949.3977 :STOP DEPTH
STEP        .M                                             0.1524 :STEP
NULL        .                                           -999.2500 :NULL VALUE
COMP        .                                   PEMEX EXPL & PROD :COMPANY
WELL        .                                                 287 :WELL
FLD         .                                           CANTARELL :FIELD
LOC         .                                             UNKNOWN :LOCATION
CNTY        .                                      CD. DEL CARMEN :COUNTY
STAT        .                                            CAMPECHE :STATE
CTRY        .                                              MEXICO :COUNTRY
SRVC        .                                             UNKNOWN :SERVICE COMPANY
DATE        .                                             UNKNOWN :LOG DATE
UWI         .                                          3060000485 :UNIQUE WELL ID
XCOORD      .                                       597313.390000 :SURFACE X
YCOORD      .                                      2143045.860000 :SURFACE Y
LAT         .                                           19.380346 :LATITUDE
LON         .                                          -92.073326 :LONGITUDE
ELEV        .M                                            27.7000 :SURFACE ELEV
ELEV_TYPE   .                                                  KB :ELEV TYPE
~CURVE INFORMATION
#MNEMONIC.UNIT        API CODE       : CURVE DESCRIPTION
#------------------------------------------------------------------------------
DEPTH    .M                          : Measured Depth
CALI     .inches      UNKNOWN        : CALI:Import:rC:NONE:v0 (auto-composite)
DT       .us/ft       UNKNOWN        : DT:Import:rC:NONE:v0 (auto-composite)
GR       .API         UNKNOWN        : GR:Import:rC:NONE:v0 (auto-composite)
ILD      .ohm.m       UNKNOWN        : ILD:Import:rC:NONE:v0 (auto-composite)
LLD      .ohm.m       UNKNOWN        : LLD:Import:rC:NONE:v0 (auto-composite)
LLS      .ohm.m       UNKNOWN        : LLS:Import:rC:NONE:v0 (auto-composite)
MSFL     .ohm.m       UNKNOWN        : MSFL:Import:rC:NONE:v0 (auto-composite)
NPHI     .v/v_decimal UNKNOWN        : NPHI:Import:rC:NONE:v0 (auto-composite)
RHOB     .g/cm3       UNKNOWN        : RHOB:Import:rC:NONE:v0 (auto-composite)
~A     DEPTH         CALI           DT           GR          ILD          LLD          LLS         MSFL         NPHI         RHOB
# ...
   2544.1660       9.6630      64.6770      28.1230    -999.2500     261.9000       9.5480      13.8100       0.0626       2.7200
   2544.3186       9.6650      61.0186      25.7638    -999.2500     238.4973       9.0154      10.7601       0.0624       2.7265
   2544.4709       9.6670      57.3610      23.4090    -999.2500     215.1000       8.4830       7.7110       0.0645       2.7330
   2544.6233       9.6670      57.9100      24.2898    -999.2500     211.8903       8.0205       9.9411       0.0694       2.7205
   2544.7756       9.6670      58.4590      25.1690    -999.2500     208.6810       7.5580      12.1710       0.0742       2.7080
   2544.9280       9.6670      59.4135      27.5289    -999.2500     197.5331       7.4515       8.0165       0.0761       2.7045
   2545.0806       9.6670      60.3680      29.8850    -999.2500     186.3850       7.3450       3.8620       0.0765       2.7010
   2545.2329       9.6670      60.1540      31.3040    -999.2500     168.5998       7.9455       2.5016       0.0767       2.6945
   2545.3853       9.6670      59.9400      32.7210    -999.2500     150.8120       8.5460       1.1410       0.0760       2.6880
   2545.5376       9.6670      58.7977      33.8873    -999.2500     135.3236       8.9145       0.8440       0.0740       2.6855
   2545.6902       9.6670      57.6550      35.0520    -999.2500     119.8310       9.2830       0.5470       0.0711       2.6830
   2545.8425       9.6670      57.0046      35.2231    -999.2500     107.1020       8.4387       1.3858       0.0674       2.6825
   2545.9949       9.6670      56.3540      35.3940    -999.2500      94.3680       7.5940       2.2250       0.0652       2.6820
   2546.1472       9.6670      58.3040      34.3629    -999.2500     106.7358       8.1454       4.7099       0.0669       2.6750
   2546.2998       9.6670      60.2550      33.3330    -999.2500     119.1100       8.6970       7.1960       0.0737       2.6680
   2546.4521       9.7715      60.2445      33.8577    -999.2500     122.8363      10.2425      10.1006       0.0874       2.6320
   2546.6045       9.8760      60.2340      34.3820    -999.2500     126.5650      11.7890      13.0070       0.1053       2.5960
   2546.7568       9.9530      60.4801      34.9692    -999.2500     108.9487      13.6373      11.8645       0.1255       2.5155
   2546.9092      10.0300      60.7260      35.5560    -999.2500      91.3470      15.4840      10.7230       0.1470       2.4350
   2547.0618       9.8214      64.5709      34.5817    -999.2500      83.5963      14.8413       8.8373       0.1691       2.3615
   2547.2141       9.6130      68.4130      33.6080    -999.2500      75.8510      14.1990       6.9530       0.1885       2.2880
   2547.3665       9.4730      71.6954      32.2761    -999.2500      84.8061      11.9473       7.1641       0.2018       2.3100
   2547.5188       9.3330      74.9760      30.9450    -999.2500      93.7560       9.6970       7.3750       0.2044       2.3320
   2547.6714       9.3330      68.0679      29.5891    -999.2500      98.0115       8.6308       8.8948       0.1900       2.4565
   2547.8237       9.3330      61.1630      28.2360    -999.2500     102.2650       7.5650      10.4140       0.1638       2.5810
   2547.9761       9.3640      60.0538      26.5689    -999.2500      97.5477       7.9151      10.5670       0.1292       2.6350
   2548.1284       9.3950      58.9450      24.9050    -999.2500      92.8320       8.2650      10.7200       0.0977       2.6890
   2548.2810       9.4195      59.4366      22.8972    -999.2500      92.8320       8.6985       9.4689       0.0814       2.7005
   2548.4333       9.4440      59.9280      20.8930    -999.2500      92.8320       9.1320       8.2180       0.0733       2.7120
   2548.5857       9.3910      58.6445      20.4461    -999.2500      93.1510       9.2075       7.0310       0.0678       2.7300
   2548.7380       9.3380      57.3610      20.0000    -999.2500      93.4700       9.2830       5.8440       0.0644       2.7480
   2548.8904       9.3765      56.6785      20.4063    -999.2500      99.4619       9.2265       5.8695       0.0633       2.7235
   2549.0430       9.4150      55.9960      20.8120    -999.2500     105.4540       9.1700       5.8950       0.0633       2.6990
   2549.1953       9.4020      57.2799      22.2270    -999.2500     100.7734       9.1115       6.5399       0.0633       2.7005
   2549.3477       9.3890      58.5640      23.6400    -999.2500      96.0920       9.0530       7.1850       0.0636       2.7020
   2549.5000       9.3785      58.1466      24.7412    -999.2500      91.6177       9.0085       6.7096       0.0644       2.7090
   2549.6526       9.3680      57.7290      25.8410    -999.2500      87.1420       8.9640       6.2340       0.0665       2.7160
   2549.8049       9.2995      56.2898      27.1753    -999.2500      83.7867       8.8970       6.0340       0.0707       2.7115
   2549.9573       9.2310      54.8500      28.5080    -999.2500      80.4300       8.8300       5.8340       0.0738       2.7070
   2550.1096       9.2780      53.6143      29.8622    -999.2500      79.7807       8.2257       7.3146       0.0725       2.6620
   2550.2622       9.3250      52.3780      31.2150    -999.2500      79.1310       7.6210       8.7960       0.0700       2.6170
   2550.4146       9.3660      52.6554      31.6747    -999.2500      76.8893       7.9964       9.5323       0.0697       2.6170
   2550.5669       9.4070      52.9330      32.1340    -999.2500      74.6460       8.3720      10.2690       0.0725       2.6170
   2550.7192       9.5055      52.1597      30.1017    -999.2500      72.3906       8.8277       9.3471       0.0799       2.6005
   2550.8716       9.6040      51.3870      28.0710    -999.2500      70.1370       9.2830       8.4260       0.0889       2.5840
   2551.0242       9.6355      50.0841      28.2416    -999.2500      66.8099       8.7938       7.3831       0.0965       2.5465
   2551.1765       9.6670      48.7820      28.4120    -999.2500      63.4850       8.3050       6.3410       0.1034       2.5090
   2551.3289       9.6655      50.6285      28.6316    -999.2500      58.2271       7.9349       4.3600       0.1098       2.4735
   2551.4812       9.6640      52.4740      28.8510    -999.2500      52.9720       7.5650       2.3800       0.1162       2.4380
   2551.6338       9.5500      53.6562      27.4771    -999.2500      55.8826       7.7015       2.1555       0.1230       2.4135
   2551.7861       9.4360      54.8380      26.1060    -999.2500      58.7920       7.8380       1.9310       0.1265       2.3890
   2551.9385       9.3590      60.8069      24.3473    -999.2500      62.2680       8.2906       3.3697       0.1223       2.4140
   2552.0908       9.2820      66.7740      22.5920    -999.2500      65.7430       8.7430       4.8080       0.1131       2.4390
   2552.2434       9.2890      66.5220      21.2043    -999.2500      68.8098       8.7815       6.1686       0.1006       2.5215
   2552.3958       9.2960      66.2700      19.8190    -999.2500      71.8760       8.8200       7.5290       0.0875       2.6040
   2552.5481       9.3130      62.5679      18.4634    -999.2500      70.3940       8.4365       7.9545       0.0766       2.6695
   2552.7004       9.3300      58.8660      17.1100    -999.2500      68.9120       8.0530       8.3800       0.0681       2.7350
   2552.8528       9.3375      62.4884      16.5201    -999.2500      68.2705       8.6430       8.1255       0.0630       2.7300
   2553.0054       9.3450      66.1110      15.9310    -999.2500      67.6290       9.2330       7.8710       0.0591       2.7250
   2553.1577       9.3945      65.4301      17.6392    -999.2500      66.9606       9.4210       8.8344       0.0547       2.7380
   2553.3101       9.4440      64.7490      19.3450    -999.2500      66.2920       9.6090       9.7980       0.0511       2.7510
   2553.4624       9.4135      62.5964      19.9224    -999.2500      70.5918       9.3400       9.0216       0.0500       2.7530
