#------------------------------------------------------------------------------
#
#   Created by  : [OpenWorks] Log Export Utility (LEXP)
#   Created on  : 2016-05-18 11:18:07
#   Project     : CANT971
#   User        : R5K
#   Interpreter : PEP
#
#------------------------------------------------------------------------------
~VERSION INFORMATION
VERS. 2.0 : CWLS Log ASCII Standard - version 2.0
WRAP.  NO : One line per depth step
~WELL INFORMATION
#MNEMONIC   .UNIT                                           VALUE :DESCRIPTION
#------------------------------------------------------------------------------
STRT        .M                                           550.4693 :START DEPTH
STOP        .M                                          2949.3977 :STOP DEPTH
STEP        .M                                             0.1524 :STEP
NULL        .                                           -999.2500 :NULL VALUE
COMP        .                                   PEMEX EXPL & PROD :COMPANY
WELL        .                                                 287 :WELL
FLD         .                                           CANTARELL :FIELD
LOC         .                                             UNKNOWN :LOCATION
CNTY        .                                      CD. DEL CARMEN :COUNTY
STAT        .                                            CAMPECHE :STATE
CTRY        .                                              MEXICO :COUNTRY
SRVC        .                                             UNKNOWN :SERVICE COMPANY
DATE        .                                             UNKNOWN :LOG DATE
UWI         .                                          3060000485 :UNIQUE WELL ID
XCOORD      .                                       597313.390000 :SURFACE X
YCOORD      .                                      2143045.860000 :SURFACE Y
LAT         .                                           19.380346 :LATITUDE
LON         .                                          -92.073326 :LONGITUDE
ELEV        .M                                            27.7000 :SURFACE ELEV
ELEV_TYPE   .                                                  KB :ELEV TYPE
~CURVE INFORMATION
#MNEMONIC.UNIT        API CODE       : CURVE DESCRIPTION
#------------------------------------------------------------------------------
DEPTH    .M                          : Measured Depth
CALI     .inches      UNKNOWN        : CALI:Import:rC:NONE:v0 (auto-composite)
DT       .us/ft       UNKNOWN        : DT:Import:rC:NONE:v0 (auto-composite)
GR       .API         UNKNOWN        : GR:Import:rC:NONE:v0 (auto-composite)
ILD      .ohm.m       UNKNOWN        : ILD:Import:rC:NONE:v0 (auto-composite)
LLD      .ohm.m       UNKNOWN        : LLD:Import:rC:NONE:v0 (auto-composite)
LLS      .ohm.m       UNKNOWN        : LLS:Import:rC:NONE:v0 (auto-composite)
MSFL     .ohm.m       UNKNOWN        : MSFL:Import:rC:NONE:v0 (auto-composite)
NPHI     .v/v_decimal UNKNOWN        : NPHI:Import:rC:NONE:v0 (auto-composite)
RHOB     .g/cm3       UNKNOWN        : RHOB:Import:rC:NONE:v0 (auto-composite)
~A     DEPTH         CALI           DT           GR          ILD          LLD          LLS         MSFL         NPHI         RHOB
# ...
   2581.9612       9.5560      51.2290      19.7200    -999.2500     138.8300       9.2830       9.8870       0.0238       2.7470
   2582.1138       9.5635      51.0965      19.8545    -999.2500     142.4382       9.2830      10.8948       0.0236       2.7515
   2582.2661       9.5710      50.9640      19.9890    -999.2500     146.0440       9.2830      11.9020       0.0240       2.7560
   2582.4185       9.6155      50.2778      20.1841    -999.2500     138.6890       9.2830      11.3023       0.0252       2.7540
   2582.5708       9.6600      49.5920      20.3790    -999.2500     131.3380       9.2830      10.7030       0.0262       2.7520
   2582.7234       9.6635      49.7195      21.0247    -999.2500     120.0976       9.2830       9.6058       0.0258       2.7500
   2582.8757       9.6670      49.8470      21.6690    -999.2500     108.8620       9.2830       8.5090       0.0249       2.7480
   2583.0281       9.6225      50.1776      22.3461    -999.2500     103.7827       9.2830       9.1701       0.0241       2.7570
   2583.1804       9.5780      50.5080      23.0220    -999.2500      98.7050       9.2830       9.8310       0.0238       2.7660
   2583.3330       9.6195      50.5505      23.7006    -999.2500     106.3112       9.0515       9.5300       0.0249       2.7690
   2583.4854       9.6610      50.5930      24.3780    -999.2500     113.9160       8.8200       9.2290       0.0266       2.7720
   2583.6377       9.6640      51.5405      24.9300    -999.2500     111.5239       8.8725       7.0744       0.0285       2.7720
   2583.7900       9.6670      52.4880      25.4810    -999.2500     109.1320       8.9250       4.9200       0.0305       2.7720
   2583.9424       9.7150      53.3840      26.2366    -999.2500      97.7419       9.0915       3.6455       0.0326       2.7695
   2584.0950       9.7630      54.2800      26.9910    -999.2500      86.3510       9.2580       2.3710       0.0346       2.7670
   2584.2473       9.8260      54.6400      27.5619    -999.2500      76.2300       9.2705       1.7486       0.0366       2.7535
   2584.3997       9.8890      55.0000      28.1320    -999.2500      66.1070       9.2830       1.1260       0.0392       2.7400
   2584.5520       9.7960      53.9997      26.9537    -999.2500      69.8859       9.2830       1.4359       0.0435       2.7155
   2584.7046       9.7030      52.9990      25.7770    -999.2500      73.6660       9.2830       1.7460       0.0485       2.6910
   2584.8569       9.6360      53.1660      26.3158    -999.2500      83.0959       9.0191       4.1580       0.0540       2.6880
   2585.0093       9.5690      53.3330      26.8540    -999.2500      92.5300       8.7550       6.5710       0.0589       2.6850
   2585.1616       9.6180      53.2455      27.8720    -999.2500      95.7956       8.5041       9.0293       0.0615       2.6930
   2585.3142       9.6670      53.1580      28.8890    -999.2500      99.0630       8.2530      11.4890       0.0627       2.7010
   2585.4666       9.6380      52.9681      28.5999    -999.2500     100.1761       8.7618      10.1345       0.0616       2.7090
   2585.6189       9.6090      52.7780      28.3110    -999.2500     101.2900       9.2710       8.7790       0.0595       2.7170
   2585.7712       9.5840      52.7780      27.6127    -999.2500     157.0981       9.6912       9.4733       0.0560       2.7180
   2585.9236       9.5590      52.7780      26.9150    -999.2500     212.8630      10.1110      10.1670       0.0526       2.7190
   2586.0762       9.5055      53.0546      28.8631    -999.2500     332.8554      10.4431      10.7787       0.0511       2.7255
   2586.2285       9.4520      53.3310      30.8100    -999.2500     452.7700      10.7750      11.3900       0.0501       2.7320
   2586.3809       9.4480      52.3793      31.5932    -999.2500     360.3378      11.0636      11.0884       0.0493       2.7450
   2586.5332       9.4440      51.4280      32.3760    -999.2500     267.9540      11.3520      10.7870       0.0487       2.7580
   2586.6858       9.4665      51.4715      30.2994    -999.2500     403.2444      11.3720      10.9785       0.0488       2.7675
   2586.8381       9.4890      51.5150      28.2270    -999.2500     538.4810      11.3920      11.1700       0.0501       2.7770
   2586.9905       9.5205      51.9346      27.4463    -999.2500     622.4230      11.7651       9.7948       0.0551       2.7765
   2587.1428       9.5520      52.3540      26.6670    -999.2500     706.3420      12.1380       8.4200       0.0599       2.7760
   2587.2954       9.5990      52.5205      26.6670    -999.2500     645.7450      12.6680       9.5906       0.0607       2.7625
   2587.4478       9.6460      52.6870      26.6670    -999.2500     585.1570      13.1980      10.7610       0.0596       2.7490
   2587.6001       9.6515      52.7775      26.6195    -999.2500     531.4004      12.8750      12.2515       0.0553       2.7480
   2587.7524       9.6570      52.8680      26.5720    -999.2500     477.6450      12.5520      13.7420       0.0505       2.7470
   2587.9048       9.5935      53.2060      25.9370    -999.2500     448.6290      11.9720      12.5566       0.0473       2.7600
   2588.0574       9.5300      53.5440      25.3030    -999.2500     419.6100      11.3920      11.3710       0.0451       2.7730
   2588.2097       9.5165      53.3240      24.8732    -999.2500     414.3911      11.3920      11.2510       0.0454       2.7750
   2588.3621       9.5030      53.1040      24.4440    -999.2500     409.1710      11.3920      11.1310       0.0465       2.7770
   2588.5144       9.5710      53.0160      25.2205    -999.2500     392.9259      11.3920      10.5136       0.0478       2.7670
   2588.6670       9.6390      52.9280      25.9960    -999.2500     376.6750      11.3920       9.8960       0.0494       2.7570
   2588.8193       9.6020      52.5841      27.3157    -999.2500     347.6685      11.6814       9.6071       0.0525       2.7440
   2588.9717       9.5650      52.2400      28.6340    -999.2500     318.6480      11.9710       9.3180       0.0560       2.7310
   2589.1240       9.5510      52.8948      29.9892    -999.2500     324.5732      11.9275       8.9336       0.0594       2.7180
   2589.2766       9.5370      53.5500      31.3430    -999.2500     330.5020      11.8840       8.5490       0.0623       2.7050
   2589.4290       9.4905      54.6136      32.6991    -999.2500     315.6000      11.6541       9.2862       0.0631       2.6970
   2589.5813       9.4440      55.6780      34.0540    -999.2500     300.6870      11.4240      10.0240       0.0631       2.6890
   2589.7336       9.4765      55.4909      35.4085    -999.2500     283.1610      11.0844      11.2995       0.0623       2.6890
   2589.8860       9.5090      55.3040      36.7620    -999.2500     265.6480      10.7450      12.5740       0.0616       2.6890
   2590.0386       9.5750      55.1089      37.2421    -999.2500     243.1776      10.3254      12.3949       0.0620       2.6955
   2590.1909       9.6410      54.9140      37.7220    -999.2500     220.7210       9.9060      12.2160       0.0627       2.7020
   2590.3433       9.6505      56.5529      37.7500    -999.2500     208.6215       9.6619      11.1052       0.0632       2.7175
   2590.4956       9.6600      58.1910      37.7780    -999.2500     196.5280       9.4180       9.9950       0.0641       2.7330
   2590.6482       9.5965      56.7807      37.6314    -999.2500     338.4621      10.4922      11.0072       0.0666       2.7330
   2590.8005       9.5330      55.3710      37.4850    -999.2500     480.3440      11.5660      12.0190       0.0691       2.7330
   2590.9529       9.5165      53.8948      36.8419    -999.2500     640.5544      11.7845       9.5972       0.0698       2.7250
   2591.1052       9.5000      52.4190      36.2000    -999.2500     800.7260      12.0030       7.1760       0.0696       2.7170
   2591.2578       9.5635      52.2430      35.5219    -999.2500     738.6134      11.6975       5.8419       0.0678       2.7205
