#------------------------------------------------------------------------------
#
#   Created by  : [OpenWorks] Log Export Utility (LEXP)
#   Created on  : 2016-05-18 11:18:07
#   Project     : CANT971
#   User        : R5K
#   Interpreter : PEP
#
#------------------------------------------------------------------------------
~VERSION INFORMATION
VERS. 2.0 : CWLS Log ASCII Standard - version 2.0
WRAP.  NO : One line per depth step
~WELL INFORMATION
#MNEMONIC   .UNIT                                           VALUE :DESCRIPTION
#------------------------------------------------------------------------------
STRT        .M                                           550.4693 :START DEPTH
STOP        .M                                          2949.3977 :STOP DEPTH
STEP        .M                                             0.1524 :STEP
NULL        .                                           -999.2500 :NULL VALUE
COMP        .                                   PEMEX EXPL & PROD :COMPANY
WELL        .                                                 287 :WELL
FLD         .                                           CANTARELL :FIELD
LOC         .                                             UNKNOWN :LOCATION
CNTY        .                                      CD. DEL CARMEN :COUNTY
STAT        .                                            CAMPECHE :STATE
CTRY        .                                              MEXICO :COUNTRY
SRVC        .                                             UNKNOWN :SERVICE COMPANY
DATE        .                                             UNKNOWN :LOG DATE
UWI         .                                          3060000485 :UNIQUE WELL ID
XCOORD      .                                       597313.390000 :SURFACE X
YCOORD      .                                      2143045.860000 :SURFACE Y
LAT         .                                           19.380346 :LATITUDE
LON         .                                          -92.073326 :LONGITUDE
ELEV        .M                                            27.7000 :SURFACE ELEV
ELEV_TYPE   .                                                  KB :ELEV TYPE
~CURVE INFORMATION
#MNEMONIC.UNIT        API CODE       : CURVE DESCRIPTION
#------------------------------------------------------------------------------
DEPTH    .M                          : Measured Depth
CALI     .inches      UNKNOWN        : CALI:Import:rC:NONE:v0 (auto-composite)
DT       .us/ft       UNKNOWN        : DT:Import:rC:NONE:v0 (auto-composite)
GR       .API         UNKNOWN        : GR:Import:rC:NONE:v0 (auto-composite)
ILD      .ohm.m       UNKNOWN        : ILD:Import:rC:NONE:v0 (auto-composite)
LLD      .ohm.m       UNKNOWN        : LLD:Import:rC:NONE:v0 (auto-composite)
LLS      .ohm.m       UNKNOWN        : LLS:Import:rC:NONE:v0 (auto-composite)
MSFL     .ohm.m       UNKNOWN        : MSFL:Import:rC:NONE:v0 (auto-composite)
NPHI     .v/v_decimal UNKNOWN        : NPHI:Import:rC:NONE:v0 (auto-composite)
RHOB     .g/cm3       UNKNOWN        : RHOB:Import:rC:NONE:v0 (auto-composite)
~A     DEPTH         CALI           DT           GR          ILD          LLD          LLS         MSFL         NPHI         RHOB
# ...
   2506.3708       9.5640      58.4650      38.5820    -999.2500     154.4090       8.1670      13.9790       0.0512       2.7550
   2506.5232       9.6115      55.6563      35.1381    -999.2500     128.2073       7.3656      12.0502       0.0500       2.7385
   2506.6758       9.6590      52.8470      31.6990    -999.2500     102.0000       6.5640      10.1210       0.0524       2.7220
   2506.8281       9.8250      54.4037      29.8533    -999.2500      97.3078       5.9376       8.2113       0.0596       2.6980
   2506.9805       9.9910      55.9610      28.0100    -999.2500      92.6140       5.3110       6.3010       0.0730       2.6740
   2507.1328       9.8425      59.0768      26.5026    -999.2500      80.5583       5.8114       7.8801       0.0939       2.6365
   2507.2854       9.6940      62.1940      24.9970    -999.2500      68.4970       6.3120       9.4600       0.1177       2.5990
   2507.4377       9.8030      63.8940      23.2461    -999.2500      75.0276       6.8768       6.1660       0.1396       2.5645
   2507.5901       9.9120      65.5950      21.4970    -999.2500      81.5620       7.4420       2.8700       0.1580       2.5300
   2507.7424      10.1424      64.9767      20.3685    -999.2500      78.8550       8.1532       2.6986       0.1709       2.5310
   2507.8950      10.3730      64.3580      19.2410    -999.2500      76.1460       8.8650       2.5270       0.1779       2.5320
   2508.0474      10.4140      63.8727      19.5386    -999.2500      75.7142       8.6831       1.9882       0.1781       2.5220
   2508.1997      10.4550      63.3870      19.8360    -999.2500      75.2820       8.5010       1.4490       0.1745       2.5120
   2508.3521      10.2024      73.7728      22.1908    -999.2500      84.3559       8.1894       1.1219       0.1702       2.4545
   2508.5044       9.9500      84.1520      24.5440    -999.2500      93.4240       7.8780       0.7950       0.1673       2.3970
   2508.6570       9.9190      93.8835      27.2439    -999.2500      91.3535       7.6925       1.8423       0.1682       2.3075
   2508.8093       9.8880     103.6100      29.9380    -999.2500      89.2840       7.5070       2.8890       0.1773       2.2180
   2508.9617       9.7870     109.2431      31.7958    -999.2500      83.9170       8.7482       4.1187       0.1996       2.1640
   2509.1140       9.6860     114.8740      33.6500    -999.2500      78.5520       9.9890       5.3480       0.2305       2.1100
   2509.2666       9.6370     118.6740      34.8196    -999.2500      91.5067      11.3042       4.7949       0.2662       2.1390
   2509.4189       9.5880     122.4730      35.9870    -999.2500     104.4580      12.6190       4.2420       0.2932       2.1680
   2509.5713       9.4605     119.5708      36.3063    -999.2500     125.7619      12.9505       6.6647       0.2977       2.2740
   2509.7236       9.3330     116.6690      36.6250    -999.2500     147.0630      13.2820       9.0870       0.2794       2.3800
   2509.8762       9.4105     110.5945      37.1544    -999.2500     125.5254      11.4315      10.0635       0.2366       2.4705
   2510.0286       9.4880     104.5200      37.6830    -999.2500     103.9880       9.5810      11.0400       0.1888       2.5610
   2510.1809       9.9505     100.0588      37.7305    -999.2500      97.8024       8.5731       9.1421       0.1551       2.6055
   2510.3333      10.4130      95.5970      37.7780    -999.2500      91.6160       7.5650       7.2440       0.1333       2.6500
   2510.4856      10.8155      97.8032      37.7780    -999.2500      82.2691       8.3719       4.7928       0.1218       2.6480
   2510.6382      11.2180     100.0100      37.7780    -999.2500      72.9200       9.1790       2.3410       0.1163       2.6460
   2510.7905      10.9595     107.0847      37.7780    -999.2500      80.3581      10.3628       1.6111       0.1130       2.6525
   2510.9429      10.7010     114.1620      37.7780    -999.2500      87.7990      11.5470       0.8810       0.1104       2.6590
   2511.0952      10.1661     107.2927      38.3338    -999.2500     103.1812      12.7302       1.3344       0.1072       2.6590
   2511.2478       9.6310     100.4200      38.8890    -999.2500     118.5710      13.9140       1.7880       0.1040       2.6590
   2511.4001       9.4995      96.8051      39.0971    -999.2500     125.1320      13.0478       4.5092       0.1015       2.6675
   2511.5525       9.3680      93.1880      39.3050    -999.2500     131.6970      12.1810       7.2320       0.0993       2.6760
   2511.7048       9.4025      88.6522      37.5252    -999.2500     117.2049      10.5076       8.2411       0.0973       2.6700
   2511.8572       9.4370      84.1130      35.7470    -999.2500     102.7020       8.8330       9.2510       0.0941       2.6640
   2512.0098       9.4405      88.7280      33.8643    -999.2500     105.4228       8.1073       9.6748       0.0886       2.6790
   2512.1621       9.4440      93.3470      31.9830    -999.2500     108.1460       7.3810      10.0990       0.0816       2.6940
   2512.3145       9.4440      89.1932      30.5841    -999.2500     122.1457       7.8196      11.3409       0.0736       2.7080
   2512.4668       9.4440      85.0420      29.1860    -999.2500     136.1370       8.2580      12.5820       0.0667       2.7220
   2512.6194       9.4895      75.7093      27.8201    -999.2500     140.2795       9.0397      10.8771       0.0629       2.7205
   2512.7717       9.5350      66.3810      26.4570    -999.2500     144.4200       9.8210       9.1730       0.0618       2.7190
   2512.9241       9.5145      66.7046      26.6677    -999.2500     140.0412      10.0075       8.4119       0.0631       2.7110
   2513.0764       9.4940      67.0280      26.8780    -999.2500     135.6640      10.1940       7.6510       0.0660       2.7030
   2513.2290       9.4900      72.7957      28.1201    -999.2500     146.5903       9.5929       7.3905       0.0695       2.6950
   2513.3813       9.4860      78.5620      29.3600    -999.2500     157.5140       8.9920       7.1300       0.0736       2.6870
   2513.5337       9.5100      76.9699      29.6803    -999.2500     181.0192       9.0925       7.5380       0.0779       2.6945
   2513.6860       9.5340      75.3780      30.0000    -999.2500     204.5220       9.1930       7.9460       0.0810       2.7020
   2513.8384       9.5450      71.5170      29.9665    -999.2500     189.3102       9.6905       9.0405       0.0814       2.7005
   2513.9910       9.5560      67.6560      29.9330    -999.2500     174.0980      10.1880      10.1350       0.0814       2.6990
   2514.1433       9.5415      65.0992      29.1649    -999.2500     190.6153      10.3060      10.3975       0.0833       2.6910
   2514.2957       9.5270      62.5420      28.3980    -999.2500     207.1350      10.4240      10.6600       0.0857       2.6830
   2514.4480       9.4890      62.9139      27.5319    -999.2500     211.3619      10.8744       9.8566       0.0872       2.6945
   2514.6006       9.4510      63.2860      26.6670    -999.2500     215.5900      11.3250       9.0530       0.0882       2.7060
   2514.7529       9.4110      70.3206      27.7702    -999.2500     230.4080      11.8849      10.2483       0.0891       2.7180
   2514.9053       9.3710      77.3580      28.8720    -999.2500     245.2320      12.4450      11.4440       0.0882       2.7300
   2515.0576       9.3520      72.8647      31.0072    -999.2500     251.7693      11.9941      12.6717       0.0837       2.7265
   2515.2102       9.3330      68.3690      33.1400    -999.2500     258.3100      11.5430      13.9000       0.0791       2.7230
   2515.3625       9.3840      63.8710      33.0645    -999.2500     234.7017      10.4619      12.4080       0.0778       2.6980
   2515.5149       9.4350      59.3700      32.9890    -999.2500     211.0780       9.3800      10.9150       0.0792       2.6730
   2515.6672       9.4590      58.2589      31.5484    -999.2500     198.0101       8.9662      11.4593       0.0824       2.6585
