#------------------------------------------------------------------------------
#
#   Created by  : [OpenWorks] Log Export Utility (LEXP)
#   Created on  : 2016-05-18 11:18:07
#   Project     : CANT971
#   User        : R5K
#   Interpreter : PEP
#
#------------------------------------------------------------------------------
~VERSION INFORMATION
VERS. 2.0 : CWLS Log ASCII Standard - version 2.0
WRAP.  NO : One line per depth step
~WELL INFORMATION
#MNEMONIC   .UNIT                                           VALUE :DESCRIPTION
#------------------------------------------------------------------------------
STRT        .M                                           550.4693 :START DEPTH
STOP        .M                                          2949.3977 :STOP DEPTH
STEP        .M                                             0.1524 :STEP
NULL        .                                           -999.2500 :NULL VALUE
COMP        .                                   PEMEX EXPL & PROD :COMPANY
WELL        .                                                 287 :WELL
FLD         .                                           CANTARELL :FIELD
LOC         .                                             UNKNOWN :LOCATION
CNTY        .                                      CD. DEL CARMEN :COUNTY
STAT        .                                            CAMPECHE :STATE
CTRY        .                                              MEXICO :COUNTRY
SRVC        .                                             UNKNOWN :SERVICE COMPANY
DATE        .                                             UNKNOWN :LOG DATE
UWI         .                                          3060000485 :UNIQUE WELL ID
XCOORD      .                                       597313.390000 :SURFACE X
YCOORD      .                                      2143045.860000 :SURFACE Y
LAT         .                                           19.380346 :LATITUDE
LON         .                                          -92.073326 :LONGITUDE
ELEV        .M                                            27.7000 :SURFACE ELEV
ELEV_TYPE   .                                                  KB :ELEV TYPE
~CURVE INFORMATION
#MNEMONIC.UNIT        API CODE       : CURVE DESCRIPTION
#------------------------------------------------------------------------------
DEPTH    .M                          : Measured Depth
CALI     .inches      UNKNOWN        : CALI:Import:rC:NONE:v0 (auto-composite)
DT       .us/ft       UNKNOWN        : DT:Import:rC:NONE:v0 (auto-composite)
GR       .API         UNKNOWN        : GR:Import:rC:NONE:v0 (auto-composite)
ILD      .ohm.m       UNKNOWN        : ILD:Import:rC:NONE:v0 (auto-composite)
LLD      .ohm.m       UNKNOWN        : LLD:Import:rC:NONE:v0 (auto-composite)
LLS      .ohm.m       UNKNOWN        : LLS:Import:rC:NONE:v0 (auto-composite)
MSFL     .ohm.m       UNKNOWN        : MSFL:Import:rC:NONE:v0 (auto-composite)
NPHI     .v/v_decimal UNKNOWN        : NPHI:Import:rC:NONE:v0 (auto-composite)
RHOB     .g/cm3       UNKNOWN        : RHOB:Import:rC:NONE:v0 (auto-composite)
~A     DEPTH         CALI           DT           GR          ILD          LLD          LLS         MSFL         NPHI         RHOB
# ...
   2855.9766       9.3120      52.7290      25.4520    -999.2500      77.7540       9.9230       4.8650       0.0648       2.6680
   2856.1289       9.3705      53.6905      26.0600    -999.2500      74.9046       9.0480       4.1280       0.0730       2.6795
   2856.2812       9.4290      54.6520      26.6670    -999.2500      72.0550       8.1730       3.3910       0.0820       2.6910
   2856.4336       9.3425      55.9579      26.2782    -999.2500     117.8295       8.3035       4.6109       0.0906       2.6945
   2856.5862       9.2560      57.2640      25.8900    -999.2500     163.6140       8.4340       5.8310       0.0983       2.6980
   2856.7385       9.1210      59.7821      25.4842    -999.2500     204.2310      12.3328       6.9528       0.0974       2.6830
   2856.8909       8.9860      62.3010      25.0790    -999.2500     244.8620      16.2330       8.0750       0.0950       2.6680
   2857.0432       8.9375      57.4758      26.1966    -999.2500     275.9641      18.5328      10.0326       0.0824       2.6860
   2857.1958       8.8890      52.6560      27.3130    -999.2500     307.0310      20.8300      11.9880       0.0692       2.7040
   2857.3481       8.8890      51.3298      25.8828    -999.2500     348.0222      18.5669      12.9615       0.0579       2.7270
   2857.5005       8.8890      50.0050      24.4540    -999.2500     388.9720      16.3060      13.9340       0.0471       2.7500
   2857.6528       8.8765      50.3416      24.0203    -999.2500     371.2677      16.7272      11.4254       0.0417       2.7635
   2857.8054       8.8640      50.6780      23.5870    -999.2500     353.5790      17.1480       8.9190       0.0370       2.7770
   2857.9578       8.8460      50.7700      24.5068    -999.2500     278.0399      17.3531       7.8006       0.0367       2.7805
   2858.1101       8.8280      50.8620      25.4260    -999.2500     202.5580      17.5580       6.6830       0.0369       2.7840
   2858.2625       8.8950      50.7090      26.7784    -999.2500     162.9190      17.5065       5.5651       0.0400       2.7685
   2858.4148       8.9620      50.5560      28.1300    -999.2500     123.3050      17.4550       4.4480       0.0433       2.7530
   2858.5674       9.0795      50.8006      28.5071    -999.2500     117.9781      15.9066       5.4638       0.0464       2.7610
   2858.7197       9.1970      51.0450      28.8840    -999.2500     112.6540      14.3590       6.4790       0.0496       2.7690
   2858.8721       9.0935      51.7746      29.4381    -999.2500     147.0670      14.2480       7.1596       0.0536       2.7805
   2859.0244       8.9900      52.5040      29.9920    -999.2500     181.4670      14.1370       7.8400       0.0577       2.7920
   2859.1770       8.9220      54.1127      30.1760    -999.2500     242.0242      15.0751       9.6472       0.0627       2.7785
   2859.3293       8.8540      55.7210      30.3600    -999.2500     302.5660      16.0130      11.4540       0.0674       2.7650
   2859.4817       8.8460      55.7165      30.1335    -999.2500     341.0350      16.8286      12.1760       0.0671       2.7515
   2859.6340       8.8380      55.7120      29.9070    -999.2500     379.4990      17.6440      12.8980       0.0662       2.7380
   2859.7866       8.8635      54.4430      28.5499    -999.2500     384.2355      17.5070      12.2205       0.0624       2.7305
   2859.9390       8.8890      53.1740      27.1950    -999.2500     388.9720      17.3700      11.5430       0.0583       2.7230
   2860.0913       8.8890      53.5215      27.4747    -999.2500     331.8050      17.2625      10.4386       0.0542       2.7360
   2860.2437       8.8890      53.8690      27.7540    -999.2500     274.6310      17.1550       9.3340       0.0503       2.7490
   2860.3960       8.8890      53.3787      28.3219    -999.2500     242.5438      17.0689       8.6475       0.0494       2.7540
   2860.5486       8.8890      52.8890      28.8890    -999.2500     210.5000      16.9830       7.9620       0.0486       2.7590
   2860.7009       8.8890      52.9941      28.4252    -999.2500     239.8325      16.6423       7.9620       0.0460       2.7510
   2860.8533       8.8890      53.0990      27.9620    -999.2500     269.1290      16.3020       7.9620       0.0435       2.7430
   2861.0056       8.8890      53.6488      26.6133    -999.2500     366.0280      16.0399       8.8695       0.0433       2.7365
   2861.1582       8.8890      54.1980      25.2660    -999.2500     462.8200      15.7780       9.7760       0.0433       2.7300
   2861.3105       8.8415      53.8853      24.8548    -999.2500     561.2336      15.9791      10.5439       0.0419       2.7265
   2861.4629       8.7940      53.5730      24.4440    -999.2500     659.5510      16.1800      11.3110       0.0405       2.7230
   2861.6152       8.8410      53.2183      24.4865    -999.2500     668.6679      17.1864       9.5853       0.0386       2.7285
   2861.7676       8.8880      52.8640      24.5290    -999.2500     677.7770      18.1920       7.8610       0.0368       2.7340
   2861.9202       8.8885      53.2942      25.5304    -999.2500     630.4843      18.9483       9.7157       0.0367       2.7420
   2862.0725       8.8890      53.7240      26.5310    -999.2500     583.2260      19.7040      11.5690       0.0367       2.7500
   2862.2249       8.8890      53.3874      28.5566    -999.2500     530.4957      19.1123      11.0849       0.0384       2.7500
   2862.3772       8.8890      53.0510      30.5810    -999.2500     477.7970      18.5210      10.6010       0.0402       2.7500
   2862.5298       8.8890      52.9145      33.0211    -999.2500     435.0278      18.2894       9.3167       0.0441       2.7500
   2862.6821       8.8890      52.7780      35.4600    -999.2500     392.2790      18.0580       8.0330       0.0481       2.7500
   2862.8345       8.8890      53.3051      36.5872    -999.2500     341.3781      17.2184       7.9885       0.0507       2.7395
   2862.9868       8.8890      53.8320      37.7140    -999.2500     290.4950      16.3790       7.9440       0.0531       2.7290
   2863.1394       8.8890      54.4606      39.0416    -999.2500     264.9386      16.7665       8.7416       0.0555       2.7155
   2863.2917       8.8890      55.0890      40.3690    -999.2500     239.3880      17.1540       9.5390       0.0579       2.7020
   2863.4441       8.8890      55.6460      41.7236    -999.2500     239.7670      16.9870       9.9750       0.0625       2.6915
   2863.5964       8.8890      56.2030      43.0780    -999.2500     240.1460      16.8200      10.4110       0.0671       2.6810
   2863.7488       8.8890      56.8780      44.4411    -999.2500     294.1458      16.5605       9.1990       0.0692       2.6745
   2863.9014       8.8890      57.5530      45.8020    -999.2500     348.1470      16.3010       7.9870       0.0711       2.6680
   2864.0537       8.8890      58.3569      44.3965    -999.2500     404.8632      15.9620       6.6651       0.0679       2.6690
   2864.2061       8.8890      59.1610      42.9930    -999.2500     461.5880      15.6230       5.3430       0.0646       2.6700
   2864.3584       8.8890      58.1418      41.4765    -999.2500     492.2473      15.9797       4.3248       0.0639       2.6770
   2864.5110       8.8890      57.1240      39.9620    -999.2500     522.8660      16.3360       3.3080       0.0634       2.6840
   2864.6633       8.8890      55.8377      39.2796    -999.2500     456.2426      16.7427       3.2730       0.0638       2.6955
   2864.8157       8.8890      54.5530      38.5980    -999.2500     389.6990      17.1490       3.2380       0.0643       2.7070
   2864.9680       8.8890      54.6200      37.9206    -999.2500     343.5012      17.1515       4.7398       0.0671       2.7020
   2865.1206       8.8890      54.6870      37.2440    -999.2500     297.3530      17.1540       6.2400       0.0699       2.6970
   2865.2729       8.8890      56.5774      36.1695    -999.2500     261.0974      17.1540       6.4081       0.0728       2.6900
