#------------------------------------------------------------------------------
#
#   Created by  : [OpenWorks] Log Export Utility (LEXP)
#   Created on  : 2016-05-18 11:18:07
#   Project     : CANT971
#   User        : R5K
#   Interpreter : PEP
#
#------------------------------------------------------------------------------
~VERSION INFORMATION
VERS. 2.0 : CWLS Log ASCII Standard - version 2.0
WRAP.  NO : One line per depth step
~WELL INFORMATION
#MNEMONIC   .UNIT                                           VALUE :DESCRIPTION
#------------------------------------------------------------------------------
STRT        .M                                           550.4693 :START DEPTH
STOP        .M                                          2949.3977 :STOP DEPTH
STEP        .M                                             0.1524 :STEP
NULL        .                                           -999.2500 :NULL VALUE
COMP        .                                   PEMEX EXPL & PROD :COMPANY
WELL        .                                                 287 :WELL
FLD         .                                           CANTARELL :FIELD
LOC         .                                             UNKNOWN :LOCATION
CNTY        .                                      CD. DEL CARMEN :COUNTY
STAT        .                                            CAMPECHE :STATE
CTRY        .                                              MEXICO :COUNTRY
SRVC        .                                             UNKNOWN :SERVICE COMPANY
DATE        .                                             UNKNOWN :LOG DATE
UWI         .                                          3060000485 :UNIQUE WELL ID
XCOORD      .                                       597313.390000 :SURFACE X
YCOORD      .                                      2143045.860000 :SURFACE Y
LAT         .                                           19.380346 :LATITUDE
LON         .                                          -92.073326 :LONGITUDE
ELEV        .M                                            27.7000 :SURFACE ELEV
ELEV_TYPE   .                                                  KB :ELEV TYPE
~CURVE INFORMATION
#MNEMONIC.UNIT        API CODE       : CURVE DESCRIPTION
#------------------------------------------------------------------------------
DEPTH    .M                          : Measured Depth
CALI     .inches      UNKNOWN        : CALI:Import:rC:NONE:v0 (auto-composite)
DT       .us/ft       UNKNOWN        : DT:Import:rC:NONE:v0 (auto-composite)
GR       .API         UNKNOWN        : GR:Import:rC:NONE:v0 (auto-composite)
ILD      .ohm.m       UNKNOWN        : ILD:Import:rC:NONE:v0 (auto-composite)
LLD      .ohm.m       UNKNOWN        : LLD:Import:rC:NONE:v0 (auto-composite)
LLS      .ohm.m       UNKNOWN        : LLS:Import:rC:NONE:v0 (auto-composite)
MSFL     .ohm.m       UNKNOWN        : MSFL:Import:rC:NONE:v0 (auto-composite)
NPHI     .v/v_decimal UNKNOWN        : NPHI:Import:rC:NONE:v0 (auto-composite)
RHOB     .g/cm3       UNKNOWN        : RHOB:Import:rC:NONE:v0 (auto-composite)
~A     DEPTH         CALI           DT           GR          ILD          LLD          LLS         MSFL         NPHI         RHOB
# ...
   2733.1421       8.8890      57.6790      31.4100    -999.2500      35.7540      11.8700       9.1030       0.0367       2.6370
   2733.2944       8.8890      56.5285      33.6755    -999.2500      34.5575      10.9586      10.0309       0.0367       2.6310
   2733.4468       8.8890      55.3790      35.9390    -999.2500      33.3620      10.0480      10.9580       0.0375       2.6250
   2733.5994       8.8890      56.3073      36.8293    -999.2500      38.2273      10.7092      11.1751       0.0400       2.6210
   2733.7517       8.8890      57.2350      37.7190    -999.2500      43.0890      11.3700      11.3920       0.0438       2.6170
   2733.9041       8.9035      57.8392      37.7485    -999.2500      41.8316      11.6001      10.6758       0.0483       2.6100
   2734.0564       8.9180      58.4430      37.7780    -999.2500      40.5750      11.8300       9.9600       0.0533       2.6030
   2734.2090       9.0100      57.4268      36.9943    -999.2500      35.6158      11.1213       7.3979       0.0583       2.5935
   2734.3613       9.1020      56.4110      36.2110    -999.2500      30.6590      10.4130       4.8370       0.0613       2.5840
   2734.5137       9.5006      57.3227      33.8441    -999.2500      26.8713       9.8659       3.7168       0.0599       2.5780
   2734.6660       9.8990      58.2340      31.4780    -999.2500      23.0850       9.3190       2.5970       0.0559       2.5720
   2734.8186      10.8001      58.8391      29.2727    -999.2500      21.5818       8.7094       3.7701       0.0505       2.5720
   2734.9709      11.7010      59.4440      27.0680    -999.2500      20.0790       8.1000       4.9430       0.0449       2.5720
   2735.1233      12.5905      58.0954      25.5669    -999.2500      20.5810       7.5870       6.2981       0.0402       2.5625
   2735.2756      13.4800      56.7470      24.0660    -999.2500      21.0830       7.0740       7.6530       0.0367       2.5530
   2735.4280      14.2435      57.3655      22.3857    -999.2500      17.4015       6.4330       5.3025       0.0348       2.5290
   2735.5806      15.0070      57.9840      20.7080    -999.2500      13.7200       5.7920       2.9520       0.0353       2.5050
   2735.7329      15.2730      58.6894      21.6162    -999.2500      11.1967       5.0985       2.2965       0.0395       2.4380
   2735.8853      15.5390      59.3950      22.5230    -999.2500       8.6730       4.4050       1.6410       0.0458       2.3710
   2736.0376      15.5475      59.4195      25.1728    -999.2500       6.7078       3.9396       1.2715       0.0528       2.2705
   2736.1902      15.5560      59.4440      27.8190    -999.2500       4.7420       3.4740       0.9020       0.0591       2.1700
   2736.3425      14.8911      58.6282      29.4345    -999.2500       5.0314       3.1011       1.2359       0.0633       2.1060
   2736.4949      14.2260      57.8120      31.0480    -999.2500       5.3210       2.7280       1.5700       0.0661       2.0420
   2736.6472      12.9848      58.8576      32.5393    -999.2500       6.7943       3.0977       2.9442       0.0678       2.1245
   2736.7998      11.7450      59.9020      34.0290    -999.2500       8.2660       3.4670       4.3170       0.0691       2.2070
   2736.9521      10.7865      61.1251      36.7818    -999.2500       9.3500       4.5610       4.0354       0.0702       2.3065
   2737.1045       9.8290      62.3470      39.5320    -999.2500      10.4330       5.6540       3.7540       0.0716       2.4060
   2737.2568       9.4618      63.0288      43.9173    -999.2500      11.0923       7.0721       2.6635       0.0739       2.4815
   2737.4092       9.0950      63.7100      48.2990    -999.2500      11.7510       8.4890       1.5740       0.0753       2.5570
   2737.5618       9.0485      61.8694      50.6268    -999.2500      20.9577       9.0852       1.2059       0.0738       2.5800
   2737.7141       9.0020      60.0300      52.9530    -999.2500      30.1580       9.6810       0.8380       0.0690       2.6030
   2737.8665       8.9455      58.9092      53.9323    -999.2500      35.8747      10.2972       1.0666       0.0601       2.6045
   2738.0188       8.8890      57.7890      54.9110    -999.2500      41.5880      10.9130       1.2950       0.0502       2.6060
   2738.1714       8.8890      57.4124      51.0976    -999.2500      44.7157      11.6422       3.4350       0.0424       2.5850
   2738.3237       8.8890      57.0360      47.2860    -999.2500      47.8420      12.3710       5.5740       0.0393       2.5640
   2738.4761       8.8890      57.3035      42.8128    -999.2500      41.2549      13.0196       7.0612       0.0443       2.5290
   2738.6284       8.8890      57.5710      38.3410    -999.2500      34.6700      13.6680       8.5480       0.0578       2.4940
   2738.7810       8.9750      59.1857      36.9472    -999.2500      27.5783      13.3095       6.6088       0.0812       2.4415
   2738.9333       9.0610      60.8000      35.5560    -999.2500      20.4880      12.9510       4.6700       0.1066       2.3890
   2739.0857       9.0320      65.4837      36.6224    -999.2500      17.3344      12.2000       3.5325       0.1262       2.3475
   2739.2380       9.0030      70.1670      37.6870    -999.2500      14.1810      11.4490       2.3950       0.1387       2.3060
   2739.3904       8.9460      74.5804      39.7971    -999.2500      11.6646       9.9330       1.8885       0.1418       2.3300
   2739.5430       8.8890      78.9940      41.9040    -999.2500       9.1480       8.4170       1.3820       0.1359       2.3540
   2739.6953       8.9120      72.2946      44.9287    -999.2500       9.6675       7.1721       1.1765       0.1206       2.4290
   2739.8477       8.9350      65.5940      47.9490    -999.2500      10.1870       5.9270       0.9710       0.1011       2.5040
   2740.0000       9.0035      59.9648      46.6857    -999.2500      13.6830       4.9541       1.7084       0.0823       2.5525
   2740.1526       9.0720      54.3340      45.4240    -999.2500      17.1800       3.9810       2.4460       0.0694       2.6010
   2740.3049       8.9975      55.2148      41.0739    -999.2500      18.9206       3.7346       6.3907       0.0687       2.5760
   2740.4573       8.9230      56.0960      36.7290    -999.2500      20.6620       3.4880      10.3370       0.0766       2.5510
   2740.6096       8.9060      62.3913      34.6704    -999.2500      22.1098       4.2739       8.4355       0.0906       2.5080
   2740.7622       8.8890      68.6800      32.6140    -999.2500      23.5560       5.0590       6.5360       0.1030       2.4650
   2740.9146       8.9220      73.2946      35.3983    -999.2500      25.5199       5.5202       4.2644       0.1060       2.4995
   2741.0669       8.9550      77.9050      38.1800    -999.2500      27.4820       5.9810       1.9950       0.1003       2.5340
   2741.2192       9.0305      74.8323      40.7870    -999.2500      28.4439       5.6304       1.3482       0.0860       2.5645
   2741.3716       9.1060      71.7620      43.3920    -999.2500      29.4050       5.2800       0.7020       0.0701       2.5950
   2741.5242       9.1500      67.0164      43.0994    -999.2500      28.6923       5.6831       1.4858       0.0598       2.6035
   2741.6765       9.1940      62.2740      42.8070    -999.2500      27.9800       6.0860       2.2690       0.0530       2.6120
   2741.8289       9.1560      60.9296      42.5144    -999.2500      25.7859       6.9642       5.0288       0.0480       2.6400
   2741.9812       9.1180      59.5860      42.2220    -999.2500      23.5930       7.8420       7.7870       0.0440       2.6680
   2742.1338       9.0610      57.2415      42.2220    -999.2500      21.2000       8.1831       7.2209       0.0403       2.6735
   2742.2861       9.0040      54.8980      42.2220    -999.2500      18.8080       8.5240       6.6550       0.0382       2.6790
   2742.4385       8.9805      55.4361      42.4385    -999.2500      22.5871       8.7155       6.4195       0.0393       2.6660
