#------------------------------------------------------------------------------
#
#   Created by  : [OpenWorks] Log Export Utility (LEXP)
#   Created on  : 2016-05-18 11:18:07
#   Project     : CANT971
#   User        : R5K
#   Interpreter : PEP
#
#------------------------------------------------------------------------------
~VERSION INFORMATION
VERS. 2.0 : CWLS Log ASCII Standard - version 2.0
WRAP.  NO : One line per depth step
~WELL INFORMATION
#MNEMONIC   .UNIT                                           VALUE :DESCRIPTION
#------------------------------------------------------------------------------
STRT        .M                                           550.4693 :START DEPTH
STOP        .M                                          2949.3977 :STOP DEPTH
STEP        .M                                             0.1524 :STEP
NULL        .                                           -999.2500 :NULL VALUE
COMP        .                                   PEMEX EXPL & PROD :COMPANY
WELL        .                                                 287 :WELL
FLD         .                                           CANTARELL :FIELD
LOC         .                                             UNKNOWN :LOCATION
CNTY        .                                      CD. DEL CARMEN :COUNTY
STAT        .                                            CAMPECHE :STATE
CTRY        .                                              MEXICO :COUNTRY
SRVC        .                                             UNKNOWN :SERVICE COMPANY
DATE        .                                             UNKNOWN :LOG DATE
UWI         .                                          3060000485 :UNIQUE WELL ID
XCOORD      .                                       597313.390000 :SURFACE X
YCOORD      .                                      2143045.860000 :SURFACE Y
LAT         .                                           19.380346 :LATITUDE
LON         .                                          -92.073326 :LONGITUDE
ELEV        .M                                            27.7000 :SURFACE ELEV
ELEV_TYPE   .                                                  KB :ELEV TYPE
~CURVE INFORMATION
#MNEMONIC.UNIT        API CODE       : CURVE DESCRIPTION
#------------------------------------------------------------------------------
DEPTH    .M                          : Measured Depth
CALI     .inches      UNKNOWN        : CALI:Import:rC:NONE:v0 (auto-composite)
DT       .us/ft       UNKNOWN        : DT:Import:rC:NONE:v0 (auto-composite)
GR       .API         UNKNOWN        : GR:Import:rC:NONE:v0 (auto-composite)
ILD      .ohm.m       UNKNOWN        : ILD:Import:rC:NONE:v0 (auto-composite)
LLD      .ohm.m       UNKNOWN        : LLD:Import:rC:NONE:v0 (auto-composite)
LLS      .ohm.m       UNKNOWN        : LLS:Import:rC:NONE:v0 (auto-composite)
MSFL     .ohm.m       UNKNOWN        : MSFL:Import:rC:NONE:v0 (auto-composite)
NPHI     .v/v_decimal UNKNOWN        : NPHI:Import:rC:NONE:v0 (auto-composite)
RHOB     .g/cm3       UNKNOWN        : RHOB:Import:rC:NONE:v0 (auto-composite)
~A     DEPTH         CALI           DT           GR          ILD          LLD          LLS         MSFL         NPHI         RHOB
# ...
   2770.9373       8.8890      59.2550      64.1880    -999.2500      10.5150       4.3270       2.2510       0.0835       2.6440
   2771.0896       8.8890      60.4278      61.6078    -999.2500      16.1142       4.1085       1.7566       0.0760       2.6525
   2771.2422       8.8890      61.6010      59.0310    -999.2500      21.7150       3.8900       1.2620       0.0714       2.6610
   2771.3945       8.8890      64.2110      57.2925    -999.2500      26.3110       6.8734       2.9386       0.0690       2.6645
   2771.5469       8.8890      66.8220      55.5560    -999.2500      30.9090       9.8580       4.6160       0.0705       2.6680
   2771.6992       8.8890      67.8030      56.5030    -999.2500      24.4376      10.9956       6.1513       0.0777       2.6715
   2771.8518       8.8890      68.7830      57.4490    -999.2500      17.9730      12.1320       7.6850       0.0849       2.6750
   2772.0042       8.8890      66.4229      60.8256    -999.2500      13.7936       9.3682       8.3503       0.0862       2.6730
   2772.1565       8.8890      64.0650      64.1990    -999.2500       9.6180       6.6070       9.0150       0.0831       2.6710
   2772.3088       8.8890      61.4384      68.2476    -999.2500      21.7824       6.3314       7.5814       0.0767       2.6645
   2772.4612       8.8890      58.8140      72.2930    -999.2500      33.9370       6.0560       6.1490       0.0688       2.6580
   2772.6138       8.8890      59.2241      72.7862    -999.2500      56.3641       8.4673       4.6465       0.0610       2.6490
   2772.7661       8.8890      59.6340      73.2790    -999.2500      78.7760      10.8770       3.1450       0.0561       2.6400
   2772.9185       8.8890      60.9129      66.8742    -999.2500      95.8237      10.1918       5.8067       0.0569       2.6465
   2773.0708       8.8890      62.1910      60.4730    -999.2500     112.8620       9.5070       8.4670       0.0622       2.6530
   2773.2234       8.8890      61.7244      55.3454    -999.2500      86.3243       7.3265       9.6368       0.0712       2.6540
   2773.3757       8.8890      61.2580      50.2200    -999.2500      59.7980       5.1470      10.8060       0.0793       2.6550
   2773.5281       8.9310      61.8001      50.7991    -999.2500      42.8044       7.1943       9.9304       0.0818       2.6405
   2773.6804       8.9730      62.3420      51.3780    -999.2500      25.8160       9.2410       9.0550       0.0827       2.6260
   2773.8330       8.9325      64.1407      55.4879    -999.2500      28.6228      10.9046      10.4366       0.0856       2.6105
   2773.9854       8.8920      65.9390      59.5970    -999.2500      31.4290      12.5680      11.8180       0.0922       2.5950
   2774.1377       8.9550      66.7650      59.7960    -999.2500      24.1878      11.0785      12.9375       0.1043       2.5865
   2774.2900       9.0180      67.5910      59.9950    -999.2500      16.9470       9.5890      14.0570       0.1172       2.5780
   2774.4424       9.1075      65.5051      60.8852    -999.2500      13.6361       9.8545      14.2345       0.1262       2.5810
   2774.5950       9.1970      63.4190      61.7740    -999.2500      10.3250      10.1200      14.4120       0.1303       2.5840
   2774.7473       9.3315      63.2420      65.8028    -999.2500       9.8151      10.0595      13.0651       0.1281       2.5910
   2774.8997       9.4660      63.0650      69.8260    -999.2500       9.3050       9.9990      11.7180       0.1261       2.5980
   2775.0520       9.5110      64.3833      74.4099    -999.2500       7.9717       8.4552      10.7837       0.1308       2.5965
   2775.2046       9.5560      65.7020      78.9880    -999.2500       6.6380       6.9110       9.8490       0.1399       2.5950
   2775.3569       9.3355      66.4798      76.1218    -999.2500       8.3826       6.1087      10.2684       0.1511       2.5865
   2775.5093       9.1150      67.2580      73.2590    -999.2500      10.1280       5.3060      10.6880       0.1615       2.5780
   2775.6616       9.0575      67.6367      70.5821    -999.2500       8.8619       5.1329       9.5989       0.1679       2.5780
   2775.8142       9.0000      68.0150      67.9080    -999.2500       7.5970       4.9600       8.5110       0.1706       2.5780
   2775.9666       9.0275      67.3547      63.4920    -999.2500       6.8987       4.9305       7.7822       0.1696       2.5905
   2776.1189       9.0550      66.6950      59.0800    -999.2500       6.2010       4.9010       7.0540       0.1664       2.6030
   2776.2712       9.1605      66.4029      55.7897    -999.2500       5.9294       4.8725       6.7709       0.1626       2.6010
   2776.4236       9.2660      66.1110      52.5020    -999.2500       5.6580       4.8440       6.4880       0.1608       2.5990
   2776.5762       9.4045      69.4331      51.2816    -999.2500       5.4849       4.8095       6.4880       0.1637       2.5765
   2776.7285       9.5430      72.7530      50.0620    -999.2500       5.3120       4.7750       6.4880       0.1733       2.5540
   2776.8809       9.4145      76.0098      50.9262    -999.2500       4.9629       4.6400       6.5435       0.1921       2.5280
   2777.0332       9.2860      79.2650      51.7900    -999.2500       4.6140       4.5050       6.5990       0.2148       2.5020
   2777.1858       9.1855      81.0624      55.4902    -999.2500       4.0084       4.3690       6.9656       0.2365       2.4890
   2777.3381       9.0850      82.8590      59.1890    -999.2500       3.4030       4.2330       7.3320       0.2506       2.4760
   2777.4905       9.1870      81.7333      64.5717    -999.2500       2.8429       3.9425       6.7774       0.2500       2.5010
   2777.6428       9.2890      80.6080      69.9530    -999.2500       2.2830       3.6520       6.2230       0.2419       2.5260
   2777.7954       9.2660      77.4193      74.3814    -999.2500       2.4800       3.2500       4.7284       0.2328       2.5455
   2777.9478       9.2430      74.2310      78.8020    -999.2500       2.6770       2.8480       3.2340       0.2260       2.5650
   2778.1001       9.2305      75.4710      73.7974    -999.2500       2.6835       2.6560       2.3395       0.2249       2.5575
   2778.2524       9.2180      76.7110      68.8010    -999.2500       2.6900       2.4640       1.4450       0.2258       2.5500
   2778.4048       9.1645      77.5030      64.6469    -999.2500       4.0519       2.6445       2.1820       0.2250       2.5570
   2778.5574       9.1110      78.2950      60.4990    -999.2500       5.4140       2.8250       2.9190       0.2234       2.5640
   2778.7097       9.3500      76.1172      60.2773    -999.2500       5.6460       2.9930       3.4429       0.2218       2.5800
   2778.8621       9.5890      73.9390      60.0560    -999.2500       5.8780       3.1610       3.9670       0.2175       2.5960
   2779.0144       9.4660      73.9390      59.0849    -999.2500       5.2841       3.2220       3.9990       0.2072       2.5970
   2779.1670       9.3430      73.9390      58.1150    -999.2500       4.6900       3.2830       4.0310       0.1931       2.5980
   2779.3193       9.1261      74.4459      58.4557    -999.2500       4.9479       3.3870       4.4759       0.1770       2.5860
   2779.4717       8.9090      74.9530      58.7960    -999.2500       5.2060       3.4910       4.9210       0.1614       2.5740
   2779.6240       8.8990      72.6619      58.2262    -999.2500       4.7158       3.8457       5.7394       0.1495       2.5790
   2779.7766       8.8890      70.3730      57.6570    -999.2500       4.2260       4.2000       6.5570       0.1404       2.5840
   2779.9290       8.8890      69.2795      57.3654    -999.2500       4.2425       4.7978       9.4673       0.1341       2.5900
   2780.0813       8.8890      68.1870      57.0740    -999.2500       4.2590       5.3950      12.3750       0.1298       2.5960
   2780.2336       8.8890      68.1415      56.7959    -999.2500       5.0928       5.8602      13.9991       0.1270       2.6100
