#------------------------------------------------------------------------------
#
#   Created by  : [OpenWorks] Log Export Utility (LEXP)
#   Created on  : 2016-05-18 11:18:07
#   Project     : CANT971
#   User        : R5K
#   Interpreter : PEP
#
#------------------------------------------------------------------------------
~VERSION INFORMATION
VERS. 2.0 : CWLS Log ASCII Standard - version 2.0
WRAP.  NO : One line per depth step
~WELL INFORMATION
#MNEMONIC   .UNIT                                           VALUE :DESCRIPTION
#------------------------------------------------------------------------------
STRT        .M                                           550.4693 :START DEPTH
STOP        .M                                          2949.3977 :STOP DEPTH
STEP        .M                                             0.1524 :STEP
NULL        .                                           -999.2500 :NULL VALUE
COMP        .                                   PEMEX EXPL & PROD :COMPANY
WELL        .                                                 287 :WELL
FLD         .                                           CANTARELL :FIELD
LOC         .                                             UNKNOWN :LOCATION
CNTY        .                                      CD. DEL CARMEN :COUNTY
STAT        .                                            CAMPECHE :STATE
CTRY        .                                              MEXICO :COUNTRY
SRVC        .                                             UNKNOWN :SERVICE COMPANY
DATE        .                                             UNKNOWN :LOG DATE
UWI         .                                          3060000485 :UNIQUE WELL ID
XCOORD      .                                       597313.390000 :SURFACE X
YCOORD      .                                      2143045.860000 :SURFACE Y
LAT         .                                           19.380346 :LATITUDE
LON         .                                          -92.073326 :LONGITUDE
ELEV        .M                                            27.7000 :SURFACE ELEV
ELEV_TYPE   .                                                  KB :ELEV TYPE
~CURVE INFORMATION
#MNEMONIC.UNIT        API CODE       : CURVE DESCRIPTION
#------------------------------------------------------------------------------
DEPTH    .M                          : Measured Depth
CALI     .inches      UNKNOWN        : CALI:Import:rC:NONE:v0 (auto-composite)
DT       .us/ft       UNKNOWN        : DT:Import:rC:NONE:v0 (auto-composite)
GR       .API         UNKNOWN        : GR:Import:rC:NONE:v0 (auto-composite)
ILD      .ohm.m       UNKNOWN        : ILD:Import:rC:NONE:v0 (auto-composite)
LLD      .ohm.m       UNKNOWN        : LLD:Import:rC:NONE:v0 (auto-composite)
LLS      .ohm.m       UNKNOWN        : LLS:Import:rC:NONE:v0 (auto-composite)
MSFL     .ohm.m       UNKNOWN        : MSFL:Import:rC:NONE:v0 (auto-composite)
NPHI     .v/v_decimal UNKNOWN        : NPHI:Import:rC:NONE:v0 (auto-composite)
RHOB     .g/cm3       UNKNOWN        : RHOB:Import:rC:NONE:v0 (auto-composite)
~A     DEPTH         CALI           DT           GR          ILD          LLD          LLS         MSFL         NPHI         RHOB
# ...
   2931.5669       9.7180      66.6650      28.9470    -999.2500      39.8640       7.5650       5.4190       0.1427       2.4640
   2931.7192       9.5564      68.3197      28.7474    -999.2500      39.8925       7.5650       5.4180       0.1401       2.5485
   2931.8716       9.3950      69.9730      28.5480    -999.2500      39.9210       7.5650       5.4170       0.1356       2.6330
   2932.0242       9.1469      80.1214      28.7186    -999.2500      44.9712       7.5650       5.3335       0.1268       2.6325
   2932.1765       8.8990      90.2630      28.8890    -999.2500      50.0180       7.5650       5.2500       0.1186       2.6320
   2932.3289       8.9015      90.2165      28.8885    -999.2500      49.9640       7.5565       4.0727       0.1170       2.5765
   2932.4812       8.9040      90.1700      28.8880    -999.2500      49.9100       7.5480       2.8960       0.1228       2.5210
   2932.6338       9.2086      82.8209      28.8105    -999.2500      44.8779       6.7738       2.0293       0.1467       2.5435
   2932.7861       9.5130      75.4750      28.7330    -999.2500      39.8480       6.0000       1.1630       0.1771       2.5660
   2932.9385      10.4561      80.1502      27.9389    -999.2500      33.8236       5.3444       0.8320       0.2102       2.5655
   2933.0908      11.3990      84.8240      27.1450    -999.2500      27.8010       4.6890       0.5010       0.2377       2.5650
   2933.2434      12.6906      84.8130      27.3440    -999.2500      27.8095       4.2765       0.3840       0.2442       2.4535
   2933.3958      13.9820      84.8020      27.5430    -999.2500      27.8180       3.8640       0.2670       0.2438       2.3420
   2933.5481      14.9910      83.7195      26.5495    -999.2500      30.5776       3.7070       0.2670       0.2418       2.3425
   2933.7004      16.0000      82.6370      25.5560    -999.2500      33.3370       3.5500       0.2670       0.2396       2.3430
   2933.8528      16.0000      74.8273      25.5560    -999.2500      33.3170       3.5500       0.2785       0.2380       2.4345
   2934.0054    -999.2500      67.0170      25.5560    -999.2500      33.2970    -999.2500       0.2900       0.2360       2.5260
   2934.1577    -999.2500      67.0810      26.0518    -999.2500      30.2423    -999.2500       0.4310       0.2321       2.5250
   2934.3101    -999.2500      67.1450      26.5470    -999.2500      27.1870    -999.2500       0.5720       0.2264       2.5240
   2934.4624    -999.2500      77.3735      26.4234    -999.2500      27.1870    -999.2500       0.8392       0.2171       2.4675
   2934.6150    -999.2500      87.5890      26.3000    -999.2500      27.1870    -999.2500       1.1060       0.2087       2.4110
   2934.7673    -999.2500      82.5541      26.3115    -999.2500      27.2000    -999.2500       0.9129       0.2067       2.3019
   2934.9197    -999.2500      77.5250      26.3230    -999.2500      27.2130    -999.2500       0.7200       0.2070       2.1930
   2935.0720    -999.2500      77.5745      27.9899    -999.2500      30.1210    -999.2500       0.7240       0.2082       2.1140
   2935.2246    -999.2500      77.6240      29.6550    -999.2500      33.0260    -999.2500       0.7280       0.2093       2.0350
   2935.3770    -999.2500      82.8423      29.6435    -999.2500      33.0135    -999.2500       2.3622       0.2097       2.0205
   2935.5293    -999.2500      88.0560      29.6320    -999.2500      33.0010    -999.2500       3.9950       0.2099       2.0060
   2935.6816    -999.2500     100.5083      28.5056    -999.2500      31.5139    -999.2500       3.9865       0.2110       2.0060
   2935.8340    -999.2500     112.9510      27.3800    -999.2500      30.0280    -999.2500       3.9780       0.2147       2.0060
   2935.9866    -999.2500     121.3002      26.4677    -999.2500      30.4942    -999.2500       3.3163       0.2261       2.0060
   2936.1389    -999.2500     129.6440      25.5560    -999.2500      30.9600    -999.2500       2.6550       0.2373       2.0060
   2936.2913    -999.2500     133.6785      26.1006    -999.2500      30.9560    -999.2500       2.1354    -999.2500       2.0060
   2936.4436    -999.2500     137.7110      26.6450    -999.2500      30.9520    -999.2500       1.6160    -999.2500       2.0060
   2936.5962    -999.2500     138.5752      26.6320    -999.2500      30.5439    -999.2500       1.3509    -999.2500       2.0060
   2936.7485    -999.2500     139.4390      26.6190    -999.2500      30.1360    -999.2500       1.0860    -999.2500       2.0060
   2936.9009    -999.2500     139.7195      25.3818    -999.2500      29.5244    -999.2500       0.9420    -999.2500       2.0210
   2937.0532    -999.2500     140.0000      24.1450    -999.2500      28.9130    -999.2500       0.7980    -999.2500       2.0360
   2937.2058    -999.2500     140.0000      20.0932    -999.2500      28.8980    -999.2500       0.6975    -999.2500       2.1120
   2937.3582    -999.2500    -999.2500      16.0420    -999.2500      28.8830    -999.2500       0.5970    -999.2500       2.1880
   2937.5105    -999.2500    -999.2500      13.4090    -999.2500      28.4855    -999.2500       0.5305    -999.2500       2.3270
   2937.6628    -999.2500    -999.2500      10.7760    -999.2500      28.0880    -999.2500       0.4640    -999.2500       2.4660
   2937.8152    -999.2500    -999.2500       9.4215    -999.2500      27.6912    -999.2500       0.3849    -999.2500       2.4330
   2937.9678    -999.2500    -999.2500       8.0690    -999.2500      27.2950    -999.2500       0.3060    -999.2500       2.4000
   2938.1201    -999.2500    -999.2500       6.7146    -999.2500      28.1766    -999.2500       0.2695    -999.2500       2.4005
   2938.2725    -999.2500    -999.2500       5.3620    -999.2500      29.0570    -999.2500       0.2330    -999.2500       2.4010
   2938.4248    -999.2500    -999.2500       4.1788    -999.2500      28.8344    -999.2500       0.2315    -999.2500       2.4070
   2938.5774    -999.2500    -999.2500       2.9970    -999.2500      28.6120    -999.2500       0.2300    -999.2500       2.4130
   2938.7297    -999.2500    -999.2500       2.6048    -999.2500      28.9732    -999.2500       0.2230    -999.2500       2.4210
   2938.8821    -999.2500    -999.2500       2.2130    -999.2500      29.3340    -999.2500       0.2160    -999.2500       2.4290
   2939.0344    -999.2500    -999.2500       1.6617    -999.2500      28.3305    -999.2500       0.2080    -999.2500       2.4260
   2939.1870    -999.2500    -999.2500       1.1110    -999.2500      27.3280    -999.2500       0.2000    -999.2500       2.4230
   2939.3394    -999.2500    -999.2500       1.1110    -999.2500      30.2037    -999.2500       0.2000    -999.2500       2.4300
   2939.4917    -999.2500    -999.2500       1.1110    -999.2500      33.0770    -999.2500       0.2000    -999.2500       2.4370
   2939.6440    -999.2500    -999.2500       1.1110    -999.2500      32.7119    -999.2500       0.2000    -999.2500       2.4370
   2939.7964    -999.2500    -999.2500    -999.2500    -999.2500      32.3470    -999.2500    -999.2500    -999.2500       2.4370
   2939.9490    -999.2500    -999.2500    -999.2500    -999.2500      32.8547    -999.2500    -999.2500    -999.2500       2.4315
   2940.1013    -999.2500    -999.2500    -999.2500    -999.2500      33.3620    -999.2500    -999.2500    -999.2500       2.4260
   2940.2537    -999.2500    -999.2500    -999.2500    -999.2500      32.6728    -999.2500    -999.2500    -999.2500       2.4305
   2940.4060    -999.2500    -999.2500    -999.2500    -999.2500      31.9840    -999.2500    -999.2500    -999.2500       2.4350
   2940.5586    -999.2500    -999.2500    -999.2500    -999.2500      32.6336    -999.2500    -999.2500    -999.2500       2.4350
   2940.7109    -999.2500    -999.2500    -999.2500    -999.2500      33.2830    -999.2500    -999.2500    -999.2500       2.4350
   2940.8633    -999.2500    -999.2500    -999.2500    -999.2500      33.2765    -999.2500    -999.2500    -999.2500       2.4265
