#------------------------------------------------------------------------------
#
#   Created by  : [OpenWorks] Log Export Utility (LEXP)
#   Created on  : 2016-05-18 11:18:07
#   Project     : CANT971
#   User        : R5K
#   Interpreter : PEP
#
#------------------------------------------------------------------------------
~VERSION INFORMATION
VERS. 2.0 : CWLS Log ASCII Standard - version 2.0
WRAP.  NO : One line per depth step
~WELL INFORMATION
#MNEMONIC   .UNIT                                           VALUE :DESCRIPTION
#------------------------------------------------------------------------------
STRT        .M                                           550.4693 :START DEPTH
STOP        .M                                          2949.3977 :STOP DEPTH
STEP        .M                                             0.1524 :STEP
NULL        .                                           -999.2500 :NULL VALUE
COMP        .                                   PEMEX EXPL & PROD :COMPANY
WELL        .                                                 287 :WELL
FLD         .                                           CANTARELL :FIELD
LOC         .                                             UNKNOWN :LOCATION
CNTY        .                                      CD. DEL CARMEN :COUNTY
STAT        .                                            CAMPECHE :STATE
CTRY        .                                              MEXICO :COUNTRY
SRVC        .                                             UNKNOWN :SERVICE COMPANY
DATE        .                                             UNKNOWN :LOG DATE
UWI         .                                          3060000485 :UNIQUE WELL ID
XCOORD      .                                       597313.390000 :SURFACE X
YCOORD      .                                      2143045.860000 :SURFACE Y
LAT         .                                           19.380346 :LATITUDE
LON         .                                          -92.073326 :LONGITUDE
ELEV        .M                                            27.7000 :SURFACE ELEV
ELEV_TYPE   .                                                  KB :ELEV TYPE
~CURVE INFORMATION
#MNEMONIC.UNIT        API CODE       : CURVE DESCRIPTION
#------------------------------------------------------------------------------
DEPTH    .M                          : Measured Depth
CALI     .inches      UNKNOWN        : CALI:Import:rC:NONE:v0 (auto-composite)
DT       .us/ft       UNKNOWN        : DT:Import:rC:NONE:v0 (auto-composite)
GR       .API         UNKNOWN        : GR:Import:rC:NONE:v0 (auto-composite)
ILD      .ohm.m       UNKNOWN        : ILD:Import:rC:NONE:v0 (auto-composite)
LLD      .ohm.m       UNKNOWN        : LLD:Import:rC:NONE:v0 (auto-composite)
LLS      .ohm.m       UNKNOWN        : LLS:Import:rC:NONE:v0 (auto-composite)
MSFL     .ohm.m       UNKNOWN        : MSFL:Import:rC:NONE:v0 (auto-composite)
NPHI     .v/v_decimal UNKNOWN        : NPHI:Import:rC:NONE:v0 (auto-composite)
RHOB     .g/cm3       UNKNOWN        : RHOB:Import:rC:NONE:v0 (auto-composite)
~A     DEPTH         CALI           DT           GR          ILD          LLD          LLS         MSFL         NPHI         RHOB
# ...
   2893.7717       9.1880      70.6140      33.0460    -999.2500      43.3690      13.7550       2.9620       0.1034       2.6440
   2893.9241       9.1880      62.8056      31.3532    -999.2500      43.3790      10.8770       2.9625       0.1006       2.6475
   2894.0764       9.1880      55.0000      29.6610    -999.2500      43.3890       8.0000       2.9630       0.0965       2.6510
   2894.2290       8.9975      55.0015      28.4019    -999.2500      59.4848       8.0015       3.2985       0.0813       2.6875
   2894.3813       8.8070      55.0030      27.1430    -999.2500      75.5770       8.0030       3.6340       0.0664       2.7240
   2894.5337       8.8070      60.3838      24.7259    -999.2500     159.8234       9.1101       4.9991       0.0651       2.7240
   2894.6860       8.8070      65.7640      22.3090    -999.2500     244.0610      10.2170       6.3640       0.0653       2.7240
   2894.8384       8.8460      65.7630      22.3100    -999.2500     244.0455      12.4000       6.9500       0.0674       2.7155
   2894.9910       8.8850      65.7620      22.3110    -999.2500     244.0300      14.5830       7.5360       0.0699       2.7070
   2895.1433       8.8870      64.5746      23.5809    -999.2500     226.0073      14.6490       7.5510       0.0735       2.6950
   2895.2957       8.8890      63.3870      24.8490    -999.2500     207.9820      14.7150       7.5660       0.0771       2.6830
   2895.4480       8.8890      61.4697      26.2034    -999.2500     166.6615      16.1074       7.9733       0.0793       2.6830
   2895.6006       8.8890      59.5550      27.5560    -999.2500     125.3960      17.4980       8.3800       0.0814       2.6830
   2895.7529       8.8890      59.5610      28.5676    -999.2500      97.5833      17.4975       8.3785       0.0844       2.6945
   2895.9053       8.8890      59.5670      29.5780    -999.2500      69.8040      17.4970       8.3770       0.0873       2.7060
   2896.0576       8.8335      63.5196      30.2554    -999.2500      59.4024      17.3244       7.3099       0.0887       2.7060
   2896.2102       8.7780      67.4680      30.9320    -999.2500      49.0120      17.1520       6.2440       0.0899       2.7060
   2896.3625       8.7780      74.8005      32.1981    -999.2500      44.8020      15.9099       6.5546       0.0900       2.6970
   2896.5149       8.7780      82.1260      33.4630    -999.2500      40.5960      14.6690       6.8650       0.0906       2.6880
   2896.6672       8.7935      81.4922      34.8176    -999.2500      36.7539      14.0482       6.8615       0.0970       2.6695
   2896.8196       8.8090      80.8590      36.1710    -999.2500      32.9150      13.4280       6.8580       0.1064       2.6510
   2896.9722       8.9040      80.8665      36.9748    -999.2500      29.0872      12.5597       5.3690       0.1385       2.5980
   2897.1245       8.9990      80.8740      37.7780    -999.2500      25.2620      11.6920       3.8810       0.1758       2.5450
   2897.2769       9.3776      94.4014      37.7780    -999.2500      22.4057      10.9623       3.0042       0.2371       2.3950
   2897.4292       9.7560     107.9210      37.7780    -999.2500      19.5510      10.2330       2.1280       0.2952       2.2450
   2897.5818       9.7550     107.9110      39.3604    -999.2500      16.8224       8.9867       3.7749       0.3010       2.2450
   2897.7341       9.7540     107.9010      40.9420    -999.2500      14.0950       7.7410       5.4210       0.2983       2.2450
   2897.8865       9.3214      99.4161      40.9405    -999.2500      14.1050       7.7435       5.4210       0.2725       2.2960
   2898.0388       8.8890      90.9340      40.9390    -999.2500      14.1150       7.7460       5.4210       0.2391       2.3470
   2898.1914       8.8890      90.9340      40.0554    -999.2500      24.0595      11.5474       4.1854       0.1621       2.4845
   2898.3438       8.8890      90.9340      39.1720    -999.2500      34.0020      15.3480       2.9500       0.0880       2.6220
   2898.4961       8.8890      92.3981      38.4730    -999.2500      45.3984      15.3470       4.9846       0.0802       2.6775
   2898.6484       8.8890      93.8620      37.7740    -999.2500      56.7940      15.3460       7.0190       0.0806       2.7330
   2898.8008       8.7810      93.8550      36.4215    -999.2500      53.6791      14.8815       7.0185       0.0849       2.7255
   2898.9534       8.6730      93.8480      35.0710    -999.2500      50.5640      14.4170       7.0180       0.0892       2.7180
   2899.1057       8.7810      89.4214      31.2843    -999.2500      50.5760      12.9786       6.0211       0.0896       2.7335
   2899.2581       8.8890      84.9940      27.5030    -999.2500      50.5880      11.5400       5.0240       0.0889       2.7490
   2899.4104       8.8630      83.7557      27.5040    -999.2500      56.1216      11.5405       5.0245       0.0827       2.7465
   2899.5630       8.8370      82.5190      27.5050    -999.2500      61.6480      11.5410       5.0250       0.0764       2.7440
   2899.7153       8.8455      81.3448      28.1319    -999.2500      61.6480      11.9132       5.4467       0.0746       2.7440
   2899.8677       8.8540      80.1720      28.7580    -999.2500      61.6480      12.2850       5.8680       0.0729       2.7440
   2900.0200       8.8540      70.4764      32.2278    -999.2500      61.6585      12.6807       6.1221       0.0683       2.7440
   2900.1726       8.8540      60.7910      35.6940    -999.2500      61.6690      13.0760       6.3760       0.0638       2.7440
   2900.3250       8.7675      60.8820      38.6834    -999.2500      66.3006      13.4947       7.1449       0.0633       2.7440
   2900.4773       8.6810      60.9730      41.6700    -999.2500      70.9280      13.9130       7.9130       0.0633       2.7440
   2900.6296       8.7105      60.9700      40.4860    -999.2500      76.1171      13.9475       7.7389       0.0633       2.7415
   2900.7820       8.7400      60.9670      39.3030    -999.2500      81.3020      13.9820       7.5650       0.0632       2.7390
   2900.9346       8.6725      57.8259      39.3200    -999.2500      90.7192      14.5287       7.5650       0.0619       2.7390
   2901.0869       8.6050      54.6870      39.3370    -999.2500     100.1300      15.0750       7.5650       0.0606       2.7390
   2901.2393       8.6050      54.6890      44.5434    -999.2500     110.5013      16.1148       7.5650       0.0604       2.7445
   2901.3916       8.6050      54.6910      49.7470    -999.2500     120.8670      17.1540       7.5650       0.0613       2.7500
   2901.5442       8.7470      55.6792      55.9853    -999.2500     183.1265      17.6046       7.1969       0.0685       2.7500
   2901.6965       8.8890      56.6670      62.2210    -999.2500     245.3600      18.0550       6.8290       0.0754       2.7500
   2901.8489       8.7900      56.6655      62.2195    -999.2500     245.1820      18.0550       6.8305       0.0728       2.7390
   2902.0012       8.6910      56.6640      62.2180    -999.2500     245.0040      18.0550       6.8320       0.0693       2.7280
   2902.1538       8.6915      56.2005      61.5404    -999.2500     189.4918      17.9550       7.7676       0.0689       2.7135
   2902.3062       8.6920      55.7370      60.8630    -999.2500     133.9890      17.8550       8.7030       0.0695       2.6990
   2902.4585       8.7595      54.5990      60.1830    -999.2500     118.2257      17.5020       8.6990       0.0745       2.6995
   2902.6108       8.8270      53.4610      59.5030    -999.2500     102.4630      17.1490       8.6950       0.0792       2.7000
   2902.7632       8.8580      52.0086      58.0949    -999.2500      81.9844      16.3450       7.5365       0.0785       2.7000
   2902.9158       8.8890      50.5560      56.6890    -999.2500      61.5040      15.5410       6.3780       0.0772       2.7000
   2903.0681       8.8890      50.5730      55.1419    -999.2500      49.8717      14.2051       5.2331       0.0771       2.6930
