#------------------------------------------------------------------------------
#
#   Created by  : [OpenWorks] Log Export Utility (LEXP)
#   Created on  : 2016-05-18 11:18:07
#   Project     : CANT971
#   User        : R5K
#   Interpreter : PEP
#
#------------------------------------------------------------------------------
~VERSION INFORMATION
VERS. 2.0 : CWLS Log ASCII Standard - version 2.0
WRAP.  NO : One line per depth step
~WELL INFORMATION
#MNEMONIC   .UNIT                                           VALUE :DESCRIPTION
#------------------------------------------------------------------------------
STRT        .M                                           550.4693 :START DEPTH
STOP        .M                                          2949.3977 :STOP DEPTH
STEP        .M                                             0.1524 :STEP
NULL        .                                           -999.2500 :NULL VALUE
COMP        .                                   PEMEX EXPL & PROD :COMPANY
WELL        .                                                 287 :WELL
FLD         .                                           CANTARELL :FIELD
LOC         .                                             UNKNOWN :LOCATION
CNTY        .                                      CD. DEL CARMEN :COUNTY
STAT        .                                            CAMPECHE :STATE
CTRY        .                                              MEXICO :COUNTRY
SRVC        .                                             UNKNOWN :SERVICE COMPANY
DATE        .                                             UNKNOWN :LOG DATE
UWI         .                                          3060000485 :UNIQUE WELL ID
XCOORD      .                                       597313.390000 :SURFACE X
YCOORD      .                                      2143045.860000 :SURFACE Y
LAT         .                                           19.380346 :LATITUDE
LON         .                                          -92.073326 :LONGITUDE
ELEV        .M                                            27.7000 :SURFACE ELEV
ELEV_TYPE   .                                                  KB :ELEV TYPE
~CURVE INFORMATION
#MNEMONIC.UNIT        API CODE       : CURVE DESCRIPTION
#------------------------------------------------------------------------------
DEPTH    .M                          : Measured Depth
CALI     .inches      UNKNOWN        : CALI:Import:rC:NONE:v0 (auto-composite)
DT       .us/ft       UNKNOWN        : DT:Import:rC:NONE:v0 (auto-composite)
GR       .API         UNKNOWN        : GR:Import:rC:NONE:v0 (auto-composite)
ILD      .ohm.m       UNKNOWN        : ILD:Import:rC:NONE:v0 (auto-composite)
LLD      .ohm.m       UNKNOWN        : LLD:Import:rC:NONE:v0 (auto-composite)
LLS      .ohm.m       UNKNOWN        : LLS:Import:rC:NONE:v0 (auto-composite)
MSFL     .ohm.m       UNKNOWN        : MSFL:Import:rC:NONE:v0 (auto-composite)
NPHI     .v/v_decimal UNKNOWN        : NPHI:Import:rC:NONE:v0 (auto-composite)
RHOB     .g/cm3       UNKNOWN        : RHOB:Import:rC:NONE:v0 (auto-composite)
~A     DEPTH         CALI           DT           GR          ILD          LLD          LLS         MSFL         NPHI         RHOB
# ...
   2695.3469       9.2220      53.6360      31.8160    -999.2500      16.5850       7.1190       3.3340       0.0372       2.6850
   2695.4993       9.2570      53.7655      32.5747    -999.2500      19.7597       7.9602       5.3999       0.0357       2.6745
   2695.6516       9.2920      53.8950      33.3330    -999.2500      22.9330       8.8010       7.4650       0.0342       2.6640
   2695.8042       9.3585      54.7931      30.9992    -999.2500      21.1252       9.8141      14.6305       0.0312       2.6550
   2695.9565       9.4250      55.6910      28.6660    -999.2500      19.3180      10.8270      21.7940       0.0283       2.6460
   2696.1089       9.4340      57.4866      25.9573    -999.2500      18.9425      11.8601      18.2247       0.0272       2.6340
   2696.2612       9.4430      59.2820      23.2490    -999.2500      18.5670      12.8930      14.6560       0.0270       2.6220
   2696.4138       9.4605      58.2270      21.5216    -999.2500      23.6236      10.8920      12.6895       0.0277       2.6135
   2696.5662       9.4780      57.1720      19.7970    -999.2500      28.6800       8.8910      10.7230       0.0291       2.6050
   2696.7185       9.5440      56.6615      19.6404    -999.2500      23.2327       7.6626       8.8211       0.0318       2.6010
   2696.8708       9.6100      56.1510      19.4840    -999.2500      17.7850       6.4340       6.9190       0.0358       2.5970
   2697.0232       9.6375      57.2474      20.5327    -999.2500      14.7128       5.6081       5.3847       0.0429       2.5870
   2697.1758       9.6650      58.3440      21.5800    -999.2500      11.6400       4.7820       3.8500       0.0526       2.5770
   2697.3281       9.6660      56.7238      23.9610    -999.2500      11.5095       4.4561       3.1281       0.0677       2.5800
   2697.4805       9.6670      55.1030      26.3390    -999.2500      11.3790       4.1300       2.4060       0.0832       2.5830
   2697.6328       9.6670      57.0061      28.2776    -999.2500      10.2588       3.6361       2.3690       0.0947       2.5765
   2697.7854       9.6670      58.9100      30.2140    -999.2500       9.1380       3.1420       2.3320       0.1046       2.5700
   2697.9377       9.6670      60.9089      29.9864    -999.2500       9.4904       3.2845       3.0183       0.1132       2.5675
   2698.0901       9.6670      62.9090      29.7590    -999.2500       9.8430       3.4270       3.7050       0.1207       2.5650
   2698.2424       9.6670      62.6979      27.4680    -999.2500      15.3820       4.5230       6.1836       0.1256       2.5300
   2698.3950       9.6670      62.4870      25.1790    -999.2500      20.9160       5.6180       8.6600       0.1289       2.4950
   2698.5474       9.6670      62.7726      24.2556    -999.2500      18.9563       5.8826       9.0872       0.1298       2.4915
   2698.6997       9.6670      63.0580      23.3330    -999.2500      16.9980       6.1470       9.5140       0.1300       2.4880
   2698.8521       9.6595      64.5195      23.7731    -999.2500      14.2721       6.1665       8.2101       0.1301       2.4850
   2699.0044       9.6520      65.9800      24.2130    -999.2500      11.5480       6.1860       6.9070       0.1304       2.4820
   2699.1570       9.5370      66.0455      22.4205    -999.2500      11.3535       6.3775       7.5582       0.1313       2.4700
   2699.3093       9.4220      66.1110      20.6290    -999.2500      11.1590       6.5690       8.2090       0.1313       2.4580
   2699.4617       9.3775      65.5714      20.0409    -999.2500      11.5746       6.7805       8.1965       0.1280       2.4620
   2699.6140       9.3330      65.0320      19.4530    -999.2500      11.9900       6.9920       8.1840       0.1230       2.4660
   2699.7666       9.3330      64.4604      20.4890    -999.2500      11.3699       7.2170       7.4829       0.1157       2.4900
   2699.9189       9.3330      63.8890      21.5230    -999.2500      10.7500       7.4420       6.7820       0.1076       2.5140
   2700.0713       9.3855      63.8890      22.3632    -999.2500      11.0280       7.5015       7.1280       0.0995       2.5305
   2700.2236       9.4380      63.8890      23.2020    -999.2500      11.3060       7.5610       7.4740       0.0919       2.5470
   2700.3762       9.4235      63.7575      23.2676    -999.2500      11.7350       7.5630       8.3785       0.0857       2.5495
   2700.5286       9.4090      63.6260      23.3330    -999.2500      12.1640       7.5650       9.2830       0.0803       2.5520
   2700.6809       9.3195      62.7495      23.1288    -999.2500      12.9610       7.5650       9.0400       0.0759       2.5615
   2700.8333       9.2300      61.8730      22.9250    -999.2500      13.7580       7.5650       8.7970       0.0719       2.5710
   2700.9856       9.1940      61.0261      22.2676    -999.2500      14.0140       7.5650       8.3795       0.0678       2.5780
   2701.1382       9.1580      60.1790      21.6110    -999.2500      14.2700       7.5650       7.9620       0.0629       2.5850
   2701.2905       9.1355      59.8116      20.9326    -999.2500      13.3072       7.5650       8.5049       0.0556       2.5710
   2701.4429       9.1130      59.4440      20.2550    -999.2500      12.3440       7.5650       9.0480       0.0478       2.5570
   2701.5952       9.0590      60.2434      20.1274    -999.2500      12.5171       7.5650       8.7193       0.0406       2.5460
   2701.7478       9.0050      61.0420      20.0000    -999.2500      12.6900       7.5650       8.3910       0.0343       2.5350
   2701.9001       9.0555      60.0685      20.5543    -999.2500      13.8025       7.6145       8.3485       0.0302       2.5585
   2702.0525       9.1060      59.0960      21.1080    -999.2500      14.9140       7.6640       8.3060       0.0278       2.5820
   2702.2048       9.1085      58.5698      24.2378    -999.2500      14.6814       8.1092       8.8842       0.0290       2.6005
   2702.3572       9.1110      58.0440      27.3650    -999.2500      14.4490       8.5540       9.4620       0.0322       2.6190
   2702.5098       9.1110      58.7403      30.6522    -999.2500      13.4541       8.6030       9.7826       0.0383       2.6190
   2702.6621       9.1110      59.4360      33.9370    -999.2500      12.4600       8.6520      10.1030       0.0453       2.6190
   2702.8145       9.1110      59.7076      35.2064    -999.2500      12.2329       7.5412      10.7022       0.0520       2.6130
   2702.9668       9.1110      59.9790      36.4750    -999.2500      12.0060       6.4310      11.3010       0.0582       2.6070
   2703.1194       9.1110      60.5946      39.3772    -999.2500      10.8102       5.6768      10.2703       0.0633       2.6010
   2703.2717       9.1110      61.2100      42.2780    -999.2500       9.6150       4.9230       9.2400       0.0715       2.5950
   2703.4241       9.0920      62.8323      44.8355    -999.2500       8.3128       4.3294       7.8518       0.0907       2.5925
   2703.5764       9.0730      64.4540      47.3920    -999.2500       7.0110       3.7360       6.4640       0.1129       2.5900
   2703.7290       9.0685      68.7260      52.6974    -999.2500       5.6268       3.2979       4.0157       0.1333       2.5815
   2703.8813       9.0640      72.9970      57.9930    -999.2500       4.2430       2.8600       1.5680       0.1500       2.5730
   2704.0337       9.0875      75.4936      62.3177    -999.2500       3.2374       2.4370       1.2100       0.1569       2.5595
   2704.1860       9.1110      77.9900      66.6350    -999.2500       2.2320       2.0140       0.8520       0.1532       2.5460
   2704.3384       9.0560      72.5301      60.6943    -999.2500       2.5930       2.0195       3.1570       0.1265       2.5590
   2704.4910       9.0010      67.0700      54.7630    -999.2500       2.9540       2.0250       5.4620       0.0926       2.5720
   2704.6433       9.0430      63.6912      46.5210    -999.2500      10.3615       3.6509       8.5693       0.0602       2.5965
