#------------------------------------------------------------------------------
#
#   Created by  : [OpenWorks] Log Export Utility (LEXP)
#   Created on  : 2016-05-18 11:18:07
#   Project     : CANT971
#   User        : R5K
#   Interpreter : PEP
#
#------------------------------------------------------------------------------
~VERSION INFORMATION
VERS. 2.0 : CWLS Log ASCII Standard - version 2.0
WRAP.  NO : One line per depth step
~WELL INFORMATION
#MNEMONIC   .UNIT                                           VALUE :DESCRIPTION
#------------------------------------------------------------------------------
STRT        .M                                           550.4693 :START DEPTH
STOP        .M                                          2949.3977 :STOP DEPTH
STEP        .M                                             0.1524 :STEP
NULL        .                                           -999.2500 :NULL VALUE
COMP        .                                   PEMEX EXPL & PROD :COMPANY
WELL        .                                                 287 :WELL
FLD         .                                           CANTARELL :FIELD
LOC         .                                             UNKNOWN :LOCATION
CNTY        .                                      CD. DEL CARMEN :COUNTY
STAT        .                                            CAMPECHE :STATE
CTRY        .                                              MEXICO :COUNTRY
SRVC        .                                             UNKNOWN :SERVICE COMPANY
DATE        .                                             UNKNOWN :LOG DATE
UWI         .                                          3060000485 :UNIQUE WELL ID
XCOORD      .                                       597313.390000 :SURFACE X
YCOORD      .                                      2143045.860000 :SURFACE Y
LAT         .                                           19.380346 :LATITUDE
LON         .                                          -92.073326 :LONGITUDE
ELEV        .M                                            27.7000 :SURFACE ELEV
ELEV_TYPE   .                                                  KB :ELEV TYPE
~CURVE INFORMATION
#MNEMONIC.UNIT        API CODE       : CURVE DESCRIPTION
#------------------------------------------------------------------------------
DEPTH    .M                          : Measured Depth
CALI     .inches      UNKNOWN        : CALI:Import:rC:NONE:v0 (auto-composite)
DT       .us/ft       UNKNOWN        : DT:Import:rC:NONE:v0 (auto-composite)
GR       .API         UNKNOWN        : GR:Import:rC:NONE:v0 (auto-composite)
ILD      .ohm.m       UNKNOWN        : ILD:Import:rC:NONE:v0 (auto-composite)
LLD      .ohm.m       UNKNOWN        : LLD:Import:rC:NONE:v0 (auto-composite)
LLS      .ohm.m       UNKNOWN        : LLS:Import:rC:NONE:v0 (auto-composite)
MSFL     .ohm.m       UNKNOWN        : MSFL:Import:rC:NONE:v0 (auto-composite)
NPHI     .v/v_decimal UNKNOWN        : NPHI:Import:rC:NONE:v0 (auto-composite)
RHOB     .g/cm3       UNKNOWN        : RHOB:Import:rC:NONE:v0 (auto-composite)
~A     DEPTH         CALI           DT           GR          ILD          LLD          LLS         MSFL         NPHI         RHOB
# ...
   2459.1270      10.1110      79.0010      35.8410    -999.2500      19.1790       4.2650       6.2260       0.2076       2.4120
   2459.2793      10.0685      80.7415      37.5769    -999.2500      19.4125       4.6715       4.9265       0.2357       2.3810
   2459.4316      10.0260      82.4820      39.3100    -999.2500      19.6460       5.0780       3.6270       0.2570       2.3500
   2459.5840       9.9105      76.5718      40.7321    -999.2500      19.9025       5.6085       2.2031       0.2593       2.3250
   2459.7366       9.7950      70.6610      42.1520    -999.2500      20.1590       6.1390       0.7790       0.2518       2.3000
   2459.8889       9.7360      71.0495      41.7878    -999.2500      22.0628       6.8519       0.8660       0.2257       2.3855
   2460.0413       9.6770      71.4380      41.4240    -999.2500      23.9670       7.5650       0.9530       0.1977       2.4710
   2460.1936       9.6440      69.6583      41.5446    -999.2500      28.0323       7.3980       1.9513       0.1810       2.5150
   2460.3462       9.6110      67.8780      41.6650    -999.2500      32.0990       7.2310       2.9500       0.1689       2.5590
   2460.4985       9.6225      66.8112      40.6915    -999.2500      32.9048       6.8296       4.0882       0.1632       2.5650
   2460.6509       9.6340      65.7440      39.7190    -999.2500      33.7110       6.4280       5.2270       0.1596       2.5710
   2460.8032       9.6960      64.6063      38.8626    -999.2500      30.8623       6.0146       7.1509       0.1579       2.5715
   2460.9558       9.7580      63.4680      38.0070    -999.2500      28.0120       5.6010       9.0760       0.1576       2.5720
   2461.1082       9.8700      64.9805      36.8690    -999.2500      27.2618       5.6275       6.3410       0.1606       2.5720
   2461.2605       9.9820      66.4940      35.7320    -999.2500      26.5110       5.6540       3.6040       0.1667       2.5720
   2461.4128       9.9020      68.1043      36.3437    -999.2500      28.9260       5.8839       5.1179       0.1809       2.5625
   2461.5652       9.8220      69.7160      36.9550    -999.2500      31.3430       6.1140       6.6330       0.1965       2.5530
   2461.7178       9.7116      68.5281      37.6332    -999.2500      30.5884       6.2264       5.8284       0.2084       2.5260
   2461.8701       9.6010      67.3390      38.3110    -999.2500      29.8330       6.3390       5.0230       0.2185       2.4990
   2462.0225       9.6215      69.2875      39.5068    -999.2500      26.4562       6.6991       4.0473       0.2257       2.4905
   2462.1748       9.6420      71.2350      40.7020    -999.2500      23.0810       7.0590       3.0720       0.2305       2.4820
   2462.3274       9.6545      73.4854      40.3492    -999.2500      26.9947       6.6119       6.3391       0.2296       2.4845
   2462.4797       9.6670      75.7350      39.9970    -999.2500      30.9070       6.1650       9.6050       0.2270       2.4870
   2462.6321       9.6415      78.3383      38.7343    -999.2500      34.6200       6.2825       7.6147       0.2242       2.4595
   2462.7844       9.6160      80.9410      37.4740    -999.2500      38.3320       6.4000       5.6250       0.2204       2.4320
   2462.9370       9.4905      84.3467      36.5142    -999.2500      43.1013       6.8350       5.2255       0.2134       2.4455
   2463.0894       9.3650      87.7520      35.5560    -999.2500      47.8700       7.2700       4.8260       0.2050       2.4590
   2463.2417       9.1950      80.4630      35.9038    -999.2500      52.3450       7.4080       6.1400       0.1947       2.4865
   2463.3940       9.0250      73.1740      36.2510    -999.2500      56.8200       7.5460       7.4540       0.1848       2.5140
   2463.5464       8.8705      68.1483      36.9660    -999.2500      55.2606       7.7185       6.4276       0.1778       2.5205
   2463.6990       8.7160      63.1220      37.6800    -999.2500      53.7010       7.8910       5.4010       0.1726       2.5270
   2463.8513       8.6430      63.4685      37.6585    -999.2500      49.4065       7.9755       6.8248       0.1708       2.5385
   2464.0037       8.5700      63.8150      37.6370    -999.2500      45.1110       8.0600       8.2490       0.1702       2.5500
   2464.1560       8.6315      63.8520      37.1517    -999.2500      51.8407       8.4749       9.0104       0.1700       2.5570
   2464.3086       8.6930      63.8890      36.6670    -999.2500      58.5730       8.8900       9.7720       0.1694       2.5640
   2464.4609       8.7890      63.8890      36.9532    -999.2500      55.7697       9.0720       9.3396       0.1666       2.5635
   2464.6133       8.8850      63.8890      37.2390    -999.2500      52.9650       9.2540       8.9070       0.1615       2.5630
   2464.7656       9.0170      63.0977      37.4856    -999.2500      48.5204       9.2685       8.5571       0.1507       2.5810
   2464.9182       9.1490      62.3060      37.7320    -999.2500      44.0730       9.2830       8.2070       0.1384       2.5990
   2465.0706       9.1835      61.9946      37.7550    -999.2500      45.7374       9.5064       6.7695       0.1268       2.6195
   2465.2229       9.2180      61.6830      37.7780    -999.2500      47.4030       9.7300       5.3310       0.1148       2.6400
   2465.3752       9.2315      59.4365      37.7780    -999.2500      50.1378      10.2153       8.2082       0.1010       2.6620
   2465.5276       9.2450      57.1880      37.7780    -999.2500      52.8750      10.7010      11.0880       0.0867       2.6840
   2465.6802       9.3385      56.0646      37.7780    -999.2500      50.4597      10.3092      12.5328       0.0721       2.6950
   2465.8325       9.4320      54.9400      37.7780    -999.2500      48.0420       9.9170      13.9790       0.0602       2.7060
   2465.9849       9.3875      52.3689      37.7780    -999.2500      46.7467       9.4854      12.7512       0.0581       2.7040
   2466.1372       9.3430      49.7990      37.7780    -999.2500      45.4520       9.0540      11.5240       0.0602       2.7020
   2466.2898       9.1990      46.7595      37.7780    -999.2500      48.8646       8.7680      11.8951       0.0675       2.6900
   2466.4421       9.0550      43.7210      37.7780    -999.2500      52.2760       8.4820      12.2660       0.0765       2.6780
   2466.5945       8.8285      50.4087      37.7780    -999.2500      46.7294       8.0630      12.9331       0.0862       2.6660
   2466.7468       8.6020      57.0950      37.7780    -999.2500      41.1840       7.6440      13.6000       0.0955       2.6540
   2466.8994       8.8190      58.3961      37.7780    -999.2500      37.0863       7.4475      11.2119       0.1030       2.6340
   2467.0518       9.0360      59.6970      37.7780    -999.2500      32.9890       7.2510       8.8240       0.1087       2.6140
   2467.2041       8.9885      60.9480      37.7780    -999.2500      30.5950       6.8695       6.1220       0.1107       2.5950
   2467.3564       8.9410      62.1990      37.7780    -999.2500      28.2010       6.4880       3.4200       0.1108       2.5760
   2467.5088       8.8595      65.0773      37.7780    -999.2500      24.4213       6.8560       2.2406       0.1085       2.5940
   2467.6614       8.7780      67.9560      37.7780    -999.2500      20.6410       7.2240       1.0610       0.1037       2.6120
   2467.8137       8.8765      64.9334      37.7780    -999.2500      24.7449       7.9319       1.4194       0.0927       2.6440
   2467.9661       8.9750      61.9100      37.7780    -999.2500      28.8500       8.6400       1.7780       0.0805       2.6760
   2468.1184       9.0320      57.2519      37.7780    -999.2500      35.8476       9.1569       5.0813       0.0702       2.6935
   2468.2710       9.0890      52.5920      37.7780    -999.2500      42.8480       9.6740       8.3860       0.0620       2.7110
   2468.4233       9.0070      49.4443      37.7780    -999.2500      46.2561       9.4965      10.3145       0.0590       2.7135
