#------------------------------------------------------------------------------
#
#   Created by  : [OpenWorks] Log Export Utility (LEXP)
#   Created on  : 2016-05-18 11:18:07
#   Project     : CANT971
#   User        : R5K
#   Interpreter : PEP
#
#------------------------------------------------------------------------------
~VERSION INFORMATION
VERS. 2.0 : CWLS Log ASCII Standard - version 2.0
WRAP.  NO : One line per depth step
~WELL INFORMATION
#MNEMONIC   .UNIT                                           VALUE :DESCRIPTION
#------------------------------------------------------------------------------
STRT        .M                                           550.4693 :START DEPTH
STOP        .M                                          2949.3977 :STOP DEPTH
STEP        .M                                             0.1524 :STEP
NULL        .                                           -999.2500 :NULL VALUE
COMP        .                                   PEMEX EXPL & PROD :COMPANY
WELL        .                                                 287 :WELL
FLD         .                                           CANTARELL :FIELD
LOC         .                                             UNKNOWN :LOCATION
CNTY        .                                      CD. DEL CARMEN :COUNTY
STAT        .                                            CAMPECHE :STATE
CTRY        .                                              MEXICO :COUNTRY
SRVC        .                                             UNKNOWN :SERVICE COMPANY
DATE        .                                             UNKNOWN :LOG DATE
UWI         .                                          3060000485 :UNIQUE WELL ID
XCOORD      .                                       597313.390000 :SURFACE X
YCOORD      .                                      2143045.860000 :SURFACE Y
LAT         .                                           19.380346 :LATITUDE
LON         .                                          -92.073326 :LONGITUDE
ELEV        .M                                            27.7000 :SURFACE ELEV
ELEV_TYPE   .                                                  KB :ELEV TYPE
~CURVE INFORMATION
#MNEMONIC.UNIT        API CODE       : CURVE DESCRIPTION
#------------------------------------------------------------------------------
DEPTH    .M                          : Measured Depth
CALI     .inches      UNKNOWN        : CALI:Import:rC:NONE:v0 (auto-composite)
DT       .us/ft       UNKNOWN        : DT:Import:rC:NONE:v0 (auto-composite)
GR       .API         UNKNOWN        : GR:Import:rC:NONE:v0 (auto-composite)
ILD      .ohm.m       UNKNOWN        : ILD:Import:rC:NONE:v0 (auto-composite)
LLD      .ohm.m       UNKNOWN        : LLD:Import:rC:NONE:v0 (auto-composite)
LLS      .ohm.m       UNKNOWN        : LLS:Import:rC:NONE:v0 (auto-composite)
MSFL     .ohm.m       UNKNOWN        : MSFL:Import:rC:NONE:v0 (auto-composite)
NPHI     .v/v_decimal UNKNOWN        : NPHI:Import:rC:NONE:v0 (auto-composite)
RHOB     .g/cm3       UNKNOWN        : RHOB:Import:rC:NONE:v0 (auto-composite)
~A     DEPTH         CALI           DT           GR          ILD          LLD          LLS         MSFL         NPHI         RHOB
# ...
   2818.1814       8.9720      53.3570      46.9900    -999.2500     341.0490      16.7260       9.2830       0.0510       2.7060
   2818.3337       8.9325      53.3345      46.8284    -999.2500     302.2819      16.5309       9.0634       0.0532       2.7005
   2818.4861       8.8930      53.3120      46.6670    -999.2500     263.5560      16.3360       8.8440       0.0558       2.6950
   2818.6384       9.0006      55.1374      46.7665    -999.2500     233.8871      14.9959       8.1172       0.0559       2.6930
   2818.7910       9.1080      56.9610      46.8660    -999.2500     204.2460      13.6570       7.3910       0.0553       2.6910
   2818.9434       9.1535      58.1455      47.5343    -999.2500     172.5191      12.6046       7.1554       0.0541       2.6920
   2819.0957       9.1990      59.3290      48.2020    -999.2500     140.8180      11.5530       6.9200       0.0544       2.6930
   2819.2480       9.3330      57.1713      49.2183    -999.2500     107.5260      10.7227       7.2426       0.0607       2.6780
   2819.4004       9.4670      55.0150      50.2340    -999.2500      74.2570       9.8930       7.5650       0.0718       2.6630
   2819.5530       9.6025      54.0007      54.3407    -999.2500      63.2984       9.4009       6.4077       0.0933       2.6430
   2819.7053       9.7380      52.9870      58.4450    -999.2500      52.3460       8.9090       5.2510       0.1196       2.6230
   2819.8577      10.0716      52.8780      66.7338    -999.2500      43.6101       8.2359       3.7732       0.1520       2.5845
   2820.0100      10.4050      52.7690      75.0190    -999.2500      34.8780       7.5630       2.2960       0.1877       2.5460
   2820.1626      10.0204      62.6670      81.0299    -999.2500      29.8962       7.1959       1.6774       0.2294       2.4340
   2820.3149       9.6360      72.5620      87.0390    -999.2500      24.9160       6.8290       1.0590       0.2727       2.3220
   2820.4673       9.4590      74.2082      80.8634    -999.2500      30.2710       6.0149       0.8460       0.3156       2.2265
   2820.6196       9.2820      75.8540      74.6890    -999.2500      35.6250       5.2010       0.6330       0.3528       2.1310
   2820.7722       9.2290      69.2543      66.8220    -999.2500      82.2954       6.8901       1.5125       0.3685       2.1600
   2820.9246       9.1760      62.6550      58.9680    -999.2500     128.9630       8.5790       2.3920       0.3675       2.1890
   2821.0769       9.1440      58.4171      54.2139    -999.2500     149.9713      11.8624       4.4419       0.3254       2.3415
   2821.2292       9.1120      54.1790      49.4670    -999.2500     170.9810      15.1460       6.4920       0.2705       2.4940
   2821.3816       9.0260      55.0454      46.2772    -999.2500     129.3090      14.5186       7.5594       0.2087       2.5710
   2821.5342       8.9400      55.9120      43.0920    -999.2500      87.6290      13.8910       8.6270       0.1523       2.6480
   2821.6865       9.0190      59.3899      41.6861    -999.2500      66.8398      13.2436       7.7891       0.1241       2.6440
   2821.8389       9.0980      62.8690      40.2820    -999.2500      46.0440      12.5960       6.9510       0.1083       2.6400
   2821.9912       9.0590      64.4669      41.2165    -999.2500      37.9673      11.5284       6.0825       0.1111       2.6045
   2822.1438       9.0200      66.0630      42.1500    -999.2500      29.9000      10.4620       5.2150       0.1192       2.5690
   2822.2961       9.0650      66.9750      46.8329    -999.2500      27.0115       9.7406       5.4336       0.1284       2.5595
   2822.4485       9.1100      67.8860      51.5110    -999.2500      24.1260       9.0200       5.6520       0.1378       2.5500
   2822.6008       9.2180      69.1796      52.4429    -999.2500      23.1541       8.9024       3.9452       0.1471       2.5445
   2822.7534       9.3260      70.4720      53.3740    -999.2500      22.1830       8.7850       2.2400       0.1549       2.5390
   2822.9058       9.2185      68.6668      54.9951    -999.2500      22.0329       8.1367       3.1749       0.1573       2.5220
   2823.0581       9.1110      66.8630      56.6150    -999.2500      21.8830       7.4890       4.1090       0.1608       2.5050
   2823.2104       9.1620      65.2450      60.3342    -999.2500      21.4664       7.1789       5.2419       0.1742       2.4350
   2823.3628       9.2130      63.6280      64.0510    -999.2500      21.0500       6.8690       6.3740       0.1901       2.3650
   2823.5154       9.3495      65.1774      68.6967    -999.2500      21.4246       6.5714       4.5480       0.2066       2.3040
   2823.6677       9.4860      66.7260      73.3400    -999.2500      21.7990       6.2740       2.7230       0.2216       2.2430
   2823.8201       9.4210      69.5456      73.4400    -999.2500      24.2180       6.2205       2.6705       0.2297       2.2400
   2823.9724       9.3560      72.3640      73.5400    -999.2500      26.6360       6.1670       2.6180       0.2298       2.2370
   2824.1250       9.2215      71.9849      69.6004    -999.2500      98.6211       5.8640       4.5773       0.2051       2.3585
   2824.2773       9.0870      71.6060      65.6620    -999.2500     170.5860       5.5610       6.5360       0.1741       2.4800
   2824.4297       9.0265      74.0972      61.0196    -999.2500     278.0943       8.1797       6.8645       0.1428       2.5705
   2824.5820       8.9660      76.5880      56.3780    -999.2500     385.5860      10.7980       7.1930       0.1135       2.6610
   2824.7346       9.0990      72.1229      52.7140    -999.2500     417.7370      13.2400       6.5885       0.0923       2.6810
   2824.8870       9.2320      67.6580      49.0560    -999.2500     449.8870      15.6820       5.9840       0.0761       2.7010
   2825.0393       9.2390      66.4431      43.8951    -999.2500     385.8301      16.0825       5.7745       0.0725       2.6850
   2825.1917       9.2460      65.2280      38.7420    -999.2500     321.7670      16.4830       5.5650       0.0743       2.6690
   2825.3440       9.2340      64.5651      38.2637    -999.2500     277.9744      15.5991       5.8610       0.0858       2.6595
   2825.4966       9.2220      63.9020      37.7860    -999.2500     234.1720      14.7150       6.1570       0.0990       2.6500
   2825.6489       9.1675      63.3386      39.5471    -999.2500     213.2586      15.0144       6.5679       0.1095       2.6420
   2825.8013       9.1130      62.7750      41.3060    -999.2500     192.3380      15.3140       6.9790       0.1188       2.6340
   2825.9536       9.0640      64.9672      42.7238    -999.2500     181.5239      15.1834       7.2722       0.1260       2.6400
   2826.1062       9.0150      67.1570      44.1400    -999.2500     170.7220      15.0530       7.5650       0.1320       2.6460
   2826.2585       8.9520      66.3671      46.8709    -999.2500     172.6370      15.5372       7.1088       0.1347       2.6380
   2826.4109       8.8890      65.5780      49.5990    -999.2500     174.5500      16.0210       6.6530       0.1361       2.6300
   2826.5632       8.8890      67.9420      48.4190    -999.2500     185.3888      15.4703       6.4124       0.1352       2.6035
   2826.7158       8.8890      70.3040      47.2400    -999.2500     196.2180      14.9200       6.1720       0.1337       2.5770
   2826.8682       8.8945      67.1708      44.7301    -999.2500     201.4515      14.4493       5.7729       0.1318       2.5890
   2827.0205       8.9000      64.0400      42.2220    -999.2500     206.6810      13.9790       5.3740       0.1296       2.6010
   2827.1729       8.9665      61.4262      43.2643    -999.2500     187.9936      13.9790       5.8141       0.1267       2.6695
   2827.3252       9.0330      58.8140      44.3060    -999.2500     169.3180      13.9790       6.2540       0.1228       2.7380
   2827.4778       9.1020      57.4402      47.1547    -999.2500     159.9291      14.1730       6.2840       0.1158       2.7590
