#------------------------------------------------------------------------------
#
#   Created by  : [OpenWorks] Log Export Utility (LEXP)
#   Created on  : 2016-05-18 11:18:07
#   Project     : CANT971
#   User        : R5K
#   Interpreter : PEP
#
#------------------------------------------------------------------------------
~VERSION INFORMATION
VERS. 2.0 : CWLS Log ASCII Standard - version 2.0
WRAP.  NO : One line per depth step
~WELL INFORMATION
#MNEMONIC   .UNIT                                           VALUE :DESCRIPTION
#------------------------------------------------------------------------------
STRT        .M                                           550.4693 :START DEPTH
STOP        .M                                          2949.3977 :STOP DEPTH
STEP        .M                                             0.1524 :STEP
NULL        .                                           -999.2500 :NULL VALUE
COMP        .                                   PEMEX EXPL & PROD :COMPANY
WELL        .                                                 287 :WELL
FLD         .                                           CANTARELL :FIELD
LOC         .                                             UNKNOWN :LOCATION
CNTY        .                                      CD. DEL CARMEN :COUNTY
STAT        .                                            CAMPECHE :STATE
CTRY        .                                              MEXICO :COUNTRY
SRVC        .                                             UNKNOWN :SERVICE COMPANY
DATE        .                                             UNKNOWN :LOG DATE
UWI         .                                          3060000485 :UNIQUE WELL ID
XCOORD      .                                       597313.390000 :SURFACE X
YCOORD      .                                      2143045.860000 :SURFACE Y
LAT         .                                           19.380346 :LATITUDE
LON         .                                          -92.073326 :LONGITUDE
ELEV        .M                                            27.7000 :SURFACE ELEV
ELEV_TYPE   .                                                  KB :ELEV TYPE
~CURVE INFORMATION
#MNEMONIC.UNIT        API CODE       : CURVE DESCRIPTION
#------------------------------------------------------------------------------
DEPTH    .M                          : Measured Depth
CALI     .inches      UNKNOWN        : CALI:Import:rC:NONE:v0 (auto-composite)
DT       .us/ft       UNKNOWN        : DT:Import:rC:NONE:v0 (auto-composite)
GR       .API         UNKNOWN        : GR:Import:rC:NONE:v0 (auto-composite)
ILD      .ohm.m       UNKNOWN        : ILD:Import:rC:NONE:v0 (auto-composite)
LLD      .ohm.m       UNKNOWN        : LLD:Import:rC:NONE:v0 (auto-composite)
LLS      .ohm.m       UNKNOWN        : LLS:Import:rC:NONE:v0 (auto-composite)
MSFL     .ohm.m       UNKNOWN        : MSFL:Import:rC:NONE:v0 (auto-composite)
NPHI     .v/v_decimal UNKNOWN        : NPHI:Import:rC:NONE:v0 (auto-composite)
RHOB     .g/cm3       UNKNOWN        : RHOB:Import:rC:NONE:v0 (auto-composite)
~A     DEPTH         CALI           DT           GR          ILD          LLD          LLS         MSFL         NPHI         RHOB
# ...
   2421.3318       9.6670      64.8650      32.3400    -999.2500      45.9400       7.9440       8.6830       0.1501       2.5580
   2421.4841       9.6670      64.9325      31.1198    -999.2500      47.5172       8.5379       8.7585       0.1445       2.5675
   2421.6365       9.6670      65.0000      29.9010    -999.2500      49.0950       9.1320       8.8340       0.1392       2.5770
   2421.7888       9.7115      65.0000      29.3947    -999.2500      49.6229       9.0010       9.7458       0.1405       2.5850
   2421.9414       9.7560      65.0000      28.8890    -999.2500      50.1510       8.8700      10.6580       0.1423       2.5930
   2422.0938       9.8160      65.6473      29.4418    -999.2500      51.5090       9.0504      10.6315       0.1457       2.5915
   2422.2461       9.8760      66.2950      29.9940    -999.2500      52.8680       9.2310      10.6050       0.1488       2.5900
   2422.3984       9.8825      64.5392      30.1851    -999.2500      53.3638       8.8836       9.7893       0.1451       2.5895
   2422.5508       9.8890      62.7820      30.3760    -999.2500      53.8600       8.5360       8.9730       0.1410       2.5890
   2422.7034       9.8890      62.8300      29.9839    -999.2500      51.6120       8.6120       9.1279       0.1375       2.5850
   2422.8557       9.8890      62.8780      29.5920    -999.2500      49.3620       8.6880       9.2830       0.1341       2.5810
   2423.0081       9.8510      63.3306      29.3874    -999.2500      45.9340       8.4994       8.7749       0.1325       2.5900
   2423.1604       9.8130      63.7830      29.1830    -999.2500      42.5080       8.3110       8.2670       0.1308       2.5990
   2423.3130       9.7480      63.8360      29.0494    -999.2500      45.8887       8.1365       8.7121       0.1247       2.6070
   2423.4653       9.6830      63.8890      28.9160    -999.2500      49.2680       7.9620       9.1570       0.1180       2.6150
   2423.6177       9.6750      63.2184      28.2313    -999.2500      57.1807       8.3866       9.7661       0.1076       2.6280
   2423.7700       9.6670      62.5480      27.5480    -999.2500      65.0910       8.8110      10.3750       0.0966       2.6410
   2423.9226       9.6670      62.5810      27.5775    -999.2500      69.1869       9.3190      11.3231       0.0830       2.6535
   2424.0750       9.6670      62.6140      27.6070    -999.2500      73.2820       9.8270      12.2710       0.0696       2.6660
   2424.2273       9.6670      62.5425      29.1453    -999.2500      73.7830      10.4395      13.1250       0.0615       2.6730
   2424.3796       9.6670      62.4710      30.6810    -999.2500      74.2840      11.0520      13.9790       0.0542       2.6800
   2424.5320       9.6240      61.2510      31.8194    -999.2500      74.8955      11.2220      13.2050       0.0519       2.6905
   2424.6846       9.5810      60.0310      32.9560    -999.2500      75.5070      11.3920      12.4310       0.0501       2.7010
   2424.8369       9.5170      58.6131      34.7132    -999.2500      75.5785      11.1075      11.9116       0.0502       2.7120
   2424.9893       9.4530      57.1950      36.4680    -999.2500      75.6500      10.8230      11.3920       0.0507       2.7230
   2425.1416       9.4990      55.3483      36.8372    -999.2500      73.7468      10.8230      11.3920       0.0542       2.7220
   2425.2942       9.5450      53.5010      37.2060    -999.2500      71.8430      10.8230      11.3920       0.0580       2.7210
   2425.4465       9.5505      54.1938      34.4329    -999.2500      68.4798      10.9715      11.8314       0.0635       2.7130
   2425.5989       9.5560      54.8870      31.6630    -999.2500      65.1150      11.1200      12.2710       0.0689       2.7050
   2425.7512       9.5970      56.3221      29.6495    -999.2500      74.5253      11.0530      12.7274       0.0725       2.7025
   2425.9038       9.6380      57.7580      27.6380    -999.2500      83.9410      10.9860      13.1840       0.0758       2.7000
   2426.0562       9.6035      57.2992      27.1523    -999.2500      98.5039      10.9045      13.2330       0.0763       2.6920
   2426.2085       9.5690      56.8400      26.6670    -999.2500     113.0770      10.8230      13.2820       0.0765       2.6840
   2426.3608       9.5625      55.9204      26.8456    -999.2500      94.5671      10.9619      13.3985       0.0746       2.6955
   2426.5132       9.5560      55.0000      27.0240    -999.2500      76.0420      11.1010      13.5150       0.0727       2.7070
   2426.6658       9.5760      55.7926      28.3995    -999.2500      68.5336      10.4133      12.7783       0.0716       2.7130
   2426.8181       9.5960      56.5860      29.7740    -999.2500      61.0180       9.7250      12.0410       0.0712       2.7190
   2426.9705       9.6315      58.0154      29.7580    -999.2500      58.0687       9.1503       9.7154       0.0770       2.7005
   2427.1228       9.6670      59.4440      29.7420    -999.2500      55.1210       8.5760       7.3910       0.0839       2.6820
   2427.2754       9.6255      58.8194      29.3151    -999.2500      47.0959       8.1444       4.9090       0.0964       2.6535
   2427.4277       9.5840      58.1950      28.8890    -999.2500      39.0740       7.7130       2.4280       0.1096       2.6250
   2427.5801       9.5170      57.6929      28.8890    -999.2500      34.5134       6.9574       5.5634       0.1251       2.6040
   2427.7324       9.4500      57.1910      28.8890    -999.2500      29.9540       6.2020       8.6980       0.1402       2.5830
   2427.8850       9.5110      57.2985      28.8890    -999.2500      30.1565       6.5715      11.2392       0.1487       2.5840
   2428.0374       9.5720      57.4060      28.8890    -999.2500      30.3590       6.9410      13.7800       0.1557       2.5850
   2428.1897       9.6645      58.8120      28.8890    -999.2500      38.3291       7.2530      11.2405       0.1515       2.5830
   2428.3420       9.7570      60.2180      28.8890    -999.2500      46.2990       7.5650       8.7010       0.1462       2.5810
   2428.4944       9.8880      61.7349      28.8890    -999.2500      51.3937       7.1145       7.9445       0.1394       2.5700
   2428.6470      10.0190      63.2520      28.8890    -999.2500      56.4890       6.6640       7.1880       0.1329       2.5590
   2428.7993      10.1545      63.0735      28.4247    -999.2500      53.8383       5.7401       8.3919       0.1312       2.5365
   2428.9517      10.2900      62.8950      27.9610    -999.2500      51.1870       4.8160       9.5960       0.1320       2.5140
   2429.1040      10.4230      61.2718      27.5663    -999.2500      49.4703       4.0401       9.3710       0.1539       2.4640
   2429.2566      10.5560      59.6480      27.1720    -999.2500      47.7530       3.2640       9.1460       0.1790       2.4140
   2429.4089      10.5190      59.2996      28.8099    -999.2500      37.7089       3.2880       9.3210       0.2165       2.3215
   2429.5613      10.4820      58.9510      30.4460    -999.2500      27.6600       3.3120       9.4960       0.2546       2.2290
   2429.7136      10.2976      59.2739      31.2614    -999.2500      21.2974       4.4417       9.4395       0.2871       2.1710
   2429.8662      10.1130      59.5970      32.0760    -999.2500      14.9310       5.5720       9.3830       0.3151       2.1130
   2430.0186       9.9111      60.5392      32.5522    -999.2500      19.1710       8.0791       8.1924       0.3034       2.1380
   2430.1709       9.7090      61.4820      33.0280    -999.2500      23.4140      10.5880       7.0010       0.2859       2.1630
   2430.3232       9.7420      62.5985      33.6953    -999.2500      34.3164       9.9603       6.1714       0.2494       2.2465
   2430.4756       9.7750      63.7160      34.3620    -999.2500      45.2280       9.3320       5.3410       0.2125       2.3300
   2430.6282       9.7210      64.6385      35.1038    -999.2500      43.3499       7.9712       6.0457       0.1910       2.4170
