#------------------------------------------------------------------------------
#
#   Created by  : [OpenWorks] Log Export Utility (LEXP)
#   Created on  : 2016-05-18 11:18:07
#   Project     : CANT971
#   User        : R5K
#   Interpreter : PEP
#
#------------------------------------------------------------------------------
~VERSION INFORMATION
VERS. 2.0 : CWLS Log ASCII Standard - version 2.0
WRAP.  NO : One line per depth step
~WELL INFORMATION
#MNEMONIC   .UNIT                                           VALUE :DESCRIPTION
#------------------------------------------------------------------------------
STRT        .M                                           550.4693 :START DEPTH
STOP        .M                                          2949.3977 :STOP DEPTH
STEP        .M                                             0.1524 :STEP
NULL        .                                           -999.2500 :NULL VALUE
COMP        .                                   PEMEX EXPL & PROD :COMPANY
WELL        .                                                 287 :WELL
FLD         .                                           CANTARELL :FIELD
LOC         .                                             UNKNOWN :LOCATION
CNTY        .                                      CD. DEL CARMEN :COUNTY
STAT        .                                            CAMPECHE :STATE
CTRY        .                                              MEXICO :COUNTRY
SRVC        .                                             UNKNOWN :SERVICE COMPANY
DATE        .                                             UNKNOWN :LOG DATE
UWI         .                                          3060000485 :UNIQUE WELL ID
XCOORD      .                                       597313.390000 :SURFACE X
YCOORD      .                                      2143045.860000 :SURFACE Y
LAT         .                                           19.380346 :LATITUDE
LON         .                                          -92.073326 :LONGITUDE
ELEV        .M                                            27.7000 :SURFACE ELEV
ELEV_TYPE   .                                                  KB :ELEV TYPE
~CURVE INFORMATION
#MNEMONIC.UNIT        API CODE       : CURVE DESCRIPTION
#------------------------------------------------------------------------------
DEPTH    .M                          : Measured Depth
CALI     .inches      UNKNOWN        : CALI:Import:rC:NONE:v0 (auto-composite)
DT       .us/ft       UNKNOWN        : DT:Import:rC:NONE:v0 (auto-composite)
GR       .API         UNKNOWN        : GR:Import:rC:NONE:v0 (auto-composite)
ILD      .ohm.m       UNKNOWN        : ILD:Import:rC:NONE:v0 (auto-composite)
LLD      .ohm.m       UNKNOWN        : LLD:Import:rC:NONE:v0 (auto-composite)
LLS      .ohm.m       UNKNOWN        : LLS:Import:rC:NONE:v0 (auto-composite)
MSFL     .ohm.m       UNKNOWN        : MSFL:Import:rC:NONE:v0 (auto-composite)
NPHI     .v/v_decimal UNKNOWN        : NPHI:Import:rC:NONE:v0 (auto-composite)
RHOB     .g/cm3       UNKNOWN        : RHOB:Import:rC:NONE:v0 (auto-composite)
~A     DEPTH         CALI           DT           GR          ILD          LLD          LLS         MSFL         NPHI         RHOB
# ...
   2383.5366      13.9990      81.6260      55.2760    -999.2500       3.3850       2.1880       3.8150       0.1781       2.5490
   2383.6890      13.8890      80.8888      54.1621    -999.2500       3.2511       2.1745       3.8065       0.1754       2.5545
   2383.8413      13.7790      80.1510      53.0490    -999.2500       3.1170       2.1610       3.7980       0.1723       2.5600
   2383.9937      13.7940      79.8292      52.4808    -999.2500       3.2904       2.2225       2.8175       0.1681       2.5665
   2384.1460      13.8090      79.5070      51.9130    -999.2500       3.4640       2.2840       1.8360       0.1640       2.5730
   2384.2986      13.6891      78.4301      53.1148    -999.2500       3.5644       2.4099       1.9854       0.1621       2.5820
   2384.4509      13.5690      77.3520      54.3140    -999.2500       3.6650       2.5360       2.1350       0.1603       2.5910
   2384.6033      13.6090      77.4525      54.2925    -999.2500       3.7080       2.6395       2.3930       0.1587       2.5930
   2384.7556      13.6490      77.5530      54.2710    -999.2500       3.7510       2.7430       2.6510       0.1571       2.5950
   2384.9082      13.5890      78.0771      54.0128    -999.2500       3.8840       2.8775       2.9495       0.1563       2.5965
   2385.0605      13.5290      78.6010      53.7550    -999.2500       4.0170       3.0120       3.2480       0.1553       2.5980
   2385.2129      13.5200      77.7455      53.7655    -999.2500       4.0145       2.9340       4.5331       0.1524       2.5895
   2385.3652      13.5110      76.8900      53.7760    -999.2500       4.0120       2.8560       5.8180       0.1497       2.5810
   2385.5176      13.5310      77.1935      54.0092    -999.2500       4.5410       2.7875       5.2680       0.1506       2.5830
   2385.6702      13.5510      77.4970      54.2420    -999.2500       5.0700       2.7190       4.7180       0.1524       2.5850
   2385.8225      13.5555      78.3644      53.8077    -999.2500       4.5745       2.7875       3.3001       0.1600       2.5890
   2385.9749      13.5600      79.2320      53.3740    -999.2500       4.0790       2.8560       1.8820       0.1681       2.5930
   2386.1272      13.6075      79.4010      53.4826    -999.2500       4.0900       2.7510       3.1768       0.1740       2.5825
   2386.2798      13.6550      79.5700      53.5910    -999.2500       4.1010       2.6460       4.4720       0.1793       2.5720
   2386.4321      13.6610      80.1809      52.0230    -999.2500       4.7604       2.4800       4.4410       0.1807       2.5735
   2386.5845      13.6670      80.7920      50.4570    -999.2500       5.4200       2.3140       4.4100       0.1812       2.5750
   2386.7368      13.6670      80.4961      49.7391    -999.2500       5.1661       2.2650       3.3498       0.1769       2.5810
   2386.8894      13.6670      80.2000      49.0220    -999.2500       4.9120       2.2160       2.2890       0.1719       2.5870
   2387.0417      13.7120      79.6357      48.0550    -999.2500       4.7411       2.2160       2.3055       0.1655       2.5930
   2387.1941      13.7570      79.0710      47.0890    -999.2500       4.5700       2.2160       2.3220       0.1588       2.5990
   2387.3464      13.8230      77.9334      45.4108    -999.2500       4.1582       2.3360       2.0171       0.1499       2.5960
   2387.4988      13.8890      76.7950      43.7340    -999.2500       3.7460       2.4560       1.7120       0.1411       2.5930
   2387.6514      13.8545      76.1438      43.3604    -999.2500       4.4572       2.5739       1.6345       0.1349       2.5870
   2387.8037      13.8200      75.4920      42.9870    -999.2500       5.1690       2.6920       1.5570       0.1290       2.5810
   2387.9561      13.7515      75.1257      41.9702    -999.2500       5.4299       2.7055       2.3911       0.1247       2.5835
   2388.1084      13.6830      74.7590      40.9540    -999.2500       5.6910       2.7190       3.2260       0.1206       2.5860
   2388.2610      13.6360      74.4207      41.3099    -999.2500       5.8739       2.7685       3.7062       0.1176       2.5915
   2388.4133      13.5890      74.0820      41.6650    -999.2500       6.0570       2.8180       4.1870       0.1146       2.5970
   2388.5657      13.5740      73.4904      42.9212    -999.2500       6.1110       2.9045       4.1445       0.1111       2.6010
   2388.7180      13.5590      72.8990      44.1750    -999.2500       6.1650       2.9910       4.1020       0.1076       2.6050
   2388.8706      13.5460      72.2339      46.5121    -999.2500       6.0760       3.0175       4.6191       0.1058       2.6110
   2389.0229      13.5330      71.5690      48.8450    -999.2500       5.9870       3.0440       5.1360       0.1046       2.6170
   2389.1753      13.4885      73.5316      49.9790    -999.2500       5.4185       3.1440       5.6600       0.1085       2.6125
   2389.3276      13.4440      75.4940      51.1110    -999.2500       4.8500       3.2440       6.1840       0.1134       2.6080
   2389.4800      13.4440      76.9450      50.7822    -999.2500       4.8995       3.1015       6.4495       0.1235       2.6015
   2389.6326      13.4440      78.3960      50.4540    -999.2500       4.9490       2.9590       6.7150       0.1340       2.5950
   2389.7849      13.4440      78.8785      48.9369    -999.2500       5.6494       2.7445       6.0476       0.1436       2.5860
   2389.9373      13.4440      79.3610      47.4220    -999.2500       6.3500       2.5300       5.3800       0.1529       2.5770
   2390.0896      13.4440      80.0164      45.4342    -999.2500       5.8281       2.3790       4.0147       0.1607       2.5745
   2390.2422      13.4440      80.6720      43.4490    -999.2500       5.3060       2.2280       2.6490       0.1678       2.5720
   2390.3945      13.4440      80.3156      43.8908    -999.2500       4.7356       2.3100       2.4515       0.1692       2.5745
   2390.5469      13.4440      79.9590      44.3320    -999.2500       4.1650       2.3920       2.2540       0.1697       2.5770
   2390.6992      13.4440      77.7126      44.3880    -999.2500       4.0545       2.4875       2.3810       0.1660       2.5835
   2390.8518      13.4440      75.4650      44.4440    -999.2500       3.9440       2.5830       2.5080       0.1615       2.5900
   2391.0042      13.4440      75.1001      43.6922    -999.2500       4.1049       2.4430       3.1978       0.1513       2.5940
   2391.1565      13.4440      74.7350      42.9410    -999.2500       4.2660       2.3030       3.8880       0.1411       2.5980
   2391.3088      13.3955      74.8674      41.6430    -999.2500       5.0787       2.3680       5.1690       0.1358       2.6075
   2391.4612      13.3470      75.0000      40.3460    -999.2500       5.8920       2.4330       6.4510       0.1311       2.6170
   2391.6138      13.2910      73.0274      38.3973    -999.2500       7.0575       2.6634       5.8433       0.1281       2.6135
   2391.7661      13.2350      71.0530      36.4530    -999.2500       8.2240       2.8940       5.2350       0.1245       2.6100
   2391.9185      13.1870      69.4035      34.8913    -999.2500       9.5924       3.2701       5.4130       0.1105       2.6125
   2392.0708      13.1390      67.7550      33.3330    -999.2500      10.9600       3.6460       5.5910       0.0959       2.6150
   2392.2234      13.0455      66.8478      34.2790    -999.2500      12.1968       4.1421       6.0396       0.0824       2.6320
   2392.3757      12.9520      65.9410      35.2230    -999.2500      13.4330       4.6380       6.4880       0.0695       2.6490
   2392.5281      12.8805      65.1254      37.5712    -999.2500      14.6117       5.0201       5.9239       0.0636       2.6460
   2392.6804      12.8090      64.3100      39.9150    -999.2500      15.7900       5.4020       5.3600       0.0582       2.6430
   2392.8330      12.7415      63.8215      40.9724    -999.2500      16.7946       5.6075       4.9475       0.0541       2.6410
