#------------------------------------------------------------------------------
#
#   Created by  : [OpenWorks] Log Export Utility (LEXP)
#   Created on  : 2016-05-18 11:18:07
#   Project     : CANT971
#   User        : R5K
#   Interpreter : PEP
#
#------------------------------------------------------------------------------
~VERSION INFORMATION
VERS. 2.0 : CWLS Log ASCII Standard - version 2.0
WRAP.  NO : One line per depth step
~WELL INFORMATION
#MNEMONIC   .UNIT                                           VALUE :DESCRIPTION
#------------------------------------------------------------------------------
STRT        .M                                           550.4693 :START DEPTH
STOP        .M                                          2949.3977 :STOP DEPTH
STEP        .M                                             0.1524 :STEP
NULL        .                                           -999.2500 :NULL VALUE
COMP        .                                   PEMEX EXPL & PROD :COMPANY
WELL        .                                                 287 :WELL
FLD         .                                           CANTARELL :FIELD
LOC         .                                             UNKNOWN :LOCATION
CNTY        .                                      CD. DEL CARMEN :COUNTY
STAT        .                                            CAMPECHE :STATE
CTRY        .                                              MEXICO :COUNTRY
SRVC        .                                             UNKNOWN :SERVICE COMPANY
DATE        .                                             UNKNOWN :LOG DATE
UWI         .                                          3060000485 :UNIQUE WELL ID
XCOORD      .                                       597313.390000 :SURFACE X
YCOORD      .                                      2143045.860000 :SURFACE Y
LAT         .                                           19.380346 :LATITUDE
LON         .                                          -92.073326 :LONGITUDE
ELEV        .M                                            27.7000 :SURFACE ELEV
ELEV_TYPE   .                                                  KB :ELEV TYPE
~CURVE INFORMATION
#MNEMONIC.UNIT        API CODE       : CURVE DESCRIPTION
#------------------------------------------------------------------------------
DEPTH    .M                          : Measured Depth
CALI     .inches      UNKNOWN        : CALI:Import:rC:NONE:v0 (auto-composite)
DT       .us/ft       UNKNOWN        : DT:Import:rC:NONE:v0 (auto-composite)
GR       .API         UNKNOWN        : GR:Import:rC:NONE:v0 (auto-composite)
ILD      .ohm.m       UNKNOWN        : ILD:Import:rC:NONE:v0 (auto-composite)
LLD      .ohm.m       UNKNOWN        : LLD:Import:rC:NONE:v0 (auto-composite)
LLS      .ohm.m       UNKNOWN        : LLS:Import:rC:NONE:v0 (auto-composite)
MSFL     .ohm.m       UNKNOWN        : MSFL:Import:rC:NONE:v0 (auto-composite)
NPHI     .v/v_decimal UNKNOWN        : NPHI:Import:rC:NONE:v0 (auto-composite)
RHOB     .g/cm3       UNKNOWN        : RHOB:Import:rC:NONE:v0 (auto-composite)
~A     DEPTH         CALI           DT           GR          ILD          LLD          LLS         MSFL         NPHI         RHOB
# ...
   2619.7566       9.9940      50.6660      27.5360    -999.2500     913.3560      11.2730       9.2370       0.0571       2.7070
   2619.9089       9.9970      51.0779      25.5824    -999.2500     602.3085      11.3325       9.4250       0.0547       2.7175
   2620.0613      10.0000      51.4900      23.6310    -999.2500     291.1130      11.3920       9.6130       0.0526       2.7280
   2620.2136       9.9720      51.1516      21.8786    -999.2500     352.6220      11.3920      10.8316       0.0513       2.7235
   2620.3662       9.9440      50.8130      20.1280    -999.2500     414.1680      11.3920      12.0510       0.0501       2.7190
   2620.5186       9.8785      50.8895      19.5397    -999.2500     615.4373      11.8263      11.1283       0.0489       2.7055
   2620.6709       9.8130      50.9660      18.9520    -999.2500     816.8530      12.2610      10.2050       0.0476       2.6920
   2620.8232       9.7955      51.3096      18.4113    -999.2500     940.0772      12.4401       8.9055       0.0456       2.6875
   2620.9756       9.7780      51.6530      17.8710    -999.2500    1063.2090      12.6190       7.6070       0.0436       2.6830
   2621.1282       9.7780      51.5580      16.7131    -999.2500    1166.5502      12.2679       9.1530       0.0404       2.6875
   2621.2805       9.7780      51.4630      15.5560    -999.2500    1269.8270      11.9170      10.6980       0.0373       2.6920
   2621.4329       9.7995      51.0094      16.2037    -999.2500    1087.4095      11.6544      11.2991       0.0362       2.7030
   2621.5852       9.8210      50.5560      16.8510    -999.2500     905.0830      11.3920      11.9000       0.0353       2.7140
   2621.7378       9.8530      50.5560      17.8710    -999.2500     856.9846      11.3920      11.8730       0.0334       2.7205
   2621.8901       9.8850      50.5560      18.8890    -999.2500     808.9040      11.3920      11.8460       0.0315       2.7270
   2622.0425       9.8870      50.3335      18.4156    -999.2500    1046.0283      11.6310      10.1578       0.0294       2.7275
   2622.1948       9.8890      50.1110      17.9430    -999.2500    1283.0940      11.8700       8.4700       0.0276       2.7280
   2622.3474       9.8890      49.5175      18.3879    -999.2500    1487.9775      12.5325       8.8510       0.0273       2.7415
   2622.4998       9.8890      48.9240      18.8320    -999.2500    1692.8361      13.1950       9.2320       0.0274       2.7550
   2622.6521       9.8740      48.6285      18.8605    -999.2500    1509.8379      13.2385       9.5445       0.0305       2.7640
   2622.8044       9.8590      48.3330      18.8890    -999.2500    1326.8390      13.2820       9.8570       0.0337       2.7730
   2622.9568       9.8185      48.4745      18.6228    -999.2500    1173.3860      13.2820      11.1059       0.0352       2.7765
   2623.1094       9.7780      48.6160      18.3570    -999.2500    1019.9130      13.2820      12.3550       0.0365       2.7800
   2623.2617       9.7780      48.5540      17.3223    -999.2500    1010.5477      13.5205      11.9481       0.0377       2.7815
   2623.4141       9.7780      48.4920      16.2890    -999.2500    1001.1800      13.7590      11.5410       0.0389       2.7830
   2623.5664       9.7780      48.4125      15.9223    -999.2500    1037.8981      13.8690      11.4515       0.0394       2.7830
   2623.7190       9.7780      48.3330      15.5560    -999.2500    1074.6300      13.9790      11.3620       0.0400       2.7830
   2623.8713       9.7780      48.3330      15.5560    -999.2500    1085.4692      13.9245      11.6759       0.0408       2.7750
   2624.0237       9.7780      48.3330      15.5560    -999.2500    1096.3140      13.8700      11.9900       0.0419       2.7670
   2624.1760       9.7780      48.5346      15.5560    -999.2500     951.9344      13.3578      11.7779       0.0473       2.7480
   2624.3286       9.7780      48.7360      15.5560    -999.2500     807.6950      12.8460      11.5660       0.0530       2.7290
   2624.4810       9.7780      49.4268      15.5560    -999.2500     682.4487      12.2698      10.7737       0.0573       2.7055
   2624.6333       9.7780      50.1170      15.5560    -999.2500     557.3080      11.6940       9.9820       0.0615       2.6820
   2624.7856       9.7780      49.4202      16.4168    -999.2500     484.5443      11.5429       9.1347       0.0650       2.6610
   2624.9380       9.7780      48.7240      17.2770    -999.2500     411.8330      11.3920       8.2880       0.0686       2.6400
   2625.0906       9.7780      49.6083      18.6064    -999.2500     364.7505      11.3920       7.2832       0.0741       2.6315
   2625.2429       9.7780      50.4920      19.9350    -999.2500     317.6960      11.3920       6.2790       0.0798       2.6230
   2625.3953       9.7780      51.1847      21.2243    -999.2500     331.9644      11.3920       7.5168       0.0862       2.6200
   2625.5476       9.7780      51.8770      22.5130    -999.2500     346.2260      11.3920       8.7540       0.0928       2.6170
   2625.7002       9.7780      52.3031      22.3884    -999.2500     366.3275      11.3920       9.1186       0.1007       2.6120
   2625.8525       9.7780      52.7290      22.2640    -999.2500     386.4220      11.3920       9.4830       0.1085       2.6070
   2626.0049       9.7780      53.5316      22.4657    -999.2500     394.8499      11.3920      10.1946       0.1125       2.5935
   2626.1572       9.7780      54.3340      22.6670    -999.2500     403.2760      11.3920      10.9060       0.1164       2.5800
   2626.3098       9.7780      54.1665      21.4665    -999.2500     380.8725      11.3920      10.4320       0.1222       2.5665
   2626.4622       9.7780      53.9990      20.2680    -999.2500     358.4710      11.3920       9.9580       0.1280       2.5530
   2626.6145       9.7780      53.5040      20.2870    -999.2500     337.7254      11.3550       8.9325       0.1308       2.5440
   2626.7668       9.7780      53.0090      20.3060    -999.2500     316.9790      11.3180       7.9070       0.1331       2.5350
   2626.9192       9.7780      53.6839      20.8669    -999.2500     316.9790      10.9935       8.0350       0.1322       2.5620
   2627.0718       9.7780      54.3590      21.4270    -999.2500     316.9790      10.6690       8.1630       0.1309       2.5890
   2627.2241       9.7780      54.4015      20.1522    -999.2500     316.9790      10.3285       9.2543       0.1260       2.6080
   2627.3765       9.7780      54.4440      18.8790    -999.2500     316.9790       9.9880      10.3460       0.1213       2.6270
   2627.5288       9.7780      54.6520      17.5237    -999.2500     305.4094      10.0780      10.6424       0.1239       2.6325
   2627.6814       9.7780      54.8600      16.1700    -999.2500     293.8350      10.1680      10.9390       0.1268       2.6380
   2627.8337       9.7780      55.7508      15.3150    -999.2500     276.2877      10.4799      10.1112       0.1284       2.6410
   2627.9861       9.7780      56.6420      14.4610    -999.2500     258.7310      10.7920       9.2830       0.1294       2.6440
   2628.1384       9.7780      55.7471      15.2214    -999.2500     269.1829      11.0751       9.2830       0.1229       2.6415
   2628.2910       9.7780      54.8530      15.9810    -999.2500     279.6250      11.3580       9.2830       0.1163       2.6390
   2628.4434       9.7780      54.1587      17.3045    -999.2500     259.2822      11.3750       9.1840       0.1145       2.6345
   2628.5957       9.7780      53.4650      18.6270    -999.2500     238.9560      11.3920       9.0850       0.1132       2.6300
   2628.7480       9.7780      53.1214      19.9810    -999.2500     218.9186      11.3920       8.5608       0.1160       2.6160
   2628.9004       9.7780      52.7780      21.3340    -999.2500     198.8950      11.3920       8.0370       0.1187       2.6020
   2629.0530       9.7780      53.7688      22.6899    -999.2500     183.2311      11.1529       6.9642       0.1180       2.6080
