#------------------------------------------------------------------------------
#
#   Created by  : [OpenWorks] Log Export Utility (LEXP)
#   Created on  : 2016-05-18 11:18:07
#   Project     : CANT971
#   User        : R5K
#   Interpreter : PEP
#
#------------------------------------------------------------------------------
~VERSION INFORMATION
VERS. 2.0 : CWLS Log ASCII Standard - version 2.0
WRAP.  NO : One line per depth step
~WELL INFORMATION
#MNEMONIC   .UNIT                                           VALUE :DESCRIPTION
#------------------------------------------------------------------------------
STRT        .M                                           550.4693 :START DEPTH
STOP        .M                                          2949.3977 :STOP DEPTH
STEP        .M                                             0.1524 :STEP
NULL        .                                           -999.2500 :NULL VALUE
COMP        .                                   PEMEX EXPL & PROD :COMPANY
WELL        .                                                 287 :WELL
FLD         .                                           CANTARELL :FIELD
LOC         .                                             UNKNOWN :LOCATION
CNTY        .                                      CD. DEL CARMEN :COUNTY
STAT        .                                            CAMPECHE :STATE
CTRY        .                                              MEXICO :COUNTRY
SRVC        .                                             UNKNOWN :SERVICE COMPANY
DATE        .                                             UNKNOWN :LOG DATE
UWI         .                                          3060000485 :UNIQUE WELL ID
XCOORD      .                                       597313.390000 :SURFACE X
YCOORD      .                                      2143045.860000 :SURFACE Y
LAT         .                                           19.380346 :LATITUDE
LON         .                                          -92.073326 :LONGITUDE
ELEV        .M                                            27.7000 :SURFACE ELEV
ELEV_TYPE   .                                                  KB :ELEV TYPE
~CURVE INFORMATION
#MNEMONIC.UNIT        API CODE       : CURVE DESCRIPTION
#------------------------------------------------------------------------------
DEPTH    .M                          : Measured Depth
CALI     .inches      UNKNOWN        : CALI:Import:rC:NONE:v0 (auto-composite)
DT       .us/ft       UNKNOWN        : DT:Import:rC:NONE:v0 (auto-composite)
GR       .API         UNKNOWN        : GR:Import:rC:NONE:v0 (auto-composite)
ILD      .ohm.m       UNKNOWN        : ILD:Import:rC:NONE:v0 (auto-composite)
LLD      .ohm.m       UNKNOWN        : LLD:Import:rC:NONE:v0 (auto-composite)
LLS      .ohm.m       UNKNOWN        : LLS:Import:rC:NONE:v0 (auto-composite)
MSFL     .ohm.m       UNKNOWN        : MSFL:Import:rC:NONE:v0 (auto-composite)
NPHI     .v/v_decimal UNKNOWN        : NPHI:Import:rC:NONE:v0 (auto-composite)
RHOB     .g/cm3       UNKNOWN        : RHOB:Import:rC:NONE:v0 (auto-composite)
~A     DEPTH         CALI           DT           GR          ILD          LLD          LLS         MSFL         NPHI         RHOB
# ...
   2657.5518       9.6670      50.5280      45.9590    -999.2500     110.3300      10.5830      11.8440       0.0297       2.7970
   2657.7041       9.6670      50.5420      47.5993    -999.2500     103.1736      10.9655      12.5630       0.0299       2.7870
   2657.8564       9.6670      50.5560      49.2370    -999.2500      96.0170      11.3480      13.2820       0.0300       2.7770
   2658.0088       9.6670      49.9975      50.1747    -999.2500      94.4896      11.7805      12.6470       0.0300       2.7920
   2658.1614       9.6670      49.4390      51.1110    -999.2500      92.9620      12.2130      12.0120       0.0298       2.8070
   2658.3137       9.6670      48.9326      49.1577    -999.2500      88.9216      12.4160      11.1886       0.0269       2.8045
   2658.4661       9.6670      48.4260      47.2070    -999.2500      84.8800      12.6190      10.3650       0.0241       2.8020
   2658.6184       9.6670      47.5467      44.4003    -999.2500      80.2659      12.0056      11.8232       0.0243       2.7910
   2658.7710       9.6670      46.6670      41.5970    -999.2500      75.6500      11.3920      13.2820       0.0250       2.7800
   2658.9233       9.6670      47.2433      45.4471    -999.2500      76.3743      11.3920      12.6732       0.0294       2.7640
   2659.0757       9.6670      47.8200      49.2930    -999.2500      77.0990      11.3920      12.0640       0.0339       2.7480
   2659.2280       9.6670      49.6249      58.4708    -999.2500      73.3062      11.3920      10.7029       0.0362       2.7330
   2659.3806       9.6670      51.4280      67.6400    -999.2500      69.5170      11.3920       9.3430       0.0384       2.7180
   2659.5330       9.6670      52.4969      77.7746    -999.2500      61.3702      11.1749       8.4651       0.0405       2.7190
   2659.6853       9.6670      53.5650      87.9010    -999.2500      53.2300      10.9580       7.5880       0.0423       2.7200
   2659.8376       9.6670      54.8259      92.6426    -999.2500      45.1352      10.6319       6.9223       0.0398       2.7345
   2659.9900       9.6670      56.0860      97.3810    -999.2500      37.0460      10.3060       6.2570       0.0368       2.7490
   2660.1426       9.6670      55.1252      86.8425    -999.2500      41.6083       9.9949       8.3321       0.0328       2.7675
   2660.2949       9.6670      54.1650      76.3100    -999.2500      46.1680       9.6840      10.4060       0.0288       2.7860
   2660.4473       9.6670      52.5922      66.1142    -999.2500      54.7829       9.4835      11.0606       0.0240       2.7785
   2660.5996       9.6670      51.0200      55.9230    -999.2500      63.3940       9.2830      11.7150       0.0195       2.7710
   2660.7522       9.6670      50.7880      50.7631    -999.2500      61.4757       9.2830      10.2528       0.0174       2.7625
   2660.9045       9.6670      50.5560      45.6130    -999.2500      59.5580       9.2830       8.7910       0.0159       2.7540
   2661.0569       9.6670      50.5560      44.5175    -999.2500      78.9589       9.2830       9.8351       0.0175       2.7520
   2661.2092       9.6670      50.5560      43.4240    -999.2500      98.3560       9.2830      10.8790       0.0194       2.7500
   2661.3618       9.6670      50.5560      42.9536    -999.2500      87.2366       8.7005      11.9690       0.0213       2.7605
   2661.5142       9.6670      50.5560      42.4840    -999.2500      76.1180       8.1180      13.0590       0.0230       2.7710
   2661.6665       9.6670      50.5560      44.1258    -999.2500      82.3278       9.0030      12.2255       0.0238       2.7700
   2661.8188       9.6670      50.5560      45.7650    -999.2500      88.5380       9.8880      11.3920       0.0247       2.7690
   2661.9712       9.6670      50.7025      47.8390    -999.2500     101.6278      10.6399      11.3920       0.0281       2.7760
   2662.1238       9.6670      50.8490      49.9100    -999.2500     114.7200      11.3920      11.3920       0.0316       2.7830
   2662.2761       9.6670      52.0568      50.0801    -999.2500     105.4779      10.3952      11.3920       0.0330       2.7975
   2662.4285       9.6670      53.2650      50.2500    -999.2500      96.2330       9.3980      11.3920       0.0337       2.8120
   2662.5808       9.6670      51.9893      46.9846    -999.2500      92.3938      10.0659      11.3920       0.0304       2.8035
   2662.7334       9.6670      50.7130      43.7230    -999.2500      88.5530      10.7340      11.3920       0.0270       2.7950
   2662.8857       9.6670      49.9792      40.4418    -999.2500      81.3025      11.2978      12.4092       0.0270       2.7810
   2663.0381       9.6670      49.2450      37.1640    -999.2500      74.0480      11.8620      13.4270       0.0275       2.7670
   2663.1904       9.6670      50.7797      34.6529    -999.2500      69.0002      11.3873      12.4090       0.0293       2.7515
   2663.3430       9.6670      52.3130      32.1440    -999.2500      63.9570      10.9130      11.3920       0.0312       2.7360
   2663.4954       9.6670      55.8304      30.7094    -999.2500      61.8937      10.9570      11.3920       0.0333       2.7290
   2663.6477       9.6670      59.3450      29.2760    -999.2500      59.8320      11.0010      11.3920       0.0352       2.7220
   2663.8000       9.6670      57.9215      32.3065    -999.2500      59.2293      11.4331       9.8980       0.0360       2.7340
   2663.9524       9.6670      56.4990      35.3350    -999.2500      58.6270      11.8650       8.4050       0.0364       2.7460
   2664.1050       9.6670      55.7833      38.3183    -999.2500      54.4164      12.5437       9.8639       0.0348       2.7425
   2664.2573       9.6670      55.0680      41.3000    -999.2500      50.2080      13.2220      11.3220       0.0328       2.7390
   2664.4097       9.6835      54.9525      50.7554    -999.2500      47.0969      12.6714      12.1807       0.0295       2.7440
   2664.5620       9.7000      54.8370      60.2070    -999.2500      43.9870      12.1210      13.0390       0.0262       2.7490
   2664.7146       9.7095      53.2568      64.2583    -999.2500      49.3673      11.4719      12.8365       0.0247       2.7545
   2664.8669       9.7190      51.6770      68.3020    -999.2500      54.7460      10.8230      12.6340       0.0235       2.7600
   2665.0193       9.6930      49.2448      64.1073    -999.2500      75.0481      11.0355      11.5989       0.0222       2.7615
   2665.1716       9.6670      46.8130      59.9200    -999.2500      95.3470      11.2480      10.5640       0.0210       2.7630
   2665.3242       9.6670      49.5365      53.7760    -999.2500     130.0441      10.5710      11.2485       0.0205       2.7650
   2665.4766       9.6670      52.2600      47.6420    -999.2500     164.7400       9.8940      11.9330       0.0201       2.7670
   2665.6289       9.7295      54.6664      45.3428    -999.2500     177.4644       9.5610      11.7180       0.0203       2.7665
   2665.7812       9.7920      57.0730      43.0470    -999.2500     190.1900       9.2280      11.5030       0.0207       2.7660
   2665.9336       9.8405      52.4325      44.6331    -999.2500     160.9927       9.1175      11.5105       0.0225       2.7585
   2666.0862       9.8890      47.7910      46.2170    -999.2500     131.7890       9.0070      11.5180       0.0244       2.7510
   2666.2385       9.8545      49.5627      45.5736    -999.2500     109.7318       9.2820      11.3480       0.0255       2.7325
   2666.3909       9.8200      51.3350      44.9310    -999.2500      87.6670       9.5570      11.1780       0.0274       2.7140
   2666.5432       9.8890      53.8024      42.9184    -999.2500      81.6599      10.3048      12.0813       0.0360       2.6985
   2666.6958       9.9580      56.2710      40.9080    -999.2500      75.6500      11.0530      12.9850       0.0461       2.6830
   2666.8481       9.9815      57.8665      40.3402    -999.2500      83.2717      11.2409      12.9575       0.0627       2.6500
