#------------------------------------------------------------------------------
#
#   Created by  : [OpenWorks] Log Export Utility (LEXP)
#   Created on  : 2016-05-18 13:31:07
#   Project     : CANT971
#   User        : R5K
#   Interpreter : PEP
#
#------------------------------------------------------------------------------
~VERSION INFORMATION
VERS. 2.0 : CWLS Log ASCII Standard - version 2.0
WRAP.  NO : One line per depth step
~WELL INFORMATION
#MNEMONIC   .UNIT                                           VALUE :DESCRIPTION
#------------------------------------------------------------------------------
STRT        .M                                           759.6955 :START DEPTH
STOP        .M                                          2930.7859 :STOP DEPTH
STEP        .M                                             0.1524 :STEP
NULL        .                                           -999.2500 :NULL VALUE
COMP        .                                   PEMEX EXPL & PROD :COMPANY
WELL        .                                                 28D :WELL
FLD         .                                           CANTARELL :FIELD
LOC         .                                             UNKNOWN :LOCATION
CNTY        .                                      CD. DEL CARMEN :COUNTY
STAT        .                                            CAMPECHE :STATE
CTRY        .                                              MEXICO :COUNTRY
SRVC        .                                             UNKNOWN :SERVICE COMPANY
DATE        .                                             UNKNOWN :LOG DATE
UWI         .                                          3060000678 :UNIQUE WELL ID
XCOORD      .                                       597312.300000 :SURFACE X
YCOORD      .                                      2143075.400000 :SURFACE Y
LAT         .                                           19.380613 :LATITUDE
LON         .                                          -92.073335 :LONGITUDE
ELEV        .M                                            27.7000 :SURFACE ELEV
ELEV_TYPE   .                                                  KB :ELEV TYPE
~CURVE INFORMATION
#MNEMONIC.UNIT        API CODE       : CURVE DESCRIPTION
#------------------------------------------------------------------------------
DEPTH    .M                          : Measured Depth
CALI     .inches      UNKNOWN        : CALI:Import:rC:NONE:v0 (auto-composite)
CGR      .API         UNKNOWN        : CGR:Import:rC:NONE:v0 (auto-composite)
DRHO     .g/cm3       UNKNOWN        : DRHO:Import:rC:NONE:v0 (auto-composite)
DT       .us/ft       UNKNOWN        : DT:Import:rC:NONE:v0 (auto-composite)
GR       .API         UNKNOWN        : GR:Import:rC:NONE:v0 (auto-composite)
ILD      .ohm.m       UNKNOWN        : ILD:Import:rC:NONE:v0 (auto-composite)
ILM      .ohm.m       UNKNOWN        : ILM:Import:rC:NONE:v0 (auto-composite)
LLD      .ohm.m       UNKNOWN        : LLD:Import:rC:NONE:v0 (auto-composite)
LLS      .ohm.m       UNKNOWN        : LLS:Import:rC:NONE:v0 (auto-composite)
MSFL     .ohm.m       UNKNOWN        : MSFL:Import:rC:NONE:v0 (auto-composite)
NPHI     .v/v_decimal UNKNOWN        : NPHI:Import:rC:NONE:v0 (auto-composite)
PEF      .b/elec      UNKNOWN        : PEF:Import:rC:NONE:v0 (auto-composite)
POTA     .wtpercent   UNKNOWN        : POTA:Import:rC:NONE:v0 (auto-composite)
RHOB     .g/cm3       UNKNOWN        : RHOB:Import:rC:NONE:v0 (auto-composite)
THOR     .ppm         UNKNOWN        : THOR:Import:rC:NONE:v0 (auto-composite)
URAN     .ppm         UNKNOWN        : URAN:Import:rC:NONE:v0 (auto-composite)
~A     DEPTH         CALI          CGR         DRHO           DT           GR          ILD          ILM          LLD          LLS         MSFL         NPHI          PEF         POTA         RHOB         THOR         URAN
# ...
   2293.4490    -999.2500      18.5800      -0.7340      67.4180      45.9890       2.0400       2.2870    -999.2500    -999.2500       0.1000       0.1298     -93.1290       0.0236       2.7430       2.0520       0.0660
   2293.6016    -999.2500      16.6683      -0.7280      63.3234      35.8895       3.0541       3.4752    -999.2500    -999.2500       0.2114       0.1137     -89.1463       0.0162       2.7621       2.4544       0.0630
   2293.7539    -999.2500      14.7550      -0.7220      59.2580      25.8620       4.0610       4.6550    -999.2500    -999.2500       0.3220       0.1142     -85.1920       0.0088       2.7810       2.8540       0.0600
   2293.9062    -999.2500      13.0550      -0.7305      58.7876      24.3373       6.2772       8.1940    -999.2500    -999.2500       0.2104       0.1280     -91.4166       0.0073       2.7554       2.6630       0.3525
   2294.0586    -999.2500      11.3560      -0.7390      58.3220      22.8280       8.4710      11.6970    -999.2500    -999.2500       0.1000       0.1457     -97.5780       0.0058       2.7300       2.4740       0.6420
   2294.2112    -999.2500      14.5793      -0.7395      61.4823      23.0272       9.1423      13.0015    -999.2500    -999.2500       0.1000       0.1589     -96.0613       0.0065       2.7250       2.5036       0.5306
   2294.3635    -999.2500      17.8010      -0.7400      64.6210      23.2250       9.8090      14.2970    -999.2500    -999.2500       0.1000       0.1680     -94.5550       0.0072       2.7200       2.5330       0.4200
   2294.5159    -999.2500      16.9404      -0.7315      66.2888      23.5624       7.8344      10.8055    -999.2500    -999.2500       0.1000       0.1728     -87.1013       0.0080       2.7390       2.3365       0.3558
   2294.6682    -999.2500      16.0800      -0.7230      67.9480      23.8980       5.8700       7.3320    -999.2500    -999.2500       0.1000       0.1699     -79.6860       0.0088       2.7580       2.1410       0.2920
   2294.8208    -999.2500      11.4625      -0.7260      67.4787      23.6761       5.4919       6.8246    -999.2500    -999.2500       0.1000       0.1547     -76.4976       0.0084       2.7425       2.2121       0.3286
   2294.9731    -999.2500       6.8460      -0.7290      67.0110      23.4550       5.1150       6.3190    -999.2500    -999.2500       0.1000       0.1354     -73.3200       0.0080       2.7270       2.2830       0.3650
   2295.1255    -999.2500       9.3986      -0.7130      65.0664      23.0665       6.1055       7.3515    -999.2500    -999.2500       0.1000       0.1194     -68.1152       0.0071       2.7625       2.2140       0.5095
   2295.2778    -999.2500      11.9510      -0.6970      63.1220      22.6780       7.0960       8.3840    -999.2500    -999.2500       0.1000       0.1118     -62.9110       0.0062       2.7980       2.1450       0.6540
   2295.4302    -999.2500      12.3755      -0.6860      62.7504      22.7842       8.1076       9.2669    -999.2500    -999.2500       0.1000       0.1197     -56.5063       0.0065       2.8225       2.1976       0.5984
   2295.5828    -999.2500      12.8000      -0.6750      62.3800      22.8900       9.1160      10.1470    -999.2500    -999.2500       0.1000       0.1426     -50.1220       0.0067       2.8470       2.2500       0.5430
   2295.7351    -999.2500      12.3495      -0.7046      66.8761      22.8182       7.3099       8.3610    -999.2500    -999.2500       0.1000       0.1831     -66.7847       0.0069       2.7627       2.3449       0.4642
   2295.8875    -999.2500      11.8990      -0.7340      71.3370      22.7470       5.5180       6.5890    -999.2500    -999.2500       0.1000       0.2219     -83.3170       0.0072       2.6790       2.4390       0.3860
   2296.0398    -999.2500      12.1060      -0.7551      73.3120      22.8313       4.2797       5.0558    -999.2500    -999.2500       0.1000       0.2397     -95.6466       0.0075       2.6273       2.5207       0.3078
   2296.1924    -999.2500      12.3130      -0.7760      75.2750      22.9150       3.0490       3.5320    -999.2500    -999.2500       0.1000       0.2439    -107.9010       0.0078       2.5760       2.6020       0.2300
   2296.3447    -999.2500      10.0945      -0.7705      74.2391      22.7958       2.8587       3.2776    -999.2500    -999.2500       0.1000       0.2391    -108.7297       0.0077       2.6060       2.4172       0.2991
   2296.4971    -999.2500       7.8750      -0.7650      73.2060      22.6770       2.6690       3.0240    -999.2500    -999.2500       0.1000       0.2345    -109.5560       0.0076       2.6360       2.2330       0.3680
   2296.6494    -999.2500       6.7593      -0.7585      72.3782      22.8380       2.7985       3.1285    -999.2500    -999.2500       0.1000       0.2397    -105.8795       0.0077       2.6470       2.1465       0.3905
   2296.8020    -999.2500       5.6430      -0.7520      71.5500      22.9990       2.9280       3.2330    -999.2500    -999.2500       0.1000       0.2445    -102.2010       0.0079       2.6580       2.0600       0.4130
   2296.9543    -999.2500       6.5622      -0.7560      72.7991      22.6157       3.0543       3.2661    -999.2500    -999.2500       0.1000       0.2388    -104.1781       0.0070       2.6400       2.0234       0.5272
   2297.1067    -999.2500       7.4820      -0.7600      74.0430      22.2340       3.1800       3.2990    -999.2500    -999.2500       0.1000       0.2288    -106.1470       0.0062       2.6220       1.9870       0.6410
   2297.2590    -999.2500      11.1636      -0.7665      73.4233      22.1341       3.1293       3.3899    -999.2500    -999.2500       0.1000       0.2192    -111.2750       0.0065       2.6255       2.0563       0.5792
   2297.4114    -999.2500      14.8480      -0.7730      72.8090      22.0350       3.0790       3.4800    -999.2500    -999.2500       0.1000       0.2143    -116.3580       0.0068       2.6290       2.1250       0.5180
   2297.5640    -999.2500      17.7372      -0.7740      71.7797      22.2300       3.2560       3.7252    -999.2500    -999.2500       0.1000       0.2192    -119.3612       0.0067       2.6340       2.2995       0.4779
   2297.7163    -999.2500      20.6290      -0.7750      70.7560      22.4240       3.4320       3.9690    -999.2500    -999.2500       0.1000       0.2234    -122.3480       0.0065       2.6390       2.4730       0.4380
   2297.8687    -999.2500      20.8816      -0.7685      70.9362      21.7568       3.6417       4.2168    -999.2500    -999.2500       0.1000       0.2163    -119.8022       0.0059       2.6625       2.7413       0.4971
   2298.0210    -999.2500      21.1340      -0.7620      71.1160      21.0910       3.8510       4.4640    -999.2500    -999.2500       0.1000       0.2081    -117.2620       0.0053       2.6860       3.0090       0.5560
   2298.1736    -999.2500      21.4136      -0.7580      70.8752      20.4854       3.8299       4.5990    -999.2500    -999.2500       0.1000       0.2082    -113.8930       0.0051       2.6940       3.3140       0.3082
   2298.3259    -999.2500      21.6930      -0.7540      70.6360      19.8840       3.8090       4.7330    -999.2500    -999.2500       0.1000       0.2119    -110.5470       0.0050       2.7020       3.6170       0.0620
   2298.4783    -999.2500      20.9644      -0.7641      69.9506      19.8840       3.8482       4.5555    -999.2500    -999.2500       0.1000       0.2152    -117.9952       0.0050       2.6728       3.6170       0.0620
   2298.6306    -999.2500      20.2360      -0.7740      69.2730      19.8840       3.8870       4.3800    -999.2500    -999.2500       0.1000       0.2156    -125.3580       0.0050       2.6440       3.6170       0.0620
   2298.7832    -999.2500      18.0293      -0.7685      69.4512      19.8840       3.8985       4.1486    -999.2500    -999.2500       0.1000       0.2102    -121.2477       0.0050       2.6545       3.6170       0.0620
   2298.9355    -999.2500      15.8230      -0.7630      69.6280      19.8840       3.9100       3.9190    -999.2500    -999.2500       0.1000       0.2025    -117.1710       0.0050       2.6650       3.6170       0.0620
