#------------------------------------------------------------------------------
#
#   Created by  : [OpenWorks] Log Export Utility (LEXP)
#   Created on  : 2016-05-18 13:31:07
#   Project     : CANT971
#   User        : R5K
#   Interpreter : PEP
#
#------------------------------------------------------------------------------
~VERSION INFORMATION
VERS. 2.0 : CWLS Log ASCII Standard - version 2.0
WRAP.  NO : One line per depth step
~WELL INFORMATION
#MNEMONIC   .UNIT                                           VALUE :DESCRIPTION
#------------------------------------------------------------------------------
STRT        .M                                           759.6955 :START DEPTH
STOP        .M                                          2930.7859 :STOP DEPTH
STEP        .M                                             0.1524 :STEP
NULL        .                                           -999.2500 :NULL VALUE
COMP        .                                   PEMEX EXPL & PROD :COMPANY
WELL        .                                                 28D :WELL
FLD         .                                           CANTARELL :FIELD
LOC         .                                             UNKNOWN :LOCATION
CNTY        .                                      CD. DEL CARMEN :COUNTY
STAT        .                                            CAMPECHE :STATE
CTRY        .                                              MEXICO :COUNTRY
SRVC        .                                             UNKNOWN :SERVICE COMPANY
DATE        .                                             UNKNOWN :LOG DATE
UWI         .                                          3060000678 :UNIQUE WELL ID
XCOORD      .                                       597312.300000 :SURFACE X
YCOORD      .                                      2143075.400000 :SURFACE Y
LAT         .                                           19.380613 :LATITUDE
LON         .                                          -92.073335 :LONGITUDE
ELEV        .M                                            27.7000 :SURFACE ELEV
ELEV_TYPE   .                                                  KB :ELEV TYPE
~CURVE INFORMATION
#MNEMONIC.UNIT        API CODE       : CURVE DESCRIPTION
#------------------------------------------------------------------------------
DEPTH    .M                          : Measured Depth
CALI     .inches      UNKNOWN        : CALI:Import:rC:NONE:v0 (auto-composite)
CGR      .API         UNKNOWN        : CGR:Import:rC:NONE:v0 (auto-composite)
DRHO     .g/cm3       UNKNOWN        : DRHO:Import:rC:NONE:v0 (auto-composite)
DT       .us/ft       UNKNOWN        : DT:Import:rC:NONE:v0 (auto-composite)
GR       .API         UNKNOWN        : GR:Import:rC:NONE:v0 (auto-composite)
ILD      .ohm.m       UNKNOWN        : ILD:Import:rC:NONE:v0 (auto-composite)
ILM      .ohm.m       UNKNOWN        : ILM:Import:rC:NONE:v0 (auto-composite)
LLD      .ohm.m       UNKNOWN        : LLD:Import:rC:NONE:v0 (auto-composite)
LLS      .ohm.m       UNKNOWN        : LLS:Import:rC:NONE:v0 (auto-composite)
MSFL     .ohm.m       UNKNOWN        : MSFL:Import:rC:NONE:v0 (auto-composite)
NPHI     .v/v_decimal UNKNOWN        : NPHI:Import:rC:NONE:v0 (auto-composite)
PEF      .b/elec      UNKNOWN        : PEF:Import:rC:NONE:v0 (auto-composite)
POTA     .wtpercent   UNKNOWN        : POTA:Import:rC:NONE:v0 (auto-composite)
RHOB     .g/cm3       UNKNOWN        : RHOB:Import:rC:NONE:v0 (auto-composite)
THOR     .ppm         UNKNOWN        : THOR:Import:rC:NONE:v0 (auto-composite)
URAN     .ppm         UNKNOWN        : URAN:Import:rC:NONE:v0 (auto-composite)
~A     DEPTH         CALI          CGR         DRHO           DT           GR          ILD          ILM          LLD          LLS         MSFL         NPHI          PEF         POTA         RHOB         THOR         URAN
# ...
   2643.0547      11.3830       3.7010       0.0520      52.2970      12.9450    -999.2500    -999.2500    1008.7900     263.1420       4.8780       0.0121       3.0970       0.0006       2.8360       0.8650       1.0240
   2643.2070      11.2901       3.2835       0.0520      52.0730      13.4372    -999.2500    -999.2500    1203.1343     291.9886       4.1880       0.0108       3.0774       0.0005       2.8385       0.7756       1.0797
   2643.3594      11.1980       2.8650       0.0520      51.8510      13.9250    -999.2500    -999.2500    1395.7660     320.5810       3.5040       0.0104       3.0580       0.0004       2.8410       0.6870       1.1350
   2643.5120      11.2105       4.1659       0.0545      53.3231      14.4785    -999.2500    -999.2500    1296.2917     303.4534       3.9723       0.0112       3.0846       0.0011       2.8430       0.7281       1.0959
   2643.6643      11.2230       5.4700       0.0570      54.7870      15.0290    -999.2500    -999.2500    1197.3650     286.4200       4.4380       0.0125       3.1110       0.0019       2.8450       0.7690       1.0570
   2643.8167      11.1795       6.8996       0.0505      56.6696      14.9004    -999.2500    -999.2500    1250.2369     300.2191       3.8028       0.0159       3.0725       0.0026       2.8295       0.8776       0.8928
   2643.9690      11.1360       8.3330       0.0440      58.5480      14.7720    -999.2500    -999.2500    1302.9930     313.9880       3.1690       0.0191       3.0340       0.0032       2.8140       0.9860       0.7290
   2644.1216      11.1139       8.9986       0.0400      60.7310      14.8653    -999.2500    -999.2500    1193.0082     298.3864       3.8825       0.0190       3.0230       0.0035       2.8040       1.0843       0.6573
   2644.2739      11.0920       9.6650       0.0360      62.8990      14.9580    -999.2500    -999.2500    1083.7791     282.8920       4.5910       0.0185       3.0120       0.0038       2.7940       1.1820       0.5860
   2644.4263      11.1393       9.7764       0.0370      64.6350      14.1162    -999.2500    -999.2500     876.3810     235.9117       3.9865       0.0176       3.0472       0.0039       2.7955       1.0980       0.5422
   2644.5786      11.1860       9.8880       0.0380      66.3510      13.2840    -999.2500    -999.2500     671.3650     189.4710       3.3890       0.0168       3.0820       0.0041       2.7970       1.0150       0.4990
   2644.7312      11.1373       7.3513       0.0405      65.8183      11.9877    -999.2500    -999.2500     603.8412     171.1912       4.9383       0.0163       3.1207       0.0026       2.8045       0.9618       0.5838
   2644.8835      11.0890       4.8110       0.0430      65.2900      10.7020    -999.2500    -999.2500     536.8700     153.0610       6.4750       0.0160       3.1590       0.0011       2.8120       0.9090       0.6680
   2645.0359      11.0674       4.8625       0.0410      62.6069      11.1912    -999.2500    -999.2500     625.7234     181.7009       5.6014       0.0164       3.1760       0.0012       2.8060       0.7441       0.7512
   2645.1882      11.0460       4.9140       0.0390      59.9370      11.6780    -999.2500    -999.2500     714.1430     210.2010       4.7320       0.0176       3.1930       0.0014       2.8000       0.5800       0.8340
   2645.3406      11.1181       3.5346       0.0360      58.5012      15.6888    -999.2500    -999.2500    1006.9706     292.9854       3.8201       0.0238       3.1534       0.0008       2.7810       0.6251       1.3809
   2645.4932      11.1900       2.1530       0.0330      57.0700      19.6870    -999.2500    -999.2500    1298.8719     375.5080       2.9110       0.0322       3.1140       0.0001       2.7620       0.6700       1.9260
   2645.6455      11.1325       2.3134       0.0380      60.4462      20.8284    -999.2500    -999.2500    1007.2908     309.7073       4.7534       0.0515       3.1365       0.0004       2.7355       0.5680       2.0560
   2645.7979      11.0750       2.4740       0.0430      63.8230      21.9700    -999.2500    -999.2500     715.6630     243.8960       6.5960       0.0711       3.1590       0.0006       2.7090       0.4660       2.1860
   2645.9502      11.0540       3.1314       0.0395      62.7735      18.7763    -999.2500    -999.2500     560.9645     181.0427       5.5620       0.0828       3.1305       0.0009       2.6825       0.5276       1.8115
   2646.1028      11.0330       3.7900       0.0360      61.7270      15.5920    -999.2500    -999.2500     406.7180     118.3730       4.5310       0.0913       3.1020       0.0012       2.6560       0.5890       1.4380
   2646.2551      11.1048       2.6601       0.0380      59.6165      16.8076    -999.2500    -999.2500     479.0943     141.0744       4.4256       0.0831       3.1361       0.0007       2.6580       0.5077       1.6277
   2646.4075      11.1760       1.5280       0.0400      57.5220      18.0140    -999.2500    -999.2500     550.9230     163.6040       4.3210       0.0742       3.1700       0.0001       2.6600       0.4270       1.8160
   2646.5598      11.1279       1.4940       0.0535      57.1940      18.5576    -999.2500    -999.2500     809.0201     215.7596       5.1720       0.0745       3.1605       0.0001       2.6966       0.4165       1.8847
   2646.7124      11.0800       1.4600       0.0670      56.8680      19.0980    -999.2500    -999.2500    1065.6071     267.6100       6.0180       0.0764       3.1510       0.0001       2.7330       0.4060       1.9530
   2646.8647      11.0945       1.5564       0.0565      56.4885      19.8249    -999.2500    -999.2500    1226.1986     296.7820       5.1900       0.0803       3.1300       0.0001       2.6924       0.4405       2.0236
   2647.0171      11.1090       1.6530       0.0460      56.1100      20.5500    -999.2500    -999.2500    1386.3831     325.8800       4.3640       0.0843       3.1090       0.0001       2.6520       0.4750       2.0940
   2647.1694      11.0950       1.3903       0.0550      56.3594      24.4210    -999.2500    -999.2500    1737.1624     372.2332       3.2145       0.0871       3.1260       0.0001       2.6410       0.3775       2.5473
   2647.3218      11.0810       1.1270       0.0640      56.6090      28.2950    -999.2500    -999.2500    2088.2180     418.6230       2.0640       0.0890       3.1430       0.0001       2.6300       0.2800       3.0010
   2647.4744      11.0364       1.3717       0.0735      57.2798      35.7190    -999.2500    -999.2500    2238.3484     433.9018       3.4818       0.0857       3.1575       0.0002       2.6430       0.3566       3.8161
   2647.6267      10.9920       1.6170       0.0830      57.9480      43.1140    -999.2500    -999.2500    2387.8940     449.1210       4.8940       0.0814       3.1720       0.0002       2.6560       0.4330       4.6280
   2647.7791      11.0337       1.0857       0.0765      59.7271      38.6670    -999.2500    -999.2500    2137.3125     395.7910       4.0223       0.0749       3.1504       0.0002       2.6691       0.2633       4.1188
   2647.9314      11.0750       0.5530       0.0700      61.4910      34.2580    -999.2500    -999.2500    1888.8690     342.9160       3.1580       0.0688       3.1290       0.0002       2.6820       0.0950       3.6140
   2648.0840      11.0986       1.1007       0.0795      62.2009      34.5036    -999.2500    -999.2500    2048.7705     363.3168       3.9290       0.0660       3.1616       0.0002       2.6945       0.2730       3.6436
   2648.2363      11.1220       1.6490       0.0890      62.9070      34.7480    -999.2500    -999.2500    2207.8369     383.6110       4.6960       0.0660       3.1940       0.0001       2.7070       0.4500       3.6730
   2648.3887      11.0254       1.8484       0.0700      61.7439      34.4802    -999.2500    -999.2500    2730.0083     442.1344       4.4297       0.0817       3.1725       0.0002       2.6625       0.5136       3.6405
   2648.5410      10.9290       2.0480       0.0510      60.5830      34.2130    -999.2500    -999.2500    3251.1819     500.5460       4.1640       0.0985       3.1510       0.0002       2.6180       0.5770       3.6080
