#------------------------------------------------------------------------------
#
#   Created by  : [OpenWorks] Log Export Utility (LEXP)
#   Created on  : 2016-05-18 13:31:07
#   Project     : CANT971
#   User        : R5K
#   Interpreter : PEP
#
#------------------------------------------------------------------------------
~VERSION INFORMATION
VERS. 2.0 : CWLS Log ASCII Standard - version 2.0
WRAP.  NO : One line per depth step
~WELL INFORMATION
#MNEMONIC   .UNIT                                           VALUE :DESCRIPTION
#------------------------------------------------------------------------------
STRT        .M                                           759.6955 :START DEPTH
STOP        .M                                          2930.7859 :STOP DEPTH
STEP        .M                                             0.1524 :STEP
NULL        .                                           -999.2500 :NULL VALUE
COMP        .                                   PEMEX EXPL & PROD :COMPANY
WELL        .                                                 28D :WELL
FLD         .                                           CANTARELL :FIELD
LOC         .                                             UNKNOWN :LOCATION
CNTY        .                                      CD. DEL CARMEN :COUNTY
STAT        .                                            CAMPECHE :STATE
CTRY        .                                              MEXICO :COUNTRY
SRVC        .                                             UNKNOWN :SERVICE COMPANY
DATE        .                                             UNKNOWN :LOG DATE
UWI         .                                          3060000678 :UNIQUE WELL ID
XCOORD      .                                       597312.300000 :SURFACE X
YCOORD      .                                      2143075.400000 :SURFACE Y
LAT         .                                           19.380613 :LATITUDE
LON         .                                          -92.073335 :LONGITUDE
ELEV        .M                                            27.7000 :SURFACE ELEV
ELEV_TYPE   .                                                  KB :ELEV TYPE
~CURVE INFORMATION
#MNEMONIC.UNIT        API CODE       : CURVE DESCRIPTION
#------------------------------------------------------------------------------
DEPTH    .M                          : Measured Depth
CALI     .inches      UNKNOWN        : CALI:Import:rC:NONE:v0 (auto-composite)
CGR      .API         UNKNOWN        : CGR:Import:rC:NONE:v0 (auto-composite)
DRHO     .g/cm3       UNKNOWN        : DRHO:Import:rC:NONE:v0 (auto-composite)
DT       .us/ft       UNKNOWN        : DT:Import:rC:NONE:v0 (auto-composite)
GR       .API         UNKNOWN        : GR:Import:rC:NONE:v0 (auto-composite)
ILD      .ohm.m       UNKNOWN        : ILD:Import:rC:NONE:v0 (auto-composite)
ILM      .ohm.m       UNKNOWN        : ILM:Import:rC:NONE:v0 (auto-composite)
LLD      .ohm.m       UNKNOWN        : LLD:Import:rC:NONE:v0 (auto-composite)
LLS      .ohm.m       UNKNOWN        : LLS:Import:rC:NONE:v0 (auto-composite)
MSFL     .ohm.m       UNKNOWN        : MSFL:Import:rC:NONE:v0 (auto-composite)
NPHI     .v/v_decimal UNKNOWN        : NPHI:Import:rC:NONE:v0 (auto-composite)
PEF      .b/elec      UNKNOWN        : PEF:Import:rC:NONE:v0 (auto-composite)
POTA     .wtpercent   UNKNOWN        : POTA:Import:rC:NONE:v0 (auto-composite)
RHOB     .g/cm3       UNKNOWN        : RHOB:Import:rC:NONE:v0 (auto-composite)
THOR     .ppm         UNKNOWN        : THOR:Import:rC:NONE:v0 (auto-composite)
URAN     .ppm         UNKNOWN        : URAN:Import:rC:NONE:v0 (auto-composite)
~A     DEPTH         CALI          CGR         DRHO           DT           GR          ILD          ILM          LLD          LLS         MSFL         NPHI          PEF         POTA         RHOB         THOR         URAN
# ...
   2411.8640      12.3576       0.8213       0.1575      74.7784      44.0492    -999.2500    -999.2500     384.0171     127.3860       7.3823       0.1154       3.3373       0.0002       2.7124       0.1587       4.7886
   2412.0164      12.3860       1.0160       0.1750      75.7440      42.6750    -999.2500    -999.2500     261.3390      99.2230       3.1830       0.1622       3.4760       0.0002       2.6590       0.2230       4.6150
   2412.1687      12.4816       2.1860       0.1505      77.1196      39.8378    -999.2500    -999.2500     204.4686      76.1824       2.7302       0.2436       3.6216       0.0002       2.5379       0.6038       4.1987
   2412.3210      12.5770       3.3560       0.1260      78.4930      37.0050    -999.2500    -999.2500     147.6850      53.1770       2.2780       0.3248       3.7670       0.0002       2.4170       0.9840       3.7830
   2412.4734      12.9797       3.5950       0.0864      80.0779      34.6632    -999.2500    -999.2500     164.3648      59.0999       4.2917       0.3723       3.7314       0.0003       2.3568       0.9288       3.4690
   2412.6260      13.3800       3.8340       0.0470      81.6530      32.3360    -999.2500    -999.2500     180.9410      64.9860       6.2930       0.3993       3.6960       0.0004       2.2970       0.8740       3.1570
   2412.7783      13.7294       5.8277       0.0415      76.3805      31.8368    -999.2500    -999.2500     260.3690      86.1420       3.4029       0.3021       3.7277       0.0011       2.3960       1.2123       2.8805
   2412.9307      14.0750       7.8220       0.0360      71.1650      31.3430    -999.2500    -999.2500     338.9370     107.0690       0.5440       0.1979       3.7590       0.0018       2.4940       1.5470       2.6070
   2413.0830      13.6624       8.2829       0.0511      70.0438      31.7962    -999.2500    -999.2500     389.5208     113.8144       0.5079       0.1553       3.5081       0.0020       2.6014       1.6825       2.5648
   2413.2356      13.2530       8.7440       0.0660      68.9310      32.2460    -999.2500    -999.2500     439.7240     120.5090       0.4720       0.1229       3.2590       0.0021       2.7080       1.8170       2.5230
   2413.3879      12.9338       6.9360       0.0475      69.4581      33.5793    -999.2500    -999.2500     431.9646     117.5427       0.6584       0.1058       3.2710       0.0017       2.7200       1.3776       2.9038
   2413.5403      12.6160       5.1270       0.0290      69.9830      34.9070    -999.2500    -999.2500     424.2380     114.5890       0.8440       0.0916       3.2830       0.0013       2.7320       0.9400       3.2830
   2413.6926      12.5619       4.6262       0.0210      67.8824      36.8179    -999.2500    -999.2500     440.7010     113.3104       1.0918       0.0834       3.2470       0.0008       2.7240       1.1918       3.5583
   2413.8452      12.5080       4.1250       0.0130      65.7870      38.7240    -999.2500    -999.2500     457.1230     112.0350       1.3390       0.0760       3.2110       0.0002       2.7160       1.4430       3.8330
   2413.9976      12.4202       2.3762       0.0100      67.9749      42.8433    -999.2500    -999.2500     460.5739     114.6419       1.8719       0.0686       3.2311       0.0002       2.6934       0.7621       4.4838
   2414.1499      12.3330       0.6260       0.0070      70.1470      46.9330    -999.2500    -999.2500     464.0000     117.2300       2.4010       0.0621       3.2510       0.0002       2.6710       0.0860       5.1300
   2414.3022      12.2822       1.5086       0.0100      69.7304      43.4462    -999.2500    -999.2500     473.6080     121.8908       2.9940       0.0616       3.2691       0.0002       2.6700       0.3815       4.6516
   2414.4546      12.2320       2.3920       0.0130      69.3180      39.9950    -999.2500    -999.2500     483.1180     126.5040       3.5810       0.0612       3.2870       0.0002       2.6690       0.6740       4.1780
   2414.6072      12.1296       2.2456       0.0185      68.8795      39.3101    -999.2500    -999.2500     510.3651     135.3445       3.7004       0.0563       3.3026       0.0002       2.6881       0.6273       4.0962
   2414.7595      12.0280       2.0990       0.0240      68.4440      38.6300    -999.2500    -999.2500     537.4240     144.1240       3.8190       0.0513       3.3180       0.0002       2.7070       0.5810       4.0150
   2414.9119      11.9759       1.3210       0.0300      68.8185      38.8125    -999.2500    -999.2500     525.3041     146.0811       4.7534       0.0500       3.3295       0.0002       2.7150       0.3293       4.1433
   2415.0642      11.9240       0.5420       0.0360      69.1910      38.9940    -999.2500    -999.2500     513.2470     148.0280       5.6830       0.0497       3.3410       0.0002       2.7230       0.0790       4.2710
   2415.2168      11.9220       1.2540       0.0260      70.4161      42.0338    -999.2500    -999.2500     435.4020     127.5515       8.5705       0.0532       3.2904       0.0002       2.7000       0.3049       4.5229
   2415.3691      11.9200       1.9670       0.0160      71.6370      45.0630    -999.2500    -999.2500     357.8270     107.1460      11.4480       0.0582       3.2400       0.0002       2.6770       0.5300       4.7740
   2415.5215      11.9295       2.1983       0.0215      72.4406      46.5136    -999.2500    -999.2500     301.6219      93.9565      12.2321       0.0706       3.2250       0.0002       2.6655       0.6030       4.9490
   2415.6738      11.9390       2.4300       0.0270      73.2440      47.9640    -999.2500    -999.2500     245.4250      80.7690      13.0160       0.0859       3.2100       0.0002       2.6540       0.6760       5.1240
   2415.8264      11.9936       1.5017       0.0190      75.8081      51.5027    -999.2500    -999.2500     233.6540      77.7932      10.4644       0.1136       3.1850       0.0002       2.6280       0.3750       5.5772
   2415.9788      12.0480       0.5720       0.0110      78.3640      55.0300    -999.2500    -999.2500     221.9210      74.8270       7.9210       0.1400       3.1600       0.0002       2.6020       0.0750       6.0290
   2416.1311      12.0821       0.8220       0.0246      78.8379      81.6764    -999.2500    -999.2500     267.0968      92.9212       5.9698       0.1473       3.2012       0.0003       2.6151       0.1297       8.9550
   2416.2834      12.1160       1.0720       0.0380      79.3080     108.1130    -999.2500    -999.2500     311.9170     110.8730       4.0340       0.1484       3.2420       0.0003       2.6280       0.1840      11.8580
   2416.4358      12.1195       1.3925       0.0330      76.4437     176.1189    -999.2500    -999.2500     406.3402     130.6770       4.1358       0.1260       3.2139       0.0004       2.6596       0.2582      19.3566
   2416.5884      12.1230       1.7130       0.0280      73.5970     243.7060    -999.2500    -999.2500     500.1820     150.3590       4.2370       0.1021       3.1860       0.0004       2.6910       0.3320      26.8090
   2416.7407      12.1711       1.3741       0.0350      72.6682     265.5200    -999.2500    -999.2500     474.1836     139.3749       5.2685       0.0909       3.2090       0.0004       2.7115       0.2118      29.2625
   2416.8931      12.2190       1.0350       0.0420      71.7420     287.2720    -999.2500    -999.2500     448.2590     128.4220       6.2970       0.0819       3.2320       0.0005       2.7320       0.0920      31.7090
   2417.0454      12.3080       0.9055       0.0345      70.9137     214.6884    -999.2500    -999.2500     436.8982     124.4539       6.6484       0.0751       3.2170       0.0004       2.7220       0.0865      23.6824
   2417.1980      12.3970       0.7760       0.0270      70.0850     142.0700    -999.2500    -999.2500     425.5320     120.4840       7.0000       0.0688       3.2020       0.0003       2.7120       0.0810      15.6520
   2417.3503      12.3499       0.6505       0.0330      69.7814      96.5609    -999.2500    -999.2500     495.0852     141.5633       5.8676       0.0645       3.2361       0.0003       2.7265       0.0720      10.6244
