#------------------------------------------------------------------------------
#
#   Created by  : [OpenWorks] Log Export Utility (LEXP)
#   Created on  : 2016-05-18 13:31:07
#   Project     : CANT971
#   User        : R5K
#   Interpreter : PEP
#
#------------------------------------------------------------------------------
~VERSION INFORMATION
VERS. 2.0 : CWLS Log ASCII Standard - version 2.0
WRAP.  NO : One line per depth step
~WELL INFORMATION
#MNEMONIC   .UNIT                                           VALUE :DESCRIPTION
#------------------------------------------------------------------------------
STRT        .M                                           759.6955 :START DEPTH
STOP        .M                                          2930.7859 :STOP DEPTH
STEP        .M                                             0.1524 :STEP
NULL        .                                           -999.2500 :NULL VALUE
COMP        .                                   PEMEX EXPL & PROD :COMPANY
WELL        .                                                 28D :WELL
FLD         .                                           CANTARELL :FIELD
LOC         .                                             UNKNOWN :LOCATION
CNTY        .                                      CD. DEL CARMEN :COUNTY
STAT        .                                            CAMPECHE :STATE
CTRY        .                                              MEXICO :COUNTRY
SRVC        .                                             UNKNOWN :SERVICE COMPANY
DATE        .                                             UNKNOWN :LOG DATE
UWI         .                                          3060000678 :UNIQUE WELL ID
XCOORD      .                                       597312.300000 :SURFACE X
YCOORD      .                                      2143075.400000 :SURFACE Y
LAT         .                                           19.380613 :LATITUDE
LON         .                                          -92.073335 :LONGITUDE
ELEV        .M                                            27.7000 :SURFACE ELEV
ELEV_TYPE   .                                                  KB :ELEV TYPE
~CURVE INFORMATION
#MNEMONIC.UNIT        API CODE       : CURVE DESCRIPTION
#------------------------------------------------------------------------------
DEPTH    .M                          : Measured Depth
CALI     .inches      UNKNOWN        : CALI:Import:rC:NONE:v0 (auto-composite)
CGR      .API         UNKNOWN        : CGR:Import:rC:NONE:v0 (auto-composite)
DRHO     .g/cm3       UNKNOWN        : DRHO:Import:rC:NONE:v0 (auto-composite)
DT       .us/ft       UNKNOWN        : DT:Import:rC:NONE:v0 (auto-composite)
GR       .API         UNKNOWN        : GR:Import:rC:NONE:v0 (auto-composite)
ILD      .ohm.m       UNKNOWN        : ILD:Import:rC:NONE:v0 (auto-composite)
ILM      .ohm.m       UNKNOWN        : ILM:Import:rC:NONE:v0 (auto-composite)
LLD      .ohm.m       UNKNOWN        : LLD:Import:rC:NONE:v0 (auto-composite)
LLS      .ohm.m       UNKNOWN        : LLS:Import:rC:NONE:v0 (auto-composite)
MSFL     .ohm.m       UNKNOWN        : MSFL:Import:rC:NONE:v0 (auto-composite)
NPHI     .v/v_decimal UNKNOWN        : NPHI:Import:rC:NONE:v0 (auto-composite)
PEF      .b/elec      UNKNOWN        : PEF:Import:rC:NONE:v0 (auto-composite)
POTA     .wtpercent   UNKNOWN        : POTA:Import:rC:NONE:v0 (auto-composite)
RHOB     .g/cm3       UNKNOWN        : RHOB:Import:rC:NONE:v0 (auto-composite)
THOR     .ppm         UNKNOWN        : THOR:Import:rC:NONE:v0 (auto-composite)
URAN     .ppm         UNKNOWN        : URAN:Import:rC:NONE:v0 (auto-composite)
~A     DEPTH         CALI          CGR         DRHO           DT           GR          ILD          ILM          LLD          LLS         MSFL         NPHI          PEF         POTA         RHOB         THOR         URAN
# ...
   2490.8071      11.7155       2.1090       0.0425      58.2064      18.6850    -999.2500    -999.2500     641.5803     167.4536       5.2865       0.0022       3.2766       0.0001       2.8575       0.6097       1.8364
   2490.9595      11.7160       2.2610       0.0460      59.1130      18.5490    -999.2500    -999.2500     480.0350     120.6300       5.0290       0.0038       3.2970       0.0001       2.8540       0.6570       1.8050
   2491.1118      11.7145       2.9043       0.0485      59.5984      22.2453    -999.2500    -999.2500     467.0948     128.2091       4.7462       0.0058       3.2724       0.0001       2.8490       0.8591       2.1390
   2491.2644      11.7130       3.5480       0.0510      60.0810      25.9200    -999.2500    -999.2500     454.2300     135.7440       4.4650       0.0082       3.2480       0.0002       2.8440       1.0600       2.4710
   2491.4167      11.7180       3.6355       0.0540      58.8114      23.7538    -999.2500    -999.2500     514.6378     148.7789       4.0565       0.0109       3.2730       0.0001       2.8365       1.0910       2.2357
   2491.5691      11.7230       3.7230       0.0570      57.5450      21.5930    -999.2500    -999.2500     574.8940     161.7810       3.6490       0.0136       3.2980       0.0001       2.8290       1.1220       2.0010
   2491.7214      11.7375       2.5095       0.0590      56.8818      18.1099    -999.2500    -999.2500     501.2515     145.9234       4.5516       0.0160       3.2720       0.0001       2.8205       0.7392       1.7371
   2491.8738      11.7520       1.2950       0.0610      56.2180      14.6240    -999.2500    -999.2500     427.5490     130.0530       5.4550       0.0177       3.2460       0.0001       2.8120       0.3560       1.4730
   2492.0264      11.7525       1.4244       0.0560      56.8367      14.5218    -999.2500    -999.2500     409.4991     124.7312       6.0021       0.0184       3.2149       0.0001       2.8030       0.3750       1.4620
   2492.1787      11.7530       1.5540       0.0510      57.4530      14.4200    -999.2500    -999.2500     391.5190     119.4300       6.5470       0.0193       3.1840       0.0001       2.7940       0.3940       1.4510
   2492.3311      11.7525       2.3126       0.0435      58.6862      16.1127    -999.2500    -999.2500     654.6994     214.4487       9.6356       0.0216       3.2056       0.0005       2.7794       0.4362       1.5740
   2492.4834      11.7520       3.0720       0.0360      59.9090      17.7910    -999.2500    -999.2500     915.6410     308.6590      12.6980       0.0271       3.2270       0.0010       2.7650       0.4780       1.6960
   2492.6360      11.7515       2.4499       0.0460      60.5898      20.3191    -999.2500    -999.2500    1220.8888     385.8210       7.2784       0.0378       3.1754       0.0006       2.7550       0.5206       2.0048
   2492.7883      11.7510       1.8270       0.0560      61.2670      22.8340    -999.2500    -999.2500    1524.5500     462.5820       1.8870       0.0531       3.1240       0.0001       2.7450       0.5630       2.3120
   2492.9407      11.7610       2.9757       0.0615      59.9583      25.6757    -999.2500    -999.2500    1145.9336     348.9113       1.3290       0.0726       3.2606       0.0002       2.6894       0.9048       2.5257
   2493.0930      11.7710       4.1260       0.0670      58.6520      28.5120    -999.2500    -999.2500     768.0310     235.4550       0.7720       0.0868       3.3970       0.0002       2.6340       1.2460       2.7390
   2493.2456      11.8272       2.4702       0.0560      58.9475      32.4088    -999.2500    -999.2500     736.2893     226.6601       3.9855       0.0860       3.3549       0.0002       2.6215       0.7032       3.3340
   2493.3979      11.8830       0.8120       0.0450      59.2410      36.2800    -999.2500    -999.2500     704.7560     217.9230       7.1780       0.0783       3.3130       0.0002       2.6090       0.1640       3.9250
   2493.5503      11.9107       1.0758       0.0606      60.4975      39.6961    -999.2500    -999.2500     861.9673     254.7433       6.4836       0.0712       3.3432       0.0002       2.6859       0.2455       4.2840
   2493.7026      11.9380       1.3400       0.0760      61.7400      43.0740    -999.2500    -999.2500    1017.4210     291.1520       5.7970       0.0664       3.3730       0.0002       2.7620       0.3260       4.6390
   2493.8550      11.9285       2.0679       0.0489      62.0286      40.6469    -999.2500    -999.2500    1194.0201     333.7091       5.4863       0.0654       3.2234       0.0002       2.7379       0.5644       4.2816
   2494.0076      11.9190       2.7970       0.0220      62.3150      38.2390    -999.2500    -999.2500    1369.2280     375.9310       5.1780       0.0674       3.0750       0.0002       2.7140       0.8010       3.9270
   2494.1599      12.0383       2.2825       0.0065      61.8985      36.8999    -999.2500    -999.2500    2020.2393     484.5496       5.0141       0.0717       3.0875       0.0002       2.6494       0.6371       3.8343
   2494.3123      12.1570       1.7670      -0.0090      61.4840      35.5670    -999.2500    -999.2500    2668.2710     592.6710       4.8510       0.0740       3.1000       0.0002       2.5850       0.4740       3.7420
   2494.4646      12.0043       2.5877      -0.0075      60.2873      34.5751    -999.2500    -999.2500    3202.6030     640.1569       5.2330       0.0701       3.0685       0.0007       2.5755       0.5431       3.5422
   2494.6172      11.8520       3.4100      -0.0060      59.0940      33.5860    -999.2500    -999.2500    3735.4089     687.5070       5.6140       0.0637       3.0370       0.0012       2.5660       0.6120       3.3430
   2494.7695      11.8234       2.6807       0.0065      58.3527      33.2512    -999.2500    -999.2500    2694.7886     554.0743       6.7342       0.0588       3.0997       0.0018       2.6257       0.3395       3.2968
   2494.9219      11.7950       1.9510       0.0190      57.6170      32.9190    -999.2500    -999.2500    1662.0090     421.6470       7.8460       0.0549       3.1620       0.0023       2.6850       0.0690       3.2510
   2495.0742      11.7975       2.1699       0.0286      58.9088      28.7329    -999.2500    -999.2500    1499.3640     387.4069       8.9508       0.0517       3.1741       0.0015       2.7147       0.2917       2.8630
   2495.2268      11.8000       2.3890       0.0380      60.1870      24.5910    -999.2500    -999.2500    1338.4351     353.5280      10.0440       0.0500       3.1860       0.0006       2.7440       0.5120       2.4790
   2495.3792      11.8005       1.7947       0.0325      58.5882      22.4176    -999.2500    -999.2500    1530.9198     403.4472       7.3964       0.0508       3.1418       0.0004       2.7224       0.4141       2.2823
   2495.5315      11.8010       1.2000       0.0270      57.0010      20.2600    -999.2500    -999.2500    1722.0070     453.0040       4.7680       0.0524       3.0980       0.0001       2.7010       0.3170       2.0870
   2495.6838      11.8221       1.7398       0.0315      57.3640      24.3303    -999.2500    -999.2500    1886.5312     442.3535       8.2542       0.0536       3.1171       0.0002       2.7080       0.4569       2.4901
   2495.8362      11.8430       2.2800       0.0360      57.7250      28.3780    -999.2500    -999.2500    2050.1431     431.7620      11.7210       0.0549       3.1360       0.0003       2.7150       0.5960       2.8910
   2495.9888      11.8605       2.6513       0.0470      58.2871      32.7218    -999.2500    -999.2500    2229.3889     480.4232       7.6760       0.0571       3.1816       0.0002       2.7135       0.7392       3.3340
   2496.1411      11.8780       3.0230       0.0580      58.8480      37.0560    -999.2500    -999.2500    2408.2351     528.9760       3.6400       0.0600       3.2270       0.0002       2.7120       0.8820       3.7760
   2496.2935      11.8110       2.5927       0.0500      58.9829      36.1770    -999.2500    -999.2500    2734.2974     564.0738       5.0292       0.0631       3.2925       0.0002       2.6970       0.7451       3.7130
