#------------------------------------------------------------------------------
#
#   Created by  : [OpenWorks] Log Export Utility (LEXP)
#   Created on  : 2016-05-18 13:31:07
#   Project     : CANT971
#   User        : R5K
#   Interpreter : PEP
#
#------------------------------------------------------------------------------
~VERSION INFORMATION
VERS. 2.0 : CWLS Log ASCII Standard - version 2.0
WRAP.  NO : One line per depth step
~WELL INFORMATION
#MNEMONIC   .UNIT                                           VALUE :DESCRIPTION
#------------------------------------------------------------------------------
STRT        .M                                           759.6955 :START DEPTH
STOP        .M                                          2930.7859 :STOP DEPTH
STEP        .M                                             0.1524 :STEP
NULL        .                                           -999.2500 :NULL VALUE
COMP        .                                   PEMEX EXPL & PROD :COMPANY
WELL        .                                                 28D :WELL
FLD         .                                           CANTARELL :FIELD
LOC         .                                             UNKNOWN :LOCATION
CNTY        .                                      CD. DEL CARMEN :COUNTY
STAT        .                                            CAMPECHE :STATE
CTRY        .                                              MEXICO :COUNTRY
SRVC        .                                             UNKNOWN :SERVICE COMPANY
DATE        .                                             UNKNOWN :LOG DATE
UWI         .                                          3060000678 :UNIQUE WELL ID
XCOORD      .                                       597312.300000 :SURFACE X
YCOORD      .                                      2143075.400000 :SURFACE Y
LAT         .                                           19.380613 :LATITUDE
LON         .                                          -92.073335 :LONGITUDE
ELEV        .M                                            27.7000 :SURFACE ELEV
ELEV_TYPE   .                                                  KB :ELEV TYPE
~CURVE INFORMATION
#MNEMONIC.UNIT        API CODE       : CURVE DESCRIPTION
#------------------------------------------------------------------------------
DEPTH    .M                          : Measured Depth
CALI     .inches      UNKNOWN        : CALI:Import:rC:NONE:v0 (auto-composite)
CGR      .API         UNKNOWN        : CGR:Import:rC:NONE:v0 (auto-composite)
DRHO     .g/cm3       UNKNOWN        : DRHO:Import:rC:NONE:v0 (auto-composite)
DT       .us/ft       UNKNOWN        : DT:Import:rC:NONE:v0 (auto-composite)
GR       .API         UNKNOWN        : GR:Import:rC:NONE:v0 (auto-composite)
ILD      .ohm.m       UNKNOWN        : ILD:Import:rC:NONE:v0 (auto-composite)
ILM      .ohm.m       UNKNOWN        : ILM:Import:rC:NONE:v0 (auto-composite)
LLD      .ohm.m       UNKNOWN        : LLD:Import:rC:NONE:v0 (auto-composite)
LLS      .ohm.m       UNKNOWN        : LLS:Import:rC:NONE:v0 (auto-composite)
MSFL     .ohm.m       UNKNOWN        : MSFL:Import:rC:NONE:v0 (auto-composite)
NPHI     .v/v_decimal UNKNOWN        : NPHI:Import:rC:NONE:v0 (auto-composite)
PEF      .b/elec      UNKNOWN        : PEF:Import:rC:NONE:v0 (auto-composite)
POTA     .wtpercent   UNKNOWN        : POTA:Import:rC:NONE:v0 (auto-composite)
RHOB     .g/cm3       UNKNOWN        : RHOB:Import:rC:NONE:v0 (auto-composite)
THOR     .ppm         UNKNOWN        : THOR:Import:rC:NONE:v0 (auto-composite)
URAN     .ppm         UNKNOWN        : URAN:Import:rC:NONE:v0 (auto-composite)
~A     DEPTH         CALI          CGR         DRHO           DT           GR          ILD          ILM          LLD          LLS         MSFL         NPHI          PEF         POTA         RHOB         THOR         URAN
# ...
   2761.4695      11.1155       3.7560    -999.2500      68.4659      42.7685    -999.2500    -999.2500      68.0996      51.1152       0.3315    -999.2500    -999.2500       0.0017    -999.2500       0.2905       4.3215
   2761.6218      11.0700       3.7570    -999.2500      67.5150      42.7650    -999.2500    -999.2500      74.5870      53.5970       0.3500    -999.2500    -999.2500       0.0017    -999.2500       0.2910       4.3210
   2761.7744      10.9047       3.7585    -999.2500      68.5872      42.7605    -999.2500    -999.2500      71.5415      49.1197       0.3475    -999.2500    -999.2500       0.0017    -999.2500       0.2920       4.3205
   2761.9268      10.7400       3.7600    -999.2500      69.6560      42.7560    -999.2500    -999.2500      68.5060      44.6570       0.3450    -999.2500    -999.2500       0.0017    -999.2500       0.2930       4.3200
   2762.0791      10.6858       3.7620    -999.2500      74.1894      42.7510    -999.2500    -999.2500      66.2782      42.2450       0.3370    -999.2500    -999.2500       0.0017    -999.2500       0.2935       4.3190
   2762.2314      10.6320       3.7640    -999.2500      78.6870      42.7460    -999.2500    -999.2500      64.0680      39.8520       0.3290    -999.2500    -999.2500       0.0017    -999.2500       0.2940       4.3180
   2762.3838      10.6305       3.6556    -999.2500      80.9911      43.1237    -999.2500    -999.2500      63.4596      39.0876       0.3190    -999.2500    -999.2500       0.0017    -999.2500       0.2875       4.3722
   2762.5364      10.6290       3.5470    -999.2500      83.2810      43.4990    -999.2500    -999.2500      62.8550      38.3280       0.3090    -999.2500    -999.2500       0.0017    -999.2500       0.2810       4.4260
   2762.6887      10.6100       3.5495    -999.2500      79.9477      43.4920    -999.2500    -999.2500      65.7406      40.3509       0.3390    -999.2500    -999.2500       0.0017    -999.2500       0.2820       4.4250
   2762.8411      10.5910       3.5520    -999.2500      76.6240      43.4850    -999.2500    -999.2500      68.6180      42.3680       0.3690    -999.2500    -999.2500       0.0016    -999.2500       0.2830       4.4240
   2762.9934      10.5655       3.5555    -999.2500      72.2345      43.4745    -999.2500    -999.2500      76.1683      47.6063       0.3840    -999.2500    -999.2500       0.0016    -999.2500       0.2845       4.4225
   2763.1460      10.5400       3.5590    -999.2500      67.8430      43.4640    -999.2500    -999.2500      83.7220      52.8470       0.3990    -999.2500    -999.2500       0.0016    -999.2500       0.2860       4.4210
   2763.2983      10.6452       3.5640    -999.2500      65.9335      43.4510    -999.2500    -999.2500      93.0517      59.2761       0.4351    -999.2500    -999.2500       0.0016    -999.2500       0.2880       4.4190
   2763.4507      10.7500       3.5690    -999.2500      64.0320      43.4380    -999.2500    -999.2500     102.3420      65.6780       0.4710    -999.2500    -999.2500       0.0016    -999.2500       0.2900       4.4170
   2763.6030      10.7721       3.5750    -999.2500      65.4066      43.4209    -999.2500    -999.2500     105.5748      68.1680       0.4574    -999.2500    -999.2500       0.0016    -999.2500       0.2925       4.4145
   2763.7556      10.7940       3.5810    -999.2500      66.7690      43.4040    -999.2500    -999.2500     108.7790      70.6360       0.4440    -999.2500    -999.2500       0.0016    -999.2500       0.2950       4.4120
   2763.9080      10.9204       3.5890    -999.2500      67.8430      43.3824    -999.2500    -999.2500     101.8899      67.6402       0.4610    -999.2500    -999.2500       0.0016    -999.2500       0.2980       4.4085
   2764.0603      11.0460       3.5970    -999.2500      68.9110      43.3610    -999.2500    -999.2500      95.0390      64.6610       0.4780    -999.2500    -999.2500       0.0016    -999.2500       0.3010       4.4050
   2764.2126      11.0665       3.6070    -999.2500      68.1391      43.3330    -999.2500    -999.2500      86.5865      59.9437       0.4555    -999.2500    -999.2500       0.0016    -999.2500       0.3050       4.4010
   2764.3650      11.0870       3.6170    -999.2500      67.3690      43.3050    -999.2500    -999.2500      78.1530      55.2370       0.4330    -999.2500    -999.2500       0.0016    -999.2500       0.3090       4.3970
   2764.5176      11.0855       3.6300    -999.2500      67.1452      43.2679    -999.2500    -999.2500      73.3102      52.6405       0.4491    -999.2500    -999.2500       0.0016    -999.2500       0.3140       4.3910
   2764.6699      11.0840       3.6430    -999.2500      66.9230      43.2310    -999.2500    -999.2500      68.5010      50.0620       0.4650    -999.2500    -999.2500       0.0016    -999.2500       0.3190       4.3850
   2764.8223      11.0855       3.6610    -999.2500      67.5466      43.1813    -999.2500    -999.2500      69.7402      51.4162       0.4544    -999.2500    -999.2500       0.0016    -999.2500       0.3260       4.3780
   2764.9746      11.0870       3.6790    -999.2500      68.1640      43.1320    -999.2500    -999.2500      70.9670      52.7570       0.4440    -999.2500    -999.2500       0.0016    -999.2500       0.3330       4.3710
   2765.1272      11.0860       3.7035    -999.2500      69.8571      43.0633    -999.2500    -999.2500      73.3424      55.6230       0.4385    -999.2500    -999.2500       0.0016    -999.2500       0.3430       4.3605
   2765.2795      11.0850       3.7280    -999.2500      71.5390      42.9950    -999.2500    -999.2500      75.7020      58.4700       0.4330    -999.2500    -999.2500       0.0016    -999.2500       0.3530       4.3500
   2765.4319      11.0860       3.7629    -999.2500      73.7444      42.8958    -999.2500    -999.2500      76.2118      59.5557       0.4500    -999.2500    -999.2500       0.0016    -999.2500       0.3665       4.3350
   2765.5842      11.0870       3.7980    -999.2500      75.9390      42.7970    -999.2500    -999.2500      76.7190      60.6360       0.4670    -999.2500    -999.2500       0.0016    -999.2500       0.3800       4.3200
   2765.7368      11.0865       3.8509    -999.2500      78.4671      42.6463    -999.2500    -999.2500      78.1909      62.0112       0.4520    -999.2500    -999.2500       0.0016    -999.2500       0.4010       4.2975
   2765.8892      11.0860       3.9040    -999.2500      80.9870      42.4960    -999.2500    -999.2500      79.6580      63.3820       0.4370    -999.2500    -999.2500       0.0016    -999.2500       0.4220       4.2750
   2766.0415      11.0855       4.0373    -999.2500      83.7514      42.2425    -999.2500    -999.2500      96.7136      81.3535       0.4485    -999.2500    -999.2500       0.0016    -999.2500       0.4735       4.2375
   2766.1938      11.0850       4.1710    -999.2500      86.5160      41.9890    -999.2500    -999.2500     113.7710      99.3270       0.4600    -999.2500    -999.2500       0.0016    -999.2500       0.5250       4.2000
   2766.3462      11.0865    -999.2500    -999.2500      87.4960    -999.2500    -999.2500    -999.2500     167.0647     144.4826       0.4740    -999.2500    -999.2500    -999.2500    -999.2500    -999.2500    -999.2500
   2766.4988      11.0880    -999.2500    -999.2500      88.4730    -999.2500    -999.2500    -999.2500     220.2000     189.5040       0.4880    -999.2500    -999.2500    -999.2500    -999.2500    -999.2500    -999.2500
   2766.6511      11.0870    -999.2500    -999.2500      87.4220    -999.2500    -999.2500    -999.2500     176.2847     156.2639       0.4795    -999.2500    -999.2500    -999.2500    -999.2500    -999.2500    -999.2500
   2766.8035      11.0860    -999.2500    -999.2500      86.3790    -999.2500    -999.2500    -999.2500     132.7040     123.2770       0.4710    -999.2500    -999.2500    -999.2500    -999.2500    -999.2500    -999.2500
   2766.9558      11.0845    -999.2500    -999.2500      83.6424    -999.2500    -999.2500    -999.2500     105.4190      94.9830       0.4585    -999.2500    -999.2500    -999.2500    -999.2500    -999.2500    -999.2500
