#------------------------------------------------------------------------------
#
#   Created by  : [OpenWorks] Log Export Utility (LEXP)
#   Created on  : 2016-05-18 13:31:07
#   Project     : CANT971
#   User        : R5K
#   Interpreter : PEP
#
#------------------------------------------------------------------------------
~VERSION INFORMATION
VERS. 2.0 : CWLS Log ASCII Standard - version 2.0
WRAP.  NO : One line per depth step
~WELL INFORMATION
#MNEMONIC   .UNIT                                           VALUE :DESCRIPTION
#------------------------------------------------------------------------------
STRT        .M                                           759.6955 :START DEPTH
STOP        .M                                          2930.7859 :STOP DEPTH
STEP        .M                                             0.1524 :STEP
NULL        .                                           -999.2500 :NULL VALUE
COMP        .                                   PEMEX EXPL & PROD :COMPANY
WELL        .                                                 28D :WELL
FLD         .                                           CANTARELL :FIELD
LOC         .                                             UNKNOWN :LOCATION
CNTY        .                                      CD. DEL CARMEN :COUNTY
STAT        .                                            CAMPECHE :STATE
CTRY        .                                              MEXICO :COUNTRY
SRVC        .                                             UNKNOWN :SERVICE COMPANY
DATE        .                                             UNKNOWN :LOG DATE
UWI         .                                          3060000678 :UNIQUE WELL ID
XCOORD      .                                       597312.300000 :SURFACE X
YCOORD      .                                      2143075.400000 :SURFACE Y
LAT         .                                           19.380613 :LATITUDE
LON         .                                          -92.073335 :LONGITUDE
ELEV        .M                                            27.7000 :SURFACE ELEV
ELEV_TYPE   .                                                  KB :ELEV TYPE
~CURVE INFORMATION
#MNEMONIC.UNIT        API CODE       : CURVE DESCRIPTION
#------------------------------------------------------------------------------
DEPTH    .M                          : Measured Depth
CALI     .inches      UNKNOWN        : CALI:Import:rC:NONE:v0 (auto-composite)
CGR      .API         UNKNOWN        : CGR:Import:rC:NONE:v0 (auto-composite)
DRHO     .g/cm3       UNKNOWN        : DRHO:Import:rC:NONE:v0 (auto-composite)
DT       .us/ft       UNKNOWN        : DT:Import:rC:NONE:v0 (auto-composite)
GR       .API         UNKNOWN        : GR:Import:rC:NONE:v0 (auto-composite)
ILD      .ohm.m       UNKNOWN        : ILD:Import:rC:NONE:v0 (auto-composite)
ILM      .ohm.m       UNKNOWN        : ILM:Import:rC:NONE:v0 (auto-composite)
LLD      .ohm.m       UNKNOWN        : LLD:Import:rC:NONE:v0 (auto-composite)
LLS      .ohm.m       UNKNOWN        : LLS:Import:rC:NONE:v0 (auto-composite)
MSFL     .ohm.m       UNKNOWN        : MSFL:Import:rC:NONE:v0 (auto-composite)
NPHI     .v/v_decimal UNKNOWN        : NPHI:Import:rC:NONE:v0 (auto-composite)
PEF      .b/elec      UNKNOWN        : PEF:Import:rC:NONE:v0 (auto-composite)
POTA     .wtpercent   UNKNOWN        : POTA:Import:rC:NONE:v0 (auto-composite)
RHOB     .g/cm3       UNKNOWN        : RHOB:Import:rC:NONE:v0 (auto-composite)
THOR     .ppm         UNKNOWN        : THOR:Import:rC:NONE:v0 (auto-composite)
URAN     .ppm         UNKNOWN        : URAN:Import:rC:NONE:v0 (auto-composite)
~A     DEPTH         CALI          CGR         DRHO           DT           GR          ILD          ILM          LLD          LLS         MSFL         NPHI          PEF         POTA         RHOB         THOR         URAN
# ...
   2564.1116      11.1310       2.2670       0.0250      62.7050      20.6890    -999.2500    -999.2500    1042.3140     122.9390       7.4060       0.0343       3.0430       0.0007       2.7520       0.6610       1.9770
   2564.2639      11.0017       2.5767       0.0260      63.3991      20.8769    -999.2500    -999.2500    1380.6823     162.6043       6.9094       0.0309       3.0360       0.0004       2.7420       0.7622       1.9960
   2564.4163      10.8730       2.8870       0.0270      64.0900      21.0640    -999.2500    -999.2500    1717.5190     202.0900       6.4150       0.0263       3.0290       0.0001       2.7320       0.8630       2.0150
   2564.5686      10.8635       2.3016       0.0305      64.2252      21.3699    -999.2500    -999.2500    1890.8367     221.2008       5.8888       0.0212       3.0115       0.0001       2.7565       0.6737       2.1432
   2564.7212      10.8540       1.7150       0.0340      64.3600      21.6750    -999.2500    -999.2500    2063.6680     240.2580       5.3640       0.0164       2.9940       0.0001       2.7810       0.4850       2.2710
   2564.8735      10.7697       1.8698       0.0375      64.4423      21.9666    -999.2500    -999.2500    1734.1073     209.6891       4.1469       0.0134       3.0648       0.0001       2.8031       0.5362       2.2359
   2565.0259      10.6860       2.0250       0.0410      64.5240      22.2560    -999.2500    -999.2500    1407.0129     179.3490       2.9390       0.0114       3.1350       0.0001       2.8250       0.5870       2.2010
   2565.1782      10.7026       2.3606       0.0420      64.1887      21.4744    -999.2500    -999.2500    1308.5741     170.0919       3.5281       0.0106       3.1335       0.0001       2.8315       0.6926       2.0970
   2565.3308      10.7190       2.6970       0.0430      63.8570      20.7010    -999.2500    -999.2500    1211.1689     160.9320       4.1110       0.0103       3.1320       0.0001       2.8380       0.7970       1.9940
   2565.4832      10.7315       2.6120       0.0460      63.7014      20.4652    -999.2500    -999.2500    1322.0477     182.5444       4.4583       0.0106       3.1812       0.0001       2.8355       0.7734       1.9769
   2565.6355      10.7440       2.5270       0.0490      63.5470      20.2310    -999.2500    -999.2500    1432.1270     204.0010       4.8030       0.0112       3.2300       0.0001       2.8330       0.7500       1.9600
   2565.7878      10.6783       2.2756       0.0445      62.3848      21.3917    -999.2500    -999.2500    1749.0702     245.8114       5.0828       0.0117       3.1759       0.0001       2.8245       0.6703       2.1169
   2565.9402      10.6130       2.0240       0.0400      61.2290      22.5460    -999.2500    -999.2500    2064.2720     287.3920       5.3610       0.0123       3.1220       0.0001       2.8160       0.5910       2.2730
   2566.0928      10.6836       2.1150       0.0410      60.6329      23.7533    -999.2500    -999.2500    2216.5488     306.4117       5.6263       0.0137       3.0970       0.0001       2.8115       0.6195       2.3906
   2566.2451      10.7540       2.2060       0.0420      60.0380      24.9580    -999.2500    -999.2500    2368.4939     325.3900       5.8910       0.0153       3.0720       0.0001       2.8070       0.6480       2.5080
   2566.3975      10.7735       2.5453       0.0440      60.5622      23.9321    -999.2500    -999.2500    2166.2634     309.2128       4.9191       0.0172       3.0845       0.0001       2.8045       0.7534       2.3661
   2566.5498      10.7930       2.8850       0.0460      61.0870      22.9050    -999.2500    -999.2500    1963.8010     293.0170       3.9460       0.0193       3.0970       0.0001       2.8020       0.8590       2.2240
   2566.7024      10.6838       2.6841       0.0480      59.9440      22.6746    -999.2500    -999.2500    1836.7694     275.1198       4.4965       0.0214       3.1225       0.0001       2.8070       0.7914       2.2025
   2566.8547      10.5750       2.4830       0.0500      58.8050      22.4450    -999.2500    -999.2500    1710.1870     257.2860       5.0450       0.0232       3.1480       0.0001       2.8120       0.7240       2.1810
   2567.0071      10.6609       2.2786       0.0470      57.3551      24.0546    -999.2500    -999.2500    1669.8365     259.6878       5.2714       0.0238       3.1902       0.0001       2.8040       0.6582       2.3964
   2567.1594      10.7460       2.0740       0.0440      55.9170      25.6510    -999.2500    -999.2500    1629.8160     262.0700       5.4960       0.0245       3.2320       0.0001       2.7960       0.5930       2.6100
   2567.3120      10.6934       1.7707       0.0410      57.3550      28.0804    -999.2500    -999.2500    1589.3832     264.2162       4.8319       0.0267       3.2024       0.0008       2.7820       0.3108       2.8481
   2567.4644      10.6410       1.4670       0.0380      58.7860      30.4980    -999.2500    -999.2500    1549.1470     266.3520       4.1710       0.0283       3.1730       0.0014       2.7680       0.0300       3.0850
   2567.6167      10.6025       3.1911       0.0365      59.5186      31.5108    -999.2500    -999.2500    1466.6675     272.6859       4.1059       0.0265       3.1875       0.0021       2.7710       0.0560       3.0640
   2567.7690      10.5640       4.9180       0.0350      60.2500      32.5220    -999.2500    -999.2500    1384.3160     279.0100       4.0410       0.0240       3.2020       0.0029       2.7740       0.0820       3.0430
   2567.9214      10.7044       2.8443       0.0385      59.8648      28.2286    -999.2500    -999.2500    1249.3745     271.8171       4.1789       0.0216       3.1915       0.0016       2.7830       0.1718       2.7245
   2568.0740      10.8440       0.7670       0.0420      59.4820      23.9620    -999.2500    -999.2500    1115.2740     264.6690       4.3160       0.0198       3.1810       0.0004       2.7920       0.2610       2.4080
   2568.2263      10.7389       2.3285       0.0390      59.0949      23.4155    -999.2500    -999.2500    1006.2118     246.3506       3.4619       0.0203       3.1951       0.0010       2.7885       0.3299       2.2537
   2568.3787      10.6350       3.8930       0.0360      58.7120      22.8750    -999.2500    -999.2500     898.3330     228.2310       2.6170       0.0213       3.2090       0.0016       2.7850       0.3980       2.1010
   2568.5310      10.5979       3.6338       0.0415      60.0696      22.5297    -999.2500    -999.2500     697.0574     191.6148       2.8815       0.0218       3.1949       0.0015       2.7860       0.3538       2.1161
   2568.6836      10.5610       3.3740       0.0470      61.4170      22.1870    -999.2500    -999.2500     497.3010     155.2750       3.1440       0.0219       3.1810       0.0014       2.7870       0.3100       2.1310
   2568.8359      10.6542       3.3181       0.0440      58.5394      22.0106    -999.2500    -999.2500     409.1629     126.1517       3.7192       0.0216       3.1559       0.0013       2.7815       0.3511       2.0939
   2568.9883      10.7470       3.2620       0.0410      55.6740      21.8350    -999.2500    -999.2500     321.3990      97.1520       4.2920       0.0209       3.1310       0.0013       2.7760       0.3920       2.0570
   2569.1406      10.6684       3.8453       0.0385      56.2542      23.4701    -999.2500    -999.2500     391.3788     129.5449       4.6590       0.0197       3.1711       0.0007       2.7815       0.6799       2.2382
   2569.2932      10.5900       4.4300       0.0360      56.8330      25.1010    -999.2500    -999.2500     461.1820     161.8560       5.0250       0.0181       3.2110       0.0002       2.7870       0.9670       2.4190
   2569.4456      10.6868       3.4689       0.0295      57.0919      25.9501    -999.2500    -999.2500     961.4055     294.9428       5.4059       0.0161       3.1678       0.0002       2.7900       0.8461       2.5520
   2569.5979      10.7830       2.5070       0.0230      57.3490      26.7930    -999.2500    -999.2500    1458.0260     427.0710       5.7840       0.0142       3.1250       0.0002       2.7930       0.7260       2.6840
