#------------------------------------------------------------------------------
#
#   Created by  : [OpenWorks] Log Export Utility (LEXP)
#   Created on  : 2016-05-18 13:31:07
#   Project     : CANT971
#   User        : R5K
#   Interpreter : PEP
#
#------------------------------------------------------------------------------
~VERSION INFORMATION
VERS. 2.0 : CWLS Log ASCII Standard - version 2.0
WRAP.  NO : One line per depth step
~WELL INFORMATION
#MNEMONIC   .UNIT                                           VALUE :DESCRIPTION
#------------------------------------------------------------------------------
STRT        .M                                           759.6955 :START DEPTH
STOP        .M                                          2930.7859 :STOP DEPTH
STEP        .M                                             0.1524 :STEP
NULL        .                                           -999.2500 :NULL VALUE
COMP        .                                   PEMEX EXPL & PROD :COMPANY
WELL        .                                                 28D :WELL
FLD         .                                           CANTARELL :FIELD
LOC         .                                             UNKNOWN :LOCATION
CNTY        .                                      CD. DEL CARMEN :COUNTY
STAT        .                                            CAMPECHE :STATE
CTRY        .                                              MEXICO :COUNTRY
SRVC        .                                             UNKNOWN :SERVICE COMPANY
DATE        .                                             UNKNOWN :LOG DATE
UWI         .                                          3060000678 :UNIQUE WELL ID
XCOORD      .                                       597312.300000 :SURFACE X
YCOORD      .                                      2143075.400000 :SURFACE Y
LAT         .                                           19.380613 :LATITUDE
LON         .                                          -92.073335 :LONGITUDE
ELEV        .M                                            27.7000 :SURFACE ELEV
ELEV_TYPE   .                                                  KB :ELEV TYPE
~CURVE INFORMATION
#MNEMONIC.UNIT        API CODE       : CURVE DESCRIPTION
#------------------------------------------------------------------------------
DEPTH    .M                          : Measured Depth
CALI     .inches      UNKNOWN        : CALI:Import:rC:NONE:v0 (auto-composite)
CGR      .API         UNKNOWN        : CGR:Import:rC:NONE:v0 (auto-composite)
DRHO     .g/cm3       UNKNOWN        : DRHO:Import:rC:NONE:v0 (auto-composite)
DT       .us/ft       UNKNOWN        : DT:Import:rC:NONE:v0 (auto-composite)
GR       .API         UNKNOWN        : GR:Import:rC:NONE:v0 (auto-composite)
ILD      .ohm.m       UNKNOWN        : ILD:Import:rC:NONE:v0 (auto-composite)
ILM      .ohm.m       UNKNOWN        : ILM:Import:rC:NONE:v0 (auto-composite)
LLD      .ohm.m       UNKNOWN        : LLD:Import:rC:NONE:v0 (auto-composite)
LLS      .ohm.m       UNKNOWN        : LLS:Import:rC:NONE:v0 (auto-composite)
MSFL     .ohm.m       UNKNOWN        : MSFL:Import:rC:NONE:v0 (auto-composite)
NPHI     .v/v_decimal UNKNOWN        : NPHI:Import:rC:NONE:v0 (auto-composite)
PEF      .b/elec      UNKNOWN        : PEF:Import:rC:NONE:v0 (auto-composite)
POTA     .wtpercent   UNKNOWN        : POTA:Import:rC:NONE:v0 (auto-composite)
RHOB     .g/cm3       UNKNOWN        : RHOB:Import:rC:NONE:v0 (auto-composite)
THOR     .ppm         UNKNOWN        : THOR:Import:rC:NONE:v0 (auto-composite)
URAN     .ppm         UNKNOWN        : URAN:Import:rC:NONE:v0 (auto-composite)
~A     DEPTH         CALI          CGR         DRHO           DT           GR          ILD          ILM          LLD          LLS         MSFL         NPHI          PEF         POTA         RHOB         THOR         URAN
# ...
   2924.9946       9.0402    -999.2500       0.2290    -999.2500      17.1210    -999.2500    -999.2500    3012.0312     582.2554     338.2079       0.0208       3.0720    -999.2500       2.5320    -999.2500    -999.2500
   2925.1472       9.0567    -999.2500       0.2290    -999.2500      17.1210    -999.2500    -999.2500    2564.8569     625.4437     294.7561       0.0206       3.0720    -999.2500       2.5320    -999.2500    -999.2500
   2925.2996       9.0687    -999.2500       0.2290    -999.2500      17.1210    -999.2500    -999.2500    2056.4902     597.7237     234.6145       0.0205       3.0720    -999.2500       2.5320    -999.2500    -999.2500
   2925.4519       9.0677    -999.2500       0.2290    -999.2500      17.1210    -999.2500    -999.2500    1367.1477     360.2930     125.1130       0.0206       3.0720    -999.2500       2.5320    -999.2500    -999.2500
   2925.6042       9.0674    -999.2500       0.2290    -999.2500      17.1210    -999.2500    -999.2500     812.5782     173.1089      40.5771       0.0206       3.0720    -999.2500       2.5320    -999.2500    -999.2500
   2925.7566       9.0689    -999.2500       0.2290    -999.2500      17.1210    -999.2500    -999.2500     645.1467     130.2593      27.7554       0.0205       3.0720    -999.2500       2.5320    -999.2500    -999.2500
   2925.9092       9.0682    -999.2500       0.2290    -999.2500      17.1210    -999.2500    -999.2500     495.8088      93.7547      27.2207       0.0206       3.0720    -999.2500       2.5320    -999.2500    -999.2500
   2926.0615       9.0612    -999.2500       0.2290    -999.2500      17.1210    -999.2500    -999.2500     399.1210      75.7135      62.4395       0.0206       3.0720    -999.2500       2.5320    -999.2500    -999.2500
   2926.2139       9.0537    -999.2500       0.2290    -999.2500      17.1210    -999.2500    -999.2500     320.3985      60.4843      79.9319       0.0207       3.0720    -999.2500       2.5320    -999.2500    -999.2500
   2926.3662       9.0447    -999.2500       0.2290    -999.2500      17.1210    -999.2500    -999.2500     294.1904      53.4748      45.6082       0.0207       3.0720    -999.2500       2.5320    -999.2500    -999.2500
   2926.5188       9.0374    -999.2500       0.2290    -999.2500      17.1210    -999.2500    -999.2500     307.7727      55.8974      25.5447       0.0208       3.0720    -999.2500       2.5320    -999.2500    -999.2500
   2926.6711       9.0349    -999.2500       0.2290    -999.2500      17.1210    -999.2500    -999.2500     438.1979      86.0169      47.3553       0.0208       3.0720    -999.2500       2.5320    -999.2500    -999.2500
   2926.8235       9.0338    -999.2500       0.2290    -999.2500      17.1210    -999.2500    -999.2500     575.7505     113.8467      68.7178       0.0208       3.0720    -999.2500       2.5320    -999.2500    -999.2500
   2926.9758       9.0368    -999.2500       0.2290    -999.2500      17.1210    -999.2500    -999.2500     734.3279     134.9223      88.7586       0.0208       3.0720    -999.2500       2.5320    -999.2500    -999.2500
   2927.1282       9.0393    -999.2500       0.2290    -999.2500      17.1210    -999.2500    -999.2500     853.7765     150.7888      93.7421       0.0208       3.0720    -999.2500       2.5320    -999.2500    -999.2500
   2927.2808       9.0403    -999.2500       0.2290    -999.2500      17.1210    -999.2500    -999.2500     856.2794     151.0871      53.7237       0.0208       3.0720    -999.2500       2.5320    -999.2500    -999.2500
   2927.4331       9.0401    -999.2500       0.2290    -999.2500      17.1210    -999.2500    -999.2500     858.1410     151.3090      21.6910       0.0208       3.0720    -999.2500       2.5320    -999.2500    -999.2500
   2927.5854       9.0366    -999.2500       0.2290    -999.2500      17.1210    -999.2500    -999.2500     858.1410     151.3090      12.8363       0.0208       3.0720    -999.2500       2.5320    -999.2500    -999.2500
   2927.7378       9.0299    -999.2500       0.2290    -999.2500      17.1210    -999.2500    -999.2500     858.1410     151.3090       7.6126       0.0209       3.0720    -999.2500       2.5320    -999.2500    -999.2500
   2927.8904       9.0139    -999.2500       0.2290    -999.2500      17.1210    -999.2500    -999.2500     858.1410     151.3090      12.9752       0.0210       3.0720    -999.2500       2.5320    -999.2500    -999.2500
   2928.0427       8.9996    -999.2500       0.2290    -999.2500      17.1210    -999.2500    -999.2500     858.1410     151.3090      19.4340       0.0211       3.0720    -999.2500       2.5320    -999.2500    -999.2500
   2928.1951       8.9901    -999.2500       0.2290    -999.2500      17.1210    -999.2500    -999.2500     858.1410     151.3090      29.1031       0.0212       3.0720    -999.2500       2.5320    -999.2500    -999.2500
   2928.3474       8.9836    -999.2500       0.2290    -999.2500      17.1210    -999.2500    -999.2500     858.1410     151.3090      40.9983       0.0212       3.0720    -999.2500       2.5320    -999.2500    -999.2500
   2928.5000       8.9861    -999.2500       0.2290    -999.2500      17.1210    -999.2500    -999.2500     858.1410     151.3090      59.4993       0.0212       3.0720    -999.2500       2.5320    -999.2500    -999.2500
   2928.6523       8.9918    -999.2500       0.2290    -999.2500      17.1210    -999.2500    -999.2500     858.1410     151.3090      79.8217       0.0211       3.0720    -999.2500       2.5320    -999.2500    -999.2500
   2928.8047       9.0068    -999.2500       0.2290    -999.2500      17.1210    -999.2500    -999.2500     858.1410     151.3090     105.5736       0.0210       3.0720    -999.2500       2.5320    -999.2500    -999.2500
   2928.9570       9.0358    -999.2500       0.2290    -999.2500      17.1210    -999.2500    -999.2500     858.1410     151.3090     118.4546       0.0207       3.0720    -999.2500       2.5321    -999.2500    -999.2500
   2929.1094       9.1053    -999.2500       0.2290    -999.2500      17.1210    -999.2500    -999.2500     858.1410     151.3090      94.0741       0.0202       3.0720    -999.2500       2.5326    -999.2500    -999.2500
   2929.2620       9.2011    -999.2500       0.2290    -999.2500      17.1210    -999.2500    -999.2500     858.1410     151.3090      72.9252       0.0194       3.0720    -999.2500       2.5331    -999.2500    -999.2500
   2929.4143       9.3734    -999.2500       0.2290    -999.2500      17.1210    -999.2500    -999.2500     858.1410     151.3090      61.1742       0.0182       3.0720    -999.2500       2.5336    -999.2500    -999.2500
   2929.5667       9.5923    -999.2500       0.2290    -999.2500      17.1210    -999.2500    -999.2500     858.1410     151.3090      47.8610       0.0167       3.0720    -999.2500       2.5343    -999.2500    -999.2500
   2929.7190       9.9486    -999.2500       0.2290    -999.2500      17.1210    -999.2500    -999.2500     858.1410     151.3090      29.9452       0.0147       3.0720    -999.2500       2.5353    -999.2500    -999.2500
   2929.8716      10.4571    -999.2500       0.2290    -999.2500      17.1210    -999.2500    -999.2500     858.1410     151.3090      14.8647       0.0118       3.0720    -999.2500       2.5365    -999.2500    -999.2500
   2930.0239      11.4158    -999.2500       0.2290    -999.2500      17.1210    -999.2500    -999.2500     858.1410     151.3090       8.1757       0.0078       3.0720    -999.2500       2.5385    -999.2500    -999.2500
   2930.1763      12.2098    -999.2500       0.2290    -999.2500      17.1210    -999.2500    -999.2500     858.1410     151.3090       3.0903       0.0044       3.0720    -999.2500       2.5401    -999.2500    -999.2500
   2930.3286      12.5307    -999.2500       0.2290    -999.2500      17.1210    -999.2500    -999.2500     858.1410     151.3090       2.6150       0.0032       3.0720    -999.2500       2.5406    -999.2500    -999.2500
   2930.4812      12.3233    -999.2500       0.2290    -999.2500      17.1210    -999.2500    -999.2500     858.1410     151.3090       5.2321       0.0056       3.0720    -999.2500       2.5401    -999.2500    -999.2500
