#------------------------------------------------------------------------------
#
#   Created by  : [OpenWorks] Log Export Utility (LEXP)
#   Created on  : 2016-05-18 13:31:07
#   Project     : CANT971
#   User        : R5K
#   Interpreter : PEP
#
#------------------------------------------------------------------------------
~VERSION INFORMATION
VERS. 2.0 : CWLS Log ASCII Standard - version 2.0
WRAP.  NO : One line per depth step
~WELL INFORMATION
#MNEMONIC   .UNIT                                           VALUE :DESCRIPTION
#------------------------------------------------------------------------------
STRT        .M                                           759.6955 :START DEPTH
STOP        .M                                          2930.7859 :STOP DEPTH
STEP        .M                                             0.1524 :STEP
NULL        .                                           -999.2500 :NULL VALUE
COMP        .                                   PEMEX EXPL & PROD :COMPANY
WELL        .                                                 28D :WELL
FLD         .                                           CANTARELL :FIELD
LOC         .                                             UNKNOWN :LOCATION
CNTY        .                                      CD. DEL CARMEN :COUNTY
STAT        .                                            CAMPECHE :STATE
CTRY        .                                              MEXICO :COUNTRY
SRVC        .                                             UNKNOWN :SERVICE COMPANY
DATE        .                                             UNKNOWN :LOG DATE
UWI         .                                          3060000678 :UNIQUE WELL ID
XCOORD      .                                       597312.300000 :SURFACE X
YCOORD      .                                      2143075.400000 :SURFACE Y
LAT         .                                           19.380613 :LATITUDE
LON         .                                          -92.073335 :LONGITUDE
ELEV        .M                                            27.7000 :SURFACE ELEV
ELEV_TYPE   .                                                  KB :ELEV TYPE
~CURVE INFORMATION
#MNEMONIC.UNIT        API CODE       : CURVE DESCRIPTION
#------------------------------------------------------------------------------
DEPTH    .M                          : Measured Depth
CALI     .inches      UNKNOWN        : CALI:Import:rC:NONE:v0 (auto-composite)
CGR      .API         UNKNOWN        : CGR:Import:rC:NONE:v0 (auto-composite)
DRHO     .g/cm3       UNKNOWN        : DRHO:Import:rC:NONE:v0 (auto-composite)
DT       .us/ft       UNKNOWN        : DT:Import:rC:NONE:v0 (auto-composite)
GR       .API         UNKNOWN        : GR:Import:rC:NONE:v0 (auto-composite)
ILD      .ohm.m       UNKNOWN        : ILD:Import:rC:NONE:v0 (auto-composite)
ILM      .ohm.m       UNKNOWN        : ILM:Import:rC:NONE:v0 (auto-composite)
LLD      .ohm.m       UNKNOWN        : LLD:Import:rC:NONE:v0 (auto-composite)
LLS      .ohm.m       UNKNOWN        : LLS:Import:rC:NONE:v0 (auto-composite)
MSFL     .ohm.m       UNKNOWN        : MSFL:Import:rC:NONE:v0 (auto-composite)
NPHI     .v/v_decimal UNKNOWN        : NPHI:Import:rC:NONE:v0 (auto-composite)
PEF      .b/elec      UNKNOWN        : PEF:Import:rC:NONE:v0 (auto-composite)
POTA     .wtpercent   UNKNOWN        : POTA:Import:rC:NONE:v0 (auto-composite)
RHOB     .g/cm3       UNKNOWN        : RHOB:Import:rC:NONE:v0 (auto-composite)
THOR     .ppm         UNKNOWN        : THOR:Import:rC:NONE:v0 (auto-composite)
URAN     .ppm         UNKNOWN        : URAN:Import:rC:NONE:v0 (auto-composite)
~A     DEPTH         CALI          CGR         DRHO           DT           GR          ILD          ILM          LLD          LLS         MSFL         NPHI          PEF         POTA         RHOB         THOR         URAN
# ...
   2721.9978      11.4400       3.7200       0.0310      59.1400      12.0790    -999.2500    -999.2500    1019.8060     418.5550       1.5420       0.0824       3.1920       0.0009       2.6780       0.7230       0.9260
   2722.1504      11.4390       3.0180       0.0385      57.3132      21.5559    -999.2500    -999.2500    1053.5045     425.6787       1.4779       0.0792       3.2035       0.0005       2.6915       0.7275       2.0540
   2722.3027      11.4380       2.3140       0.0460      55.4930      30.9990    -999.2500    -999.2500    1087.0830     432.7770       1.4140       0.0716       3.2150       0.0001       2.7050       0.7320       3.1780
   2722.4551      11.4375       1.4143       0.0445      53.5129      41.3766    -999.2500    -999.2500    1108.0525     426.6057       1.3799       0.0624       3.2321       0.0002       2.7176       0.3951       4.4276
   2722.6074      11.4370       0.5120       0.0430      51.5490      51.6690    -999.2500    -999.2500    1128.8500     420.4850       1.3460       0.0529       3.2490       0.0002       2.7300       0.0610       5.6670
   2722.7600      11.4385       0.5245       0.0380      50.4914      45.4393    -999.2500    -999.2500    1106.4192     426.7924       1.3320       0.0441       3.2420       0.0002       2.7380       0.0635       4.9758
   2722.9124      11.4400       0.5370       0.0330      49.4390      39.2400    -999.2500    -999.2500    1084.0980     433.0690       1.3180       0.0374       3.2350       0.0002       2.7460       0.0660       4.2880
   2723.0647      11.4385       2.6858       0.0365      51.1208      31.2662    -999.2500    -999.2500    1159.0386     453.1909       1.0953       0.0343       3.2415       0.0006       2.7605       0.5469       3.1661
   2723.2170      11.4370       4.8380       0.0400      52.8000      23.3050    -999.2500    -999.2500    1233.8610     473.2810       0.8730       0.0350       3.2480       0.0011       2.7750       1.0270       2.0460
   2723.3694      11.4375       6.2508       0.0385      55.7141      27.8116    -999.2500    -999.2500    1436.0773     551.9557       0.9417       0.0399       3.2314       0.0016       2.7675       1.2071       2.4046
   2723.5220      11.4380       7.6660       0.0370      58.6100      32.2900    -999.2500    -999.2500    1637.0280     630.1380       1.0100       0.0458       3.2150       0.0021       2.7600       1.3860       2.7610
   2723.6743      11.4395       4.4775       0.0415      58.1183      35.5517    -999.2500    -999.2500    1751.8459     650.8738       1.0935       0.0494       3.2416       0.0011       2.7570       0.8481       3.4613
   2723.8267      11.4410       1.2830       0.0460      57.6320      38.7780    -999.2500    -999.2500    1865.4150     671.3840       1.1760       0.0521       3.2680       0.0002       2.7540       0.3160       4.1540
   2723.9790      11.4390       1.0278       0.0400      56.5875      41.0742    -999.2500    -999.2500    1609.9171     639.5515       1.4119       0.0552       3.2349       0.0002       2.7384       0.2292       4.3989
   2724.1316      11.4370       0.7720       0.0340      55.5510      43.3530    -999.2500    -999.2500    1356.3540     607.9600       1.6460       0.0579       3.2020       0.0002       2.7230       0.1430       4.6420
   2724.2839      11.4390       2.2185       0.0310      56.6002      44.3406    -999.2500    -999.2500     955.3307     461.9522       1.7818       0.0594       3.2356       0.0002       2.7180       0.6120       4.5623
   2724.4363      11.4410       3.6680       0.0280      57.6450      45.3240    -999.2500    -999.2500     556.0200     316.5680       1.9170       0.0595       3.2690       0.0002       2.7130       1.0790       4.4830
   2724.5886      11.4395       3.0572       0.0370      60.1988      56.4437    -999.2500    -999.2500     458.6163     257.9473       1.3673       0.0581       3.2555       0.0002       2.7205       0.8677       5.8487
   2724.7412      11.4380       2.4450       0.0460      62.7460      67.5350    -999.2500    -999.2500     361.4610     199.4760       0.8190       0.0579       3.2420       0.0002       2.7280       0.6570       7.2110
   2724.8936      11.4395       1.5885       0.0575      64.4677      86.9040    -999.2500    -999.2500     399.1071     223.9053       0.7131       0.0618       3.2671       0.0003       2.7220       0.3695       9.4501
   2725.0459      11.4410       0.7300       0.0690      66.1770     106.1330    -999.2500    -999.2500     436.4810     248.1580       0.6080       0.0672       3.2920       0.0003       2.7160       0.0840      11.6730
   2725.1982      11.4395       0.6801       0.0775      65.1331      86.1124    -999.2500    -999.2500     499.6351     280.8927       0.4326       0.0717       3.3136       0.0003       2.6924       0.0860       9.4622
   2725.3506      11.4380       0.6300       0.0860      64.1000      66.2970    -999.2500    -999.2500     562.1420     313.2920       0.2590       0.0739       3.3350       0.0002       2.6690       0.0880       7.2740
   2725.5032      11.4395       0.5107       0.0810      63.6509      44.4430    -999.2500    -999.2500     550.7469     311.0196       0.2575       0.0725       3.3295       0.0002       2.6911       0.0704       4.8300
   2725.6555      11.4410       0.3910       0.0760      63.2050      22.7410    -999.2500    -999.2500     539.4310     308.7630       0.2560       0.0687       3.3240       0.0001       2.7130       0.0530       2.4030
   2725.8079      11.4706       1.3122       0.0865      65.5542      18.2979    -999.2500    -999.2500     535.3739     303.3904       0.3076       0.0635       3.3420       0.0001       2.7541       0.3578       1.8566
   2725.9602      11.5000       2.2360       0.0970      67.8910      13.8780    -999.2500    -999.2500     531.3380     298.0460       0.3590       0.0599       3.3600       0.0001       2.7950       0.6610       1.3130
   2726.1128      11.6307       1.9859       0.0840      66.3403      13.1587    -999.2500    -999.2500     518.1884     278.7505       0.4281       0.0608       3.3054       0.0001       2.7735       0.5799       1.2464
   2726.2651      11.7610       1.7350       0.0710      64.7950      12.4420    -999.2500    -999.2500     505.0850     259.5230       0.4970       0.0638       3.2510       0.0001       2.7520       0.4990       1.1800
   2726.4175      11.9390       1.6371       0.0670      61.5477      12.5800    -999.2500    -999.2500     527.6597     265.9066       0.5445       0.0664       3.2405       0.0001       2.7385       0.4665       1.2090
   2726.5698      12.1170       1.5390       0.0630      58.3010      12.7180    -999.2500    -999.2500     550.2300     272.2890       0.5920       0.0666       3.2300       0.0001       2.7250       0.4340       1.2380
   2726.7224      12.2432       3.7583       0.0525      56.8351      13.4081    -999.2500    -999.2500     629.8290     298.2130       0.5189       0.0619       3.2570       0.0011       2.7320       0.6494       1.0657
   2726.8748      12.3690       5.9810       0.0420      55.3740      14.0960    -999.2500    -999.2500     709.1670     324.0520       0.4460       0.0556       3.2840       0.0020       2.7390       0.8640       0.8940
   2727.0271      12.4262       6.1244       0.0380      55.0828      14.1763    -999.2500    -999.2500     861.0652     358.8594       0.4335       0.0513       3.3086       0.0019       2.7626       0.9358       0.8905
   2727.1794      12.4830       6.2680       0.0340      54.7940      14.2560    -999.2500    -999.2500    1011.7600     393.3910       0.4210       0.0518       3.3330       0.0019       2.7860       1.0070       0.8870
   2727.3318      12.2292       5.1975       0.0390      56.3127      12.8702    -999.2500    -999.2500    1371.8998     447.5977       0.4461       0.0600       3.3616       0.0013       2.7559       1.0878       0.8098
   2727.4844      11.9770       4.1250       0.0440      57.8220      11.4930    -999.2500    -999.2500    1729.8040     501.4680       0.4710       0.0716       3.3900       0.0008       2.7260       1.1680       0.7330
