#------------------------------------------------------------------------------
#
#   Created by  : [OpenWorks] Log Export Utility (LEXP)
#   Created on  : 2016-05-18 13:31:07
#   Project     : CANT971
#   User        : R5K
#   Interpreter : PEP
#
#------------------------------------------------------------------------------
~VERSION INFORMATION
VERS. 2.0 : CWLS Log ASCII Standard - version 2.0
WRAP.  NO : One line per depth step
~WELL INFORMATION
#MNEMONIC   .UNIT                                           VALUE :DESCRIPTION
#------------------------------------------------------------------------------
STRT        .M                                           759.6955 :START DEPTH
STOP        .M                                          2930.7859 :STOP DEPTH
STEP        .M                                             0.1524 :STEP
NULL        .                                           -999.2500 :NULL VALUE
COMP        .                                   PEMEX EXPL & PROD :COMPANY
WELL        .                                                 28D :WELL
FLD         .                                           CANTARELL :FIELD
LOC         .                                             UNKNOWN :LOCATION
CNTY        .                                      CD. DEL CARMEN :COUNTY
STAT        .                                            CAMPECHE :STATE
CTRY        .                                              MEXICO :COUNTRY
SRVC        .                                             UNKNOWN :SERVICE COMPANY
DATE        .                                             UNKNOWN :LOG DATE
UWI         .                                          3060000678 :UNIQUE WELL ID
XCOORD      .                                       597312.300000 :SURFACE X
YCOORD      .                                      2143075.400000 :SURFACE Y
LAT         .                                           19.380613 :LATITUDE
LON         .                                          -92.073335 :LONGITUDE
ELEV        .M                                            27.7000 :SURFACE ELEV
ELEV_TYPE   .                                                  KB :ELEV TYPE
~CURVE INFORMATION
#MNEMONIC.UNIT        API CODE       : CURVE DESCRIPTION
#------------------------------------------------------------------------------
DEPTH    .M                          : Measured Depth
CALI     .inches      UNKNOWN        : CALI:Import:rC:NONE:v0 (auto-composite)
CGR      .API         UNKNOWN        : CGR:Import:rC:NONE:v0 (auto-composite)
DRHO     .g/cm3       UNKNOWN        : DRHO:Import:rC:NONE:v0 (auto-composite)
DT       .us/ft       UNKNOWN        : DT:Import:rC:NONE:v0 (auto-composite)
GR       .API         UNKNOWN        : GR:Import:rC:NONE:v0 (auto-composite)
ILD      .ohm.m       UNKNOWN        : ILD:Import:rC:NONE:v0 (auto-composite)
ILM      .ohm.m       UNKNOWN        : ILM:Import:rC:NONE:v0 (auto-composite)
LLD      .ohm.m       UNKNOWN        : LLD:Import:rC:NONE:v0 (auto-composite)
LLS      .ohm.m       UNKNOWN        : LLS:Import:rC:NONE:v0 (auto-composite)
MSFL     .ohm.m       UNKNOWN        : MSFL:Import:rC:NONE:v0 (auto-composite)
NPHI     .v/v_decimal UNKNOWN        : NPHI:Import:rC:NONE:v0 (auto-composite)
PEF      .b/elec      UNKNOWN        : PEF:Import:rC:NONE:v0 (auto-composite)
POTA     .wtpercent   UNKNOWN        : POTA:Import:rC:NONE:v0 (auto-composite)
RHOB     .g/cm3       UNKNOWN        : RHOB:Import:rC:NONE:v0 (auto-composite)
THOR     .ppm         UNKNOWN        : THOR:Import:rC:NONE:v0 (auto-composite)
URAN     .ppm         UNKNOWN        : URAN:Import:rC:NONE:v0 (auto-composite)
~A     DEPTH         CALI          CGR         DRHO           DT           GR          ILD          ILM          LLD          LLS         MSFL         NPHI          PEF         POTA         RHOB         THOR         URAN
# ...
   2451.3354      12.0020       1.7120       0.0760      68.7420      44.3950    -999.2500    -999.2500     696.8680     104.5990       4.6470       0.0929       3.4330       0.0002       2.7030       0.4490       4.7280
   2451.4878      12.2136       3.0238       0.0529      67.9420      46.9413    -999.2500    -999.2500     688.8233     103.4751       5.2714       0.0871       3.3392       0.0008       2.7140       0.5654       4.8785
   2451.6404      12.4240       4.3360       0.0300      67.1470      49.4720    -999.2500    -999.2500     680.8280     102.3580       5.8920       0.0792       3.2460       0.0014       2.7250       0.6810       5.0280
   2451.7927      12.2543       6.8555       0.0260      65.5993      51.8318    -999.2500    -999.2500     783.8260     111.6646       7.2780       0.0720       3.1824       0.0029       2.7000       0.7251       4.9143
   2451.9451      12.0850       9.3760       0.0220      64.0560      54.1850    -999.2500    -999.2500     886.5340     120.9450       8.6600       0.0690       3.1190       0.0044       2.6750       0.7690       4.8010
   2452.0974      11.9705       6.6827       0.0075      62.8208      45.3607    -999.2500    -999.2500     987.8189     127.7308       5.9362       0.0776       3.1085       0.0033       2.6305       0.4186       4.1272
   2452.2500      11.8560       3.9880      -0.0070      61.5850      36.5320    -999.2500    -999.2500    1089.1550     134.5200       3.2110       0.0860       3.0980       0.0023       2.5860       0.0680       3.4530
   2452.4023      12.0674       2.2386      -0.0045      61.0689      34.9497    -999.2500    -999.2500    1149.6128     136.1198       2.7165       0.0820       3.1316       0.0012       2.5800       0.0655       3.5542
   2452.5547      12.2780       0.4880      -0.0020      60.5550      33.3740    -999.2500    -999.2500    1209.8180     137.7130       2.2240       0.0734       3.1650       0.0002       2.5740       0.0630       3.6550
   2452.7070      12.4005       0.9153      -0.0005      63.5417      34.6511    -999.2500    -999.2500    1252.4302     139.6380       4.7004       0.0632       3.1992       0.0002       2.6036       0.1966       3.7439
   2452.8594      12.5220       1.3430       0.0010      66.5020      35.9170    -999.2500    -999.2500    1294.6670     141.5460       7.1550       0.0543       3.2330       0.0002       2.6330       0.3290       3.8320
   2453.0120      12.6880       1.1506       0.0216      65.0455      36.3472    -999.2500    -999.2500    1254.4053     133.2427       8.6832       0.0510       3.2155       0.0002       2.6706       0.2493       3.8977
   2453.1643      12.8530       0.9580       0.0420      63.5970      36.7750    -999.2500    -999.2500    1214.3650     124.9850      10.2030       0.0513       3.1980       0.0001       2.7080       0.1700       3.9630
   2453.3167      13.0042       0.9250       0.0370      63.1245      38.8207    -999.2500    -999.2500    1166.0125     122.8902       9.6018       0.0564       3.1750       0.0002       2.7040       0.1525       4.1477
   2453.4690      13.1550       0.8920       0.0320      62.6530      40.8620    -999.2500    -999.2500    1117.7660     120.8000       9.0020       0.0625       3.1520       0.0003       2.7000       0.1350       4.3320
   2453.6216      12.9016       1.7585       0.0370      61.9536      40.1405    -999.2500    -999.2500    1107.3170     118.4585       6.8476       0.0663       3.1334       0.0002       2.6940       0.4215       4.2372
   2453.7739      12.6500       2.6260       0.0420      61.2590      39.4240    -999.2500    -999.2500    1096.9399     116.1330       4.7080       0.0693       3.1150       0.0001       2.6880       0.7060       4.1430
   2453.9263      12.5223       3.1232       0.0601      60.2824      36.6088    -999.2500    -999.2500    1104.0005     112.6626       3.7158       0.0717       3.0868       0.0002       2.7106       0.8850       3.7422
   2454.0786      12.3960       3.6210       0.0780      59.3170      33.8260    -999.2500    -999.2500    1110.9800     109.2320       2.7350       0.0759       3.0590       0.0002       2.7330       1.0620       3.3460
   2454.2312      12.6335       4.0437       0.0976      60.2197      31.4769    -999.2500    -999.2500    1032.1023     107.7896       3.7732       0.0858       3.0997       0.0002       2.7410       1.1699       3.0387
   2454.3835      12.8690       4.4670       0.1170      61.1150      29.1470    -999.2500    -999.2500     953.8700     106.3590       4.8030       0.0988       3.1400       0.0002       2.7490       1.2770       2.7340
   2454.5359      12.9246       4.6918       0.1295      61.4002      29.0788    -999.2500    -999.2500     829.3405     100.8566       3.8261       0.1146       3.2357       0.0004       2.7124       1.3081       2.7039
   2454.6882      12.9800       4.9170       0.1420      61.6840      29.0110    -999.2500    -999.2500     705.4190      95.3810       2.8540       0.1344       3.3310       0.0006       2.6760       1.3390       2.6740
   2454.8406      13.0812       5.0944       0.1150      62.2499      28.9629    -999.2500    -999.2500     670.6330      93.4069       1.7082       0.1620       3.3530       0.0005       2.6294       1.3906       2.6465
   2454.9932      13.1820       5.2720       0.0880      62.8140      28.9150    -999.2500    -999.2500     635.9570      91.4390       0.5660       0.1802       3.3750       0.0004       2.5830       1.4420       2.6190
   2455.1455      13.3720       4.4491       0.0730      61.7031      26.6572    -999.2500    -999.2500     646.4622      97.5475       1.2934       0.1646       3.3690       0.0009       2.6150       1.0900       2.3645
   2455.2979      13.5620       3.6260       0.0580      60.5920      24.3990    -999.2500    -999.2500     656.9690     103.6570       2.0210       0.1406       3.3630       0.0014       2.6470       0.7380       2.1100
   2455.4502      13.5184       3.1716       0.0790      60.3136      23.6244    -999.2500    -999.2500     607.9784      99.9230       2.4922       0.1275       3.4526       0.0008       2.6986       0.8011       2.2417
   2455.6028      13.4750       2.7170       0.1000      60.0360      22.8520    -999.2500    -999.2500     559.1310      96.2000       2.9620       0.1224       3.5420       0.0001       2.7500       0.8640       2.3730
   2455.7551      13.4529       2.7665       0.0709      60.5655      23.7755    -999.2500    -999.2500     608.6227     100.7096       2.1288       0.1287       3.4522       0.0002       2.7159       0.8289       2.4021
   2455.9075      13.4310       2.8160       0.0420      61.0910      24.6920    -999.2500    -999.2500     657.7400     105.1850       1.3020       0.1318       3.3630       0.0002       2.6820       0.7940       2.4310
   2456.0598      13.4200       2.3681       0.0435      60.7565      24.0130    -999.2500    -999.2500     856.7938     118.6960       1.4178       0.1151       3.3525       0.0002       2.7041       0.6626       2.3909
   2456.2124      13.4090       1.9200       0.0450      60.4240      23.3380    -999.2500    -999.2500    1054.6830     132.1280       1.5330       0.0951       3.3420       0.0002       2.7260       0.5320       2.3510
   2456.3647      13.2793       1.8835       0.0360      61.1369      23.1593    -999.2500    -999.2500    1338.3065     150.1263       1.4669       0.0857       3.2909       0.0002       2.7330       0.5215       2.3635
   2456.5171      13.1500       1.8470       0.0270      61.8480      22.9810    -999.2500    -999.2500    1621.2111     168.0790       1.4010       0.0808       3.2400       0.0002       2.7400       0.5110       2.3760
   2456.6694      13.1660       1.6321       0.0325      62.5762      26.9814    -999.2500    -999.2500    1950.4014     187.1555       2.7590       0.0781       3.2435       0.0001       2.7480       0.4410       2.8233
   2456.8218      13.1820       1.4170       0.0380      63.3050      30.9850    -999.2500    -999.2500    2279.8511     206.2470       4.1180       0.0775       3.2470       0.0001       2.7560       0.3710       3.2710
