#------------------------------------------------------------------------------
#
#   Created by  : [OpenWorks] Log Export Utility (LEXP)
#   Created on  : 2016-05-18 13:31:07
#   Project     : CANT971
#   User        : R5K
#   Interpreter : PEP
#
#------------------------------------------------------------------------------
~VERSION INFORMATION
VERS. 2.0 : CWLS Log ASCII Standard - version 2.0
WRAP.  NO : One line per depth step
~WELL INFORMATION
#MNEMONIC   .UNIT                                           VALUE :DESCRIPTION
#------------------------------------------------------------------------------
STRT        .M                                           759.6955 :START DEPTH
STOP        .M                                          2930.7859 :STOP DEPTH
STEP        .M                                             0.1524 :STEP
NULL        .                                           -999.2500 :NULL VALUE
COMP        .                                   PEMEX EXPL & PROD :COMPANY
WELL        .                                                 28D :WELL
FLD         .                                           CANTARELL :FIELD
LOC         .                                             UNKNOWN :LOCATION
CNTY        .                                      CD. DEL CARMEN :COUNTY
STAT        .                                            CAMPECHE :STATE
CTRY        .                                              MEXICO :COUNTRY
SRVC        .                                             UNKNOWN :SERVICE COMPANY
DATE        .                                             UNKNOWN :LOG DATE
UWI         .                                          3060000678 :UNIQUE WELL ID
XCOORD      .                                       597312.300000 :SURFACE X
YCOORD      .                                      2143075.400000 :SURFACE Y
LAT         .                                           19.380613 :LATITUDE
LON         .                                          -92.073335 :LONGITUDE
ELEV        .M                                            27.7000 :SURFACE ELEV
ELEV_TYPE   .                                                  KB :ELEV TYPE
~CURVE INFORMATION
#MNEMONIC.UNIT        API CODE       : CURVE DESCRIPTION
#------------------------------------------------------------------------------
DEPTH    .M                          : Measured Depth
CALI     .inches      UNKNOWN        : CALI:Import:rC:NONE:v0 (auto-composite)
CGR      .API         UNKNOWN        : CGR:Import:rC:NONE:v0 (auto-composite)
DRHO     .g/cm3       UNKNOWN        : DRHO:Import:rC:NONE:v0 (auto-composite)
DT       .us/ft       UNKNOWN        : DT:Import:rC:NONE:v0 (auto-composite)
GR       .API         UNKNOWN        : GR:Import:rC:NONE:v0 (auto-composite)
ILD      .ohm.m       UNKNOWN        : ILD:Import:rC:NONE:v0 (auto-composite)
ILM      .ohm.m       UNKNOWN        : ILM:Import:rC:NONE:v0 (auto-composite)
LLD      .ohm.m       UNKNOWN        : LLD:Import:rC:NONE:v0 (auto-composite)
LLS      .ohm.m       UNKNOWN        : LLS:Import:rC:NONE:v0 (auto-composite)
MSFL     .ohm.m       UNKNOWN        : MSFL:Import:rC:NONE:v0 (auto-composite)
NPHI     .v/v_decimal UNKNOWN        : NPHI:Import:rC:NONE:v0 (auto-composite)
PEF      .b/elec      UNKNOWN        : PEF:Import:rC:NONE:v0 (auto-composite)
POTA     .wtpercent   UNKNOWN        : POTA:Import:rC:NONE:v0 (auto-composite)
RHOB     .g/cm3       UNKNOWN        : RHOB:Import:rC:NONE:v0 (auto-composite)
THOR     .ppm         UNKNOWN        : THOR:Import:rC:NONE:v0 (auto-composite)
URAN     .ppm         UNKNOWN        : URAN:Import:rC:NONE:v0 (auto-composite)
~A     DEPTH         CALI          CGR         DRHO           DT           GR          ILD          ILM          LLD          LLS         MSFL         NPHI          PEF         POTA         RHOB         THOR         URAN
# ...
   2332.9207      13.6992      48.3950       0.1635      99.8268      79.6349    -999.2500    -999.2500       5.2682       4.8353       7.3968       0.0857       3.1873       0.0236       1.7861       3.1656       3.4681
   2333.0730      13.9140      47.5440       0.2080     107.1100      79.5350    -999.2500    -999.2500       5.4730       5.1450       7.7220       0.0892       3.4730       0.0229       1.9170       3.2670       3.5490
   2333.2256      14.0038      47.3571       0.2391     110.5854      79.1567    -999.2500    -999.2500       5.6531       5.3020       4.9636       0.0792       3.7384       0.0224       2.1227       3.4958       3.5154
   2333.3779      14.0930      47.1700       0.2700     114.0370      78.7810    -999.2500    -999.2500       5.8320       5.4580       2.2240       0.0666       4.0020       0.0218       2.3270       3.7230       3.4820
   2333.5303      13.2371      48.7152       0.2760     111.9028      78.0860    -999.2500    -999.2500       5.5011       5.0396       2.3261       0.0582       3.8275       0.0226       2.1042       3.8160       3.2451
   2333.6826      12.3910      50.2600       0.2820     109.7930      77.3990    -999.2500    -999.2500       5.1740       4.6260       2.4270       0.0552       3.6550       0.0234       1.8840       3.9080       3.0110
   2333.8352      12.7088      50.5825       0.2624     107.2572      80.1718    -999.2500    -999.2500       5.1027       4.5326       1.7447       0.0680       3.4592       0.0236       1.7791       3.8809       3.2801
   2333.9875      13.0240      50.9050       0.2430     104.7420      82.9220    -999.2500    -999.2500       5.0320       4.4400       1.0680       0.0842       3.2650       0.0237       1.6750       3.8540       3.5470
   2334.1399      13.4029      51.7210       0.2961     100.6566      87.1587    -999.2500    -999.2500       5.2370       4.5914       2.4554       0.0974       3.6424       0.0250       1.7537       3.2390       3.9861
   2334.2922      13.7800      52.5370       0.3490      96.5910      91.3750    -999.2500    -999.2500       5.4410       4.7420       3.8360       0.1083       4.0180       0.0264       1.8320       2.6270       4.4230
   2334.4446      13.6192      51.0336       0.3164      94.6014      90.4065    -999.2500    -999.2500       5.5477       4.8206       9.6916       0.1143       3.9870       0.0271       1.9211       2.1493       4.5136
   2334.5972      13.4590      49.5300       0.2840      92.6180      89.4410    -999.2500    -999.2500       5.6540       4.8990      15.5290       0.1184       3.9560       0.0279       2.0100       1.6730       4.6040
   2334.7495      13.3695      46.6948       0.2705      95.1057      86.3168    -999.2500    -999.2500       5.6065       4.8640       8.8407       0.1206       3.9555       0.0261       2.1480       1.1926       4.4745
   2334.9019      13.2800      43.8590       0.2570      97.5940      83.1920    -999.2500    -999.2500       5.5590       4.8290       2.1510       0.1211       3.9550       0.0244       2.2860       0.7120       4.3450
   2335.0542      13.2364      48.2398       0.2275     102.4760      87.4351    -999.2500    -999.2500       5.5079       4.7829       2.7909       0.1171       4.1723       0.0255       2.3546       1.8617       4.2018
   2335.2068      13.1930      52.6220       0.1980     107.3440      91.6660    -999.2500    -999.2500       5.4570       4.7370       3.4290       0.1119       4.3890       0.0265       2.4230       3.0080       4.0590
   2335.3591      13.2633      53.2314       0.2452     108.4366      94.1383    -999.2500    -999.2500       5.4224       4.6843       2.5482       0.1070       4.1255       0.0267       2.3517       3.1254       4.4369
   2335.5115      13.3330      53.8410       0.2920     109.5210      96.5920    -999.2500    -999.2500       5.3880       4.6320       1.6740       0.1026       3.8640       0.0268       2.2810       3.2420       4.8120
   2335.6638      13.4950      53.2622       0.2850     105.2932      96.2861    -999.2500    -999.2500       5.3073       4.5588       2.0712       0.0994       3.9392       0.0273       2.1346       3.0304       4.7167
   2335.8164      13.6560      52.6830       0.2780     101.0900      95.9820    -999.2500    -999.2500       5.2270       4.4860       2.4660       0.0996       4.0140       0.0277       1.9890       2.8200       4.6220
   2335.9688      14.1316      54.9257       0.2610      99.9671      96.8711    -999.2500    -999.2500       4.9236       4.2347       2.1937       0.1118       3.8508       0.0286       1.9575       2.6403       4.5274
   2336.1211      14.6060      57.1700       0.2440      98.8470      97.7580    -999.2500    -999.2500       4.6210       3.9840       1.9220       0.1273       3.6880       0.0296       1.9260       2.4610       4.4330
   2336.2734      14.4061      57.6658       0.2345      97.6135      98.0904    -999.2500    -999.2500       4.4646       3.8311       1.6036       0.1434       3.8704       0.0295       2.0599       2.8558       4.4915
   2336.4258      14.2060      58.1620       0.2250      96.3790      98.4230    -999.2500    -999.2500       4.3080       3.6780       1.2850       0.1560       4.0530       0.0294       2.1940       3.2510       4.5500
   2336.5784      14.0572      61.3025       0.1574      97.3874     100.0852    -999.2500    -999.2500       4.6802       4.0492       2.3666       0.1530       3.7945       0.0332       2.2581       2.2566       4.3406
   2336.7307      13.9090      64.4460       0.0900      98.3920     101.7410    -999.2500    -999.2500       5.0510       4.4190       3.4440       0.1457       3.5370       0.0370       2.3220       1.2660       4.1320
   2336.8831      13.7564      66.0214       0.1010      97.1703     102.2883    -999.2500    -999.2500       5.5145       4.8358       2.4267       0.1366       3.7409       0.0381       2.4390       1.0436       4.0170
   2337.0354      13.6050      67.5960       0.1120      95.9590     102.8310    -999.2500    -999.2500       5.9740       5.2490       1.4180       0.1294       3.9430       0.0391       2.5550       0.8230       3.9030
   2337.1880      13.4516      70.6571       0.0930      92.7231     107.0715    -999.2500    -999.2500       6.0853       5.4219       1.7333       0.1308       3.8934       0.0416       2.5610       0.7699       4.1983
   2337.3403      13.2990      73.7170       0.0740      89.5040     111.2900    -999.2500    -999.2500       6.1960       5.5940       2.0470       0.1341       3.8440       0.0441       2.5670       0.7170       4.4920
   2337.4927      13.2830      73.1684       0.1035      87.0737     111.5027    -999.2500    -999.2500       6.1550       5.5194       1.8919       0.1364       3.8590       0.0440       2.5670       0.4703       4.3298
   2337.6450      13.2670      72.6200       0.1330      84.6480     111.7150    -999.2500    -999.2500       6.1140       5.4450       1.7370       0.1388       3.8740       0.0440       2.5670       0.2240       4.1680
   2337.7976      13.3478      72.0090       0.1526      84.4012     113.4136    -999.2500    -999.2500       6.0764       5.4039       4.1083       0.1424       3.8188       0.0420       2.5374       1.2704       4.4579
   2337.9500      13.4280      71.3980       0.1720      84.1560     115.1010    -999.2500    -999.2500       6.0390       5.3630       6.4640       0.1446       3.7640       0.0399       2.5080       2.3100       4.7460
   2338.1023      13.4481      73.9790       0.1670      85.2642     117.8383    -999.2500    -999.2500       6.1074       5.4610       8.5351       0.1402       3.8128       0.0405       2.5246       3.0235       4.8627
   2338.2546      13.4680      76.5600       0.1620      86.3600     120.5450    -999.2500    -999.2500       6.1750       5.5580      10.5830       0.1347       3.8610       0.0411       2.5410       3.7290       4.9780
   2338.4070      13.5001      77.6569       0.1319      87.0592     120.5455    -999.2500    -999.2500       6.1213       5.5972      21.8392       0.1310       3.7927       0.0400       2.5556       3.9313       4.8500
