#------------------------------------------------------------------------------
#
#   Created by  : [OpenWorks] Log Export Utility (LEXP)
#   Created on  : 2016-05-18 13:31:07
#   Project     : CANT971
#   User        : R5K
#   Interpreter : PEP
#
#------------------------------------------------------------------------------
~VERSION INFORMATION
VERS. 2.0 : CWLS Log ASCII Standard - version 2.0
WRAP.  NO : One line per depth step
~WELL INFORMATION
#MNEMONIC   .UNIT                                           VALUE :DESCRIPTION
#------------------------------------------------------------------------------
STRT        .M                                           759.6955 :START DEPTH
STOP        .M                                          2930.7859 :STOP DEPTH
STEP        .M                                             0.1524 :STEP
NULL        .                                           -999.2500 :NULL VALUE
COMP        .                                   PEMEX EXPL & PROD :COMPANY
WELL        .                                                 28D :WELL
FLD         .                                           CANTARELL :FIELD
LOC         .                                             UNKNOWN :LOCATION
CNTY        .                                      CD. DEL CARMEN :COUNTY
STAT        .                                            CAMPECHE :STATE
CTRY        .                                              MEXICO :COUNTRY
SRVC        .                                             UNKNOWN :SERVICE COMPANY
DATE        .                                             UNKNOWN :LOG DATE
UWI         .                                          3060000678 :UNIQUE WELL ID
XCOORD      .                                       597312.300000 :SURFACE X
YCOORD      .                                      2143075.400000 :SURFACE Y
LAT         .                                           19.380613 :LATITUDE
LON         .                                          -92.073335 :LONGITUDE
ELEV        .M                                            27.7000 :SURFACE ELEV
ELEV_TYPE   .                                                  KB :ELEV TYPE
~CURVE INFORMATION
#MNEMONIC.UNIT        API CODE       : CURVE DESCRIPTION
#------------------------------------------------------------------------------
DEPTH    .M                          : Measured Depth
CALI     .inches      UNKNOWN        : CALI:Import:rC:NONE:v0 (auto-composite)
CGR      .API         UNKNOWN        : CGR:Import:rC:NONE:v0 (auto-composite)
DRHO     .g/cm3       UNKNOWN        : DRHO:Import:rC:NONE:v0 (auto-composite)
DT       .us/ft       UNKNOWN        : DT:Import:rC:NONE:v0 (auto-composite)
GR       .API         UNKNOWN        : GR:Import:rC:NONE:v0 (auto-composite)
ILD      .ohm.m       UNKNOWN        : ILD:Import:rC:NONE:v0 (auto-composite)
ILM      .ohm.m       UNKNOWN        : ILM:Import:rC:NONE:v0 (auto-composite)
LLD      .ohm.m       UNKNOWN        : LLD:Import:rC:NONE:v0 (auto-composite)
LLS      .ohm.m       UNKNOWN        : LLS:Import:rC:NONE:v0 (auto-composite)
MSFL     .ohm.m       UNKNOWN        : MSFL:Import:rC:NONE:v0 (auto-composite)
NPHI     .v/v_decimal UNKNOWN        : NPHI:Import:rC:NONE:v0 (auto-composite)
PEF      .b/elec      UNKNOWN        : PEF:Import:rC:NONE:v0 (auto-composite)
POTA     .wtpercent   UNKNOWN        : POTA:Import:rC:NONE:v0 (auto-composite)
RHOB     .g/cm3       UNKNOWN        : RHOB:Import:rC:NONE:v0 (auto-composite)
THOR     .ppm         UNKNOWN        : THOR:Import:rC:NONE:v0 (auto-composite)
URAN     .ppm         UNKNOWN        : URAN:Import:rC:NONE:v0 (auto-composite)
~A     DEPTH         CALI          CGR         DRHO           DT           GR          ILD          ILM          LLD          LLS         MSFL         NPHI          PEF         POTA         RHOB         THOR         URAN
# ...
   2530.2788      12.4300       0.6570       0.0570      63.8590      53.9470    -999.2500    -999.2500    2053.1770     489.6640       9.0470       0.0182       3.2430       0.0002       2.8430       0.1060       5.9140
   2530.4312      12.3708       0.8254       0.0600      65.3198      53.1938    -999.2500    -999.2500    1996.2069     467.2364       6.8872       0.0242       3.2114       0.0002       2.8209       0.1612       5.8086
   2530.5835      12.3120       0.9940       0.0630      66.7700      52.4460    -999.2500    -999.2500    1939.6490     444.9710       4.7430       0.0305       3.1800       0.0002       2.7990       0.2160       5.7040
   2530.7358      12.3356       0.9010       0.0480      67.7828      52.6059    -999.2500    -999.2500    2011.5193     457.0082       4.4562       0.0351       3.1474       0.0002       2.7609       0.1879       5.7205
   2530.8882      12.3590       0.8080       0.0330      68.7900      52.7650    -999.2500    -999.2500    2082.9929     468.9790       4.1710       0.0364       3.1150       0.0002       2.7230       0.1600       5.7370
   2531.0408      12.3840       1.1428       0.0315      67.9596      52.9097    -999.2500    -999.2500    2289.6565     509.1778       5.2487       0.0323       3.0840       0.0002       2.7310       0.2666       5.7135
   2531.1931      12.4090       1.4780       0.0300      67.1310      53.0540    -999.2500    -999.2500    2495.8650     549.2880       6.3240       0.0262       3.0530       0.0002       2.7390       0.3730       5.6900
   2531.3455      12.3520       1.0947       0.0325      66.7957      53.0120    -999.2500    -999.2500    2656.2117     559.0041       6.0741       0.0213       3.0430       0.0002       2.7585       0.2496       5.7510
   2531.4978      12.2950       0.7110       0.0350      66.4600      52.9700    -999.2500    -999.2500    2816.7380     568.7310       5.8240       0.0188       3.0330       0.0002       2.7780       0.1260       5.8120
   2531.6504      12.3396       0.6096       0.0290      66.2857      52.1125    -999.2500    -999.2500    2721.0415     572.5317       5.1182       0.0209       3.0671       0.0002       2.7650       0.0974       5.7168
   2531.8027      12.3840       0.5080       0.0230      66.1120      51.2580    -999.2500    -999.2500    2625.6860     576.3190       4.4150       0.0255       3.1010       0.0002       2.7520       0.0690       5.6220
   2531.9551      12.3468       0.4995       0.0255      66.6904      50.0546    -999.2500    -999.2500    2539.4187     610.4891       3.6368       0.0314       3.1110       0.0002       2.7460       0.0665       5.4839
   2532.1074      12.3100       0.4910       0.0280      67.2640      48.8610    -999.2500    -999.2500    2453.8589     644.3790       2.8650       0.0357       3.1210       0.0002       2.7400       0.0640       5.3470
   2532.2600      12.2574       0.7443       0.0340      67.7211      53.9259    -999.2500    -999.2500    3114.9482     704.5327       3.8634       0.0353       3.1736       0.0002       2.7525       0.1417       5.8883
   2532.4124      12.2050       0.9980       0.0400      68.1760      58.9660    -999.2500    -999.2500    3772.8040     764.3920       4.8570       0.0352       3.2260       0.0002       2.7650       0.2190       6.4270
   2532.5647      12.2826       0.7832       0.0450      72.4649     103.7999    -999.2500    -999.2500    2096.2300     477.6477       4.1920       0.0408       3.2520       0.0003       2.7700       0.1434      11.4024
   2532.7170      12.3600       0.5680       0.0500      76.7470     148.5630    -999.2500    -999.2500     422.3020     191.3560       3.5280       0.0453       3.2780       0.0003       2.7750       0.0680      16.3700
   2532.8694      12.3254       1.0216       0.0440      79.6521     223.0195    -999.2500    -999.2500     344.4915     146.7173       4.7734       0.0419       3.3221       0.0004       2.7630       0.1528      24.5847
   2533.0220      12.2910       1.4760       0.0380      82.5390     297.0100    -999.2500    -999.2500     267.1680     102.3580       6.0110       0.0340       3.3660       0.0005       2.7510       0.2370      32.7480
   2533.1743      12.2613       1.6453       0.0390      80.4778     235.5407    -999.2500    -999.2500     374.3197     145.1824       6.3916       0.0233       3.3077       0.0004       2.7671       0.3029      25.9410
   2533.3267      12.2320       1.8150       0.0400      78.4390     174.7400    -999.2500    -999.2500     480.3060     187.5410       6.7680       0.0135       3.2500       0.0003       2.7830       0.3680      19.2080
   2533.4790      12.2862       1.2241       0.0365      75.7563     133.0215    -999.2500    -999.2500     786.0377     279.8064       7.2589       0.0088       3.2103       0.0003       2.8071       0.2164      14.6262
   2533.6316      12.3400       0.6320       0.0330      73.0940      91.6190    -999.2500    -999.2500    1089.4540     371.3730       7.7460       0.0068       3.1710       0.0002       2.8310       0.0660      10.0790
   2533.7839      12.2784       0.6065       0.0320      70.0179      86.9540    -999.2500    -999.2500     899.8992     323.4472       6.6457       0.0060       3.1219       0.0002       2.8380       0.0705       9.5639
   2533.9363      12.2170       0.5810       0.0310      66.9550      82.3090    -999.2500    -999.2500     711.1540     275.7260       5.5500       0.0061       3.0730       0.0002       2.8450       0.0750       9.0510
   2534.0886      12.1935       0.6560       0.0395      66.9340      75.9634    -999.2500    -999.2500     543.2735     208.2234       4.3274       0.0072       3.1186       0.0002       2.8360       0.0955       8.3426
   2534.2412      12.1700       0.7310       0.0480      66.9130      69.6340    -999.2500    -999.2500     375.8210     140.8930       3.1080       0.0098       3.1640       0.0002       2.8270       0.1160       7.6360
   2534.3936      12.2122       0.6540       0.0304      68.6297      65.5126    -999.2500    -999.2500     357.0933     131.2291       5.5709       0.0149       3.1474       0.0002       2.7773       0.0944       7.1733
   2534.5459      12.2540       0.5770       0.0130      70.3340      61.4210    -999.2500    -999.2500     338.5010     121.6350       8.0160       0.0185       3.1310       0.0002       2.7280       0.0730       6.7140
   2534.6982      12.2349       0.9673       0.0165      69.2067      58.8579    -999.2500    -999.2500     513.9655     200.9303       7.1541       0.0161       3.1511       0.0002       2.7350       0.2032       6.4426
   2534.8506      12.2160       1.3580       0.0200      68.0910      56.3210    -999.2500    -999.2500     687.6320     279.4130       6.3010       0.0117       3.1710       0.0002       2.7420       0.3320       6.1740
   2535.0032      12.2190       0.9712       0.0265      66.8883      52.5017    -999.2500    -999.2500     734.6224     247.6129       5.4927       0.0086       3.1364       0.0002       2.7877       0.2061       5.7219
   2535.1555      12.2220       0.5840       0.0330      65.6940      48.7090    -999.2500    -999.2500     781.2860     216.0340       4.6900       0.0079       3.1020       0.0002       2.8330       0.0810       5.2730
   2535.3079      12.1974       0.9053       0.0526      66.7468      47.3675    -999.2500    -999.2500     566.8412     159.8478       4.1877       0.0112       3.1627       0.0002       2.8270       0.1928       5.1437
   2535.4602      12.1730       1.2270       0.0720      67.7940      46.0330    -999.2500    -999.2500     353.5200     103.9560       3.6880       0.0162       3.2230       0.0002       2.8210       0.3040       5.0150
   2535.6128      12.1304       0.8343       0.0660      67.5486      40.4627    -999.2500    -999.2500     397.0862     114.8777       4.7789       0.0215       3.2455       0.0002       2.8000       0.1813       4.3984
   2535.7651      12.0880       0.4410       0.0600      67.3040      34.9120    -999.2500    -999.2500     440.4990     125.7610       5.8660       0.0241       3.2680       0.0002       2.7790       0.0590       3.7840
