#------------------------------------------------------------------------------
#
#   Created by  : [OpenWorks] Log Export Utility (LEXP)
#   Created on  : 2016-05-18 13:31:07
#   Project     : CANT971
#   User        : R5K
#   Interpreter : PEP
#
#------------------------------------------------------------------------------
~VERSION INFORMATION
VERS. 2.0 : CWLS Log ASCII Standard - version 2.0
WRAP.  NO : One line per depth step
~WELL INFORMATION
#MNEMONIC   .UNIT                                           VALUE :DESCRIPTION
#------------------------------------------------------------------------------
STRT        .M                                           759.6955 :START DEPTH
STOP        .M                                          2930.7859 :STOP DEPTH
STEP        .M                                             0.1524 :STEP
NULL        .                                           -999.2500 :NULL VALUE
COMP        .                                   PEMEX EXPL & PROD :COMPANY
WELL        .                                                 28D :WELL
FLD         .                                           CANTARELL :FIELD
LOC         .                                             UNKNOWN :LOCATION
CNTY        .                                      CD. DEL CARMEN :COUNTY
STAT        .                                            CAMPECHE :STATE
CTRY        .                                              MEXICO :COUNTRY
SRVC        .                                             UNKNOWN :SERVICE COMPANY
DATE        .                                             UNKNOWN :LOG DATE
UWI         .                                          3060000678 :UNIQUE WELL ID
XCOORD      .                                       597312.300000 :SURFACE X
YCOORD      .                                      2143075.400000 :SURFACE Y
LAT         .                                           19.380613 :LATITUDE
LON         .                                          -92.073335 :LONGITUDE
ELEV        .M                                            27.7000 :SURFACE ELEV
ELEV_TYPE   .                                                  KB :ELEV TYPE
~CURVE INFORMATION
#MNEMONIC.UNIT        API CODE       : CURVE DESCRIPTION
#------------------------------------------------------------------------------
DEPTH    .M                          : Measured Depth
CALI     .inches      UNKNOWN        : CALI:Import:rC:NONE:v0 (auto-composite)
CGR      .API         UNKNOWN        : CGR:Import:rC:NONE:v0 (auto-composite)
DRHO     .g/cm3       UNKNOWN        : DRHO:Import:rC:NONE:v0 (auto-composite)
DT       .us/ft       UNKNOWN        : DT:Import:rC:NONE:v0 (auto-composite)
GR       .API         UNKNOWN        : GR:Import:rC:NONE:v0 (auto-composite)
ILD      .ohm.m       UNKNOWN        : ILD:Import:rC:NONE:v0 (auto-composite)
ILM      .ohm.m       UNKNOWN        : ILM:Import:rC:NONE:v0 (auto-composite)
LLD      .ohm.m       UNKNOWN        : LLD:Import:rC:NONE:v0 (auto-composite)
LLS      .ohm.m       UNKNOWN        : LLS:Import:rC:NONE:v0 (auto-composite)
MSFL     .ohm.m       UNKNOWN        : MSFL:Import:rC:NONE:v0 (auto-composite)
NPHI     .v/v_decimal UNKNOWN        : NPHI:Import:rC:NONE:v0 (auto-composite)
PEF      .b/elec      UNKNOWN        : PEF:Import:rC:NONE:v0 (auto-composite)
POTA     .wtpercent   UNKNOWN        : POTA:Import:rC:NONE:v0 (auto-composite)
RHOB     .g/cm3       UNKNOWN        : RHOB:Import:rC:NONE:v0 (auto-composite)
THOR     .ppm         UNKNOWN        : THOR:Import:rC:NONE:v0 (auto-composite)
URAN     .ppm         UNKNOWN        : URAN:Import:rC:NONE:v0 (auto-composite)
~A     DEPTH         CALI          CGR         DRHO           DT           GR          ILD          ILM          LLD          LLS         MSFL         NPHI          PEF         POTA         RHOB         THOR         URAN
# ...
   2253.9775    -999.2500    -999.2500      -0.6945      66.5584      47.0501       2.1220       2.4035    -999.2500    -999.2500    -999.2500       0.1686     -58.2166       0.0199       2.7110       4.4736       0.0690
   2254.1299    -999.2500    -999.2500      -0.6880      65.2050      46.2720       2.1330       2.4080    -999.2500    -999.2500    -999.2500       0.1647     -51.9670       0.0196       2.7020       4.3740       0.0690
   2254.2822    -999.2500    -999.2500      -0.6895      65.2950      45.8513       2.1350       2.3794    -999.2500    -999.2500    -999.2500       0.1626     -49.8258       0.0192       2.7080       4.4333       0.0906
   2254.4348    -999.2500    -999.2500      -0.6910      65.3840      45.4350       2.1370       2.3510    -999.2500    -999.2500    -999.2500       0.1601     -47.7070       0.0188       2.7140       4.4920       0.1120
   2254.5872    -999.2500    -999.2500      -0.6925      66.4107      44.5930       2.1335       2.3435    -999.2500    -999.2500    -999.2500       0.1550     -50.4930       0.0181       2.7155       4.6089       0.0914
   2254.7395    -999.2500    -999.2500      -0.6940      67.4300      43.7570       2.1300       2.3360    -999.2500    -999.2500    -999.2500       0.1522     -53.2590       0.0175       2.7170       4.7250       0.0710
   2254.8918    -999.2500    -999.2500      -0.6965      67.1332      43.1333       2.1591       2.3791    -999.2500    -999.2500    -999.2500       0.1567     -55.7137       0.0170       2.7255       4.3620       0.2104
   2255.0442    -999.2500    -999.2500      -0.6990      66.8380      42.5130       2.1880       2.4220    -999.2500    -999.2500    -999.2500       0.1613     -58.1550       0.0165       2.7340       4.0010       0.3490
   2255.1968    -999.2500    -999.2500      -0.6965      67.2855      42.7357       2.2190       2.4615    -999.2500    -999.2500    -999.2500       0.1594     -55.9522       0.0164       2.7525       3.6576       0.4746
   2255.3491    -999.2500    -999.2500      -0.6940      67.7320      42.9580       2.2500       2.5010    -999.2500    -999.2500    -999.2500       0.1541     -53.7540       0.0162       2.7710       3.3150       0.6000
   2255.5015    -999.2500    -999.2500      -0.6985      67.6995      43.2663       2.2665       2.5145    -999.2500    -999.2500    -999.2500       0.1483     -57.1460       0.0170       2.7775       3.1191       0.6130
   2255.6538    -999.2500    -999.2500      -0.7030      67.6670      43.5750       2.2830       2.5280    -999.2500    -999.2500    -999.2500       0.1457     -60.5420       0.0178       2.7840       2.9230       0.6260
   2255.8064    -999.2500    -999.2500      -0.7090      66.6392      43.6957       2.2555       2.5415    -999.2500    -999.2500    -999.2500       0.1500     -64.0712       0.0175       2.7620       2.8849       0.6761
   2255.9587    -999.2500    -999.2500      -0.7150      65.6150      43.8160       2.2280       2.5550    -999.2500    -999.2500    -999.2500       0.1540     -67.5880       0.0172       2.7400       2.8470       0.7260
   2256.1111    -999.2500    -999.2500      -0.7125      65.2244      43.2743       2.2516       2.6258    -999.2500    -999.2500    -999.2500       0.1508     -63.8774       0.0168       2.7340       2.8083       0.7601
   2256.2634    -999.2500    -999.2500      -0.7100      64.8370      42.7370       2.2750       2.6960    -999.2500    -999.2500    -999.2500       0.1441     -60.1970       0.0164       2.7280       2.7700       0.7940
   2256.4160    -999.2500    -999.2500      -0.7020      65.9492      42.6012       2.3141       2.7201    -999.2500    -999.2500    -999.2500       0.1376     -56.4765       0.0163       2.7430       2.8913       0.7770
   2256.5684    -999.2500    -999.2500      -0.6940      67.0560      42.4660       2.3530       2.7440    -999.2500    -999.2500    -999.2500       0.1361     -52.7740       0.0161       2.7580       3.0120       0.7600
   2256.7207    -999.2500    -999.2500      -0.6885      68.2719      42.9394       2.2930       2.5684    -999.2500    -999.2500    -999.2500       0.1450     -47.7272       0.0169       2.7310       2.8679       0.7260
   2256.8730    -999.2500    -999.2500      -0.6830      69.4860      43.4120       2.2330       2.3930    -999.2500    -999.2500    -999.2500       0.1579     -42.6880       0.0175       2.7040       2.7240       0.6920
   2257.0254    -999.2500    -999.2500      -0.6955      68.2091      43.6206       2.1894       2.3283    -999.2500    -999.2500    -999.2500       0.1689     -45.4786       0.0180       2.6739       2.5690       0.6805
   2257.1780    -999.2500    -999.2500      -0.7080      66.9400      43.8280       2.1460       2.2640    -999.2500    -999.2500    -999.2500       0.1691     -48.2520       0.0184       2.6440       2.4150       0.6690
   2257.3303    -999.2500    -999.2500      -0.7020      63.3506      38.2087       2.4381       2.7521    -999.2500    -999.2500    -999.2500       0.1493     -50.7450       0.0143       2.6581       2.2280       0.8158
   2257.4827    -999.2500    -999.2500      -0.6960      59.8000      32.6500       2.7270       3.2350    -999.2500    -999.2500    -999.2500       0.1264     -53.2110       0.0103       2.6720       2.0430       0.9610
   2257.6350    -999.2500    -999.2500      -0.6945      58.5609      29.8435       3.8040       4.4410    -999.2500    -999.2500    -999.2500       0.1168     -56.4266       0.0086       2.7021       2.4736       0.8511
   2257.7876    -999.2500    -999.2500      -0.6930      57.3310      27.0580       4.8730       5.6380    -999.2500    -999.2500    -999.2500       0.1142     -59.6180       0.0068       2.7320       2.9010       0.7420
   2257.9399    -999.2500    -999.2500      -0.7095      59.4675      28.6113       7.0992       6.2899    -999.2500    -999.2500    -999.2500       0.1122     -68.6850       0.0072       2.7024       2.9721       1.0917
   2258.0923    -999.2500    -999.2500      -0.7260      61.5950      30.1580       9.3160       6.9390    -999.2500    -999.2500    -999.2500       0.1146     -77.7140       0.0075       2.6730       3.0430       1.4400
   2258.2446    -999.2500    -999.2500      -0.7320      65.0498      40.7231       6.5255       5.2910    -999.2500    -999.2500    -999.2500       0.1253     -81.3064       0.0130       2.6500       3.8360       0.7537
   2258.3972    -999.2500    -999.2500      -0.7380      68.4960      51.2620       3.7420       3.6470    -999.2500    -999.2500    -999.2500       0.1378     -84.8900       0.0185       2.6270       4.6270       0.0690
   2258.5496    -999.2500    -999.2500      -0.7536      70.5599      58.4326       2.7720       2.9134    -999.2500    -999.2500    -999.2500       0.1457     -97.8363       0.0238       2.5919       5.1985       0.0529
   2258.7019    -999.2500    -999.2500      -0.7690      72.6090      65.5520       1.8090       2.1850    -999.2500    -999.2500    -999.2500       0.1535    -110.6900       0.0290       2.5570       5.7660       0.0370
   2258.8542    -999.2500    -999.2500      -0.7645      73.1613      64.3966       1.8522       2.0900    -999.2500    -999.2500    -999.2500       0.1655    -100.9615       0.0283       2.5495       5.6092       0.0586
   2259.0066    -999.2500    -999.2500      -0.7600      73.7080      63.2530       1.8950       1.9960    -999.2500    -999.2500    -999.2500       0.1742     -91.3320       0.0277       2.5420       5.4540       0.0800
   2259.1592    -999.2500    -999.2500      -0.7465      72.9193      59.3596       2.0119       2.0266    -999.2500    -999.2500    -999.2500       0.1718     -79.3598       0.0249       2.5756       5.7530       0.1237
   2259.3115    -999.2500    -999.2500      -0.7330      72.1360      55.4930       2.1280       2.0570    -999.2500    -999.2500    -999.2500       0.1638     -67.4700       0.0221       2.6090       6.0500       0.1670
   2259.4639    -999.2500    -999.2500      -0.7245      70.7935      55.1386       2.1816       2.1227    -999.2500    -999.2500    -999.2500       0.1552     -62.9413       0.0223       2.6306       5.9312       0.1209
