#------------------------------------------------------------------------------
#
#   Created by  : [OpenWorks] Log Export Utility (LEXP)
#   Created on  : 2016-05-18 13:31:07
#   Project     : CANT971
#   User        : R5K
#   Interpreter : PEP
#
#------------------------------------------------------------------------------
~VERSION INFORMATION
VERS. 2.0 : CWLS Log ASCII Standard - version 2.0
WRAP.  NO : One line per depth step
~WELL INFORMATION
#MNEMONIC   .UNIT                                           VALUE :DESCRIPTION
#------------------------------------------------------------------------------
STRT        .M                                           759.6955 :START DEPTH
STOP        .M                                          2930.7859 :STOP DEPTH
STEP        .M                                             0.1524 :STEP
NULL        .                                           -999.2500 :NULL VALUE
COMP        .                                   PEMEX EXPL & PROD :COMPANY
WELL        .                                                 28D :WELL
FLD         .                                           CANTARELL :FIELD
LOC         .                                             UNKNOWN :LOCATION
CNTY        .                                      CD. DEL CARMEN :COUNTY
STAT        .                                            CAMPECHE :STATE
CTRY        .                                              MEXICO :COUNTRY
SRVC        .                                             UNKNOWN :SERVICE COMPANY
DATE        .                                             UNKNOWN :LOG DATE
UWI         .                                          3060000678 :UNIQUE WELL ID
XCOORD      .                                       597312.300000 :SURFACE X
YCOORD      .                                      2143075.400000 :SURFACE Y
LAT         .                                           19.380613 :LATITUDE
LON         .                                          -92.073335 :LONGITUDE
ELEV        .M                                            27.7000 :SURFACE ELEV
ELEV_TYPE   .                                                  KB :ELEV TYPE
~CURVE INFORMATION
#MNEMONIC.UNIT        API CODE       : CURVE DESCRIPTION
#------------------------------------------------------------------------------
DEPTH    .M                          : Measured Depth
CALI     .inches      UNKNOWN        : CALI:Import:rC:NONE:v0 (auto-composite)
CGR      .API         UNKNOWN        : CGR:Import:rC:NONE:v0 (auto-composite)
DRHO     .g/cm3       UNKNOWN        : DRHO:Import:rC:NONE:v0 (auto-composite)
DT       .us/ft       UNKNOWN        : DT:Import:rC:NONE:v0 (auto-composite)
GR       .API         UNKNOWN        : GR:Import:rC:NONE:v0 (auto-composite)
ILD      .ohm.m       UNKNOWN        : ILD:Import:rC:NONE:v0 (auto-composite)
ILM      .ohm.m       UNKNOWN        : ILM:Import:rC:NONE:v0 (auto-composite)
LLD      .ohm.m       UNKNOWN        : LLD:Import:rC:NONE:v0 (auto-composite)
LLS      .ohm.m       UNKNOWN        : LLS:Import:rC:NONE:v0 (auto-composite)
MSFL     .ohm.m       UNKNOWN        : MSFL:Import:rC:NONE:v0 (auto-composite)
NPHI     .v/v_decimal UNKNOWN        : NPHI:Import:rC:NONE:v0 (auto-composite)
PEF      .b/elec      UNKNOWN        : PEF:Import:rC:NONE:v0 (auto-composite)
POTA     .wtpercent   UNKNOWN        : POTA:Import:rC:NONE:v0 (auto-composite)
RHOB     .g/cm3       UNKNOWN        : RHOB:Import:rC:NONE:v0 (auto-composite)
THOR     .ppm         UNKNOWN        : THOR:Import:rC:NONE:v0 (auto-composite)
URAN     .ppm         UNKNOWN        : URAN:Import:rC:NONE:v0 (auto-composite)
~A     DEPTH         CALI          CGR         DRHO           DT           GR          ILD          ILM          LLD          LLS         MSFL         NPHI          PEF         POTA         RHOB         THOR         URAN
# ...
   2603.5830      11.8311       0.9220       0.0345      55.5181      16.7597    -999.2500    -999.2500     433.8005     137.0584       4.5565       0.0935       3.0664       0.0001       2.6674       0.2289       1.7393
   2603.7356      11.8660       0.4480       0.0290      54.3440      14.8250    -999.2500    -999.2500     367.9740     128.5940       4.1560       0.1027       3.0530       0.0001       2.6350       0.0800       1.5620
   2603.8879      11.8655       0.6208       0.0420      54.5038      15.2619    -999.2500    -999.2500     315.8826     125.3426       3.8173       0.1074       3.0906       0.0001       2.6375       0.1391       1.6066
   2604.0403      11.8650       0.7940       0.0550      54.6630      15.6970    -999.2500    -999.2500     264.0110     122.1050       3.4800       0.1117       3.1280       0.0001       2.6400       0.1980       1.6510
   2604.1926      11.8820       1.7109       0.0420      55.3534      17.7631    -999.2500    -999.2500     214.2573     102.9556       3.6597       0.1173       3.0704       0.0001       2.6050       0.4899       1.7782
   2604.3452      11.8990       2.6300       0.0290      56.0420      19.8240    -999.2500    -999.2500     164.6280      83.8540       3.8390       0.1213       3.0130       0.0001       2.5700       0.7810       1.9050
   2604.4976      11.9131       3.4210       0.0170      55.7690      23.8941    -999.2500    -999.2500     159.8278      80.4453       5.0820       0.0987       3.0531       0.0001       2.5911       1.0259       2.2959
   2604.6499      11.9270       4.2140       0.0050      55.4980      27.9350    -999.2500    -999.2500     155.0620      77.0610       6.3160       0.0747       3.0930       0.0002       2.6120       1.2690       2.6840
   2604.8022      11.9044       3.5344       0.0191      55.7367      34.0110    -999.2500    -999.2500     281.4247     120.3251       7.3076       0.0513       3.0664       0.0002       2.6834       1.0403       3.4032
   2604.9546      11.8820       2.8530       0.0330      55.9730      40.0250    -999.2500    -999.2500     406.4990     163.1480       8.2890       0.0292       3.0400       0.0002       2.7540       0.8140       4.1150
   2605.1072      11.8735       3.8285       0.0390      56.8029      39.3276    -999.2500    -999.2500    1071.7623     265.7091       6.9529       0.0227       3.1233       0.0005       2.7881       1.0588       3.9600
   2605.2595      11.8650       4.8050       0.0450      57.6270      38.6350    -999.2500    -999.2500    1732.4320     367.5620       5.6260       0.0177       3.2060       0.0007       2.8220       1.3020       3.8060
   2605.4119      11.8655       4.3673       0.0455      57.4084      34.8176    -999.2500    -999.2500    2339.6499     393.9891       5.0204       0.0211       3.1714       0.0013       2.8040       0.8468       3.3869
   2605.5642      11.8660       3.9290       0.0460      57.1910      31.0200    -999.2500    -999.2500    2943.7170     420.2790       4.4180       0.0249       3.1370       0.0018       2.7860       0.3940       2.9700
   2605.7168      11.8720       4.4611       0.0350      58.0149      30.4836    -999.2500    -999.2500    2080.0945     353.3780       5.4638       0.0286       3.1285       0.0020       2.7705       0.3710       2.8728
   2605.8691      11.8780       4.9940       0.0240      58.8360      29.9490    -999.2500    -999.2500    1219.4680     286.7090       6.5060       0.0324       3.1200       0.0022       2.7550       0.3480       2.7760
   2606.0215      11.8895       3.8968       0.0355      58.4240      26.8353    -999.2500    -999.2500    1175.1653     272.4520       4.6419       0.0357       3.0835       0.0013       2.7480       0.6290       2.4705
   2606.1738      11.9010       2.7980       0.0470      58.0120      23.7220    -999.2500    -999.2500    1130.8690     258.1970       2.7780       0.0396       3.0470       0.0004       2.7410       0.9100       2.1650
   2606.3264      11.9015       3.2022       0.0565      59.0512      21.1854    -999.2500    -999.2500    1035.4940     247.8087       3.9574       0.0538       3.1301       0.0007       2.7145       0.7422       1.9156
   2606.4788      11.9020       3.6070       0.0660      60.0870      18.6570    -999.2500    -999.2500     940.4270     237.4540       5.1330       0.0681       3.2130       0.0011       2.6880       0.5750       1.6670
   2606.6311      11.9161       3.9637       0.0535      58.8185      18.2554    -999.2500    -999.2500     913.2159     228.9299       6.4311       0.0713       3.2873       0.0015       2.6785       0.4992       1.5847
   2606.7834      11.9300       4.3210       0.0410      57.5600      17.8570    -999.2500    -999.2500     886.2190     220.4730       7.7190       0.0729       3.3610       0.0018       2.6690       0.4240       1.5030
   2606.9358      11.9766       3.4508       0.0530      55.9806      17.4984    -999.2500    -999.2500    1416.6699     330.4741       7.1954       0.0544       3.3008       0.0013       2.7061       0.4375       1.5582
   2607.0884      12.0230       2.5790       0.0650      54.4110      17.1420    -999.2500    -999.2500    1943.8550     439.7980       6.6750       0.0359       3.2410       0.0008       2.7430       0.4510       1.6130
   2607.2407      11.9734       1.6814       0.0520      53.4446      17.0323    -999.2500    -999.2500    5402.2212     637.8989       6.9244       0.0330       3.2115       0.0005       2.7665       0.3178       1.7041
   2607.3931      11.9240       0.7820       0.0390      52.4810      16.9230    -999.2500    -999.2500    8850.7607     835.4370       7.1730       0.0313       3.1820       0.0001       2.7900       0.1850       1.7950
   2607.5454      11.9150       1.0163       0.0330      51.4962      17.2104    -999.2500    -999.2500    6816.1626     758.8015       6.3412       0.0348       3.1430       0.0001       2.7710       0.2595       1.8090
   2607.6980      11.9060       1.2510       0.0270      50.5110      17.4980    -999.2500    -999.2500    4780.5869     682.1290       5.5090       0.0383       3.1040       0.0001       2.7520       0.3340       1.8230
   2607.8503      11.9180       1.3169       0.0230      50.3948      17.8202    -999.2500    -999.2500    4179.9805     603.1381       5.6573       0.0372       3.0789       0.0001       2.7420       0.3545       1.8450
   2608.0027      11.9300       1.3830       0.0190      50.2790      18.1410    -999.2500    -999.2500    3581.8979     524.4790       5.8050       0.0361       3.0540       0.0001       2.7320       0.3750       1.8670
   2608.1550      11.9295       1.2007       0.0245      52.0202      18.4082    -999.2500    -999.2500    3493.7290     532.1805       6.0154       0.0355       3.0440       0.0001       2.7250       0.3147       1.9117
   2608.3076      11.9290       1.0180       0.0300      53.7460      18.6730    -999.2500    -999.2500    3406.3391     539.8140       6.2240       0.0350       3.0340       0.0001       2.7180       0.2550       1.9560
   2608.4600      11.9410       1.1783       0.0330      55.1449      18.7277    -999.2500    -999.2500    3116.8899     553.1418       6.5940       0.0332       3.0786       0.0001       2.7280       0.3086       1.9390
   2608.6123      11.9530       1.3390       0.0360      56.5360      18.7820    -999.2500    -999.2500    2829.0410     566.3960       6.9620       0.0311       3.1230       0.0001       2.7380       0.3620       1.9220
   2608.7646      11.9675       1.2471       0.0420      55.3597      21.2072    -999.2500    -999.2500    2405.7922     525.0797       6.5320       0.0244       3.1846       0.0002       2.7685       0.3260       2.1933
   2608.9170      11.9820       1.1550       0.0480      54.1860      23.6270    -999.2500    -999.2500    1983.4821     483.8550       6.1030       0.0176       3.2460       0.0003       2.7990       0.2900       2.4640
   2609.0696      11.9825       2.1395       0.0450      55.8206      25.3228    -999.2500    -999.2500    1921.8730     495.7229       6.5756       0.0151       3.2209       0.0008       2.8085       0.3035       2.5674
