#------------------------------------------------------------------------------
#
#   Created by  : [OpenWorks] Log Export Utility (LEXP)
#   Created on  : 2016-05-18 13:31:07
#   Project     : CANT971
#   User        : R5K
#   Interpreter : PEP
#
#------------------------------------------------------------------------------
~VERSION INFORMATION
VERS. 2.0 : CWLS Log ASCII Standard - version 2.0
WRAP.  NO : One line per depth step
~WELL INFORMATION
#MNEMONIC   .UNIT                                           VALUE :DESCRIPTION
#------------------------------------------------------------------------------
STRT        .M                                           759.6955 :START DEPTH
STOP        .M                                          2930.7859 :STOP DEPTH
STEP        .M                                             0.1524 :STEP
NULL        .                                           -999.2500 :NULL VALUE
COMP        .                                   PEMEX EXPL & PROD :COMPANY
WELL        .                                                 28D :WELL
FLD         .                                           CANTARELL :FIELD
LOC         .                                             UNKNOWN :LOCATION
CNTY        .                                      CD. DEL CARMEN :COUNTY
STAT        .                                            CAMPECHE :STATE
CTRY        .                                              MEXICO :COUNTRY
SRVC        .                                             UNKNOWN :SERVICE COMPANY
DATE        .                                             UNKNOWN :LOG DATE
UWI         .                                          3060000678 :UNIQUE WELL ID
XCOORD      .                                       597312.300000 :SURFACE X
YCOORD      .                                      2143075.400000 :SURFACE Y
LAT         .                                           19.380613 :LATITUDE
LON         .                                          -92.073335 :LONGITUDE
ELEV        .M                                            27.7000 :SURFACE ELEV
ELEV_TYPE   .                                                  KB :ELEV TYPE
~CURVE INFORMATION
#MNEMONIC.UNIT        API CODE       : CURVE DESCRIPTION
#------------------------------------------------------------------------------
DEPTH    .M                          : Measured Depth
CALI     .inches      UNKNOWN        : CALI:Import:rC:NONE:v0 (auto-composite)
CGR      .API         UNKNOWN        : CGR:Import:rC:NONE:v0 (auto-composite)
DRHO     .g/cm3       UNKNOWN        : DRHO:Import:rC:NONE:v0 (auto-composite)
DT       .us/ft       UNKNOWN        : DT:Import:rC:NONE:v0 (auto-composite)
GR       .API         UNKNOWN        : GR:Import:rC:NONE:v0 (auto-composite)
ILD      .ohm.m       UNKNOWN        : ILD:Import:rC:NONE:v0 (auto-composite)
ILM      .ohm.m       UNKNOWN        : ILM:Import:rC:NONE:v0 (auto-composite)
LLD      .ohm.m       UNKNOWN        : LLD:Import:rC:NONE:v0 (auto-composite)
LLS      .ohm.m       UNKNOWN        : LLS:Import:rC:NONE:v0 (auto-composite)
MSFL     .ohm.m       UNKNOWN        : MSFL:Import:rC:NONE:v0 (auto-composite)
NPHI     .v/v_decimal UNKNOWN        : NPHI:Import:rC:NONE:v0 (auto-composite)
PEF      .b/elec      UNKNOWN        : PEF:Import:rC:NONE:v0 (auto-composite)
POTA     .wtpercent   UNKNOWN        : POTA:Import:rC:NONE:v0 (auto-composite)
RHOB     .g/cm3       UNKNOWN        : RHOB:Import:rC:NONE:v0 (auto-composite)
THOR     .ppm         UNKNOWN        : THOR:Import:rC:NONE:v0 (auto-composite)
URAN     .ppm         UNKNOWN        : URAN:Import:rC:NONE:v0 (auto-composite)
~A     DEPTH         CALI          CGR         DRHO           DT           GR          ILD          ILM          LLD          LLS         MSFL         NPHI          PEF         POTA         RHOB         THOR         URAN
# ...
   2372.3923      12.7850       1.1640       0.0560      76.7840      74.8020    -999.2500    -999.2500     151.6800     125.1810      13.9870       0.0963       3.2020       0.0003       2.5960       0.2400       8.1640
   2372.5447      12.7840       0.8985       0.0510      75.5118      74.1629    -999.2500    -999.2500     156.8322     129.4969      12.1238       0.0933       3.1870       0.0003       2.5990       0.1559       8.1140
   2372.6970      12.7830       0.6330       0.0460      74.2420      73.5250    -999.2500    -999.2500     161.9750     133.8050      10.2640       0.0904       3.1720       0.0002       2.6020       0.0720       8.0640
   2372.8496      12.7835       0.8600       0.0380      75.0406      71.6343    -999.2500    -999.2500     166.3628     137.6004       9.3661       0.0908       3.1494       0.0003       2.6155       0.1447       7.8348
   2373.0020      12.7840       1.0870       0.0300      75.8340      69.7560    -999.2500    -999.2500     170.7220     141.3710       8.4740       0.0910       3.1270       0.0003       2.6290       0.2170       7.6070
   2373.1543      12.7835       1.6550       0.0421      76.4655      70.9758    -999.2500    -999.2500     169.4911     139.5368       9.4253       0.0836       3.1793       0.0002       2.6466       0.4030       7.6834
   2373.3066      12.7830       2.2230       0.0540      77.0900      72.1820    -999.2500    -999.2500     168.2740     137.7230      10.3660       0.0760       3.2310       0.0002       2.6640       0.5870       7.7590
   2373.4590      12.7835       3.0649       0.0580      77.9549      72.5299    -999.2500    -999.2500     167.4257     136.4982       8.2492       0.0725       3.2446       0.0002       2.6735       0.8566       7.6892
   2373.6116      12.7840       3.9070       0.0620      78.8130      72.8750    -999.2500    -999.2500     166.5840     135.2830       6.1490       0.0695       3.2580       0.0003       2.6830       1.1240       7.6200
   2373.7639      12.7835       4.1120       0.0605      78.6441      72.2346    -999.2500    -999.2500     167.2595     136.2046       7.4329       0.0711       3.2359       0.0002       2.6765       1.1947       7.5764
   2373.9163      12.7830       4.3170       0.0590      78.4760      71.5970    -999.2500    -999.2500     167.9320     137.1220       8.7110       0.0728       3.2140       0.0002       2.6700       1.2650       7.5330
   2374.0686      12.7835       3.0792       0.0540      78.0469      73.4626    -999.2500    -999.2500     167.2335     136.0840      11.4984       0.0723       3.1800       0.0003       2.6635       0.8584       7.8369
   2374.2212      12.7840       1.8410       0.0490      77.6190      75.3230    -999.2500    -999.2500     166.5370     135.0490      14.2780       0.0717       3.1460       0.0003       2.6570       0.4530       8.1400
   2374.3735      12.7835       1.2487       0.0475      77.9131      79.3666    -999.2500    -999.2500     166.7518     134.9436      13.7731       0.0743       3.1350       0.0003       2.6625       0.2668       8.6529
   2374.5259      12.7830       0.6560       0.0460      78.2050      83.3800    -999.2500    -999.2500     166.9650     134.8390      13.2720       0.0770       3.1240       0.0002       2.6680       0.0820       9.1620
   2374.6782      12.7835       0.6750       0.0420      78.8067      83.6067    -999.2500    -999.2500     167.7024     135.0762      13.3539       0.0784       3.1200       0.0003       2.6615       0.0850       9.1861
   2374.8308      12.7840       0.6940       0.0380      79.4020      83.8310    -999.2500    -999.2500     168.4320     135.3110      13.4350       0.0797       3.1160       0.0003       2.6550       0.0880       9.2100
   2374.9832      12.7845       1.1143       0.0430      78.8927      80.2666    -999.2500    -999.2500     171.1031     136.9996      11.8021       0.0812       3.1050       0.0003       2.6610       0.2260       8.7684
   2375.1355      12.7850       1.5350       0.0480      78.3870      76.7280    -999.2500    -999.2500     173.7550     138.6760      10.1810       0.0826       3.0940       0.0002       2.6670       0.3630       8.3300
   2375.2878      12.7860       1.7739       0.0495      78.0481      76.3775    -999.2500    -999.2500     176.3361     140.0678      10.8478       0.0817       3.0855       0.0003       2.6685       0.4407       8.2728
   2375.4402      12.7870       2.0130       0.0510      77.7110      76.0290    -999.2500    -999.2500     178.9030     141.4520      11.5110       0.0807       3.0770       0.0003       2.6700       0.5180       8.2160
   2375.5928      12.7895       1.8191       0.0485      78.4673      77.5226    -999.2500    -999.2500     174.8351     137.8791      10.9344       0.0808       3.0685       0.0003       2.6670       0.4544       8.3947
   2375.7451      12.7920       1.6250       0.0460      79.2220      79.0130    -999.2500    -999.2500     170.7760     134.3140      10.3590       0.0809       3.0600       0.0002       2.6640       0.3910       8.5730
   2375.8975      12.7935       1.1623       0.0445      79.9371      80.3617    -999.2500    -999.2500     163.5816     127.6808      10.7833       0.0778       3.0990       0.0003       2.6680       0.2406       8.7729
   2376.0498      12.7950       0.6990       0.0430      80.6530      81.7120    -999.2500    -999.2500     156.3790     121.0400      11.2080       0.0744       3.1380       0.0003       2.6720       0.0900       8.9730
   2376.2024      12.7980       0.6850       0.0460      80.9976      82.5289    -999.2500    -999.2500     154.9625     119.4717      11.5676       0.0707       3.1806       0.0003       2.6845       0.0870       9.0657
   2376.3547      12.8010       0.6710       0.0490      81.3410      83.3430    -999.2500    -999.2500     153.5510     117.9090      11.9260       0.0672       3.2230       0.0002       2.6970       0.0840       9.1580
   2376.5071      12.8005       0.6975       0.0470      81.5092      83.4575    -999.2500    -999.2500     162.6969     125.2570      12.3799       0.0707       3.1879       0.0003       2.6910       0.0870       9.1700
   2376.6594      12.8000       0.7240       0.0450      81.6760      83.5710    -999.2500    -999.2500     171.7680     132.5450      12.8300       0.0745       3.1530       0.0003       2.6850       0.0900       9.1820
   2376.8120      12.8005       0.7065       0.0485      81.3783      81.4829    -999.2500    -999.2500     173.9127     133.8221      12.2922       0.0788       3.1635       0.0003       2.6780       0.0880       8.9865
   2376.9644      12.8010       0.6890       0.0520      81.0820      79.4050    -999.2500    -999.2500     176.0470     135.0930      11.7570       0.0829       3.1740       0.0003       2.6710       0.0860       8.7920
   2377.1167      12.8005       1.1955       0.0505      80.5251      79.4680    -999.2500    -999.2500     177.1794     133.6043      11.6834       0.0823       3.1465       0.0003       2.6610       0.2486       8.7054
   2377.2690      12.8000       1.7020       0.0490      79.9690      79.5310    -999.2500    -999.2500     178.3100     132.1180      11.6100       0.0814       3.1190       0.0003       2.6510       0.4110       8.6190
   2377.4214      12.8005       1.8920       0.0515      80.3467      79.4613    -999.2500    -999.2500     188.4481     138.9734      12.2395       0.0805       3.1476       0.0002       2.6490       0.4742       8.6019
   2377.5740      12.8010       2.0820       0.0540      80.7220      79.3920    -999.2500    -999.2500     198.5230     145.7860      12.8650       0.0796       3.1760       0.0002       2.6470       0.5370       8.5850
   2377.7263      12.8111       1.4036       0.0515      81.8607      79.8414    -999.2500    -999.2500     210.6935     153.0308      12.0566       0.0791       3.1664       0.0002       2.6586       0.3158       8.6519
   2377.8787      12.8210       0.7250       0.0490      82.9870      80.2860    -999.2500    -999.2500     222.7320     160.1970      11.2570       0.0785       3.1570       0.0003       2.6700       0.0970       8.7180
