#------------------------------------------------------------------------------
#
#   Created by  : [OpenWorks] Log Export Utility (LEXP)
#   Created on  : 2016-05-18 13:31:07
#   Project     : CANT971
#   User        : R5K
#   Interpreter : PEP
#
#------------------------------------------------------------------------------
~VERSION INFORMATION
VERS. 2.0 : CWLS Log ASCII Standard - version 2.0
WRAP.  NO : One line per depth step
~WELL INFORMATION
#MNEMONIC   .UNIT                                           VALUE :DESCRIPTION
#------------------------------------------------------------------------------
STRT        .M                                           759.6955 :START DEPTH
STOP        .M                                          2930.7859 :STOP DEPTH
STEP        .M                                             0.1524 :STEP
NULL        .                                           -999.2500 :NULL VALUE
COMP        .                                   PEMEX EXPL & PROD :COMPANY
WELL        .                                                 28D :WELL
FLD         .                                           CANTARELL :FIELD
LOC         .                                             UNKNOWN :LOCATION
CNTY        .                                      CD. DEL CARMEN :COUNTY
STAT        .                                            CAMPECHE :STATE
CTRY        .                                              MEXICO :COUNTRY
SRVC        .                                             UNKNOWN :SERVICE COMPANY
DATE        .                                             UNKNOWN :LOG DATE
UWI         .                                          3060000678 :UNIQUE WELL ID
XCOORD      .                                       597312.300000 :SURFACE X
YCOORD      .                                      2143075.400000 :SURFACE Y
LAT         .                                           19.380613 :LATITUDE
LON         .                                          -92.073335 :LONGITUDE
ELEV        .M                                            27.7000 :SURFACE ELEV
ELEV_TYPE   .                                                  KB :ELEV TYPE
~CURVE INFORMATION
#MNEMONIC.UNIT        API CODE       : CURVE DESCRIPTION
#------------------------------------------------------------------------------
DEPTH    .M                          : Measured Depth
CALI     .inches      UNKNOWN        : CALI:Import:rC:NONE:v0 (auto-composite)
CGR      .API         UNKNOWN        : CGR:Import:rC:NONE:v0 (auto-composite)
DRHO     .g/cm3       UNKNOWN        : DRHO:Import:rC:NONE:v0 (auto-composite)
DT       .us/ft       UNKNOWN        : DT:Import:rC:NONE:v0 (auto-composite)
GR       .API         UNKNOWN        : GR:Import:rC:NONE:v0 (auto-composite)
ILD      .ohm.m       UNKNOWN        : ILD:Import:rC:NONE:v0 (auto-composite)
ILM      .ohm.m       UNKNOWN        : ILM:Import:rC:NONE:v0 (auto-composite)
LLD      .ohm.m       UNKNOWN        : LLD:Import:rC:NONE:v0 (auto-composite)
LLS      .ohm.m       UNKNOWN        : LLS:Import:rC:NONE:v0 (auto-composite)
MSFL     .ohm.m       UNKNOWN        : MSFL:Import:rC:NONE:v0 (auto-composite)
NPHI     .v/v_decimal UNKNOWN        : NPHI:Import:rC:NONE:v0 (auto-composite)
PEF      .b/elec      UNKNOWN        : PEF:Import:rC:NONE:v0 (auto-composite)
POTA     .wtpercent   UNKNOWN        : POTA:Import:rC:NONE:v0 (auto-composite)
RHOB     .g/cm3       UNKNOWN        : RHOB:Import:rC:NONE:v0 (auto-composite)
THOR     .ppm         UNKNOWN        : THOR:Import:rC:NONE:v0 (auto-composite)
URAN     .ppm         UNKNOWN        : URAN:Import:rC:NONE:v0 (auto-composite)
~A     DEPTH         CALI          CGR         DRHO           DT           GR          ILD          ILM          LLD          LLS         MSFL         NPHI          PEF         POTA         RHOB         THOR         URAN
# ...
   2885.5232       9.0395    -999.2500       0.0091    -999.2500      40.9607    -999.2500    -999.2500     520.0720     381.3570     156.4122       0.0364       3.6701    -999.2500       2.7872    -999.2500    -999.2500
   2885.6755       9.0362    -999.2500       0.0071    -999.2500      45.9075    -999.2500    -999.2500     299.8356     202.2592     136.7462       0.0432       3.6851    -999.2500       2.7767    -999.2500    -999.2500
   2885.8279       9.0172    -999.2500       0.0036    -999.2500      51.0667    -999.2500    -999.2500     246.0214     154.0636     101.3804       0.0488       3.6616    -999.2500       2.7677    -999.2500    -999.2500
   2885.9802       9.0038    -999.2500       0.0006    -999.2500      55.8001    -999.2500    -999.2500     212.2920     122.9754      71.7216       0.0515       3.6243    -999.2500       2.7602    -999.2500    -999.2500
   2886.1328       9.0068    -999.2500      -0.0009    -999.2500      59.2689    -999.2500    -999.2500     238.1876     142.6732      59.0045       0.0487       3.5462    -999.2500       2.7572    -999.2500    -999.2500
   2886.2852       9.0080    -999.2500      -0.0025    -999.2500      62.2077    -999.2500    -999.2500     275.8535     168.2684      56.9976       0.0455       3.4927    -999.2500       2.7530    -999.2500    -999.2500
   2886.4375       9.0040    -999.2500      -0.0045    -999.2500      63.6056    -999.2500    -999.2500     347.7420     211.0105      86.1305       0.0429       3.5112    -999.2500       2.7450    -999.2500    -999.2500
   2886.5898       9.0021    -999.2500      -0.0069    -999.2500      64.1281    -999.2500    -999.2500     412.5620     251.2671     113.0031       0.0396       3.5286    -999.2500       2.7440    -999.2500    -999.2500
   2886.7422       9.0066    -999.2500      -0.0104    -999.2500      62.0934    -999.2500    -999.2500     456.7369     284.2643     133.2739       0.0350       3.5426    -999.2500       2.7635    -999.2500    -999.2500
   2886.8948       9.0090    -999.2500      -0.0140    -999.2500      60.2880    -999.2500    -999.2500     461.7628     291.3198     136.2012       0.0312       3.5500    -999.2500       2.7798    -999.2500    -999.2500
   2887.0471       9.0050    -999.2500      -0.0180    -999.2500      59.1550    -999.2500    -999.2500     351.9227     222.2607      88.2419       0.0302       3.5380    -999.2500       2.7868    -999.2500    -999.2500
   2887.1995       9.0031    -999.2500      -0.0192    -999.2500      59.4746    -999.2500    -999.2500     255.3847     160.5399      49.6273       0.0315       3.5334    -999.2500       2.7907    -999.2500    -999.2500
   2887.3518       9.0076    -999.2500      -0.0122    -999.2500      64.0760    -999.2500    -999.2500     198.0544     120.4488      38.5560       0.0367       3.5509    -999.2500       2.7857    -999.2500    -999.2500
   2887.5044       9.0096    -999.2500      -0.0065    -999.2500      67.1203    -999.2500    -999.2500     160.3024      95.0256      43.2268       0.0411       3.5595    -999.2500       2.7815    -999.2500    -999.2500
   2887.6567       9.0041    -999.2500      -0.0045    -999.2500      65.5148    -999.2500    -999.2500     181.0168     113.4045      94.9081       0.0426       3.5414    -999.2500       2.7795    -999.2500    -999.2500
   2887.8091       9.0013    -999.2500      -0.0013    -999.2500      62.6482    -999.2500    -999.2500     218.5146     146.1382     138.5813       0.0408       3.5368    -999.2500       2.7833    -999.2500    -999.2500
   2887.9614       9.0063    -999.2500       0.0052    -999.2500      56.1240    -999.2500    -999.2500     304.6854     220.5021     159.0304       0.0340       3.5713    -999.2500       2.8037    -999.2500    -999.2500
   2888.1140       9.0090    -999.2500       0.0115    -999.2500      50.7781    -999.2500    -999.2500     357.9323     266.4020     159.7210       0.0296       3.6119    -999.2500       2.8175    -999.2500    -999.2500
   2888.2664       9.0050    -999.2500       0.0175    -999.2500      48.8649    -999.2500    -999.2500     315.2632     229.3785     102.8496       0.0319       3.6704    -999.2500       2.8115    -999.2500    -999.2500
   2888.4187       8.9962    -999.2500       0.0243    -999.2500      49.6616    -999.2500    -999.2500     265.4704     188.7860      59.5944       0.0372       3.7206    -999.2500       2.8025    -999.2500    -999.2500
   2888.5710       8.9732    -999.2500       0.0333    -999.2500      58.3889    -999.2500    -999.2500     194.8295     137.7489      56.1876       0.0458       3.7466    -999.2500       2.7851    -999.2500    -999.2500
   2888.7234       8.9464    -999.2500       0.0386    -999.2500      66.8669    -999.2500    -999.2500     137.0018      95.2475      56.0019       0.0535       3.7635    -999.2500       2.7692    -999.2500    -999.2500
   2888.8760       8.9084    -999.2500       0.0331    -999.2500      74.6061    -999.2500    -999.2500     117.1643      78.0534      65.3669       0.0580       3.7535    -999.2500       2.7582    -999.2500    -999.2500
   2889.0283       8.8805    -999.2500       0.0248    -999.2500      79.9875    -999.2500    -999.2500     106.3065      68.2638      77.7578       0.0591       3.7339    -999.2500       2.7521    -999.2500    -999.2500
   2889.1807       8.8825    -999.2500       0.0083    -999.2500      78.3465    -999.2500    -999.2500     122.1951      80.5288      99.1616       0.0544       3.6858    -999.2500       2.7607    -999.2500    -999.2500
   2889.3330       8.8718    -999.2500      -0.0043    -999.2500      74.7070    -999.2500    -999.2500     151.4426     101.5242     110.0937       0.0484       3.6487    -999.2500       2.7703    -999.2500    -999.2500
   2889.4856       8.8244    -999.2500      -0.0053    -999.2500      65.2866    -999.2500    -999.2500     219.3334     147.7742      90.7340       0.0418       3.6437    -999.2500       2.7833    -999.2500    -999.2500
   2889.6379       8.7881    -999.2500      -0.0043    -999.2500      56.0746    -999.2500    -999.2500     325.2332     219.5038     103.5950       0.0357       3.6420    -999.2500       2.7936    -999.2500    -999.2500
   2889.7903       8.7846    -999.2500       0.0022    -999.2500      47.4733    -999.2500    -999.2500     542.5154     365.8990     210.8757       0.0311       3.6500    -999.2500       2.7961    -999.2500    -999.2500
   2889.9426       8.7809    -999.2500       0.0064    -999.2500      40.1467    -999.2500    -999.2500     785.2309     505.8930     316.4655       0.0277       3.6532    -999.2500       2.7988    -999.2500    -999.2500
   2890.0952       8.7764    -999.2500       0.0039    -999.2500      36.5722    -999.2500    -999.2500    1102.8173     627.0427     417.0781       0.0264       3.6422    -999.2500       2.8018    -999.2500    -999.2500
   2890.2476       8.7741    -999.2500       0.0011    -999.2500      33.9311    -999.2500    -999.2500    1303.6831     686.7657     480.4142       0.0263       3.6479    -999.2500       2.7969    -999.2500    -999.2500
   2890.3999       8.7786    -999.2500      -0.0024    -999.2500      34.0500    -999.2500    -999.2500    1159.3729     564.8329     433.5135       0.0280       3.7029    -999.2500       2.7689    -999.2500    -999.2500
   2890.5522       8.7809    -999.2500      -0.0046    -999.2500      34.1815    -999.2500    -999.2500    1035.5867     466.4712     374.3492       0.0290       3.7344    -999.2500       2.7503    -999.2500    -999.2500
   2890.7046       8.7764    -999.2500      -0.0031    -999.2500      34.3504    -999.2500    -999.2500     972.7744     438.1358     278.7512       0.0281       3.6963    -999.2500       2.7593    -999.2500    -999.2500
   2890.8572       8.7741    -999.2500      -0.0026    -999.2500      34.5083    -999.2500    -999.2500     910.5523     411.2142     213.0084       0.0268       3.6565    -999.2500       2.7711    -999.2500    -999.2500
   2891.0095       8.7786    -999.2500      -0.0051    -999.2500      34.6348    -999.2500    -999.2500     850.0474     388.4060     234.1337       0.0258       3.6115    -999.2500       2.7911    -999.2500    -999.2500
