#------------------------------------------------------------------------------
#
#   Created by  : [OpenWorks] Log Export Utility (LEXP)
#   Created on  : 2016-05-18 13:31:07
#   Project     : CANT971
#   User        : R5K
#   Interpreter : PEP
#
#------------------------------------------------------------------------------
~VERSION INFORMATION
VERS. 2.0 : CWLS Log ASCII Standard - version 2.0
WRAP.  NO : One line per depth step
~WELL INFORMATION
#MNEMONIC   .UNIT                                           VALUE :DESCRIPTION
#------------------------------------------------------------------------------
STRT        .M                                           759.6955 :START DEPTH
STOP        .M                                          2930.7859 :STOP DEPTH
STEP        .M                                             0.1524 :STEP
NULL        .                                           -999.2500 :NULL VALUE
COMP        .                                   PEMEX EXPL & PROD :COMPANY
WELL        .                                                 28D :WELL
FLD         .                                           CANTARELL :FIELD
LOC         .                                             UNKNOWN :LOCATION
CNTY        .                                      CD. DEL CARMEN :COUNTY
STAT        .                                            CAMPECHE :STATE
CTRY        .                                              MEXICO :COUNTRY
SRVC        .                                             UNKNOWN :SERVICE COMPANY
DATE        .                                             UNKNOWN :LOG DATE
UWI         .                                          3060000678 :UNIQUE WELL ID
XCOORD      .                                       597312.300000 :SURFACE X
YCOORD      .                                      2143075.400000 :SURFACE Y
LAT         .                                           19.380613 :LATITUDE
LON         .                                          -92.073335 :LONGITUDE
ELEV        .M                                            27.7000 :SURFACE ELEV
ELEV_TYPE   .                                                  KB :ELEV TYPE
~CURVE INFORMATION
#MNEMONIC.UNIT        API CODE       : CURVE DESCRIPTION
#------------------------------------------------------------------------------
DEPTH    .M                          : Measured Depth
CALI     .inches      UNKNOWN        : CALI:Import:rC:NONE:v0 (auto-composite)
CGR      .API         UNKNOWN        : CGR:Import:rC:NONE:v0 (auto-composite)
DRHO     .g/cm3       UNKNOWN        : DRHO:Import:rC:NONE:v0 (auto-composite)
DT       .us/ft       UNKNOWN        : DT:Import:rC:NONE:v0 (auto-composite)
GR       .API         UNKNOWN        : GR:Import:rC:NONE:v0 (auto-composite)
ILD      .ohm.m       UNKNOWN        : ILD:Import:rC:NONE:v0 (auto-composite)
ILM      .ohm.m       UNKNOWN        : ILM:Import:rC:NONE:v0 (auto-composite)
LLD      .ohm.m       UNKNOWN        : LLD:Import:rC:NONE:v0 (auto-composite)
LLS      .ohm.m       UNKNOWN        : LLS:Import:rC:NONE:v0 (auto-composite)
MSFL     .ohm.m       UNKNOWN        : MSFL:Import:rC:NONE:v0 (auto-composite)
NPHI     .v/v_decimal UNKNOWN        : NPHI:Import:rC:NONE:v0 (auto-composite)
PEF      .b/elec      UNKNOWN        : PEF:Import:rC:NONE:v0 (auto-composite)
POTA     .wtpercent   UNKNOWN        : POTA:Import:rC:NONE:v0 (auto-composite)
RHOB     .g/cm3       UNKNOWN        : RHOB:Import:rC:NONE:v0 (auto-composite)
THOR     .ppm         UNKNOWN        : THOR:Import:rC:NONE:v0 (auto-composite)
URAN     .ppm         UNKNOWN        : URAN:Import:rC:NONE:v0 (auto-composite)
~A     DEPTH         CALI          CGR         DRHO           DT           GR          ILD          ILM          LLD          LLS         MSFL         NPHI          PEF         POTA         RHOB         THOR         URAN
# ...
   2682.5264      10.2875       0.8303       0.0480      81.8217      73.2171    -999.2500    -999.2500    1739.0468     388.7705       2.5241       0.0269       3.2859       0.0002       2.8035       0.1456       8.0198
   2682.6787      10.2680       0.9910       0.0420      79.1180      67.5870    -999.2500    -999.2500    1674.5551     377.4300       3.3300       0.0328       3.2600       0.0002       2.8090       0.1990       7.3790
   2682.8311      10.2449       0.9620       0.0551      77.1732      67.7537    -999.2500    -999.2500    1588.0591     364.5281       2.8520       0.0407       3.2982       0.0002       2.7849       0.1890       7.3966
   2682.9834      10.2220       0.9330       0.0680      75.2450      67.9190    -999.2500    -999.2500    1502.2990     351.7360       2.3780       0.0484       3.3360       0.0002       2.7610       0.1790       7.4140
   2683.1360      10.2210       0.6689       0.0605      75.8596      51.3805    -999.2500    -999.2500    1715.7441     377.6037       2.2647       0.0534       3.3255       0.0002       2.7374       0.1158       5.6113
   2683.2883      10.2200       0.4040       0.0530      76.4710      34.9280    -999.2500    -999.2500    1928.0800     403.3370       2.1520       0.0576       3.3150       0.0002       2.7140       0.0530       3.8180
   2683.4407      10.2300       0.8294       0.0405      75.5887      23.4197    -999.2500    -999.2500    2572.2112     459.2482       2.3907       0.0617       3.2935       0.0001       2.6855       0.2011       2.4993
   2683.5930      10.2400       1.2560       0.0280      74.7080      11.9330    -999.2500    -999.2500    3215.1279     515.0540       2.6290       0.0655       3.2720       0.0001       2.6570       0.3490       1.1830
   2683.7456      10.2430       1.4149       0.0225      71.1759      10.8023    -999.2500    -999.2500    3485.0229     542.1916       2.2442       0.0686       3.2038       0.0001       2.6445       0.4012       1.0425
   2683.8979      10.2460       1.5740       0.0170      67.6670       9.6790    -999.2500    -999.2500    3753.1460     569.1510       1.8620       0.0701       3.1360       0.0001       2.6320       0.4530       0.9030
   2684.0503      10.2495       1.8023       0.0255      62.1984       9.0550    -999.2500    -999.2500    3688.8787     573.5023       2.3638       0.0677       3.1149       0.0004       2.6541       0.3927       0.8024
   2684.2026      10.2530       2.0310       0.0340      56.7910       8.4380    -999.2500    -999.2500    3625.3301     577.8050       2.8600       0.0652       3.0940       0.0006       2.6760       0.3330       0.7030
   2684.3550      10.3022       2.5820       0.0385      59.5243       9.7788    -999.2500    -999.2500    3741.1021     587.6076       3.0839       0.0665       3.1126       0.0009       2.6911       0.3496       0.7999
   2684.5076      10.3510       3.1340       0.0430      62.2360      11.1090    -999.2500    -999.2500    3855.9619     597.3330       3.3060       0.0678       3.1310       0.0013       2.7060       0.3660       0.8960
   2684.6599      10.3665       1.8222       0.0395      63.6192      15.7632    -999.2500    -999.2500    3647.2344     584.1058       3.1010       0.0657       3.1150       0.0007       2.7030       0.2267       1.5430
   2684.8123      10.3820       0.5080       0.0360      64.9960      20.3960    -999.2500    -999.2500    3439.4619     570.9390       2.8970       0.0606       3.0990       0.0001       2.7000       0.0880       2.1870
   2684.9646      10.3905       0.6594       0.0350      59.5157      22.3493    -999.2500    -999.2500    3308.7043     554.5411       4.2750       0.0503       3.1200       0.0001       2.7235       0.1366       2.4003
   2685.1172      10.3990       0.8110       0.0340      54.0510      24.2970    -999.2500    -999.2500    3178.3201     538.1900       5.6490       0.0403       3.1410       0.0001       2.7470       0.1850       2.6130
   2685.2695      10.4582       3.0856       0.0390      52.5172      20.5865    -999.2500    -999.2500    3537.6597     573.2877       5.3022       0.0355       3.1535       0.0011       2.7525       0.4149       1.9485
   2685.4219      10.5170       5.3650       0.0440      50.9950      16.9040    -999.2500    -999.2500    3894.2920     608.1210       4.9580       0.0343       3.1660       0.0021       2.7580       0.6430       1.2890
   2685.5742      10.5587       4.0569       0.0375      52.3788      13.8785    -999.2500    -999.2500    4293.3843     643.6142       5.2712       0.0385       3.1635       0.0011       2.7324       0.7199       1.1221
   2685.7268      10.6000       2.7460       0.0310      53.7480      10.8850    -999.2500    -999.2500    4688.2651     678.7330       5.5810       0.0428       3.1610       0.0002       2.7070       0.7960       0.9570
   2685.8792      10.7435       2.8699       0.0390      53.1433      11.2303    -999.2500    -999.2500    5115.7935     710.8867       4.7836       0.0428       3.1685       0.0004       2.7190       0.7428       0.9184
   2686.0315      10.8860       2.9940       0.0470      52.5430      11.5730    -999.2500    -999.2500    5540.2178     742.8070       3.9920       0.0412       3.1760       0.0005       2.7310       0.6900       0.8800
   2686.1838      10.8980       2.7583       0.0440      51.4259      12.2353    -999.2500    -999.2500    6087.8452     778.8159       3.6275       0.0399       3.1610       0.0003       2.7405       0.7742       1.0053
   2686.3362      10.9100       2.5220       0.0410      50.3150      12.8940    -999.2500    -999.2500    6632.4360     814.6250       3.2650       0.0401       3.1460       0.0001       2.7500       0.8580       1.1300
   2686.4888      10.9175       2.7597       0.0390      50.0923      12.7028    -999.2500    -999.2500    5627.9941     755.1863       3.9658       0.0438       3.1260       0.0001       2.7445       0.8855       1.0945
   2686.6411      10.9250       2.9980       0.0370      49.8700      12.5120    -999.2500    -999.2500    4625.7910     695.8800       4.6650       0.0476       3.1060       0.0001       2.7390       0.9130       1.0590
   2686.7935      10.9480       2.5826       0.0375      50.6776      12.8178    -999.2500    -999.2500    3730.6589     609.4443       5.4746       0.0476       3.1150       0.0001       2.7395       0.7791       1.1400
   2686.9458      10.9710       2.1660       0.0380      51.4860      13.1240    -999.2500    -999.2500    2834.5459     522.9140       6.2850       0.0469       3.1240       0.0001       2.7400       0.6450       1.2210
   2687.0984      10.9840       2.1091       0.0365      52.4638      13.0133    -999.2500    -999.2500    2655.0815     502.4077       4.8474       0.0481       3.1305       0.0001       2.7365       0.6265       1.2095
   2687.2507      10.9970       2.0520       0.0350      53.4380      12.9030    -999.2500    -999.2500    2476.2610     481.9750       3.4150       0.0499       3.1370       0.0001       2.7330       0.6080       1.1980
   2687.4031      11.0070       2.3261       0.0370      53.7352      12.6806    -999.2500    -999.2500    2581.3333     491.6312       4.5110       0.0514       3.1420       0.0001       2.7350       0.6959       1.1448
   2687.5554      11.0170       2.6010       0.0390      54.0300      12.4600    -999.2500    -999.2500    2685.5410     501.2080       5.5980       0.0521       3.1470       0.0001       2.7370       0.7830       1.0920
   2687.7080      11.0230       3.2106       0.0405      53.4611      12.0400    -999.2500    -999.2500    2843.9243     510.9570       3.9068       0.0508       3.1330       0.0001       2.7400       0.9805       0.9777
   2687.8604      11.0290       3.8210       0.0420      52.8950      11.6220    -999.2500    -999.2500    3001.5291     520.6580       2.2240       0.0495       3.1190       0.0001       2.7430       1.1770       0.8640
   2688.0127      11.0295       4.1193       0.0440      52.8074      11.6055    -999.2500    -999.2500    3401.0493     568.9808       2.0634       0.0502       3.1090       0.0001       2.7380       1.2731       0.8340
