#------------------------------------------------------------------------------
#
#   Created by  : [OpenWorks] Log Export Utility (LEXP)
#   Created on  : 2016-05-23 17:15:22
#   Project     : CANT971
#   User        : R5K
#   Interpreter : PEP
#
#------------------------------------------------------------------------------
~VERSION INFORMATION
VERS. 2.0 : CWLS Log ASCII Standard - version 2.0
WRAP.  NO : One line per depth step
~WELL INFORMATION
#MNEMONIC   .UNIT                                           VALUE :DESCRIPTION
#------------------------------------------------------------------------------
STRT        .M                                           125.0000 :START DEPTH
STOP        .M                                          3105.7915 :STOP DEPTH
STEP        .M                                             0.1524 :STEP
NULL        .                                           -999.2500 :NULL VALUE
COMP        .                                             UNKNOWN :COMPANY
WELL        .                                               3007D :WELL
FLD         .                                             UNKNOWN :FIELD
LOC         .                                             UNKNOWN :LOCATION
CNTY        .                                             UNKNOWN :COUNTY
STAT        .                                             UNKNOWN :STATE
CTRY        .                                             UNKNOWN :COUNTRY
SRVC        .                                             UNKNOWN :SERVICE COMPANY
DATE        .                                             UNKNOWN :LOG DATE
UWI         .                                               3007D :UNIQUE WELL ID
XCOORD      .                                       599721.440000 :SURFACE X
YCOORD      .                                      2152053.210000 :SURFACE Y
LAT         .                                           19.461622 :LATITUDE
LON         .                                          -92.049925 :LONGITUDE
ELEV        .M                                             0.0000 :SURFACE ELEV
ELEV_TYPE   .                                                  NA :ELEV TYPE
~CURVE INFORMATION
#MNEMONIC.UNIT        API CODE       : CURVE DESCRIPTION
#------------------------------------------------------------------------------
DEPTH    .M                          : Measured Depth
CGR      .API         UNKNOWN        : CGR:Entubado:rC:NONE:v0 (auto-composite)
DT       .us/ft       UNKNOWN        : DT:PETROWORKS:rC:NONE:v1 
GR       .API         UNKNOWN        : GR:PETROWORKS:rC:NONE:v2 
GR-LWD   .API         UNKNOWN        : GR-LWD:PETROWORKS:rC:NONE:v2 
ILD-LWD  .ohm.m       UNKNOWN        : ILD-LWD:PETROWORKS:rC:NONE:v2 
ILM-LWD  .ohm.m       UNKNOWN        : ILM-LWD:PETROWORKS:rC:NONE:v2 
NPHI     .v/v_decimal UNKNOWN        : NPHI:Entubado:rC:NONE:v0 (auto-composite)
POTA     .UNKNOWN     UNKNOWN        : POTA:Entubado:rC:NONE:v0 (auto-composite)
THOR     .ppm         UNKNOWN        : THOR:Entubado:rC:NONE:v0 (auto-composite)
URAN     .ppm         UNKNOWN        : URAN:Entubado:rC:NONE:v0 (auto-composite)
~A     DEPTH          CGR           DT           GR       GR-LWD      ILD-LWD      ILM-LWD         NPHI         POTA         THOR         URAN
# ...
   1806.2769    -999.2500     116.6418      54.5745      59.1142       1.0611       1.0611    -999.2500    -999.2500    -999.2500    -999.2500
   1806.4292    -999.2500     115.9808      52.5653      56.1814       1.0672       1.0672    -999.2500    -999.2500    -999.2500    -999.2500
   1806.5815    -999.2500     115.8091      52.6905      57.1287       1.0700       1.0700    -999.2500    -999.2500    -999.2500    -999.2500
   1806.7340    -999.2500     115.3708      53.9843      59.2295       1.0700       1.0700    -999.2500    -999.2500    -999.2500    -999.2500
   1806.8864    -999.2500     114.8902      54.5703      62.0999       1.0700       1.0700    -999.2500    -999.2500    -999.2500    -999.2500
   1807.0388    -999.2500     115.6661      54.6341      64.3894       1.0840       1.0852    -999.2500    -999.2500    -999.2500    -999.2500
   1807.1912    -999.2500     118.4940      54.4791      64.7407       1.1169       1.1209    -999.2500    -999.2500    -999.2500    -999.2500
   1807.3436    -999.2500     119.2944      54.5705      65.1196       1.1525       1.1593    -999.2500    -999.2500    -999.2500    -999.2500
   1807.4960    -999.2500     118.5407      54.7407      65.5101       1.1891       1.1990    -999.2500    -999.2500    -999.2500    -999.2500
   1807.6484    -999.2500     115.7355      53.4055      62.4159       1.1865       1.1965    -999.2500    -999.2500    -999.2500    -999.2500
   1807.8008    -999.2500     111.8812      53.3246      60.1756       1.1840       1.1940    -999.2500    -999.2500    -999.2500    -999.2500
   1807.9532    -999.2500     111.6547      54.4748      57.4427       1.1809       1.1909    -999.2500    -999.2500    -999.2500    -999.2500
   1808.1056    -999.2500     112.2431      55.9828      55.2044       1.1708       1.1778    -999.2500    -999.2500    -999.2500    -999.2500
   1808.2581    -999.2500     112.6209      54.6293      54.2362       1.1645       1.1694    -999.2500    -999.2500    -999.2500    -999.2500
   1808.4104    -999.2500     113.5964      53.4416      52.8341       1.1554       1.1572    -999.2500    -999.2500    -999.2500    -999.2500
   1808.5627    -999.2500     115.5467      51.8375      53.6536       1.1708       1.1726    -999.2500    -999.2500    -999.2500    -999.2500
   1808.7152    -999.2500     117.2453      51.2207      55.7599       1.1974       1.2017    -999.2500    -999.2500    -999.2500    -999.2500
   1808.8676    -999.2500     115.4633      50.6469      58.4136       1.2309       1.2382    -999.2500    -999.2500    -999.2500    -999.2500
   1809.0200    -999.2500     114.0002      51.4833      60.0351       1.2558       1.2658    -999.2500    -999.2500    -999.2500    -999.2500
   1809.1724    -999.2500     111.9113      51.8292      56.4934       1.2339       1.2439    -999.2500    -999.2500    -999.2500    -999.2500
   1809.3248    -999.2500     110.7420      51.1780      53.3473       1.2145       1.2245    -999.2500    -999.2500    -999.2500    -999.2500
   1809.4772    -999.2500     111.8104      50.8455      49.8854       1.1932       1.2032    -999.2500    -999.2500    -999.2500    -999.2500
   1809.6296    -999.2500     111.5523      49.5334      46.3280       1.2164       1.2297    -999.2500    -999.2500    -999.2500    -999.2500
   1809.7820    -999.2500     110.1924      49.4630      44.1643       1.2351       1.2508    -999.2500    -999.2500    -999.2500    -999.2500
   1809.9344    -999.2500     109.5931      49.4473      41.3501       1.2595       1.2782    -999.2500    -999.2500    -999.2500    -999.2500
   1810.0868    -999.2500     109.1199      49.8007      41.5007       1.2778       1.2926    -999.2500    -999.2500    -999.2500    -999.2500
   1810.2393    -999.2500     107.7864      50.9204      42.6377       1.2844       1.2948    -999.2500    -999.2500    -999.2500    -999.2500
   1810.3916    -999.2500     107.1330      50.2439      44.2284       1.2935       1.2978    -999.2500    -999.2500    -999.2500    -999.2500
   1810.5439    -999.2500     107.2672      49.6738      47.2297       1.2577       1.2590    -999.2500    -999.2500    -999.2500    -999.2500
   1810.6964    -999.2500     107.2931      48.5649      50.9610       1.1732       1.1771    -999.2500    -999.2500    -999.2500    -999.2500
   1810.8488    -999.2500     113.5553      48.7491      55.2170       1.0768       1.0837    -999.2500    -999.2500    -999.2500    -999.2500
   1811.0012    -999.2500     124.3988      50.3578      59.4900       0.9800       0.9900    -999.2500    -999.2500    -999.2500    -999.2500
   1811.1536    -999.2500     124.8541      53.7977      59.8648       0.9835       0.9865    -999.2500    -999.2500    -999.2500    -999.2500
   1811.3060    -999.2500     123.8644      57.0431      60.1387       0.9861       0.9839    -999.2500    -999.2500    -999.2500    -999.2500
   1811.4584    -999.2500     119.9730      59.3254      60.4620       0.9892       0.9808    -999.2500    -999.2500    -999.2500    -999.2500
   1811.6108    -999.2500     115.7459      58.2526      58.7102       1.0428       1.0359    -999.2500    -999.2500    -999.2500    -999.2500
   1811.7632    -999.2500     114.4147      56.0920      57.4335       1.0795       1.0748    -999.2500    -999.2500    -999.2500    -999.2500
   1811.9156    -999.2500     112.5790      54.4021      55.6290       1.1313       1.1296    -999.2500    -999.2500    -999.2500    -999.2500
   1812.0680    -999.2500     111.3923      53.7058      53.7045       1.1580       1.1600    -999.2500    -999.2500    -999.2500    -999.2500
   1812.2205    -999.2500     112.5509      51.8016      52.6326       1.1556       1.1600    -999.2500    -999.2500    -999.2500    -999.2500
   1812.3728    -999.2500     113.4366      49.4948      51.2524       1.1525       1.1600    -999.2500    -999.2500    -999.2500    -999.2500
   1812.5251    -999.2500     112.5615      47.9928      49.5350       1.1515       1.1615    -999.2500    -999.2500    -999.2500    -999.2500
   1812.6776    -999.2500     112.5127      48.7328      47.2908       1.1576       1.1676    -999.2500    -999.2500    -999.2500    -999.2500
   1812.8300    -999.2500     112.7151      49.0534      45.1897       1.1632       1.1732    -999.2500    -999.2500    -999.2500    -999.2500
   1812.9824    -999.2500     112.4422      48.8948      42.9204       1.1693       1.1793    -999.2500    -999.2500    -999.2500    -999.2500
   1813.1348    -999.2500     112.9667      48.0469      43.9188       1.1834       1.1934    -999.2500    -999.2500    -999.2500    -999.2500
   1813.2872    -999.2500     112.9742      48.1806      44.8197       1.1930       1.2030    -999.2500    -999.2500    -999.2500    -999.2500
   1813.4396    -999.2500     114.3971      49.0757      45.9662       1.2052       1.2152    -999.2500    -999.2500    -999.2500    -999.2500
   1813.5920    -999.2500     115.4678      50.1428      47.6024       1.2211       1.2311    -999.2500    -999.2500    -999.2500    -999.2500
   1813.7444    -999.2500     115.1019      49.5145      48.5124       1.2296       1.2396    -999.2500    -999.2500    -999.2500    -999.2500
   1813.8969    -999.2500     113.7021      49.0715      49.8167       1.2417       1.2517    -999.2500    -999.2500    -999.2500    -999.2500
   1814.0492    -999.2500     109.2202      47.6657      49.9516       1.2456       1.2556    -999.2500    -999.2500    -999.2500    -999.2500
   1814.2017    -999.2500     108.4119      47.1665      48.6769       1.2380       1.2480    -999.2500    -999.2500    -999.2500    -999.2500
   1814.3540    -999.2500     108.3549      48.3100      47.1175       1.2288       1.2388    -999.2500    -999.2500    -999.2500    -999.2500
   1814.5063    -999.2500     109.6906      49.5692      45.7474       1.2212       1.2312    -999.2500    -999.2500    -999.2500    -999.2500
   1814.6588    -999.2500     109.5368      49.9395      47.6097       1.2415       1.2515    -999.2500    -999.2500    -999.2500    -999.2500
