#------------------------------------------------------------------------------
#
#   Created by  : [OpenWorks] Log Export Utility (LEXP)
#   Created on  : 2016-05-23 17:15:22
#   Project     : CANT971
#   User        : R5K
#   Interpreter : PEP
#
#------------------------------------------------------------------------------
~VERSION INFORMATION
VERS. 2.0 : CWLS Log ASCII Standard - version 2.0
WRAP.  NO : One line per depth step
~WELL INFORMATION
#MNEMONIC   .UNIT                                           VALUE :DESCRIPTION
#------------------------------------------------------------------------------
STRT        .M                                           125.0000 :START DEPTH
STOP        .M                                          3105.7915 :STOP DEPTH
STEP        .M                                             0.1524 :STEP
NULL        .                                           -999.2500 :NULL VALUE
COMP        .                                             UNKNOWN :COMPANY
WELL        .                                               3007D :WELL
FLD         .                                             UNKNOWN :FIELD
LOC         .                                             UNKNOWN :LOCATION
CNTY        .                                             UNKNOWN :COUNTY
STAT        .                                             UNKNOWN :STATE
CTRY        .                                             UNKNOWN :COUNTRY
SRVC        .                                             UNKNOWN :SERVICE COMPANY
DATE        .                                             UNKNOWN :LOG DATE
UWI         .                                               3007D :UNIQUE WELL ID
XCOORD      .                                       599721.440000 :SURFACE X
YCOORD      .                                      2152053.210000 :SURFACE Y
LAT         .                                           19.461622 :LATITUDE
LON         .                                          -92.049925 :LONGITUDE
ELEV        .M                                             0.0000 :SURFACE ELEV
ELEV_TYPE   .                                                  NA :ELEV TYPE
~CURVE INFORMATION
#MNEMONIC.UNIT        API CODE       : CURVE DESCRIPTION
#------------------------------------------------------------------------------
DEPTH    .M                          : Measured Depth
CGR      .API         UNKNOWN        : CGR:Entubado:rC:NONE:v0 (auto-composite)
DT       .us/ft       UNKNOWN        : DT:PETROWORKS:rC:NONE:v1 
GR       .API         UNKNOWN        : GR:PETROWORKS:rC:NONE:v2 
GR-LWD   .API         UNKNOWN        : GR-LWD:PETROWORKS:rC:NONE:v2 
ILD-LWD  .ohm.m       UNKNOWN        : ILD-LWD:PETROWORKS:rC:NONE:v2 
ILM-LWD  .ohm.m       UNKNOWN        : ILM-LWD:PETROWORKS:rC:NONE:v2 
NPHI     .v/v_decimal UNKNOWN        : NPHI:Entubado:rC:NONE:v0 (auto-composite)
POTA     .UNKNOWN     UNKNOWN        : POTA:Entubado:rC:NONE:v0 (auto-composite)
THOR     .ppm         UNKNOWN        : THOR:Entubado:rC:NONE:v0 (auto-composite)
URAN     .ppm         UNKNOWN        : URAN:Entubado:rC:NONE:v0 (auto-composite)
~A     DEPTH          CGR           DT           GR       GR-LWD      ILD-LWD      ILM-LWD         NPHI         POTA         THOR         URAN
# ...
   2318.3408      36.2315    -999.2500      49.1770      63.7636       4.0053       3.8580       0.0168       0.0141       2.3328       1.4842
   2318.4932      36.7735    -999.2500      50.3259      66.3577       3.5279       3.4465       0.0173       0.0143       2.3810       1.5539
   2318.6455      37.3155    -999.2500      51.4766      66.6249       3.3627       3.2481       0.0177       0.0145       2.4291       1.6236
   2318.7981      37.8575    -999.2500      52.6409      67.5769       3.7291       3.4428       0.0182       0.0147       2.4773       1.6933
   2318.9504      38.3995    -999.2500      53.7767      67.3397       4.1176       3.6973       0.0187       0.0148       2.5254       1.7630
   2319.1028      38.6447    -999.2500      54.0317      66.5720       4.0467       3.6925       0.0182       0.0152       2.4146       1.7641
   2319.2551      38.7468    -999.2500      53.8550      65.4516       3.6542       3.4284       0.0174       0.0158       2.2270       1.7322
   2319.4077      38.8489    -999.2500      53.6783      65.6070       3.3439       3.2102       0.0165       0.0163       2.0394       1.7002
   2319.5601      38.9509    -999.2500      53.5015      66.6201       2.9864       2.9058       0.0157       0.0168       1.8518       1.6682
   2319.7124      39.0530    -999.2500      53.3248      66.3566       2.8563       2.7701       0.0148       0.0173       1.6642       1.6362
   2319.8647      39.1551    -999.2500      53.1480      66.3321       2.9242       2.7959       0.0140       0.0178       1.4766       1.6043
   2320.0171      39.2518    -999.2500      52.9893      66.7298       3.2140       2.9845       0.0136       0.0183       1.3113       1.5750
   2320.1697      39.3070    -999.2500      52.9724      68.0756       3.1785       2.9723       0.0167       0.0183       1.3209       1.5667
   2320.3220      39.3621    -999.2500      52.9556      69.2502       2.9657       2.8252       0.0198       0.0183       1.3304       1.5585
   2320.4744      39.4173    -999.2500      52.9387      72.0643       2.7141       2.6423       0.0229       0.0183       1.3400       1.5502
   2320.6267      39.4724    -999.2500      52.9219      73.2957       2.5784       2.5402       0.0260       0.0184       1.3496       1.5420
   2320.7793      39.5276    -999.2500      52.9050      73.8466       2.5414       2.5028       0.0292       0.0184       1.3591       1.5337
   2320.9316      39.5827    -999.2500      52.8882      73.9150       2.5196       2.4719       0.0323       0.0184       1.3687       1.5255
   2321.0840      39.7090    -999.2500      53.1290      74.3407       2.4227       2.3727       0.0348       0.0183       1.4443       1.5386
   2321.2363      39.8931    -999.2500      53.5795      73.9752       2.3349       2.2994       0.0369       0.0180       1.5738       1.5692
   2321.3889      40.0772    -999.2500      54.0302      71.9074       2.3378       2.2985       0.0390       0.0178       1.7032       1.5998
   2321.5413      40.2613    -999.2500      54.4807      72.0775       2.3333       2.3000       0.0411       0.0176       1.8326       1.6303
   2321.6936      40.4454    -999.2500      54.9313      72.7390       2.3396       2.3000       0.0431       0.0174       1.9620       1.6609
   2321.8459      40.6295    -999.2500      55.3822      72.4261       2.2330       2.2012       0.0452       0.0171       2.0914       1.6914
   2321.9983      40.8155    -999.2500      55.8374      70.7400       2.1200       2.0900       0.0473       0.0169       2.2222       1.7223
   2322.1509      40.4554    -999.2500      55.1634      68.1975       2.1369       2.0768       0.0519       0.0167       2.2163       1.6863
   2322.3032      40.0915    -999.2500      54.4817      67.0117       2.2288       2.1381       0.0565       0.0165       2.2103       1.6499
   2322.4556      39.7276    -999.2500      53.8011      65.5921       2.6356       2.5145       0.0611       0.0164       2.2043       1.6135
   2322.6079      39.3637    -999.2500      53.1195      66.8281       3.0562       2.9105       0.0657       0.0162       2.1984       1.5771
   2322.7605      38.9998    -999.2500      52.4382      67.1718       2.9349       2.8724       0.0703       0.0160       2.1924       1.5407
   2322.9128      38.6359    -999.2500      51.7572      69.4529       2.6812       2.7029       0.0749       0.0158       2.1864       1.5043
   2323.0652      38.4751    -999.2500      51.3628      72.3535       2.8001       2.8291       0.0743       0.0157       2.1835       1.4775
   2323.2175      38.5859    -999.2500      51.3522      75.2242       2.8841       2.8794       0.0669       0.0158       2.1848       1.4636
   2323.3701      38.6967    -999.2500      51.3416      73.4253       3.0152       2.9699       0.0594       0.0158       2.1860       1.4497
   2323.5225      38.8074    -999.2500      51.3310      69.3977       3.1575       3.0851       0.0520       0.0159       2.1872       1.4358
   2323.6748      38.9182    -999.2500      51.3204      68.3394       3.1858       3.1566       0.0445       0.0160       2.1885       1.4219
   2323.8271      39.0290    -999.2500      51.3098      69.9100       3.2747       3.2301       0.0370       0.0160       2.1897       1.4080
   2323.9795      39.1398    -999.2500      51.2992      69.9232       3.7766       3.5894       0.0296       0.0161       2.1909       1.3941
   2324.1321      38.7993    -999.2500      51.1783      69.5585       3.8701       3.6829       0.0328       0.0159       2.2089       1.4192
   2324.2844      38.3890    -999.2500      51.0403      68.6856       3.6914       3.5595       0.0376       0.0156       2.2294       1.4505
   2324.4368      37.9787    -999.2500      50.9025      70.5586       3.3745       3.2843       0.0425       0.0153       2.2500       1.4817
   2324.5891      37.5685    -999.2500      50.7644      72.9015       2.9982       2.9368       0.0473       0.0150       2.2705       1.5129
   2324.7417      37.1582    -999.2500      50.6265      74.5939       2.9898       2.8855       0.0522       0.0148       2.2911       1.5442
   2324.8940      36.7480    -999.2500      50.4886      75.5066       3.3988       3.1383       0.0570       0.0145       2.3116       1.5754
   2325.0464      36.2247    -999.2500      50.1295      73.8000       3.7500       3.3900       0.0607       0.0142       2.2959       1.5942
   2325.1987      35.4433    -999.2500      49.2595      72.5209       3.9394       3.5628       0.0617       0.0141       2.1975       1.5848
   2325.3513      34.6620    -999.2500      48.4016      68.4229       4.4669       4.0569       0.0627       0.0139       2.0990       1.5753
   2325.5037      33.8806    -999.2500      47.5385      64.3251       4.7250       4.3507       0.0637       0.0137       2.0006       1.5658
   2325.6560      33.0992    -999.2500      46.6741      62.3768       4.6651       4.3924       0.0647       0.0135       1.9021       1.5564
   2325.8083      32.3179    -999.2500      45.8097      61.4644       4.4764       4.3054       0.0657       0.0133       1.8037       1.5469
   2325.9607      31.5365    -999.2500      44.9463      59.7284       4.1389       4.0207       0.0667       0.0131       1.7052       1.5374
   2326.1133      31.7229    -999.2500      44.9256      59.1555       3.9990       3.8311       0.0635       0.0134       1.6596       1.5137
   2326.2656      32.2445    -999.2500      45.1971      58.6816       3.9525       3.7238       0.0587       0.0137       1.6324       1.4850
   2326.4180      32.7661    -999.2500      45.4684      58.8205       3.8395       3.6357       0.0540       0.0141       1.6051       1.4563
   2326.5703      33.2877    -999.2500      45.7399      59.4530       3.6219       3.4948       0.0492       0.0144       1.5779       1.4277
   2326.7229      33.8093    -999.2500      46.0112      62.6574       3.4854       3.4149       0.0444       0.0148       1.5506       1.3990
