#------------------------------------------------------------------------------
#
#   Created by  : [OpenWorks] Log Export Utility (LEXP)
#   Created on  : 2016-05-23 17:15:22
#   Project     : CANT971
#   User        : R5K
#   Interpreter : PEP
#
#------------------------------------------------------------------------------
~VERSION INFORMATION
VERS. 2.0 : CWLS Log ASCII Standard - version 2.0
WRAP.  NO : One line per depth step
~WELL INFORMATION
#MNEMONIC   .UNIT                                           VALUE :DESCRIPTION
#------------------------------------------------------------------------------
STRT        .M                                           125.0000 :START DEPTH
STOP        .M                                          3105.7915 :STOP DEPTH
STEP        .M                                             0.1524 :STEP
NULL        .                                           -999.2500 :NULL VALUE
COMP        .                                             UNKNOWN :COMPANY
WELL        .                                               3007D :WELL
FLD         .                                             UNKNOWN :FIELD
LOC         .                                             UNKNOWN :LOCATION
CNTY        .                                             UNKNOWN :COUNTY
STAT        .                                             UNKNOWN :STATE
CTRY        .                                             UNKNOWN :COUNTRY
SRVC        .                                             UNKNOWN :SERVICE COMPANY
DATE        .                                             UNKNOWN :LOG DATE
UWI         .                                               3007D :UNIQUE WELL ID
XCOORD      .                                       599721.440000 :SURFACE X
YCOORD      .                                      2152053.210000 :SURFACE Y
LAT         .                                           19.461622 :LATITUDE
LON         .                                          -92.049925 :LONGITUDE
ELEV        .M                                             0.0000 :SURFACE ELEV
ELEV_TYPE   .                                                  NA :ELEV TYPE
~CURVE INFORMATION
#MNEMONIC.UNIT        API CODE       : CURVE DESCRIPTION
#------------------------------------------------------------------------------
DEPTH    .M                          : Measured Depth
CGR      .API         UNKNOWN        : CGR:Entubado:rC:NONE:v0 (auto-composite)
DT       .us/ft       UNKNOWN        : DT:PETROWORKS:rC:NONE:v1 
GR       .API         UNKNOWN        : GR:PETROWORKS:rC:NONE:v2 
GR-LWD   .API         UNKNOWN        : GR-LWD:PETROWORKS:rC:NONE:v2 
ILD-LWD  .ohm.m       UNKNOWN        : ILD-LWD:PETROWORKS:rC:NONE:v2 
ILM-LWD  .ohm.m       UNKNOWN        : ILM-LWD:PETROWORKS:rC:NONE:v2 
NPHI     .v/v_decimal UNKNOWN        : NPHI:Entubado:rC:NONE:v0 (auto-composite)
POTA     .UNKNOWN     UNKNOWN        : POTA:Entubado:rC:NONE:v0 (auto-composite)
THOR     .ppm         UNKNOWN        : THOR:Entubado:rC:NONE:v0 (auto-composite)
URAN     .ppm         UNKNOWN        : URAN:Entubado:rC:NONE:v0 (auto-composite)
~A     DEPTH          CGR           DT           GR       GR-LWD      ILD-LWD      ILM-LWD         NPHI         POTA         THOR         URAN
# ...
   2821.8704      20.2784    -999.2500      47.9990      48.3650     120.8772     117.6140       0.1137       0.0088       0.9853       3.1782
   2822.0227      20.8629    -999.2500      48.3728      52.9302     110.5560     109.3362       0.1188       0.0090       1.0180       3.1544
   2822.1753      18.9105    -999.2500      45.6804      56.5065     102.5198     101.8615       0.1311       0.0083       0.8562       3.0691
   2822.3276      16.9582    -999.2500      42.9817      65.5010      90.8402      89.8074       0.1434       0.0076       0.6944       2.9837
   2822.4800      15.0058    -999.2500      40.2840      93.7207      77.7420      76.8263       0.1557       0.0069       0.5325       2.8983
   2822.6323      13.0535    -999.2500      37.5888     133.3968      72.2452      69.6233       0.1680       0.0063       0.3707       2.8129
   2822.7849      11.1011    -999.2500      34.8908     149.4191      71.6717      67.6264       0.1803       0.0056       0.2089       2.7276
   2822.9373       9.1487    -999.2500      32.1932     121.8331      78.5365      73.9557       0.1926       0.0049       0.0471       2.6422
   2823.0896       8.3253    -999.2500      31.0691      73.4389      91.2970      87.4283       0.1910       0.0045       0.0270       2.6076
   2823.2419       8.2933    -999.2500      31.0456      39.9050     102.6358      98.6819       0.1796       0.0043       0.1063       2.6085
   2823.3943       8.2612    -999.2500      31.0220      28.7784     108.6236     105.2976       0.1682       0.0040       0.1856       2.6095
   2823.5469       8.2292    -999.2500      30.9985      27.0522     114.3794     113.4614       0.1569       0.0038       0.2650       2.6105
   2823.6992       8.1971    -999.2500      30.9748      28.5967     120.9721     125.5108       0.1455       0.0036       0.3443       2.6115
   2823.8516       8.1650    -999.2500      30.9513      33.8410     126.8538     134.0510       0.1341       0.0034       0.4236       2.6125
   2824.0039       8.2052    -999.2500      31.0531      42.3404     130.0169     137.3525       0.1233       0.0032       0.5036       2.6187
   2824.1565      10.9242    -999.2500      35.5323      51.9374     138.1144     144.2677       0.1328       0.0045       0.6094       2.8215
   2824.3088      13.6432    -999.2500      40.0228      59.7828     145.6158     152.4091       0.1424       0.0057       0.7153       3.0243
   2824.4612      16.3622    -999.2500      44.5105      64.2440     150.5014     156.4551       0.1519       0.0069       0.8211       3.2270
   2824.6135      19.0812    -999.2500      48.9966      67.8496     154.0068     158.4720       0.1615       0.0082       0.9270       3.4298
   2824.7661      21.8002    -999.2500      53.4847      81.1365     158.9439     160.5501       0.1710       0.0094       1.0329       3.6326
   2824.9185      24.5192    -999.2500      57.9725      88.8871     166.0749     167.2034       0.1806       0.0106       1.1387       3.8353
   2825.0708      24.6265    -999.2500      57.6691      86.1337     175.7568     173.3155       0.1800       0.0107       1.1416       3.7886
   2825.2231      21.7235    -999.2500      51.8553      74.3233     182.1049     182.7465       0.1677       0.0094       1.0258       3.4543
   2825.3755      18.8205    -999.2500      46.0350      57.2982     190.0431     188.6090       0.1554       0.0081       0.9099       3.1200
   2825.5281      15.9175    -999.2500      40.2125      47.2148     190.1671     189.2807       0.1431       0.0068       0.7941       2.7857
   2825.6804      13.0146    -999.2500      34.3993      39.7595     186.9116     186.9700       0.1308       0.0054       0.6783       2.4514
   2825.8328      10.1116    -999.2500      28.5769      36.9778     189.6560     186.6592       0.1185       0.0041       0.5625       2.1172
   2825.9851       7.2086    -999.2500      22.7511      34.4089     190.4836     186.3347       0.1062       0.0028       0.4466       1.7829
   2826.1377       6.4014    -999.2500      21.6013      32.7480     188.2912     183.7581       0.1051       0.0026       0.3586       1.7427
   2826.2900       5.8196    -999.2500      20.9447      30.6646     184.6395     178.6172       0.1053       0.0025       0.2736       1.7341
   2826.4424       5.2378    -999.2500      20.2885      28.6487     184.9458     178.5363       0.1054       0.0024       0.1885       1.7256
   2826.5947       4.6560    -999.2500      19.6322      26.7710     193.9424     186.1870       0.1056       0.0023       0.1034       1.7170
   2826.7473       4.0742    -999.2500      18.9761      26.8690     195.7178     187.6339       0.1057       0.0022       0.0184       1.7085
   2826.8997       3.4924    -999.2500      18.3186      26.4500     199.2000     192.9900       0.1059       0.0021      -0.0667       1.6999
   2827.0520       3.2655    -999.2500      18.0696      26.4413     193.1987     188.7653       0.1063       0.0020      -0.0886       1.6972
   2827.2043       3.7239    -999.2500      18.6020      25.1593     188.7364     184.2375       0.1073       0.0020       0.0114       1.7058
   2827.3567       4.1822    -999.2500      19.1354      27.1855     184.6428     182.2849       0.1083       0.0020       0.1114       1.7144
   2827.5093       4.6406    -999.2500      19.6689      28.4662     176.8671     175.0393       0.1093       0.0020       0.2113       1.7229
   2827.6616       5.0990    -999.2500      20.2014      29.9148     170.8131     170.3709       0.1102       0.0020       0.3113       1.7315
   2827.8140       5.5574    -999.2500      20.7349      29.4857     165.7960     163.1110       0.1112       0.0020       0.4113       1.7400
   2827.9663       6.0157    -999.2500      21.2684      29.3009     149.9086     150.7889       0.1122       0.0020       0.5113       1.7486
   2828.1189       6.4440    -999.2500      21.7598      28.4079     143.7840     139.9978       0.1117       0.0021       0.5776       1.7559
   2828.2712       6.8638    -999.2500      22.2401      27.8856     128.6333     128.7762       0.1108       0.0022       0.6345       1.7629
   2828.4236       7.2836    -999.2500      22.7203      27.9373     118.0297     120.0466       0.1099       0.0023       0.6913       1.7698
   2828.5759       7.7034    -999.2500      23.2007      28.6039     112.9651     113.0050       0.1089       0.0023       0.7482       1.7768
   2828.7285       8.1233    -999.2500      23.6808      28.9418     105.7566     105.7046       0.1080       0.0024       0.8051       1.7837
   2828.8809       8.5431    -999.2500      24.1612      32.3159      98.1786      98.5484       0.1071       0.0025       0.8619       1.7907
   2829.0332       9.3982    -999.2500      25.7182      35.1470      89.9628      89.1002       0.1084       0.0028       0.9227       1.8705
   2829.1855      11.8162    -999.2500      31.1054      36.7243      79.1894      77.5023       0.1173       0.0040       0.9977       2.2119
   2829.3379      14.2342    -999.2500      36.5047      36.3178      74.2366      72.5181       0.1263       0.0051       1.0726       2.5533
   2829.4905      16.6522    -999.2500      41.9032      38.7199      73.1575      72.4581       0.1353       0.0063       1.1476       2.8947
   2829.6428      19.0702    -999.2500      47.2946      48.1153      71.6818      73.0427       0.1443       0.0074       1.2225       3.2361
   2829.7952      21.4882    -999.2500      52.6935      60.3797      70.8581      72.9031       0.1532       0.0086       1.2975       3.5775
   2829.9475      23.9062    -999.2500      58.0911      74.8950      68.8258      71.6336       0.1622       0.0097       1.3724       3.9189
   2830.1001      25.6310    -999.2500      61.5075     119.7794      56.9443      61.5472       0.1703       0.0106       1.4068       4.1135
   2830.2524      26.9926    -999.2500      63.8971     155.7197      41.8226      46.4095       0.1778       0.0113       1.4200       4.2311
