#------------------------------------------------------------------------------
#
#   Created by  : [OpenWorks] Log Export Utility (LEXP)
#   Created on  : 2016-05-23 17:15:22
#   Project     : CANT971
#   User        : R5K
#   Interpreter : PEP
#
#------------------------------------------------------------------------------
~VERSION INFORMATION
VERS. 2.0 : CWLS Log ASCII Standard - version 2.0
WRAP.  NO : One line per depth step
~WELL INFORMATION
#MNEMONIC   .UNIT                                           VALUE :DESCRIPTION
#------------------------------------------------------------------------------
STRT        .M                                           125.0000 :START DEPTH
STOP        .M                                          3105.7915 :STOP DEPTH
STEP        .M                                             0.1524 :STEP
NULL        .                                           -999.2500 :NULL VALUE
COMP        .                                             UNKNOWN :COMPANY
WELL        .                                               3007D :WELL
FLD         .                                             UNKNOWN :FIELD
LOC         .                                             UNKNOWN :LOCATION
CNTY        .                                             UNKNOWN :COUNTY
STAT        .                                             UNKNOWN :STATE
CTRY        .                                             UNKNOWN :COUNTRY
SRVC        .                                             UNKNOWN :SERVICE COMPANY
DATE        .                                             UNKNOWN :LOG DATE
UWI         .                                               3007D :UNIQUE WELL ID
XCOORD      .                                       599721.440000 :SURFACE X
YCOORD      .                                      2152053.210000 :SURFACE Y
LAT         .                                           19.461622 :LATITUDE
LON         .                                          -92.049925 :LONGITUDE
ELEV        .M                                             0.0000 :SURFACE ELEV
ELEV_TYPE   .                                                  NA :ELEV TYPE
~CURVE INFORMATION
#MNEMONIC.UNIT        API CODE       : CURVE DESCRIPTION
#------------------------------------------------------------------------------
DEPTH    .M                          : Measured Depth
CGR      .API         UNKNOWN        : CGR:Entubado:rC:NONE:v0 (auto-composite)
DT       .us/ft       UNKNOWN        : DT:PETROWORKS:rC:NONE:v1 
GR       .API         UNKNOWN        : GR:PETROWORKS:rC:NONE:v2 
GR-LWD   .API         UNKNOWN        : GR-LWD:PETROWORKS:rC:NONE:v2 
ILD-LWD  .ohm.m       UNKNOWN        : ILD-LWD:PETROWORKS:rC:NONE:v2 
ILM-LWD  .ohm.m       UNKNOWN        : ILM-LWD:PETROWORKS:rC:NONE:v2 
NPHI     .v/v_decimal UNKNOWN        : NPHI:Entubado:rC:NONE:v0 (auto-composite)
POTA     .UNKNOWN     UNKNOWN        : POTA:Entubado:rC:NONE:v0 (auto-composite)
THOR     .ppm         UNKNOWN        : THOR:Entubado:rC:NONE:v0 (auto-composite)
URAN     .ppm         UNKNOWN        : URAN:Entubado:rC:NONE:v0 (auto-composite)
~A     DEPTH          CGR           DT           GR       GR-LWD      ILD-LWD      ILM-LWD         NPHI         POTA         THOR         URAN
# ...
   2565.8384       2.1835    -999.2500      11.3365      16.6202    1161.3993    1026.1721       0.1020       0.0005       0.2838       1.0493
   2565.9907       1.6410    -999.2500      12.0325      17.8067    1145.0225    1059.0465       0.1012       0.0001       0.3026       1.1912
   2566.1433       2.0454    -999.2500      12.3968      17.6474    1131.4219    1039.3359       0.1069       0.0003       0.3287       1.1868
   2566.2957       2.5107    -999.2500      12.7412      17.0616     982.8382     897.7387       0.1130       0.0005       0.3553       1.1729
   2566.4480       2.9760    -999.2500      13.0853      16.1825     831.7641     734.7056       0.1190       0.0007       0.3819       1.1590
   2566.6003       3.4413    -999.2500      13.4282      15.4106     725.9966     615.2602       0.1251       0.0009       0.4085       1.1451
   2566.7527       3.9066    -999.2500      13.7735      15.7816     590.3843     523.2349       0.1312       0.0011       0.4351       1.1312
   2566.9053       4.3720    -999.2500      14.1177      17.3372     577.7513     509.2136       0.1372       0.0013       0.4617       1.1173
   2567.0576       4.5412    -999.2500      15.1705      19.1209     630.3362     551.0109       0.1396       0.0014       0.4604       1.2185
   2567.2100       4.2230    -999.2500      17.3825      22.2055     594.8021     536.4956       0.1357       0.0013       0.4131       1.5088
   2567.3623       3.9049    -999.2500      19.5982      25.6292     520.8266     464.7117       0.1319       0.0013       0.3658       1.7992
   2567.5149       3.5868    -999.2500      21.8142      31.6862     492.7632     427.8002       0.1281       0.0012       0.3185       2.0896
   2567.6672       3.2687    -999.2500      24.0266      36.7148     425.8338     381.6436       0.1243       0.0011       0.2711       2.3800
   2567.8196       2.9506    -999.2500      26.2427      39.6140     396.4121     350.0641       0.1204       0.0011       0.2238       2.6704
   2567.9719       2.6324    -999.2500      28.4590      41.6251     373.7020     317.6548       0.1166       0.0010       0.1765       2.9607
   2568.1245       2.1593    -999.2500      27.4585      39.9938     332.7379     283.9715       0.1202       0.0010       0.0807       2.9005
   2568.2769       1.6512    -999.2500      25.7366      36.3157     304.2933     266.7428       0.1255       0.0010      -0.0260       2.7614
   2568.4292       1.1432    -999.2500      24.0155      30.3532     313.6336     274.7570       0.1308       0.0010      -0.1326       2.6223
   2568.5815       0.6351    -999.2500      22.2938      26.6979     304.8226     264.9721       0.1361       0.0009      -0.2393       2.4832
   2568.7339       0.1271    -999.2500      20.5732      23.3779     282.2055     241.4061       0.1414       0.0009      -0.3460       2.3441
   2568.8865      -0.3810    -999.2500      18.8516      21.6649     239.9888     203.3116       0.1467       0.0009      -0.4527       2.2050
   2569.0388      -0.7245    -999.2500      17.5930      20.8976     255.5394     218.0535       0.1499       0.0009      -0.5237       2.1001
   2569.1912      -0.5863    -999.2500      17.6894      22.2718     282.1633     239.6179       0.1470       0.0009      -0.4903       2.0953
   2569.3435      -0.4481    -999.2500      17.7861      24.3044     285.9668     248.7298       0.1440       0.0009      -0.4568       2.0905
   2569.4961      -0.3099    -999.2500      17.8827      24.6029     310.5674     274.2242       0.1410       0.0009      -0.4234       2.0858
   2569.6484      -0.1717    -999.2500      17.9792      24.5310     317.4555     272.5918       0.1380       0.0009      -0.3899       2.0810
   2569.8008      -0.0335    -999.2500      18.0753      25.5768     320.9713     270.6121       0.1350       0.0009      -0.3565       2.0762
   2569.9531       0.1048    -999.2500      18.1725      27.7173     326.4885     278.6357       0.1320       0.0009      -0.3231       2.0715
   2570.1057       0.7949    -999.2500      18.9035      28.2484     334.5523     285.1671       0.1302       0.0010      -0.2151       2.0761
   2570.2581       1.7297    -999.2500      19.9155      27.8547     351.2118     295.0913       0.1289       0.0012      -0.0741       2.0850
   2570.4104       2.6645    -999.2500      20.9275      28.0172     382.8734     321.3115       0.1276       0.0013       0.0668       2.0938
   2570.5627       3.5993    -999.2500      21.9400      30.2132     412.0644     352.6971       0.1263       0.0015       0.2078       2.1027
   2570.7151       4.5341    -999.2500      22.9514      33.5084     424.1505     385.0923       0.1249       0.0016       0.3488       2.1116
   2570.8677       5.4689    -999.2500      23.9638      34.7015     436.7430     401.0525       0.1236       0.0018       0.4897       2.1204
   2571.0200       6.2842    -999.2500      24.7778      32.2825     471.7066     422.4508       0.1258       0.0019       0.6075       2.1203
   2571.1724       6.3082    -999.2500      24.2863      29.0941     446.3810     399.9501       0.1508       0.0020       0.5720       2.0611
   2571.3247       6.3322    -999.2500      23.7937      27.6749     376.4016     327.3250       0.1758       0.0021       0.5364       2.0019
   2571.4773       6.3563    -999.2500      23.3012      28.2871     355.7390     300.9933       0.2008       0.0022       0.5008       1.9428
   2571.6296       6.3803    -999.2500      22.8092      28.4525     373.7016     315.6018       0.2258       0.0023       0.4653       1.8836
   2571.7820       6.4043    -999.2500      22.3167      28.7607     418.4285     336.0934       0.2507       0.0024       0.4297       1.8244
   2571.9343       6.4284    -999.2500      21.8243      29.4238     413.9819     320.3928       0.2757       0.0026       0.3941       1.7652
   2572.0869       6.4374    -999.2500      21.1172      31.2321     431.9986     335.1542       0.2728       0.0026       0.3629       1.6831
   2572.2393       6.4350    -999.2500      20.2483      31.3091     560.5737     431.7104       0.2488       0.0027       0.3351       1.5837
   2572.3916       6.4327    -999.2500      19.3789      28.5803     691.4810     512.7882       0.2247       0.0028       0.3072       1.4843
   2572.5439       6.4303    -999.2500      18.5091      24.1057     673.9417     504.5730       0.2007       0.0028       0.2794       1.3849
   2572.6963       6.4280    -999.2500      17.6406      20.7933     660.5178     504.3625       0.1766       0.0029       0.2515       1.2855
   2572.8489       6.4256    -999.2500      16.7707      20.0200     671.8100     513.4600       0.1526       0.0029       0.2236       1.1861
   2573.0012       6.4233    -999.2500      15.9083      18.8758     636.5845     534.4357       0.1287       0.0030       0.1960       1.0875
   2573.1536       5.4410    -999.2500      14.9461      17.8302     667.8063     585.0036       0.1211       0.0026       0.1573       1.0898
   2573.3059       4.4664    -999.2500      13.9906      17.4024     707.3538     609.4073       0.1136       0.0021       0.1188       1.0920
   2573.4585       3.4918    -999.2500      13.0358      16.4430     730.5391     633.1878       0.1061       0.0017       0.0804       1.0943
   2573.6108       2.5172    -999.2500      12.0812      15.2325     709.5965     636.4072       0.0986       0.0013       0.0420       1.0965
   2573.7632       1.5426    -999.2500      11.1262      13.5557     649.7449     600.8745       0.0911       0.0009       0.0035       1.0988
   2573.9155       0.5679    -999.2500      10.1714      13.1302     551.3442     523.5930       0.0836       0.0004      -0.0349       1.1011
   2574.0681       0.6354    -999.2500      10.6468      13.0634     518.0551     479.6898       0.0898       0.0004       0.0027       1.1477
   2574.2205       1.9964    -999.2500      12.8925      13.7082     503.0438     443.1675       0.1131       0.0008       0.1347       1.2493
