#------------------------------------------------------------------------------
#
#   Created by  : [OpenWorks] Log Export Utility (LEXP)
#   Created on  : 2016-05-23 17:15:22
#   Project     : CANT971
#   User        : R5K
#   Interpreter : PEP
#
#------------------------------------------------------------------------------
~VERSION INFORMATION
VERS. 2.0 : CWLS Log ASCII Standard - version 2.0
WRAP.  NO : One line per depth step
~WELL INFORMATION
#MNEMONIC   .UNIT                                           VALUE :DESCRIPTION
#------------------------------------------------------------------------------
STRT        .M                                           125.0000 :START DEPTH
STOP        .M                                          3105.7915 :STOP DEPTH
STEP        .M                                             0.1524 :STEP
NULL        .                                           -999.2500 :NULL VALUE
COMP        .                                             UNKNOWN :COMPANY
WELL        .                                               3007D :WELL
FLD         .                                             UNKNOWN :FIELD
LOC         .                                             UNKNOWN :LOCATION
CNTY        .                                             UNKNOWN :COUNTY
STAT        .                                             UNKNOWN :STATE
CTRY        .                                             UNKNOWN :COUNTRY
SRVC        .                                             UNKNOWN :SERVICE COMPANY
DATE        .                                             UNKNOWN :LOG DATE
UWI         .                                               3007D :UNIQUE WELL ID
XCOORD      .                                       599721.440000 :SURFACE X
YCOORD      .                                      2152053.210000 :SURFACE Y
LAT         .                                           19.461622 :LATITUDE
LON         .                                          -92.049925 :LONGITUDE
ELEV        .M                                             0.0000 :SURFACE ELEV
ELEV_TYPE   .                                                  NA :ELEV TYPE
~CURVE INFORMATION
#MNEMONIC.UNIT        API CODE       : CURVE DESCRIPTION
#------------------------------------------------------------------------------
DEPTH    .M                          : Measured Depth
CGR      .API         UNKNOWN        : CGR:Entubado:rC:NONE:v0 (auto-composite)
DT       .us/ft       UNKNOWN        : DT:PETROWORKS:rC:NONE:v1 
GR       .API         UNKNOWN        : GR:PETROWORKS:rC:NONE:v2 
GR-LWD   .API         UNKNOWN        : GR-LWD:PETROWORKS:rC:NONE:v2 
ILD-LWD  .ohm.m       UNKNOWN        : ILD-LWD:PETROWORKS:rC:NONE:v2 
ILM-LWD  .ohm.m       UNKNOWN        : ILM-LWD:PETROWORKS:rC:NONE:v2 
NPHI     .v/v_decimal UNKNOWN        : NPHI:Entubado:rC:NONE:v0 (auto-composite)
POTA     .UNKNOWN     UNKNOWN        : POTA:Entubado:rC:NONE:v0 (auto-composite)
THOR     .ppm         UNKNOWN        : THOR:Entubado:rC:NONE:v0 (auto-composite)
URAN     .ppm         UNKNOWN        : URAN:Entubado:rC:NONE:v0 (auto-composite)
~A     DEPTH          CGR           DT           GR       GR-LWD      ILD-LWD      ILM-LWD         NPHI         POTA         THOR         URAN
# ...
   2907.2144       6.4171    -999.2500      18.6734      24.8072     214.8215     216.3610       0.0518       0.0028       0.2893       1.4052
   2907.3667       6.6340    -999.2500      18.7170      23.6439     216.0505     218.4834       0.0516       0.0028       0.3292       1.3853
   2907.5193       6.8508    -999.2500      18.7606      23.1965     225.0984     221.3656       0.0513       0.0029       0.3690       1.3654
   2907.6716       7.0677    -999.2500      18.8041      23.5030     225.0987     222.3557       0.0511       0.0029       0.4089       1.3456
   2907.8240       7.2846    -999.2500      18.8477      24.2425     217.7646     219.5948       0.0508       0.0029       0.4488       1.3257
   2907.9763       7.5014    -999.2500      18.8913      23.8424     223.8751     224.8714       0.0505       0.0029       0.4886       1.3059
   2908.1289       7.8380    -999.2500      19.1638      24.3287     223.5352     224.2979       0.0501       0.0029       0.5767       1.2985
   2908.2812       8.1965    -999.2500      19.4786      24.6687     219.6346     221.7063       0.0497       0.0028       0.6737       1.2935
   2908.4336       8.5550    -999.2500      19.7931      24.9820     220.0536     216.2481       0.0492       0.0028       0.7706       1.2884
   2908.5859       8.9135    -999.2500      20.1078      25.8153     212.9352     208.4402       0.0488       0.0027       0.8676       1.2834
   2908.7383       9.2720    -999.2500      20.4223      25.7263     204.9808     203.6569       0.0484       0.0027       0.9645       1.2784
   2908.8909       9.6305    -999.2500      20.7369      26.4991     206.9830     205.1563       0.0479       0.0026       1.0614       1.2733
   2909.0432       9.8762    -999.2500      20.9918      28.0053     206.7668     203.4672       0.0474       0.0027       1.1022       1.2743
   2909.1956       9.8368    -999.2500      21.0949      30.4007     198.1055     194.5036       0.0465       0.0029       1.0008       1.2907
   2909.3479       9.7973    -999.2500      21.1982      32.1504     192.5427     189.9036       0.0457       0.0031       0.8994       1.3071
   2909.5005       9.7578    -999.2500      21.3011      31.3131     183.5009     183.7503       0.0448       0.0034       0.7980       1.3234
   2909.6528       9.7184    -999.2500      21.4046      31.5129     177.3184     177.1653       0.0440       0.0036       0.6967       1.3398
   2909.8052       9.6789    -999.2500      21.5080      31.7722     175.0201     173.6042       0.0432       0.0038       0.5953       1.3562
   2909.9575       9.6395    -999.2500      21.6113      31.5153     173.1056     172.2771       0.0423       0.0040       0.4939       1.3725
   2910.1101       9.3496    -999.2500      21.4898      31.0561     176.7418     173.2677       0.0416       0.0039       0.4739       1.3919
   2910.2625       8.9633    -999.2500      21.2818      32.0667     174.5812     171.1902       0.0408       0.0037       0.4851       1.4123
   2910.4148       8.5769    -999.2500      21.0738      32.2486     174.8778     173.5964       0.0401       0.0035       0.4964       1.4328
   2910.5671       8.1906    -999.2500      20.8657      30.4498     184.2050     183.7601       0.0394       0.0032       0.5077       1.4532
   2910.7195       7.8042    -999.2500      20.6578      28.7783     194.3482     192.9995       0.0386       0.0030       0.5190       1.4737
   2910.8721       7.4179    -999.2500      20.4497      29.4135     194.2099     194.0366       0.0379       0.0028       0.5303       1.4941
   2911.0244       7.1596    -999.2500      20.3502      30.5778     197.2905     196.7926       0.0373       0.0026       0.5578       1.5123
   2911.1768       7.5729    -999.2500      20.8157      30.0021     199.4188     198.9651       0.0375       0.0025       0.6705       1.5183
   2911.3291       7.9863    -999.2500      21.2823      30.4409     194.7864     198.5207       0.0376       0.0025       0.7831       1.5244
   2911.4817       8.3996    -999.2500      21.7488      31.8987     196.2417     199.0187       0.0377       0.0024       0.8958       1.5305
   2911.6340       8.8130    -999.2500      22.2148      33.0369     201.9992     202.8813       0.0379       0.0023       1.0085       1.5365
   2911.7864       9.2264    -999.2500      22.6813      32.3397     214.2475     210.7514       0.0380       0.0023       1.1211       1.5426
   2911.9387       9.6397    -999.2500      23.1477      30.9014     219.3031     216.6923       0.0381       0.0022       1.2338       1.5487
   2912.0913       9.6102    -999.2500      23.4668      30.0297     224.2647     225.9570       0.0384       0.0022       1.2323       1.5886
   2912.2437       9.2836    -999.2500      23.6873      30.2440     229.4017     227.1294       0.0389       0.0022       1.1543       1.6514
   2912.3960       8.9570    -999.2500      23.9079      30.9775     231.5360     227.8256       0.0393       0.0022       1.0764       1.7141
   2912.5483       8.6304    -999.2500      24.1286      32.5627     235.2260     229.6057       0.0397       0.0023       0.9984       1.7769
   2912.7007       8.3038    -999.2500      24.3478      33.2867     231.7515     225.5507       0.0401       0.0023       0.9204       1.8396
   2912.8533       7.9772    -999.2500      24.5697      33.1592     233.2257     229.7249       0.0405       0.0023       0.8424       1.9024
   2913.0056       7.6617    -999.2500      24.7868      32.3647     233.9374     237.6618       0.0409       0.0023       0.7675       1.9634
   2913.1580       7.6363    -999.2500      24.9071      31.9507     236.2504     235.2417       0.0397       0.0023       0.7730       1.9801
   2913.3103       7.6109    -999.2500      25.0278      32.2843     235.0138     230.6737       0.0385       0.0022       0.7784       1.9969
   2913.4629       7.5855    -999.2500      25.1483      34.2596     235.9411     232.4731       0.0373       0.0022       0.7839       2.0136
   2913.6152       7.5601    -999.2500      25.2688      34.7036     233.1809     227.1581       0.0361       0.0022       0.7894       2.0303
   2913.7676       7.5347    -999.2500      25.3894      35.1904     225.8784     220.2547       0.0349       0.0021       0.7949       2.0470
   2913.9199       7.5093    -999.2500      25.5099      34.0862     224.8301     218.6870       0.0337       0.0021       0.8003       2.0637
   2914.0725       7.5157    -999.2500      25.4385      32.8459     221.8415     216.3635       0.0340       0.0021       0.7923       2.0548
   2914.2249       7.5571    -999.2500      25.1555      29.9806     223.4220     213.5007       0.0359       0.0022       0.7692       2.0176
   2914.3772       7.5986    -999.2500      24.8722      28.0110     228.2944     220.9112       0.0377       0.0023       0.7462       1.9804
   2914.5295       7.6400    -999.2500      24.5887      28.8052     222.1905     218.1306       0.0396       0.0024       0.7231       1.9432
   2914.6819       7.6814    -999.2500      24.3057      30.4328     210.3752     208.0083       0.0415       0.0025       0.7001       1.9060
   2914.8345       7.7229    -999.2500      24.0223      34.7384     205.4755     203.8982       0.0434       0.0026       0.6770       1.8687
   2914.9868       7.7643    -999.2500      23.7387      37.8572     199.3459     200.8214       0.0452       0.0027       0.6540       1.8315
   2915.1392       8.1653    -999.2500      23.7728      38.8139     196.5664     191.2590       0.0445       0.0030       0.6075       1.7894
   2915.2915       8.6004    -999.2500      23.8367      39.0000     196.0100     188.9000       0.0436       0.0034       0.5587       1.7469
   2915.4441       9.0356    -999.2500      23.9005      35.8052     189.4985     183.9933       0.0426       0.0037       0.5100       1.7043
   2915.5964       9.4707    -999.2500      23.9644      33.2721     185.3371     182.6367       0.0417       0.0041       0.4612       1.6617
