#------------------------------------------------------------------------------
#
#   Created by  : [OpenWorks] Log Export Utility (LEXP)
#   Created on  : 2016-05-23 17:15:22
#   Project     : CANT971
#   User        : R5K
#   Interpreter : PEP
#
#------------------------------------------------------------------------------
~VERSION INFORMATION
VERS. 2.0 : CWLS Log ASCII Standard - version 2.0
WRAP.  NO : One line per depth step
~WELL INFORMATION
#MNEMONIC   .UNIT                                           VALUE :DESCRIPTION
#------------------------------------------------------------------------------
STRT        .M                                           125.0000 :START DEPTH
STOP        .M                                          3105.7915 :STOP DEPTH
STEP        .M                                             0.1524 :STEP
NULL        .                                           -999.2500 :NULL VALUE
COMP        .                                             UNKNOWN :COMPANY
WELL        .                                               3007D :WELL
FLD         .                                             UNKNOWN :FIELD
LOC         .                                             UNKNOWN :LOCATION
CNTY        .                                             UNKNOWN :COUNTY
STAT        .                                             UNKNOWN :STATE
CTRY        .                                             UNKNOWN :COUNTRY
SRVC        .                                             UNKNOWN :SERVICE COMPANY
DATE        .                                             UNKNOWN :LOG DATE
UWI         .                                               3007D :UNIQUE WELL ID
XCOORD      .                                       599721.440000 :SURFACE X
YCOORD      .                                      2152053.210000 :SURFACE Y
LAT         .                                           19.461622 :LATITUDE
LON         .                                          -92.049925 :LONGITUDE
ELEV        .M                                             0.0000 :SURFACE ELEV
ELEV_TYPE   .                                                  NA :ELEV TYPE
~CURVE INFORMATION
#MNEMONIC.UNIT        API CODE       : CURVE DESCRIPTION
#------------------------------------------------------------------------------
DEPTH    .M                          : Measured Depth
CGR      .API         UNKNOWN        : CGR:Entubado:rC:NONE:v0 (auto-composite)
DT       .us/ft       UNKNOWN        : DT:PETROWORKS:rC:NONE:v1 
GR       .API         UNKNOWN        : GR:PETROWORKS:rC:NONE:v2 
GR-LWD   .API         UNKNOWN        : GR-LWD:PETROWORKS:rC:NONE:v2 
ILD-LWD  .ohm.m       UNKNOWN        : ILD-LWD:PETROWORKS:rC:NONE:v2 
ILM-LWD  .ohm.m       UNKNOWN        : ILM-LWD:PETROWORKS:rC:NONE:v2 
NPHI     .v/v_decimal UNKNOWN        : NPHI:Entubado:rC:NONE:v0 (auto-composite)
POTA     .UNKNOWN     UNKNOWN        : POTA:Entubado:rC:NONE:v0 (auto-composite)
THOR     .ppm         UNKNOWN        : THOR:Entubado:rC:NONE:v0 (auto-composite)
URAN     .ppm         UNKNOWN        : URAN:Entubado:rC:NONE:v0 (auto-composite)
~A     DEPTH          CGR           DT           GR       GR-LWD      ILD-LWD      ILM-LWD         NPHI         POTA         THOR         URAN
# ...
   1976.9648    -999.2500     133.9158      57.4159      65.1630       0.6321       0.6321    -999.2500    -999.2500    -999.2500    -999.2500
   1977.1172    -999.2500     134.7156      57.3012      63.9196       0.6173       0.6173    -999.2500    -999.2500    -999.2500    -999.2500
   1977.2697    -999.2500     135.1498      56.9564      63.6043       0.6084       0.6084    -999.2500    -999.2500    -999.2500    -999.2500
   1977.4220    -999.2500     136.1275      56.0234      63.1714       0.5962       0.5962    -999.2500    -999.2500    -999.2500    -999.2500
   1977.5743    -999.2500     137.8334      55.3169      63.9668       0.6012       0.6012    -999.2500    -999.2500    -999.2500    -999.2500
   1977.7268    -999.2500     139.2424      57.7321      65.0143       0.6127       0.6127    -999.2500    -999.2500    -999.2500    -999.2500
   1977.8792    -999.2500     139.4696      59.9308      66.4007       0.6279       0.6279    -999.2500    -999.2500    -999.2500    -999.2500
   1978.0316    -999.2500     139.5044      60.7359      67.3031       0.6390       0.6390    -999.2500    -999.2500    -999.2500    -999.2500
   1978.1840    -999.2500     138.7716      58.6406      66.7052       0.6362       0.6362    -999.2500    -999.2500    -999.2500    -999.2500
   1978.3364    -999.2500     137.3921      55.3345      66.1074       0.6333       0.6333    -999.2500    -999.2500    -999.2500    -999.2500
   1978.4888    -999.2500     136.6132      55.2080      65.4759       0.6302       0.6302    -999.2500    -999.2500    -999.2500    -999.2500
   1978.6412    -999.2500     135.1264      55.0471      61.8449       0.6470       0.6470    -999.2500    -999.2500    -999.2500    -999.2500
   1978.7936    -999.2500     133.4465      56.6527      57.9789       0.6652       0.6652    -999.2500    -999.2500    -999.2500    -999.2500
   1978.9460    -999.2500     133.1969      57.2075      54.1091       0.6835       0.6835    -999.2500    -999.2500    -999.2500    -999.2500
   1979.0984    -999.2500     131.6980      54.9602      53.5352       0.6820       0.6800    -999.2500    -999.2500    -999.2500    -999.2500
   1979.2509    -999.2500     129.7266      54.0585      54.7366       0.6699       0.6649    -999.2500    -999.2500    -999.2500    -999.2500
   1979.4032    -999.2500     128.2285      51.7091      55.9495       0.6577       0.6497    -999.2500    -999.2500    -999.2500    -999.2500
   1979.5555    -999.2500     127.5229      52.2751      57.0897       0.6533       0.6445    -999.2500    -999.2500    -999.2500    -999.2500
   1979.7080    -999.2500     127.5836      51.3240      58.1016       0.6625       0.6566    -999.2500    -999.2500    -999.2500    -999.2500
   1979.8604    -999.2500     126.9063      51.0880      59.1130       0.6716       0.6688    -999.2500    -999.2500    -999.2500    -999.2500
   1980.0128    -999.2500     127.4829      51.3643      60.0418       0.6810       0.6810    -999.2500    -999.2500    -999.2500    -999.2500
   1980.1652    -999.2500     130.2141      52.0474      60.0631       0.6932       0.6932    -999.2500    -999.2500    -999.2500    -999.2500
   1980.3176    -999.2500     131.0458      52.0737      60.0845       0.7054       0.7054    -999.2500    -999.2500    -999.2500    -999.2500
   1980.4700    -999.2500     130.8504      51.7815      60.1058       0.7176       0.7176    -999.2500    -999.2500    -999.2500    -999.2500
   1980.6224    -999.2500     130.3580      52.3581      60.7517       0.6980       0.6980    -999.2500    -999.2500    -999.2500    -999.2500
   1980.7748    -999.2500     131.6529      53.3356      61.5499       0.6705       0.6705    -999.2500    -999.2500    -999.2500    -999.2500
   1980.9272    -999.2500     132.4507      53.9349      62.3487       0.6431       0.6431    -999.2500    -999.2500    -999.2500    -999.2500
   1981.0796    -999.2500     130.8468      54.5087      63.2653       0.6348       0.6348    -999.2500    -999.2500    -999.2500    -999.2500
   1981.2321    -999.2500     129.3123      54.2905      64.2893       0.6439       0.6439    -999.2500    -999.2500    -999.2500    -999.2500
   1981.3844    -999.2500     129.5303      55.2972      65.3131       0.6531       0.6531    -999.2500    -999.2500    -999.2500    -999.2500
   1981.5367    -999.2500     127.8401      55.6813      66.3512       0.6563       0.6563    -999.2500    -999.2500    -999.2500    -999.2500
   1981.6892    -999.2500     126.9335      56.0349      67.4300       0.6411       0.6411    -999.2500    -999.2500    -999.2500    -999.2500
   1981.8416    -999.2500     128.0787      55.2955      68.5084       0.6258       0.6258    -999.2500    -999.2500    -999.2500    -999.2500
   1981.9940    -999.2500     130.1736      54.0880      69.2548       0.6153       0.6153    -999.2500    -999.2500    -999.2500    -999.2500
   1982.1464    -999.2500     131.7151      55.1526      69.5081       0.6119       0.6109    -999.2500    -999.2500    -999.2500    -999.2500
   1982.2988    -999.2500     133.0810      56.9777      69.1063       0.6180       0.6140    -999.2500    -999.2500    -999.2500    -999.2500
   1982.4512    -999.2500     132.3587      59.4411      68.7098       0.6240       0.6170    -999.2500    -999.2500    -999.2500    -999.2500
   1982.6036    -999.2500     132.9863      60.0599      68.3174       0.6301       0.6202    -999.2500    -999.2500    -999.2500    -999.2500
   1982.7560    -999.2500     133.5729      60.4091      68.2108       0.6362       0.6294    -999.2500    -999.2500    -999.2500    -999.2500
   1982.9084    -999.2500     133.6719      59.7810      68.1041       0.6423       0.6385    -999.2500    -999.2500    -999.2500    -999.2500
   1983.0608    -999.2500     133.2152      58.5037      67.9974       0.6484       0.6477    -999.2500    -999.2500    -999.2500    -999.2500
   1983.2133    -999.2500     132.5098      56.5316      69.4492       0.6613       0.6591    -999.2500    -999.2500    -999.2500    -999.2500
   1983.3656    -999.2500     132.2690      55.0103      71.4386       0.6766       0.6712    -999.2500    -999.2500    -999.2500    -999.2500
   1983.5179    -999.2500     132.3169      55.3980      73.4297       0.6918       0.6834    -999.2500    -999.2500    -999.2500    -999.2500
   1983.6704    -999.2500     131.3499      56.3947      73.7485       0.6986       0.6900    -999.2500    -999.2500    -999.2500    -999.2500
   1983.8228    -999.2500     131.4136      57.0912      72.1252       0.6955       0.6900    -999.2500    -999.2500    -999.2500    -999.2500
   1983.9752    -999.2500     132.3966      57.0457      70.5002       0.6925       0.6900    -999.2500    -999.2500    -999.2500    -999.2500
   1984.1276    -999.2500     133.3234      58.1220      68.8828       0.6906       0.6900    -999.2500    -999.2500    -999.2500    -999.2500
   1984.2800    -999.2500     133.8059      59.3154      67.3053       0.6936       0.6900    -999.2500    -999.2500    -999.2500    -999.2500
   1984.4324    -999.2500     134.7443      60.2940      65.7263       0.6966       0.6900    -999.2500    -999.2500    -999.2500    -999.2500
   1984.5848    -999.2500     136.4028      58.7929      64.1461       0.6997       0.6900    -999.2500    -999.2500    -999.2500    -999.2500
   1984.7372    -999.2500     138.1861      58.1494      62.8702       0.7000       0.6927    -999.2500    -999.2500    -999.2500    -999.2500
   1984.8896    -999.2500     139.0371      58.5765      61.6269       0.7000       0.6958    -999.2500    -999.2500    -999.2500    -999.2500
   1985.0420    -999.2500     138.2707      59.9434      60.3827       0.7000       0.6988    -999.2500    -999.2500    -999.2500    -999.2500
   1985.1945    -999.2500     138.0995      59.6688      60.5676       0.7094       0.7094    -999.2500    -999.2500    -999.2500    -999.2500
   1985.3468    -999.2500     137.3914      58.4959      61.6276       0.7247       0.7247    -999.2500    -999.2500    -999.2500    -999.2500
