#------------------------------------------------------------------------------
#
#   Created by  : [OpenWorks] Log Export Utility (LEXP)
#   Created on  : 2016-05-23 17:15:22
#   Project     : CANT971
#   User        : R5K
#   Interpreter : PEP
#
#------------------------------------------------------------------------------
~VERSION INFORMATION
VERS. 2.0 : CWLS Log ASCII Standard - version 2.0
WRAP.  NO : One line per depth step
~WELL INFORMATION
#MNEMONIC   .UNIT                                           VALUE :DESCRIPTION
#------------------------------------------------------------------------------
STRT        .M                                           125.0000 :START DEPTH
STOP        .M                                          3105.7915 :STOP DEPTH
STEP        .M                                             0.1524 :STEP
NULL        .                                           -999.2500 :NULL VALUE
COMP        .                                             UNKNOWN :COMPANY
WELL        .                                               3007D :WELL
FLD         .                                             UNKNOWN :FIELD
LOC         .                                             UNKNOWN :LOCATION
CNTY        .                                             UNKNOWN :COUNTY
STAT        .                                             UNKNOWN :STATE
CTRY        .                                             UNKNOWN :COUNTRY
SRVC        .                                             UNKNOWN :SERVICE COMPANY
DATE        .                                             UNKNOWN :LOG DATE
UWI         .                                               3007D :UNIQUE WELL ID
XCOORD      .                                       599721.440000 :SURFACE X
YCOORD      .                                      2152053.210000 :SURFACE Y
LAT         .                                           19.461622 :LATITUDE
LON         .                                          -92.049925 :LONGITUDE
ELEV        .M                                             0.0000 :SURFACE ELEV
ELEV_TYPE   .                                                  NA :ELEV TYPE
~CURVE INFORMATION
#MNEMONIC.UNIT        API CODE       : CURVE DESCRIPTION
#------------------------------------------------------------------------------
DEPTH    .M                          : Measured Depth
CGR      .API         UNKNOWN        : CGR:Entubado:rC:NONE:v0 (auto-composite)
DT       .us/ft       UNKNOWN        : DT:PETROWORKS:rC:NONE:v1 
GR       .API         UNKNOWN        : GR:PETROWORKS:rC:NONE:v2 
GR-LWD   .API         UNKNOWN        : GR-LWD:PETROWORKS:rC:NONE:v2 
ILD-LWD  .ohm.m       UNKNOWN        : ILD-LWD:PETROWORKS:rC:NONE:v2 
ILM-LWD  .ohm.m       UNKNOWN        : ILM-LWD:PETROWORKS:rC:NONE:v2 
NPHI     .v/v_decimal UNKNOWN        : NPHI:Entubado:rC:NONE:v0 (auto-composite)
POTA     .UNKNOWN     UNKNOWN        : POTA:Entubado:rC:NONE:v0 (auto-composite)
THOR     .ppm         UNKNOWN        : THOR:Entubado:rC:NONE:v0 (auto-composite)
URAN     .ppm         UNKNOWN        : URAN:Entubado:rC:NONE:v0 (auto-composite)
~A     DEPTH          CGR           DT           GR       GR-LWD      ILD-LWD      ILM-LWD         NPHI         POTA         THOR         URAN
# ...
   2147.6528    -999.2500      68.9989      27.1112      10.4650       1.2046       1.1776    -999.2500    -999.2500    -999.2500    -999.2500
   2147.8052    -999.2500      68.6656      26.8257      10.2108       1.3004       1.2700    -999.2500    -999.2500    -999.2500    -999.2500
   2147.9575    -999.2500      64.4388      26.1534      10.5154       1.5959       1.5533    -999.2500    -999.2500    -999.2500    -999.2500
   2148.1101    -999.2500      61.8587      25.5440      10.8201       1.8915       1.8367    -999.2500    -999.2500    -999.2500    -999.2500
   2148.2625    -999.2500      61.0638      24.7639      11.1250       2.1873       2.1203    -999.2500    -999.2500    -999.2500    -999.2500
   2148.4148    -999.2500      63.9490      25.2279      11.7947       2.3450       2.2841    -999.2500    -999.2500    -999.2500    -999.2500
   2148.5671    -999.2500      70.9454      25.7173      12.5845       2.4578       2.4092    -999.2500    -999.2500    -999.2500    -999.2500
   2148.7195    -999.2500      72.7569      25.3977      13.3735       2.5705       2.5341    -999.2500    -999.2500    -999.2500    -999.2500
   2148.8721    -999.2500      74.0995      25.6883      13.9053       2.5882       2.5496    -999.2500    -999.2500    -999.2500    -999.2500
   2149.0244    -999.2500      73.5925      26.2945      14.1492       2.4998       2.4428    -999.2500    -999.2500    -999.2500    -999.2500
   2149.1768    -999.2500      71.3740      27.2249      14.3928       2.4115       2.3363    -999.2500    -999.2500    -999.2500    -999.2500
   2149.3291    -999.2500      74.1735      28.4790      14.8728       2.3365       2.2512    -999.2500    -999.2500    -999.2500    -999.2500
   2149.4817    -999.2500      78.3645      29.9009      16.3417       2.3182       2.2573    -999.2500    -999.2500    -999.2500    -999.2500
   2149.6340    -999.2500      81.8401      29.9754      17.8098       2.2999       2.2634    -999.2500    -999.2500    -999.2500    -999.2500
   2149.7864    -999.2500      79.6134      28.4272      19.2805       2.2816       2.2695    -999.2500    -999.2500    -999.2500    -999.2500
   2149.9387    -999.2500      76.0368      26.6797      17.5439       3.4796       3.4308    -999.2500    -999.2500    -999.2500    -999.2500
   2150.0913    -999.2500      75.9534      27.0849      15.4956       4.7964       4.7048    -999.2500    -999.2500    -999.2500    -999.2500
   2150.2437    -999.2500      73.8896      26.8701      13.4473       6.1132       5.9789    -999.2500    -999.2500    -999.2500    -999.2500
   2150.3960    -999.2500      71.8662      25.6673      11.8433       6.7690       6.6074    -999.2500    -999.2500    -999.2500    -999.2500
   2150.5483    -999.2500      66.9762      23.4701      10.4983       7.0373       6.8575    -999.2500    -999.2500    -999.2500    -999.2500
   2150.7007    -999.2500      62.6666      23.0002       9.1629       7.3038       7.1058    -999.2500    -999.2500    -999.2500    -999.2500
   2150.8533    -999.2500      60.7914      24.3041       8.2651       7.4608       7.2796    -999.2500    -999.2500    -999.2500    -999.2500
   2151.0056    -999.2500      61.2362      26.0730       8.2224       7.4059       7.3070    -999.2500    -999.2500    -999.2500    -999.2500
   2151.1580    -999.2500      61.3466      26.3145       8.1798       7.3511       7.3344    -999.2500    -999.2500    -999.2500    -999.2500
   2151.3103    -999.2500      61.2878      25.8749       8.1150       7.2702       7.3234    -999.2500    -999.2500    -999.2500    -999.2500
   2151.4629    -999.2500      62.0340      24.4627       7.7556       6.8407       6.7964    -999.2500    -999.2500    -999.2500    -999.2500
   2151.6152    -999.2500      63.6864      23.1597       7.3961       6.4111       6.2693    -999.2500    -999.2500    -999.2500    -999.2500
   2151.7676    -999.2500      66.6208      22.9326       7.0362       5.9810       5.7417    -999.2500    -999.2500    -999.2500    -999.2500
   2151.9199    -999.2500      67.6636      24.0336       7.1088       5.5707       5.3444    -999.2500    -999.2500    -999.2500    -999.2500
   2152.0725    -999.2500      66.8501      25.4851       7.2979       5.1652       4.9815    -999.2500    -999.2500    -999.2500    -999.2500
   2152.2249    -999.2500      66.5465      25.5947       7.4868       4.7600       4.6190    -999.2500    -999.2500    -999.2500    -999.2500
   2152.3772    -999.2500      66.9383      26.2064       9.2390       4.2511       4.1218    -999.2500    -999.2500    -999.2500    -999.2500
   2152.5295    -999.2500      69.5349      27.5619      12.5141       3.6412       3.4936    -999.2500    -999.2500    -999.2500    -999.2500
   2152.6819    -999.2500      77.1757      30.8776      15.7845       3.0322       2.8663    -999.2500    -999.2500    -999.2500    -999.2500
   2152.8345    -999.2500      83.5493      33.2292      19.1237       2.4564       2.2895    -999.2500    -999.2500    -999.2500    -999.2500
   2152.9868    -999.2500      87.3335      35.1420      22.6714       1.9992       1.8903    -999.2500    -999.2500    -999.2500    -999.2500
   2153.1392    -999.2500      89.4412      36.2094      26.2166       1.5424       1.4913    -999.2500    -999.2500    -999.2500    -999.2500
   2153.2915    -999.2500      88.9800      35.4755      29.7685       1.0847       1.0916    -999.2500    -999.2500    -999.2500    -999.2500
   2153.4441    -999.2500      85.7342      33.0768      23.4430       1.5267       1.4734    -999.2500    -999.2500    -999.2500    -999.2500
   2153.5964    -999.2500      79.9226      29.4430      16.5489       2.0205       1.9000    -999.2500    -999.2500    -999.2500    -999.2500
   2153.7488    -999.2500      79.8496      27.8089       9.6533       2.5143       2.3268    -999.2500    -999.2500    -999.2500    -999.2500
   2153.9011    -999.2500      79.6385      27.2945       9.7994       2.5501       2.3661    -999.2500    -999.2500    -999.2500    -999.2500
   2154.0537    -999.2500      81.1303      28.9213      13.5857       2.3502       2.2062    -999.2500    -999.2500    -999.2500    -999.2500
   2154.2061    -999.2500      83.1301      30.6874      17.3347       2.1523       2.0478    -999.2500    -999.2500    -999.2500    -999.2500
   2154.3584    -999.2500      84.4173      30.7445      18.5998       2.1376       2.0412    -999.2500    -999.2500    -999.2500    -999.2500
   2154.5107    -999.2500      85.1572      29.8336      15.8618       2.4181       2.2790    -999.2500    -999.2500    -999.2500    -999.2500
   2154.6631    -999.2500      86.0705      28.1767      13.1273       2.6982       2.5166    -999.2500    -999.2500    -999.2500    -999.2500
   2154.8157    -999.2500      87.0671      26.9435      11.0616       2.9043       2.6909    -999.2500    -999.2500    -999.2500    -999.2500
   2154.9680    -999.2500      85.6520      26.3041      14.8454       2.4625       2.3131    -999.2500    -999.2500    -999.2500    -999.2500
   2155.1204    -999.2500      86.1641      26.6305      18.6292       2.0208       1.9354    -999.2500    -999.2500    -999.2500    -999.2500
   2155.2727    -999.2500      87.0490      30.5267      22.4175       1.5785       1.5571    -999.2500    -999.2500    -999.2500    -999.2500
   2155.4253    -999.2500      89.2355      35.1206      27.2150       1.3097       1.3022    -999.2500    -999.2500    -999.2500    -999.2500
   2155.5776    -999.2500      95.1704      38.7059      32.2361       1.0780       1.0735    -999.2500    -999.2500    -999.2500    -999.2500
   2155.7300    -999.2500     102.3509      39.9660      37.2548       0.8464       0.8450    -999.2500    -999.2500    -999.2500    -999.2500
   2155.8823    -999.2500     108.5644      41.3707      40.0941       0.7598       0.7598    -999.2500    -999.2500    -999.2500    -999.2500
   2156.0349    -999.2500     110.8884      43.2856      41.0822       0.7964       0.7964    -999.2500    -999.2500    -999.2500    -999.2500
