#------------------------------------------------------------------------------
#
#   Created by  : [OpenWorks] Log Export Utility (LEXP)
#   Created on  : 2016-05-23 17:15:22
#   Project     : CANT971
#   User        : R5K
#   Interpreter : PEP
#
#------------------------------------------------------------------------------
~VERSION INFORMATION
VERS. 2.0 : CWLS Log ASCII Standard - version 2.0
WRAP.  NO : One line per depth step
~WELL INFORMATION
#MNEMONIC   .UNIT                                           VALUE :DESCRIPTION
#------------------------------------------------------------------------------
STRT        .M                                           125.0000 :START DEPTH
STOP        .M                                          3105.7915 :STOP DEPTH
STEP        .M                                             0.1524 :STEP
NULL        .                                           -999.2500 :NULL VALUE
COMP        .                                             UNKNOWN :COMPANY
WELL        .                                               3007D :WELL
FLD         .                                             UNKNOWN :FIELD
LOC         .                                             UNKNOWN :LOCATION
CNTY        .                                             UNKNOWN :COUNTY
STAT        .                                             UNKNOWN :STATE
CTRY        .                                             UNKNOWN :COUNTRY
SRVC        .                                             UNKNOWN :SERVICE COMPANY
DATE        .                                             UNKNOWN :LOG DATE
UWI         .                                               3007D :UNIQUE WELL ID
XCOORD      .                                       599721.440000 :SURFACE X
YCOORD      .                                      2152053.210000 :SURFACE Y
LAT         .                                           19.461622 :LATITUDE
LON         .                                          -92.049925 :LONGITUDE
ELEV        .M                                             0.0000 :SURFACE ELEV
ELEV_TYPE   .                                                  NA :ELEV TYPE
~CURVE INFORMATION
#MNEMONIC.UNIT        API CODE       : CURVE DESCRIPTION
#------------------------------------------------------------------------------
DEPTH    .M                          : Measured Depth
CGR      .API         UNKNOWN        : CGR:Entubado:rC:NONE:v0 (auto-composite)
DT       .us/ft       UNKNOWN        : DT:PETROWORKS:rC:NONE:v1 
GR       .API         UNKNOWN        : GR:PETROWORKS:rC:NONE:v2 
GR-LWD   .API         UNKNOWN        : GR-LWD:PETROWORKS:rC:NONE:v2 
ILD-LWD  .ohm.m       UNKNOWN        : ILD-LWD:PETROWORKS:rC:NONE:v2 
ILM-LWD  .ohm.m       UNKNOWN        : ILM-LWD:PETROWORKS:rC:NONE:v2 
NPHI     .v/v_decimal UNKNOWN        : NPHI:Entubado:rC:NONE:v0 (auto-composite)
POTA     .UNKNOWN     UNKNOWN        : POTA:Entubado:rC:NONE:v0 (auto-composite)
THOR     .ppm         UNKNOWN        : THOR:Entubado:rC:NONE:v0 (auto-composite)
URAN     .ppm         UNKNOWN        : URAN:Entubado:rC:NONE:v0 (auto-composite)
~A     DEPTH          CGR           DT           GR       GR-LWD      ILD-LWD      ILM-LWD         NPHI         POTA         THOR         URAN
# ...
   2480.4944       4.8446    -999.2500      32.1667      45.2175     295.6082     269.7222       0.1012       0.0012       0.5931       3.1325
   2480.6467       6.3040    -999.2500      32.5573      47.0652     286.4890     262.4079       0.1097       0.0018       0.7037       3.0099
   2480.7993       7.7635    -999.2500      32.9500      45.8943     281.6655     257.2380       0.1182       0.0023       0.8143       2.8874
   2480.9517       9.2230    -999.2500      33.3395      43.7217     278.1055     253.0509       0.1267       0.0028       0.9250       2.7649
   2481.1040       9.6840    -999.2500      33.5078      43.8136     310.7505     276.7598       0.1242       0.0032       0.8932       2.7314
   2481.2563       9.6804    -999.2500      33.5728      45.5875     311.8560     276.7130       0.1167       0.0034       0.7953       2.7393
   2481.4087       9.6767    -999.2500      33.6378      46.9124     303.7428     269.6349       0.1091       0.0036       0.6973       2.7471
   2481.5613       9.6731    -999.2500      33.7029      48.2583     293.6960     261.2268       0.1016       0.0038       0.5993       2.7550
   2481.7136       9.6694    -999.2500      33.7679      48.2215     274.9950     250.0779       0.0940       0.0041       0.5013       2.7629
   2481.8660       9.6658    -999.2500      33.8329      46.0934     257.4452     231.7875       0.0864       0.0043       0.4033       2.7708
   2482.0183       9.6121    -999.2500      33.8764      43.3766     245.7449     218.3698       0.0802       0.0044       0.3269       2.7819
   2482.1709       9.1940    -999.2500      33.7646      42.0854     246.6153     216.4193       0.0831       0.0040       0.4069       2.8170
   2482.3232       8.7759    -999.2500      33.6524      44.1039     249.1472     216.4585       0.0861       0.0036       0.4869       2.8521
   2482.4756       8.3577    -999.2500      33.5404      48.4523     267.4500     228.6127       0.0891       0.0032       0.5670       2.8872
   2482.6279       7.9396    -999.2500      33.4284      51.2685     267.3194     226.0893       0.0920       0.0027       0.6470       2.9223
   2482.7805       7.5215    -999.2500      33.3163      48.0672     251.5270     220.9048       0.0950       0.0023       0.7271       2.9573
   2482.9329       7.1034    -999.2500      33.2043      40.8198     247.8024     225.9969       0.0980       0.0019       0.8071       2.9924
   2483.0852       7.2274    -999.2500      33.2694      35.9345     241.4942     220.7577       0.1005       0.0019       0.8423       2.9857
   2483.2375       7.7792    -999.2500      33.4739      36.0563     224.0446     205.6007       0.1028       0.0022       0.8420       2.9459
   2483.3899       8.3309    -999.2500      33.6786      38.0649     209.0387     194.3997       0.1050       0.0025       0.8418       2.9061
   2483.5425       8.8826    -999.2500      33.8833      39.5643     193.8823     174.4001       0.1072       0.0028       0.8416       2.8663
   2483.6948       9.4343    -999.2500      34.0878      40.0627     182.0176     162.3819       0.1094       0.0031       0.8414       2.8265
   2483.8472       9.9860    -999.2500      34.2926      41.1537     183.2400     158.0429       0.1117       0.0034       0.8411       2.7867
   2483.9995      10.5392    -999.2500      34.4977      40.5833     189.9783     162.0667       0.1139       0.0037       0.8409       2.7468
   2484.1521       9.4939    -999.2500      32.7742      38.6749     180.2017     159.7221       0.1105       0.0034       0.7364       2.6690
   2484.3044       8.4459    -999.2500      31.0448      35.4882     170.9230     158.5564       0.1071       0.0031       0.6317       2.5910
   2484.4568       7.3979    -999.2500      29.3166      32.5368     156.9894     146.6030       0.1037       0.0027       0.5269       2.5130
   2484.6091       6.3499    -999.2500      27.5888      30.3540     143.4462     130.7928       0.1003       0.0024       0.4221       2.4350
   2484.7617       5.3019    -999.2500      25.8605      29.2438     133.1315     120.2039       0.0969       0.0021       0.3174       2.3570
   2484.9141       4.2539    -999.2500      24.1322      29.1413     128.2377     115.4689       0.0935       0.0018       0.2126       2.2790
   2485.0664       3.6840    -999.2500      23.5704      29.0635     118.2827     107.5298       0.0923       0.0016       0.1641       2.2799
   2485.2188       3.7332    -999.2500      24.5170      29.3881     112.9615     103.1988       0.0939       0.0016       0.1886       2.3829
   2485.3711       3.7825    -999.2500      25.4648      30.2080     110.7330     100.9047       0.0955       0.0015       0.2130       2.4859
   2485.5237       3.8318    -999.2500      26.4128      31.6346     109.7164      98.3857       0.0971       0.0015       0.2374       2.5888
   2485.6760       3.8811    -999.2500      27.3594      32.3476     114.7128     100.0829       0.0987       0.0015       0.2619       2.6918
   2485.8284       3.9303    -999.2500      28.3074      32.4516     108.8043      94.7324       0.1003       0.0014       0.2863       2.7948
   2485.9807       3.9796    -999.2500      29.2558      33.3928      93.3440      83.2691       0.1019       0.0014       0.3107       2.8978
   2486.1333       3.8251    -999.2500      28.9277      35.6574      90.5428      82.5717       0.1039       0.0014       0.2734       2.8780
   2486.2856       3.6412    -999.2500      28.4167      38.1009      94.3018      87.8641       0.1060       0.0014       0.2271       2.8406
   2486.4380       3.4574    -999.2500      27.9061      38.2313      98.8542      93.9961       0.1081       0.0014       0.1808       2.8031
   2486.5903       3.2735    -999.2500      27.3953      37.0165      91.9560      87.3186       0.1102       0.0015       0.1346       2.7656
   2486.7429       3.0896    -999.2500      26.8848      34.6801      83.4839      79.8355       0.1124       0.0015       0.0883       2.7281
   2486.8953       2.9057    -999.2500      26.3741      33.7941      76.0704      73.5068       0.1145       0.0015       0.0420       2.6907
   2487.0476       2.8931    -999.2500      26.2006      34.3823      77.0059      73.9475       0.1166       0.0015       0.0419       2.6722
   2487.2000       3.2574    -999.2500      26.7673      34.5100      77.2500      74.0800       0.1188       0.0014       0.1432       2.6955
   2487.3523       3.6217    -999.2500      27.3355      37.2972      76.5915      71.9827       0.1210       0.0014       0.2446       2.7188
   2487.5049       3.9860    -999.2500      27.9035      38.9538      73.9675      68.3936       0.1233       0.0013       0.3460       2.7421
   2487.6572       4.3503    -999.2500      28.4705      38.1176      70.8181      64.3958       0.1255       0.0013       0.4474       2.7654
   2487.8096       4.7146    -999.2500      29.0385      37.3759      66.0221      60.3498       0.1277       0.0013       0.5487       2.7887
   2487.9619       5.0789    -999.2500      29.6065      40.5893      71.4769      65.5910       0.1299       0.0012       0.6501       2.8120
   2488.1145       4.7985    -999.2500      28.7403      43.8608      77.1675      72.3743       0.1281       0.0012       0.6112       2.7449
   2488.2668       4.3039    -999.2500      27.3986      41.8813      76.4708      71.4052       0.1249       0.0011       0.5257       2.6478
   2488.4192       3.8094    -999.2500      26.0571      37.1377      76.1716      70.6963       0.1217       0.0010       0.4401       2.5507
   2488.5715       3.3149    -999.2500      24.7150      31.6183      76.6898      70.7756       0.1184       0.0010       0.3546       2.4536
   2488.7241       2.8203    -999.2500      23.3742      29.2873      77.6389      72.0167       0.1152       0.0009       0.2691       2.3565
   2488.8765       2.3258    -999.2500      22.0322      30.5681      88.6413      83.3121       0.1120       0.0008       0.1836       2.2594
