#------------------------------------------------------------------------------
#
#   Created by  : [OpenWorks] Log Export Utility (LEXP)
#   Created on  : 2016-05-23 17:15:22
#   Project     : CANT971
#   User        : R5K
#   Interpreter : PEP
#
#------------------------------------------------------------------------------
~VERSION INFORMATION
VERS. 2.0 : CWLS Log ASCII Standard - version 2.0
WRAP.  NO : One line per depth step
~WELL INFORMATION
#MNEMONIC   .UNIT                                           VALUE :DESCRIPTION
#------------------------------------------------------------------------------
STRT        .M                                           125.0000 :START DEPTH
STOP        .M                                          3105.7915 :STOP DEPTH
STEP        .M                                             0.1524 :STEP
NULL        .                                           -999.2500 :NULL VALUE
COMP        .                                             UNKNOWN :COMPANY
WELL        .                                               3007D :WELL
FLD         .                                             UNKNOWN :FIELD
LOC         .                                             UNKNOWN :LOCATION
CNTY        .                                             UNKNOWN :COUNTY
STAT        .                                             UNKNOWN :STATE
CTRY        .                                             UNKNOWN :COUNTRY
SRVC        .                                             UNKNOWN :SERVICE COMPANY
DATE        .                                             UNKNOWN :LOG DATE
UWI         .                                               3007D :UNIQUE WELL ID
XCOORD      .                                       599721.440000 :SURFACE X
YCOORD      .                                      2152053.210000 :SURFACE Y
LAT         .                                           19.461622 :LATITUDE
LON         .                                          -92.049925 :LONGITUDE
ELEV        .M                                             0.0000 :SURFACE ELEV
ELEV_TYPE   .                                                  NA :ELEV TYPE
~CURVE INFORMATION
#MNEMONIC.UNIT        API CODE       : CURVE DESCRIPTION
#------------------------------------------------------------------------------
DEPTH    .M                          : Measured Depth
CGR      .API         UNKNOWN        : CGR:Entubado:rC:NONE:v0 (auto-composite)
DT       .us/ft       UNKNOWN        : DT:PETROWORKS:rC:NONE:v1 
GR       .API         UNKNOWN        : GR:PETROWORKS:rC:NONE:v2 
GR-LWD   .API         UNKNOWN        : GR-LWD:PETROWORKS:rC:NONE:v2 
ILD-LWD  .ohm.m       UNKNOWN        : ILD-LWD:PETROWORKS:rC:NONE:v2 
ILM-LWD  .ohm.m       UNKNOWN        : ILM-LWD:PETROWORKS:rC:NONE:v2 
NPHI     .v/v_decimal UNKNOWN        : NPHI:Entubado:rC:NONE:v0 (auto-composite)
POTA     .UNKNOWN     UNKNOWN        : POTA:Entubado:rC:NONE:v0 (auto-composite)
THOR     .ppm         UNKNOWN        : THOR:Entubado:rC:NONE:v0 (auto-composite)
URAN     .ppm         UNKNOWN        : URAN:Entubado:rC:NONE:v0 (auto-composite)
~A     DEPTH          CGR           DT           GR       GR-LWD      ILD-LWD      ILM-LWD         NPHI         POTA         THOR         URAN
# ...
   2232.9968      24.0480     136.3889      29.8658      70.0647       0.5791       0.5791       0.3491       0.0051       3.3025       0.6670
   2233.1492      23.7431     136.5862      29.5170      66.0946       0.6964       0.6934       0.3399       0.0051       3.2425       0.6620
   2233.3015      23.4283     134.0201      29.1658      62.0890       0.8139       0.8079       0.3304       0.0051       3.1784       0.6573
   2233.4541      23.1135     128.5017      28.8067      57.9893       0.9342       0.9251       0.3210       0.0051       3.1143       0.6527
   2233.6064      22.7987     125.0070      28.4512      58.3728       0.9083       0.9025       0.3115       0.0050       3.0502       0.6481
   2233.7588      22.4839     124.3934      28.0960      60.6679       0.8199       0.8202       0.3020       0.0050       2.9861       0.6434
   2233.9111      22.1691     124.7529      27.7408      62.9629       0.7315       0.7379       0.2925       0.0050       2.9220       0.6388
   2234.0637      22.0979     123.9706      27.6749      63.9547       0.6724       0.6811       0.2896       0.0050       2.8940       0.6394
   2234.2161      22.3666     123.9106      28.0128      63.1295       0.6541       0.6598       0.2959       0.0051       2.9165       0.6474
   2234.3684      22.6354     123.9551      28.3509      62.3032       0.6358       0.6384       0.3021       0.0052       2.9391       0.6553
   2234.5208      22.9042     124.0563      28.6887      61.4716       0.6137       0.6141       0.3084       0.0053       2.9616       0.6632
   2234.6731      23.1730     125.9564      29.0267      60.6134       0.5681       0.5715       0.3146       0.0054       2.9842       0.6712
   2234.8257      23.4417     129.2961      29.3649      59.7533       0.5223       0.5288       0.3208       0.0055       3.0067       0.6791
   2234.9780      23.7105     131.9072      29.7028      58.8930       0.4765       0.4861       0.3271       0.0056       3.0292       0.6871
   2235.1304      23.4460     133.2540      29.3822      58.4127       0.5248       0.5348       0.3228       0.0057       2.9044       0.6806
   2235.2827      23.0915     133.6726      28.9504      57.9950       0.5888       0.5988       0.3168       0.0059       2.7547       0.6718
   2235.4353      22.7370     133.2169      28.5191      57.5773       0.6528       0.6628       0.3108       0.0061       2.6050       0.6629
   2235.5876      22.3825     131.1626      28.0872      58.5045       0.7010       0.7093       0.3047       0.0062       2.4554       0.6541
   2235.7400      22.0281     127.8660      27.6556      60.4240       0.7376       0.7428       0.2987       0.0064       2.3057       0.6452
   2235.8923      21.6736     121.9378      27.2240      62.3442       0.7742       0.7763       0.2927       0.0066       2.1560       0.6364
   2236.0449      21.2657     121.0400      26.8254      62.9125       0.8135       0.8135       0.2881       0.0066       2.0680       0.6374
   2236.1973      20.7297     121.1306      26.5064      60.2461       0.8591       0.8591       0.2871       0.0061       2.1284       0.6623
   2236.3496      20.1937     120.4327      26.1871      57.5744       0.9049       0.9049       0.2861       0.0057       2.1887       0.6872
   2236.5020      19.6577     119.5568      25.8725      54.9343       0.9501       0.9501       0.2851       0.0052       2.2490       0.7120
   2236.6543      19.1217     117.5520      25.5490      54.5479       0.9593       0.9562       0.2841       0.0048       2.3093       0.7369
   2236.8069      18.5857     116.4471      25.2297      54.1605       0.9684       0.9623       0.2831       0.0044       2.3696       0.7618
   2236.9592      18.0497     117.6758      24.9107      53.7733       0.9776       0.9684       0.2821       0.0039       2.4300       0.7866
   2237.1116      18.1956     117.0522      24.9602      54.0540       0.9711       0.9566       0.2860       0.0040       2.4299       0.7756
   2237.2639      18.5909     113.2446      25.1443      54.5783       0.9589       0.9383       0.2916       0.0043       2.4079       0.7514
   2237.4165      18.9861     112.0909      25.3283      55.1025       0.9467       0.9200       0.2973       0.0045       2.3858       0.7271
   2237.5688      19.3814     112.2020      25.5125      54.8512       0.9855       0.9541       0.3030       0.0048       2.3637       0.7029
   2237.7212      19.7766     112.9625      25.6965      53.6605       1.0860       1.0515       0.3087       0.0051       2.3417       0.6787
   2237.8735      20.1719     111.7232      25.8807      52.4684       1.1866       1.1491       0.3144       0.0054       2.3196       0.6545
   2238.0259      20.3617     112.3175      25.8595      51.4391       1.2899       1.2483       0.3182       0.0055       2.2942       0.6303
   2238.1785      19.5525     111.4427      24.8405      51.2018       1.4056       1.3549       0.3126       0.0052       2.2528       0.6062
   2238.3308      18.7433     107.3066      23.8207      50.9639       1.5214       1.4616       0.3070       0.0048       2.2114       0.5821
   2238.4832      17.9342     106.8365      22.8024      50.7259       1.6374       1.5684       0.3015       0.0045       2.1699       0.5581
   2238.6355      17.1250     103.5176      21.7825      50.1142       1.6093       1.5556       0.2959       0.0041       2.1285       0.5340
   2238.7881      16.3158     100.8325      20.7628      49.4556       1.5636       1.5281       0.2903       0.0038       2.0870       0.5099
   2238.9404      15.5066      99.7749      19.7441      48.7971       1.5179       1.5007       0.2848       0.0034       2.0456       0.4858
   2239.0928      15.3876      97.4161      19.4577      48.1463       1.5928       1.5680       0.2795       0.0034       2.0196       0.4666
   2239.2451      15.7117      95.8994      19.6419      47.5003       1.7452       1.6960       0.2745       0.0037       2.0034       0.4506
   2239.3977      16.0359      95.8809      19.8262      46.8542       1.8976       1.8240       0.2695       0.0039       1.9872       0.4346
   2239.5500      16.3600      97.4392      20.0105      46.2405       2.1203       2.0243       0.2644       0.0041       1.9710       0.4185
   2239.7024      16.6841      98.6246      20.1947      45.6956       2.4856       2.3713       0.2594       0.0044       1.9549       0.4025
   2239.8547      17.0083     100.4469      20.3791      45.1497       2.8516       2.7190       0.2544       0.0046       1.9387       0.3865
   2240.0071      17.2834      99.7018      20.5350      44.4073       3.2241       3.0698       0.2492       0.0048       1.9174       0.3728
   2240.1597      16.5711      95.8331      20.1183      39.8459       3.7170       3.4745       0.2400       0.0047       1.7927       0.4067
   2240.3120      15.8588      94.3258      19.7012      35.2741       4.2111       3.8801       0.2308       0.0046       1.6681       0.4406
   2240.4644      15.1465      90.9069      19.2848      30.7027       4.7052       4.2857       0.2217       0.0045       1.5434       0.4744
   2240.6167      14.4342      88.8271      18.8678      31.3035       4.4485       4.0903       0.2125       0.0044       1.4188       0.5083
   2240.7693      13.7219      87.2149      18.4509      33.4740       3.9638       3.7123       0.2034       0.0043       1.2941       0.5422
   2240.9216      13.0095      83.0031      18.0342      35.6442       3.4792       3.3343       0.1942       0.0042       1.1694       0.5761
   2241.0740      12.6756      81.7207      18.0259      36.9660       3.1292       3.0274       0.1918       0.0041       1.1494       0.6134
   2241.2263      12.7425      81.3298      18.4501      37.3893       2.9221       2.7959       0.1965       0.0039       1.2403       0.6544
   2241.3789      12.8094      81.8567      18.8746      37.8131       2.7148       2.5642       0.2012       0.0037       1.3313       0.6954
