#------------------------------------------------------------------------------
#
#   Created by  : [OpenWorks] Log Export Utility (LEXP)
#   Created on  : 2016-05-23 17:15:22
#   Project     : CANT971
#   User        : R5K
#   Interpreter : PEP
#
#------------------------------------------------------------------------------
~VERSION INFORMATION
VERS. 2.0 : CWLS Log ASCII Standard - version 2.0
WRAP.  NO : One line per depth step
~WELL INFORMATION
#MNEMONIC   .UNIT                                           VALUE :DESCRIPTION
#------------------------------------------------------------------------------
STRT        .M                                           125.0000 :START DEPTH
STOP        .M                                          3105.7915 :STOP DEPTH
STEP        .M                                             0.1524 :STEP
NULL        .                                           -999.2500 :NULL VALUE
COMP        .                                             UNKNOWN :COMPANY
WELL        .                                               3007D :WELL
FLD         .                                             UNKNOWN :FIELD
LOC         .                                             UNKNOWN :LOCATION
CNTY        .                                             UNKNOWN :COUNTY
STAT        .                                             UNKNOWN :STATE
CTRY        .                                             UNKNOWN :COUNTRY
SRVC        .                                             UNKNOWN :SERVICE COMPANY
DATE        .                                             UNKNOWN :LOG DATE
UWI         .                                               3007D :UNIQUE WELL ID
XCOORD      .                                       599721.440000 :SURFACE X
YCOORD      .                                      2152053.210000 :SURFACE Y
LAT         .                                           19.461622 :LATITUDE
LON         .                                          -92.049925 :LONGITUDE
ELEV        .M                                             0.0000 :SURFACE ELEV
ELEV_TYPE   .                                                  NA :ELEV TYPE
~CURVE INFORMATION
#MNEMONIC.UNIT        API CODE       : CURVE DESCRIPTION
#------------------------------------------------------------------------------
DEPTH    .M                          : Measured Depth
CGR      .API         UNKNOWN        : CGR:Entubado:rC:NONE:v0 (auto-composite)
DT       .us/ft       UNKNOWN        : DT:PETROWORKS:rC:NONE:v1 
GR       .API         UNKNOWN        : GR:PETROWORKS:rC:NONE:v2 
GR-LWD   .API         UNKNOWN        : GR-LWD:PETROWORKS:rC:NONE:v2 
ILD-LWD  .ohm.m       UNKNOWN        : ILD-LWD:PETROWORKS:rC:NONE:v2 
ILM-LWD  .ohm.m       UNKNOWN        : ILM-LWD:PETROWORKS:rC:NONE:v2 
NPHI     .v/v_decimal UNKNOWN        : NPHI:Entubado:rC:NONE:v0 (auto-composite)
POTA     .UNKNOWN     UNKNOWN        : POTA:Entubado:rC:NONE:v0 (auto-composite)
THOR     .ppm         UNKNOWN        : THOR:Entubado:rC:NONE:v0 (auto-composite)
URAN     .ppm         UNKNOWN        : URAN:Entubado:rC:NONE:v0 (auto-composite)
~A     DEPTH          CGR           DT           GR       GR-LWD      ILD-LWD      ILM-LWD         NPHI         POTA         THOR         URAN
# ...
   2992.5583      15.8277    -999.2500      34.7850      37.1144     113.3538     107.8520       0.0636       0.0051       1.4794       2.1734
   2992.7107      16.5634    -999.2500      35.9389      39.7991     114.7414     108.1531       0.0640       0.0050       1.6673       2.2215
   2992.8633      17.2991    -999.2500      37.0943      40.3067     113.7217     109.4084       0.0645       0.0050       1.8552       2.2696
   2993.0156      17.8002    -999.2500      37.9116      38.2620     111.6090     108.6852       0.0652       0.0049       2.0082       2.3061
   2993.1680      16.2434    -999.2500      35.7991      35.1731     109.7543     107.8171       0.0683       0.0044       1.8560       2.2420
   2993.3203      14.6867    -999.2500      33.6815      31.9006     109.7837     108.3971       0.0715       0.0039       1.7038       2.1778
   2993.4729      13.1300    -999.2500      31.5648      29.3745     111.5319     109.6842       0.0746       0.0034       1.5517       2.1137
   2993.6252      11.5733    -999.2500      29.4496      27.6180     111.0826     109.2325       0.0777       0.0029       1.3995       2.0495
   2993.7776      10.0166    -999.2500      27.3327      25.8196     110.7418     110.4911       0.0808       0.0024       1.2473       1.9853
   2993.9299       8.4599    -999.2500      25.2161      25.3569     112.0156     109.8369       0.0840       0.0019       1.0951       1.9212
   2994.0825       8.0895    -999.2500      24.7054      26.6682     111.0065     109.2984       0.0860       0.0018       1.0469       1.9050
   2994.2349       8.7270    -999.2500      25.5570      29.6178     110.3046     109.0486       0.0871       0.0021       1.0870       1.9296
   2994.3872       9.3644    -999.2500      26.4091      33.7114     110.1700     108.9900       0.0882       0.0024       1.1272       1.9542
   2994.5396      10.0018    -999.2500      27.2618      33.0468     116.9923     116.2275       0.0893       0.0026       1.1673       1.9788
   2994.6919      10.6392    -999.2500      28.1130      29.9282     120.5300     120.3391       0.0904       0.0029       1.2075       2.0035
   2994.8445      11.2766    -999.2500      28.9656      26.5147     118.9249     117.9797       0.0915       0.0031       1.2476       2.0281
   2994.9968      11.9140    -999.2500      29.8190      25.6141     121.3112     121.1377       0.0926       0.0034       1.2878       2.0527
   2995.1492      12.2939    -999.2500      30.3348      28.4212     118.6250     118.8928       0.0911       0.0034       1.3522       2.0684
   2995.3015      12.6683    -999.2500      30.8393      29.9800     118.6900     120.2700       0.0896       0.0035       1.4171       2.0840
   2995.4541      13.0427    -999.2500      31.3554      30.2253     121.4213     123.0266       0.0880       0.0035       1.4821       2.0996
   2995.6064      13.4171    -999.2500      31.8654      29.2486     121.6537     122.9570       0.0865       0.0036       1.5470       2.1151
   2995.7588      13.7915    -999.2500      32.3755      28.6137     122.4203     123.1136       0.0849       0.0036       1.6120       2.1307
   2995.9111      14.1659    -999.2500      32.8856      27.6224     121.5819     123.0598       0.0834       0.0037       1.6770       2.1462
   2996.0637      14.1093    -999.2500      32.9429      27.9425     120.8474     120.6291       0.0835       0.0036       1.6768       2.1593
   2996.2161      13.4512    -999.2500      32.3692      28.1201     119.0865     118.5259       0.0858       0.0035       1.5856       2.1689
   2996.3684      12.7930    -999.2500      31.7947      29.9629     120.6042     118.3629       0.0881       0.0034       1.4944       2.1785
   2996.5208      12.1349    -999.2500      31.2201      31.0632     119.2732     116.1992       0.0904       0.0032       1.4033       2.1882
   2996.6731      11.4767    -999.2500      30.6464      31.5223     120.0455     117.0740       0.0927       0.0031       1.3121       2.1978
   2996.8257      10.8186    -999.2500      30.0717      31.9191     121.6355     116.9292       0.0950       0.0030       1.2209       2.2074
   2996.9780      10.1604    -999.2500      29.4968      31.3998     122.8523     118.2585       0.0974       0.0028       1.1298       2.2170
   2997.1304      10.5664    -999.2500      29.3834      32.1002     125.0884     120.7971       0.0937       0.0033       1.0350       2.1574
   2997.2827      11.1519    -999.2500      29.3470      33.6591     124.6326     120.0676       0.0891       0.0038       0.9396       2.0861
   2997.4353      11.7374    -999.2500      29.3106      34.4818     126.1245     119.4739       0.0845       0.0044       0.8443       2.0148
   2997.5876      12.3229    -999.2500      29.2742      34.7415     124.4164     118.2945       0.0798       0.0049       0.7489       1.9435
   2997.7400      12.9084    -999.2500      29.2378      35.9634     122.1665     117.4630       0.0752       0.0055       0.6535       1.8722
   2997.8923      13.4939    -999.2500      29.2013      37.8820     124.6304     119.9603       0.0706       0.0060       0.5581       1.8008
   2998.0449      13.7002    -999.2500      29.2450      39.4507     126.9736     121.4852       0.0672       0.0062       0.5272       1.7822
   2998.1973      12.9955    -999.2500      29.4799      38.2840     125.5716     120.4978       0.0667       0.0055       0.6508       1.8899
   2998.3496      12.2909    -999.2500      29.7153      37.5286     124.7312     119.1207       0.0662       0.0048       0.7745       1.9977
   2998.5020      11.5863    -999.2500      29.9508      36.7510     124.7609     119.2718       0.0657       0.0041       0.8982       2.1055
   2998.6543      10.8816    -999.2500      30.1858      38.7254     125.0755     119.8864       0.0652       0.0035       1.0218       2.2132
   2998.8069      10.1770    -999.2500      30.4213      40.2142     124.2971     119.2096       0.0647       0.0028       1.1455       2.3210
   2998.9592       9.4723    -999.2500      30.6567      40.1773     123.0786     116.7887       0.0642       0.0021       1.2692       2.4288
   2999.1116       9.8641    -999.2500      30.8114      37.7743     118.4203     112.5891       0.0649       0.0020       1.4010       2.4016
   2999.2639      10.6566    -999.2500      30.9369      35.8166     112.6379     108.2672       0.0660       0.0021       1.5357       2.3251
   2999.4165      11.4492    -999.2500      31.0625      35.4932     108.1171     104.7897       0.0671       0.0022       1.6704       2.2487
   2999.5688      12.2417    -999.2500      31.1880      37.1991     105.0775     102.7335       0.0681       0.0023       1.8051       2.1722
   2999.7212      13.0343    -999.2500      31.3135      38.4988     101.7123     100.5617       0.0692       0.0024       1.9398       2.0957
   2999.8735      13.8269    -999.2500      31.4391      38.7662      99.5966      98.7229       0.0703       0.0025       2.0746       2.0192
   3000.0259      14.4836    -999.2500      31.4636      38.8797      98.6590      96.7836       0.0717       0.0026       2.1700       1.9468
   3000.1785      14.4799    -999.2500      31.0008      38.3467      97.0439      95.4318       0.0747       0.0029       2.0745       1.8941
   3000.3308      14.4762    -999.2500      30.5370      37.2422      96.6044      94.9615       0.0776       0.0031       1.9791       1.8414
   3000.4832      14.4725    -999.2500      30.0733      34.4530      96.3922      94.3645       0.0806       0.0033       1.8836       1.7887
   3000.6355      14.4688    -999.2500      29.6101      30.9412      97.3420      95.1890       0.0835       0.0036       1.7881       1.7359
   3000.7881      14.4651    -999.2500      29.1463      27.1969      97.5236      95.7794       0.0865       0.0038       1.6926       1.6832
   3000.9404      14.4614    -999.2500      28.6827      23.4021      97.4959      95.2027       0.0894       0.0040       1.5971       1.6305
