#------------------------------------------------------------------------------
#
#   Created by  : [OpenWorks] Log Export Utility (LEXP)
#   Created on  : 2016-05-23 17:15:22
#   Project     : CANT971
#   User        : R5K
#   Interpreter : PEP
#
#------------------------------------------------------------------------------
~VERSION INFORMATION
VERS. 2.0 : CWLS Log ASCII Standard - version 2.0
WRAP.  NO : One line per depth step
~WELL INFORMATION
#MNEMONIC   .UNIT                                           VALUE :DESCRIPTION
#------------------------------------------------------------------------------
STRT        .M                                           125.0000 :START DEPTH
STOP        .M                                          3105.7915 :STOP DEPTH
STEP        .M                                             0.1524 :STEP
NULL        .                                           -999.2500 :NULL VALUE
COMP        .                                             UNKNOWN :COMPANY
WELL        .                                               3007D :WELL
FLD         .                                             UNKNOWN :FIELD
LOC         .                                             UNKNOWN :LOCATION
CNTY        .                                             UNKNOWN :COUNTY
STAT        .                                             UNKNOWN :STATE
CTRY        .                                             UNKNOWN :COUNTRY
SRVC        .                                             UNKNOWN :SERVICE COMPANY
DATE        .                                             UNKNOWN :LOG DATE
UWI         .                                               3007D :UNIQUE WELL ID
XCOORD      .                                       599721.440000 :SURFACE X
YCOORD      .                                      2152053.210000 :SURFACE Y
LAT         .                                           19.461622 :LATITUDE
LON         .                                          -92.049925 :LONGITUDE
ELEV        .M                                             0.0000 :SURFACE ELEV
ELEV_TYPE   .                                                  NA :ELEV TYPE
~CURVE INFORMATION
#MNEMONIC.UNIT        API CODE       : CURVE DESCRIPTION
#------------------------------------------------------------------------------
DEPTH    .M                          : Measured Depth
CGR      .API         UNKNOWN        : CGR:Entubado:rC:NONE:v0 (auto-composite)
DT       .us/ft       UNKNOWN        : DT:PETROWORKS:rC:NONE:v1 
GR       .API         UNKNOWN        : GR:PETROWORKS:rC:NONE:v2 
GR-LWD   .API         UNKNOWN        : GR-LWD:PETROWORKS:rC:NONE:v2 
ILD-LWD  .ohm.m       UNKNOWN        : ILD-LWD:PETROWORKS:rC:NONE:v2 
ILM-LWD  .ohm.m       UNKNOWN        : ILM-LWD:PETROWORKS:rC:NONE:v2 
NPHI     .v/v_decimal UNKNOWN        : NPHI:Entubado:rC:NONE:v0 (auto-composite)
POTA     .UNKNOWN     UNKNOWN        : POTA:Entubado:rC:NONE:v0 (auto-composite)
THOR     .ppm         UNKNOWN        : THOR:Entubado:rC:NONE:v0 (auto-composite)
URAN     .ppm         UNKNOWN        : URAN:Entubado:rC:NONE:v0 (auto-composite)
~A     DEPTH          CGR           DT           GR       GR-LWD      ILD-LWD      ILM-LWD         NPHI         POTA         THOR         URAN
# ...
   2062.3088    -999.2500      95.5000      35.3852      25.1556       4.1120       4.0727    -999.2500    -999.2500    -999.2500    -999.2500
   2062.4612    -999.2500      89.2618      33.9731      31.5282       3.1281       3.1010    -999.2500    -999.2500    -999.2500    -999.2500
   2062.6135    -999.2500      87.1450      34.6190      37.9023       2.1439       2.1290    -999.2500    -999.2500    -999.2500    -999.2500
   2062.7661    -999.2500      86.8955      37.2493      44.2821       1.1589       1.1562    -999.2500    -999.2500    -999.2500    -999.2500
   2062.9185    -999.2500      94.9919      40.3975      47.0216       0.9187       0.9163    -999.2500    -999.2500    -999.2500    -999.2500
   2063.0708    -999.2500     122.4850      44.2562      48.7229       0.8912       0.8858    -999.2500    -999.2500    -999.2500    -999.2500
   2063.2231    -999.2500     123.2333      48.1386      50.4230       0.8638       0.8554    -999.2500    -999.2500    -999.2500    -999.2500
   2063.3755    -999.2500     122.9493      50.2153      49.9986       0.8727       0.8642    -999.2500    -999.2500    -999.2500    -999.2500
   2063.5281    -999.2500     122.2583      50.6482      47.4157       0.9184       0.9130    -999.2500    -999.2500    -999.2500    -999.2500
   2063.6804    -999.2500     123.6411      50.5413      44.8366       0.9641       0.9617    -999.2500    -999.2500    -999.2500    -999.2500
   2063.8328    -999.2500     123.8504      49.4758      43.1235       0.9993       0.9993    -999.2500    -999.2500    -999.2500    -999.2500
   2063.9851    -999.2500     119.4560      48.4979      44.5742       0.9963       0.9963    -999.2500    -999.2500    -999.2500    -999.2500
   2064.1377    -999.2500     116.0683      46.4210      46.0240       0.9932       0.9932    -999.2500    -999.2500    -999.2500    -999.2500
   2064.2900    -999.2500     114.2764      45.0327      47.4764       0.9902       0.9902    -999.2500    -999.2500    -999.2500    -999.2500
   2064.4424    -999.2500     112.8984      43.1229      46.5044       1.0270       1.0242    -999.2500    -999.2500    -999.2500    -999.2500
   2064.5947    -999.2500     112.3432      42.2089      45.3645       1.0667       1.0608    -999.2500    -999.2500    -999.2500    -999.2500
   2064.7473    -999.2500     110.3388      44.0703      44.2245       1.1063       1.0973    -999.2500    -999.2500    -999.2500    -999.2500
   2064.8997    -999.2500     111.6272      46.1835      44.9169       1.0720       1.0660    -999.2500    -999.2500    -999.2500    -999.2500
   2065.0520    -999.2500     111.6973      47.3309      45.7448       1.0355       1.0326    -999.2500    -999.2500    -999.2500    -999.2500
   2065.2043    -999.2500     112.5762      46.2445      47.1414       0.9739       0.9761    -999.2500    -999.2500    -999.2500    -999.2500
   2065.3567    -999.2500     113.1533      46.5240      48.8010       0.9007       0.9090    -999.2500    -999.2500    -999.2500    -999.2500
   2065.5093    -999.2500     113.8548      45.9763      48.9245       0.8669       0.8747    -999.2500    -999.2500    -999.2500    -999.2500
   2065.6616    -999.2500     114.5390      46.6550      48.4434       0.8486       0.8534    -999.2500    -999.2500    -999.2500    -999.2500
   2065.8140    -999.2500     114.9069      46.0790      47.9615       0.8303       0.8320    -999.2500    -999.2500    -999.2500    -999.2500
   2065.9663    -999.2500     115.9000      46.8090      48.4085       0.8386       0.8386    -999.2500    -999.2500    -999.2500    -999.2500
   2066.1189    -999.2500     115.8818      46.4128      50.0533       0.8813       0.8813    -999.2500    -999.2500    -999.2500    -999.2500
   2066.2712    -999.2500     114.5779      47.3021      51.6995       0.9240       0.9240    -999.2500    -999.2500    -999.2500    -999.2500
   2066.4236    -999.2500     114.9110      46.8883      53.6064       0.9448       0.9448    -999.2500    -999.2500    -999.2500    -999.2500
   2066.5759    -999.2500     119.3146      48.4202      56.9247       0.8473       0.8473    -999.2500    -999.2500    -999.2500    -999.2500
   2066.7285    -999.2500     126.0781      50.6147      60.2423       0.7498       0.7498    -999.2500    -999.2500    -999.2500    -999.2500
   2066.8809    -999.2500     126.4117      53.9459      63.5639       0.6522       0.6522    -999.2500    -999.2500    -999.2500    -999.2500
   2067.0332    -999.2500     126.3725      56.0867      61.5405       0.7120       0.7067    -999.2500    -999.2500    -999.2500    -999.2500
   2067.1855    -999.2500     125.3042      56.0043      58.7543       0.7942       0.7828    -999.2500    -999.2500    -999.2500    -999.2500
   2067.3379    -999.2500     123.8373      53.5456      55.9629       0.8766       0.8590    -999.2500    -999.2500    -999.2500    -999.2500
   2067.4905    -999.2500     120.9929      50.0702      53.0989       0.8991       0.8828    -999.2500    -999.2500    -999.2500    -999.2500
   2067.6428    -999.2500     118.3441      47.5514      50.1876       0.8809       0.8706    -999.2500    -999.2500    -999.2500    -999.2500
   2067.7952    -999.2500     115.5945      46.9200      47.2721       0.8626       0.8584    -999.2500    -999.2500    -999.2500    -999.2500
   2067.9475    -999.2500     114.9494      47.7230      45.3731       0.8319       0.8319    -999.2500    -999.2500    -999.2500    -999.2500
   2068.1001    -999.2500     117.0452      48.6179      45.7018       0.7740       0.7740    -999.2500    -999.2500    -999.2500    -999.2500
   2068.2524    -999.2500     117.7477      48.6620      46.0312       0.7161       0.7161    -999.2500    -999.2500    -999.2500    -999.2500
   2068.4048    -999.2500     118.2089      47.8220      46.3867       0.6615       0.6615    -999.2500    -999.2500    -999.2500    -999.2500
   2068.5571    -999.2500     118.8209      46.2296      47.5265       0.7072       0.7072    -999.2500    -999.2500    -999.2500    -999.2500
   2068.7097    -999.2500     119.3070      45.5009      48.6655       0.7529       0.7529    -999.2500    -999.2500    -999.2500    -999.2500
   2068.8621    -999.2500     118.8135      46.5446      49.8065       0.7986       0.7986    -999.2500    -999.2500    -999.2500    -999.2500
   2069.0144    -999.2500     116.4392      47.1183      50.2870       0.8237       0.8237    -999.2500    -999.2500    -999.2500    -999.2500
   2069.1667    -999.2500     116.0404      48.2216      50.5489       0.8420       0.8420    -999.2500    -999.2500    -999.2500    -999.2500
   2069.3191    -999.2500     117.5079      47.7133      50.8112       0.8603       0.8603    -999.2500    -999.2500    -999.2500    -999.2500
   2069.4717    -999.2500     117.4568      48.0052      51.0389       0.8700       0.8686    -999.2500    -999.2500    -999.2500    -999.2500
   2069.6240    -999.2500     119.3656      47.2299      51.2278       0.8700       0.8655    -999.2500    -999.2500    -999.2500    -999.2500
   2069.7764    -999.2500     122.9414      48.7426      51.4168       0.8700       0.8625    -999.2500    -999.2500    -999.2500    -999.2500
   2069.9287    -999.2500     125.0267      50.1862      51.5688       0.8660       0.8565    -999.2500    -999.2500    -999.2500    -999.2500
   2070.0813    -999.2500     124.3133      52.6389      51.5627       0.8446       0.8382    -999.2500    -999.2500    -999.2500    -999.2500
   2070.2336    -999.2500     123.8483      51.9047      51.5567       0.8233       0.8200    -999.2500    -999.2500    -999.2500    -999.2500
   2070.3860    -999.2500     121.4561      50.4685      51.5506       0.8019       0.8017    -999.2500    -999.2500    -999.2500    -999.2500
   2070.5383    -999.2500     119.7785      48.9777      51.5639       0.8360       0.8305    -999.2500    -999.2500    -999.2500    -999.2500
   2070.6909    -999.2500     118.7860      49.7244      51.5791       0.8756       0.8640    -999.2500    -999.2500    -999.2500    -999.2500
