#------------------------------------------------------------------------------
#
#   Created by  : [OpenWorks] Log Export Utility (LEXP)
#   Created on  : 2016-05-23 17:15:22
#   Project     : CANT971
#   User        : R5K
#   Interpreter : PEP
#
#------------------------------------------------------------------------------
~VERSION INFORMATION
VERS. 2.0 : CWLS Log ASCII Standard - version 2.0
WRAP.  NO : One line per depth step
~WELL INFORMATION
#MNEMONIC   .UNIT                                           VALUE :DESCRIPTION
#------------------------------------------------------------------------------
STRT        .M                                           125.0000 :START DEPTH
STOP        .M                                          3105.7915 :STOP DEPTH
STEP        .M                                             0.1524 :STEP
NULL        .                                           -999.2500 :NULL VALUE
COMP        .                                             UNKNOWN :COMPANY
WELL        .                                               3007D :WELL
FLD         .                                             UNKNOWN :FIELD
LOC         .                                             UNKNOWN :LOCATION
CNTY        .                                             UNKNOWN :COUNTY
STAT        .                                             UNKNOWN :STATE
CTRY        .                                             UNKNOWN :COUNTRY
SRVC        .                                             UNKNOWN :SERVICE COMPANY
DATE        .                                             UNKNOWN :LOG DATE
UWI         .                                               3007D :UNIQUE WELL ID
XCOORD      .                                       599721.440000 :SURFACE X
YCOORD      .                                      2152053.210000 :SURFACE Y
LAT         .                                           19.461622 :LATITUDE
LON         .                                          -92.049925 :LONGITUDE
ELEV        .M                                             0.0000 :SURFACE ELEV
ELEV_TYPE   .                                                  NA :ELEV TYPE
~CURVE INFORMATION
#MNEMONIC.UNIT        API CODE       : CURVE DESCRIPTION
#------------------------------------------------------------------------------
DEPTH    .M                          : Measured Depth
CGR      .API         UNKNOWN        : CGR:Entubado:rC:NONE:v0 (auto-composite)
DT       .us/ft       UNKNOWN        : DT:PETROWORKS:rC:NONE:v1 
GR       .API         UNKNOWN        : GR:PETROWORKS:rC:NONE:v2 
GR-LWD   .API         UNKNOWN        : GR-LWD:PETROWORKS:rC:NONE:v2 
ILD-LWD  .ohm.m       UNKNOWN        : ILD-LWD:PETROWORKS:rC:NONE:v2 
ILM-LWD  .ohm.m       UNKNOWN        : ILM-LWD:PETROWORKS:rC:NONE:v2 
NPHI     .v/v_decimal UNKNOWN        : NPHI:Entubado:rC:NONE:v0 (auto-composite)
POTA     .UNKNOWN     UNKNOWN        : POTA:Entubado:rC:NONE:v0 (auto-composite)
THOR     .ppm         UNKNOWN        : THOR:Entubado:rC:NONE:v0 (auto-composite)
URAN     .ppm         UNKNOWN        : URAN:Entubado:rC:NONE:v0 (auto-composite)
~A     DEPTH          CGR           DT           GR       GR-LWD      ILD-LWD      ILM-LWD         NPHI         POTA         THOR         URAN
# ...
   2736.5264       3.3707    -999.2500      13.8202      18.0568    1088.9648     861.7740       0.1517       0.0008       0.4183       1.1981
   2736.6787       3.1003    -999.2500      13.5588      17.0570    1248.1365     901.0845       0.1507       0.0008       0.3436       1.1991
   2736.8313       2.8298    -999.2500      13.2969      17.4827    1307.3835     895.9302       0.1496       0.0009       0.2689       1.2001
   2736.9836       2.5593    -999.2500      13.0349      18.2390    1154.7751     882.3744       0.1486       0.0009       0.1941       1.2011
   2737.1360       2.5277    -999.2500      13.0651      19.4880    1403.7173    1044.2010       0.1544       0.0008       0.2107       1.2081
   2737.2883       2.5249    -999.2500      13.1301      18.9722    1845.3340    1240.0796       0.1609       0.0008       0.2384       1.2159
   2737.4409       2.5221    -999.2500      13.1952      17.2207    1723.7871    1321.0781       0.1675       0.0007       0.2660       1.2237
   2737.5933       2.5193    -999.2500      13.2602      16.5733    1574.3184    1188.5160       0.1741       0.0007       0.2936       1.2315
   2737.7456       2.5166    -999.2500      13.3252      16.1526    1550.2068    1190.4033       0.1806       0.0006       0.3212       1.2392
   2737.8979       2.5138    -999.2500      13.3910      16.0300    1380.0000    1192.9600       0.1872       0.0005       0.3488       1.2470
   2738.0503       2.5330    -999.2500      13.2696      16.4342    1750.2664    1442.8197       0.1893       0.0006       0.3505       1.2310
   2738.2029       2.5969    -999.2500      12.7752      16.6535    1873.0769    1369.8992       0.1823       0.0007       0.2997       1.1669
   2738.3552       2.6608    -999.2500      12.2798      16.4636    1540.2771    1356.9913       0.1753       0.0009       0.2489       1.1028
   2738.5076       2.7247    -999.2500      11.7844      15.0346    1291.4592    1310.7449       0.1683       0.0010       0.1982       1.0388
   2738.6599       2.7886    -999.2500      11.2898      15.2627    1272.6376    1173.8888       0.1613       0.0012       0.1474       0.9747
   2738.8125       2.8525    -999.2500      10.7944      15.3343    1050.7473     993.8264       0.1543       0.0013       0.0966       0.9106
   2738.9648       2.9163    -999.2500      10.2990      15.4291    1056.7112     913.2358       0.1473       0.0015       0.0458       0.8465
   2739.1172       3.2119    -999.2500      10.4551      14.5860    1163.3854     920.8872       0.1454       0.0015       0.0842       0.8305
   2739.2695       3.5770    -999.2500      10.8063      14.2373     991.1011     831.8078       0.1451       0.0016       0.1494       0.8288
   2739.4221       3.9422    -999.2500      11.1574      14.1611     935.0472     785.3004       0.1447       0.0016       0.2146       0.8272
   2739.5745       4.3073    -999.2500      11.5087      15.0177     849.4054     729.1892       0.1443       0.0017       0.2798       0.8256
   2739.7268       4.6724    -999.2500      11.8596      15.7388     909.1563     769.3401       0.1440       0.0017       0.3450       0.8240
   2739.8792       5.0376    -999.2500      12.2108      16.0972     921.2248     797.7387       0.1436       0.0018       0.4102       0.8224
   2740.0315       5.4006    -999.2500      12.5965      15.5843     846.8911     754.1349       0.1407       0.0018       0.4657       0.8249
   2740.1841       5.7556    -999.2500      13.1102      14.6296     895.9952     746.0427       0.1280       0.0020       0.4838       0.8432
   2740.3364       6.1106    -999.2500      13.6250      13.8046     884.7319     698.3265       0.1152       0.0021       0.5020       0.8615
   2740.4888       6.4657    -999.2500      14.1397      14.1762     636.0412     519.3997       0.1025       0.0023       0.5202       0.8798
   2740.6411       6.8207    -999.2500      14.6538      14.9824     545.6539     451.5433       0.0898       0.0024       0.5383       0.8980
   2740.7937       7.1757    -999.2500      15.1686      17.5509     677.8738     563.5136       0.0771       0.0026       0.5565       0.9163
   2740.9460       7.5307    -999.2500      15.6833      20.4857     898.7594     805.2258       0.0644       0.0027       0.5747       0.9346
   2741.0984       7.3620    -999.2500      15.2997      22.8648    1078.7314     918.6505       0.0628       0.0027       0.5564       0.9110
   2741.2507       6.9060    -999.2500      14.4449      22.8685    1137.4817     923.0417       0.0674       0.0025       0.5181       0.8643
   2741.4033       6.4499    -999.2500      13.5819      19.7352    1069.4620     884.1478       0.0720       0.0024       0.4798       0.8176
   2741.5557       5.9939    -999.2500      12.7183      16.4226    1040.7306     842.8518       0.0765       0.0022       0.4415       0.7710
   2741.7080       5.5378    -999.2500      11.8558      14.7546     928.3867     796.7007       0.0811       0.0020       0.4033       0.7243
   2741.8604       5.0818    -999.2500      10.9923      15.7220     920.0933     852.9561       0.0856       0.0019       0.3650       0.6776
   2742.0127       4.6812    -999.2500      10.2404      16.3118     937.8256     854.3027       0.0892       0.0017       0.3293       0.6373
   2742.1653       4.8856    -999.2500      10.6934      14.9636     918.2444     828.4097       0.0815       0.0018       0.3222       0.6659
   2742.3176       5.0900    -999.2500      11.1475      13.1224     861.1856     792.0628       0.0738       0.0020       0.3151       0.6945
   2742.4700       5.2944    -999.2500      11.6014      11.7494     757.5759     717.8508       0.0662       0.0021       0.3080       0.7231
   2742.6223       5.4988    -999.2500      12.0550      11.5108     671.6867     665.3772       0.0585       0.0023       0.3008       0.7517
   2742.7749       5.7032    -999.2500      12.5089      12.0049     682.0428     641.4464       0.0508       0.0024       0.2937       0.7803
   2742.9272       5.9077    -999.2500      12.9628      13.3262     651.6087     613.1718       0.0432       0.0025       0.2866       0.8088
   2743.0796       5.8193    -999.2500      14.1757      15.1098     545.3509     517.6957       0.0399       0.0025       0.2932       0.9580
   2743.2319       5.4631    -999.2500      16.0805      16.3736     455.9519     428.8523       0.0407       0.0022       0.3123       1.2173
   2743.3845       5.1069    -999.2500      17.9867      16.8226     409.8212     380.5376       0.0415       0.0020       0.3314       1.4767
   2743.5369       4.7507    -999.2500      19.8939      17.7190     386.2280     361.5880       0.0423       0.0017       0.3505       1.7361
   2743.6892       4.3945    -999.2500      21.7981      22.3862     357.8910     331.3758       0.0431       0.0015       0.3696       1.9954
   2743.8416       4.0383    -999.2500      23.7053      30.1776     298.3000     277.6857       0.0439       0.0013       0.3887       2.2548
   2743.9939       3.6821    -999.2500      25.6139      36.0924     219.3709     201.7969       0.0447       0.0010       0.4078       2.5142
   2744.1465       3.3160    -999.2500      23.5749      29.1986     338.6257     290.8275       0.0439       0.0008       0.3936       2.3227
   2744.2988       2.9495    -999.2500      21.3608      20.5310     370.8509     325.9374       0.0431       0.0007       0.3780       2.1127
   2744.4512       2.5830    -999.2500      19.1774      15.5500     361.6300     327.6400       0.0423       0.0005       0.3624       1.9026
   2744.6035       2.2164    -999.2500      16.9796      15.0823     367.1462     330.7319       0.0414       0.0003       0.3467       1.6926
   2744.7561       1.8499    -999.2500      14.7815      14.0754     368.1559     338.3156       0.0406       0.0002       0.3311       1.4826
   2744.9084       1.4834    -999.2500      12.5834      13.9243     347.7015     338.2834       0.0398       0.0000       0.3155       1.2726
