#------------------------------------------------------------------------------
#
#   Created by  : [OpenWorks] Log Export Utility (LEXP)
#   Created on  : 2016-05-23 17:15:22
#   Project     : CANT971
#   User        : R5K
#   Interpreter : PEP
#
#------------------------------------------------------------------------------
~VERSION INFORMATION
VERS. 2.0 : CWLS Log ASCII Standard - version 2.0
WRAP.  NO : One line per depth step
~WELL INFORMATION
#MNEMONIC   .UNIT                                           VALUE :DESCRIPTION
#------------------------------------------------------------------------------
STRT        .M                                           125.0000 :START DEPTH
STOP        .M                                          3105.7915 :STOP DEPTH
STEP        .M                                             0.1524 :STEP
NULL        .                                           -999.2500 :NULL VALUE
COMP        .                                             UNKNOWN :COMPANY
WELL        .                                               3007D :WELL
FLD         .                                             UNKNOWN :FIELD
LOC         .                                             UNKNOWN :LOCATION
CNTY        .                                             UNKNOWN :COUNTY
STAT        .                                             UNKNOWN :STATE
CTRY        .                                             UNKNOWN :COUNTRY
SRVC        .                                             UNKNOWN :SERVICE COMPANY
DATE        .                                             UNKNOWN :LOG DATE
UWI         .                                               3007D :UNIQUE WELL ID
XCOORD      .                                       599721.440000 :SURFACE X
YCOORD      .                                      2152053.210000 :SURFACE Y
LAT         .                                           19.461622 :LATITUDE
LON         .                                          -92.049925 :LONGITUDE
ELEV        .M                                             0.0000 :SURFACE ELEV
ELEV_TYPE   .                                                  NA :ELEV TYPE
~CURVE INFORMATION
#MNEMONIC.UNIT        API CODE       : CURVE DESCRIPTION
#------------------------------------------------------------------------------
DEPTH    .M                          : Measured Depth
CGR      .API         UNKNOWN        : CGR:Entubado:rC:NONE:v0 (auto-composite)
DT       .us/ft       UNKNOWN        : DT:PETROWORKS:rC:NONE:v1 
GR       .API         UNKNOWN        : GR:PETROWORKS:rC:NONE:v2 
GR-LWD   .API         UNKNOWN        : GR-LWD:PETROWORKS:rC:NONE:v2 
ILD-LWD  .ohm.m       UNKNOWN        : ILD-LWD:PETROWORKS:rC:NONE:v2 
ILM-LWD  .ohm.m       UNKNOWN        : ILM-LWD:PETROWORKS:rC:NONE:v2 
NPHI     .v/v_decimal UNKNOWN        : NPHI:Entubado:rC:NONE:v0 (auto-composite)
POTA     .UNKNOWN     UNKNOWN        : POTA:Entubado:rC:NONE:v0 (auto-composite)
THOR     .ppm         UNKNOWN        : THOR:Entubado:rC:NONE:v0 (auto-composite)
URAN     .ppm         UNKNOWN        : URAN:Entubado:rC:NONE:v0 (auto-composite)
~A     DEPTH          CGR           DT           GR       GR-LWD      ILD-LWD      ILM-LWD         NPHI         POTA         THOR         URAN
# ...
   3077.9023      -7.0242    -999.2500      49.6185      46.3491      73.1090      73.9443       0.0572      -0.0027      -0.4650       6.4940
   3078.0547      -7.6145    -999.2500      49.6185      43.8514      74.3344      74.7577       0.0566      -0.0028      -0.5406       6.5617
   3078.2073      -7.9836    -999.2500      49.6185      40.8691      73.8900      73.9292       0.0573      -0.0029      -0.5935       6.6040
   3078.3596      -8.3526    -999.2500      49.6185      41.8567      73.9165      73.5928       0.0581      -0.0030      -0.6464       6.6464
   3078.5120      -8.7217    -999.2500      49.6185      45.5358      73.7358      73.3885       0.0588      -0.0031      -0.6993       6.6887
   3078.6643      -9.0908    -999.2500      49.6185      47.4462      74.3301      73.7215       0.0596      -0.0031      -0.7522       6.7310
   3078.8169      -9.4598    -999.2500      49.6185      49.0000      74.2614      73.3623       0.0603      -0.0032      -0.8051       6.7733
   3078.9692      -9.8289    -999.2500      49.6185      53.1673      74.2255      72.7802       0.0610      -0.0033      -0.8580       6.8156
   3079.1216      -9.9342    -999.2500      49.6185      59.4430      75.2227      73.2329       0.0604      -0.0033      -0.8732       6.8277
   3079.2739      -9.9726    -999.2500      49.6185      65.1096      76.1740      73.6394       0.0594      -0.0033      -0.8788       6.8321
   3079.4265     -10.0110    -999.2500      49.6185      65.7943      78.0301      74.7476       0.0584      -0.0033      -0.8844       6.8365
   3079.5789     -10.0494    -999.2500      49.6185      64.8247      78.7197      76.2826       0.0574      -0.0033      -0.8900       6.8409
   3079.7312     -10.0878    -999.2500      49.6185      63.2747      79.0042      77.0645       0.0564      -0.0033      -0.8956       6.8453
   3079.8835     -10.1263    -999.2500      49.6185      62.5741      80.1163      78.0125       0.0555      -0.0033      -0.9012       6.8497
   3080.0359     -10.1555    -999.2500      49.6185      61.0378      81.2636      79.4273       0.0558      -0.0033      -0.9055       6.8531
   3080.1885     -10.1553    -999.2500      49.6185      61.5588      81.0841      79.4663       0.0605      -0.0033      -0.9054       6.8531
   3080.3408     -10.1550    -999.2500      49.6185      62.6216      80.8240      79.7325       0.0651      -0.0033      -0.9054       6.8530
   3080.4932     -10.1548    -999.2500      49.6185      62.2664      81.7155      81.2391       0.0698      -0.0033      -0.9054       6.8530
   3080.6455     -10.1545    -999.2500      49.6185      58.8526      83.7064      82.4684       0.0745      -0.0033      -0.9053       6.8530
   3080.7981     -10.1542    -999.2500      49.6185      56.7637      82.5978      81.9238       0.0791      -0.0033      -0.9053       6.8529
   3080.9504     -10.1540    -999.2500      49.6185      59.9061      80.8526      80.9203       0.0838      -0.0033      -0.9052       6.8529
   3081.1028     -10.1536    -999.2500      49.6185      66.4682      81.3427      81.3752       0.0853      -0.0033      -0.9052       6.8529
   3081.2551     -10.1531    -999.2500      49.6184      72.0469      82.5409      81.6246       0.0853      -0.0033      -0.9051       6.8528
   3081.4077     -10.1526    -999.2500      49.6184      77.9648      83.0415      82.2713       0.0853      -0.0033      -0.9051       6.8527
   3081.5601     -10.1522    -999.2500      49.6183      82.0383      82.0462      81.4207       0.0853      -0.0033      -0.9051       6.8527
   3081.7124     -10.1517    -999.2500      49.6183      85.0454      81.8357      81.7359       0.0853      -0.0033      -0.9051       6.8526
   3081.8647     -10.1512    -999.2500      49.6182      77.8666      83.8589      83.7611       0.0853      -0.0033      -0.9050       6.8526
   3082.0171    -999.2500    -999.2500    -999.2500      68.2189      83.9426      84.0690    -999.2500    -999.2500    -999.2500    -999.2500
   3082.1697    -999.2500    -999.2500    -999.2500      61.2343      83.8647      83.3357    -999.2500    -999.2500    -999.2500    -999.2500
   3082.3220    -999.2500    -999.2500    -999.2500      58.7946      83.4950      83.7204    -999.2500    -999.2500    -999.2500    -999.2500
   3082.4744    -999.2500    -999.2500    -999.2500      58.1928      82.9459      84.0048    -999.2500    -999.2500    -999.2500    -999.2500
   3082.6267    -999.2500    -999.2500    -999.2500      59.4533      83.5895      84.1325    -999.2500    -999.2500    -999.2500    -999.2500
   3082.7793    -999.2500    -999.2500    -999.2500      59.4672      83.4770      83.4835    -999.2500    -999.2500    -999.2500    -999.2500
   3082.9316    -999.2500    -999.2500    -999.2500      57.1509      81.4676      82.2315    -999.2500    -999.2500    -999.2500    -999.2500
   3083.0840    -999.2500    -999.2500    -999.2500      51.9673      80.2786      81.2352    -999.2500    -999.2500    -999.2500    -999.2500
   3083.2363    -999.2500    -999.2500    -999.2500      44.3261      80.8818      80.9728    -999.2500    -999.2500    -999.2500    -999.2500
   3083.3889    -999.2500    -999.2500    -999.2500      38.6901      81.2738      80.7680    -999.2500    -999.2500    -999.2500    -999.2500
   3083.5413    -999.2500    -999.2500    -999.2500      39.5740      79.8275      79.6278    -999.2500    -999.2500    -999.2500    -999.2500
   3083.6936    -999.2500    -999.2500    -999.2500      44.8126      77.4650      76.5904    -999.2500    -999.2500    -999.2500    -999.2500
   3083.8459    -999.2500    -999.2500    -999.2500      48.0283      76.3393      75.2838    -999.2500    -999.2500    -999.2500    -999.2500
   3083.9983    -999.2500    -999.2500    -999.2500      46.5838      82.9894      81.2770    -999.2500    -999.2500    -999.2500    -999.2500
   3084.1509    -999.2500    -999.2500    -999.2500      44.5065      88.7861      86.4746    -999.2500    -999.2500    -999.2500    -999.2500
   3084.3032    -999.2500    -999.2500    -999.2500      45.4260      91.0018      90.0397    -999.2500    -999.2500    -999.2500    -999.2500
   3084.4556    -999.2500    -999.2500    -999.2500      45.3337      95.6874      94.4120    -999.2500    -999.2500    -999.2500    -999.2500
   3084.6079    -999.2500    -999.2500    -999.2500      43.0450     100.7985      99.7122    -999.2500    -999.2500    -999.2500    -999.2500
   3084.7605    -999.2500    -999.2500    -999.2500      39.9134     105.4068     103.7981    -999.2500    -999.2500    -999.2500    -999.2500
   3084.9128    -999.2500    -999.2500    -999.2500      37.3418     108.9859     109.3159    -999.2500    -999.2500    -999.2500    -999.2500
   3085.0652    -999.2500    -999.2500    -999.2500      35.1086     111.7545     113.4335    -999.2500    -999.2500    -999.2500    -999.2500
   3085.2175    -999.2500    -999.2500    -999.2500      33.3671     113.9519     117.1056    -999.2500    -999.2500    -999.2500    -999.2500
   3085.3701    -999.2500    -999.2500    -999.2500      31.1475     115.4564     119.4208    -999.2500    -999.2500    -999.2500    -999.2500
   3085.5225    -999.2500    -999.2500    -999.2500      30.6361     117.2423     120.9563    -999.2500    -999.2500    -999.2500    -999.2500
   3085.6748    -999.2500    -999.2500    -999.2500      34.0583     119.2097     121.1299    -999.2500    -999.2500    -999.2500    -999.2500
   3085.8271    -999.2500    -999.2500    -999.2500      38.4942     120.6381     123.0053    -999.2500    -999.2500    -999.2500    -999.2500
   3085.9795    -999.2500    -999.2500    -999.2500      39.5081     123.2114     125.8918    -999.2500    -999.2500    -999.2500    -999.2500
   3086.1321    -999.2500    -999.2500    -999.2500      37.0362     126.8278     128.4102    -999.2500    -999.2500    -999.2500    -999.2500
   3086.2844    -999.2500    -999.2500    -999.2500      35.3208     130.4093     130.6868    -999.2500    -999.2500    -999.2500    -999.2500
