#------------------------------------------------------------------------------
#
#   Created by  : [OpenWorks] Log Export Utility (LEXP)
#   Created on  : 2016-05-23 17:15:22
#   Project     : CANT971
#   User        : R5K
#   Interpreter : PEP
#
#------------------------------------------------------------------------------
~VERSION INFORMATION
VERS. 2.0 : CWLS Log ASCII Standard - version 2.0
WRAP.  NO : One line per depth step
~WELL INFORMATION
#MNEMONIC   .UNIT                                           VALUE :DESCRIPTION
#------------------------------------------------------------------------------
STRT        .M                                           125.0000 :START DEPTH
STOP        .M                                          3105.7915 :STOP DEPTH
STEP        .M                                             0.1524 :STEP
NULL        .                                           -999.2500 :NULL VALUE
COMP        .                                             UNKNOWN :COMPANY
WELL        .                                               3007D :WELL
FLD         .                                             UNKNOWN :FIELD
LOC         .                                             UNKNOWN :LOCATION
CNTY        .                                             UNKNOWN :COUNTY
STAT        .                                             UNKNOWN :STATE
CTRY        .                                             UNKNOWN :COUNTRY
SRVC        .                                             UNKNOWN :SERVICE COMPANY
DATE        .                                             UNKNOWN :LOG DATE
UWI         .                                               3007D :UNIQUE WELL ID
XCOORD      .                                       599721.440000 :SURFACE X
YCOORD      .                                      2152053.210000 :SURFACE Y
LAT         .                                           19.461622 :LATITUDE
LON         .                                          -92.049925 :LONGITUDE
ELEV        .M                                             0.0000 :SURFACE ELEV
ELEV_TYPE   .                                                  NA :ELEV TYPE
~CURVE INFORMATION
#MNEMONIC.UNIT        API CODE       : CURVE DESCRIPTION
#------------------------------------------------------------------------------
DEPTH    .M                          : Measured Depth
CGR      .API         UNKNOWN        : CGR:Entubado:rC:NONE:v0 (auto-composite)
DT       .us/ft       UNKNOWN        : DT:PETROWORKS:rC:NONE:v1 
GR       .API         UNKNOWN        : GR:PETROWORKS:rC:NONE:v2 
GR-LWD   .API         UNKNOWN        : GR-LWD:PETROWORKS:rC:NONE:v2 
ILD-LWD  .ohm.m       UNKNOWN        : ILD-LWD:PETROWORKS:rC:NONE:v2 
ILM-LWD  .ohm.m       UNKNOWN        : ILM-LWD:PETROWORKS:rC:NONE:v2 
NPHI     .v/v_decimal UNKNOWN        : NPHI:Entubado:rC:NONE:v0 (auto-composite)
POTA     .UNKNOWN     UNKNOWN        : POTA:Entubado:rC:NONE:v0 (auto-composite)
THOR     .ppm         UNKNOWN        : THOR:Entubado:rC:NONE:v0 (auto-composite)
URAN     .ppm         UNKNOWN        : URAN:Entubado:rC:NONE:v0 (auto-composite)
~A     DEPTH          CGR           DT           GR       GR-LWD      ILD-LWD      ILM-LWD         NPHI         POTA         THOR         URAN
# ...
   2651.1824       3.9811    -999.2500      13.9769      20.4008     469.5105     478.1363       0.1241       0.0018       0.1643       1.1460
   2651.3347       4.2063    -999.2500      13.9516      20.6272     474.4513     468.0582       0.1253       0.0018       0.2038       1.1173
   2651.4873       4.4314    -999.2500      13.9263      21.1674     492.2805     481.1527       0.1265       0.0018       0.2433       1.0886
   2651.6396       4.6565    -999.2500      13.9010      20.9114     486.4473     484.0969       0.1277       0.0019       0.2828       1.0599
   2651.7920       4.8816    -999.2500      13.8757      21.0147     456.5100     453.9678       0.1289       0.0019       0.3223       1.0312
   2651.9443       5.1068    -999.2500      13.8504      21.4970     431.4050     432.5791       0.1301       0.0019       0.3618       1.0025
   2652.0967       5.3755    -999.2500      14.2965      22.4380     426.4586     402.4676       0.1305       0.0020       0.3635       1.0228
   2652.2493       5.6692    -999.2500      15.0129      22.6487     406.2055     376.7584       0.1306       0.0022       0.3435       1.0713
   2652.4016       5.9630    -999.2500      15.7214      22.2438     360.2249     353.6289       0.1306       0.0025       0.3235       1.1197
   2652.5540       6.2567    -999.2500      16.4464      21.9920     335.7240     328.4412       0.1307       0.0027       0.3035       1.1682
   2652.7063       6.5505    -999.2500      17.1624      22.4734     301.8588     290.3951       0.1307       0.0029       0.2835       1.2167
   2652.8589       6.8442    -999.2500      17.8794      23.3070     264.3666     251.8823       0.1308       0.0031       0.2635       1.2652
   2653.0112       7.1504    -999.2500      18.6375      23.1814     238.8985     228.6244       0.1307       0.0033       0.2483       1.3168
   2653.1636       7.6125    -999.2500      19.8924      22.3832     217.0365     214.3499       0.1295       0.0034       0.2930       1.4079
   2653.3159       8.0746    -999.2500      21.1504      21.4902     198.4911     194.5638       0.1284       0.0036       0.3376       1.4991
   2653.4685       8.5367    -999.2500      22.4077      22.0803     171.4863     164.3115       0.1272       0.0037       0.3823       1.5903
   2653.6208       8.9988    -999.2500      23.6643      22.8139     126.6083     116.5459       0.1260       0.0039       0.4270       1.6814
   2653.7732       9.4609    -999.2500      24.9217      24.5083      96.0673      84.6289       0.1248       0.0040       0.4716       1.7726
   2653.9255       9.9230    -999.2500      26.1790      34.4812      61.1958      51.6010       0.1237       0.0041       0.5163       1.8637
   2654.0779      13.3621    -999.2500      33.1297      50.7676      39.2138      32.0783       0.1295       0.0057       0.6630       2.2658
   2654.2305      19.6408    -999.2500      45.4932      82.5552      25.7113      22.1504       0.1420       0.0085       0.9069       2.9644
   2654.3828      25.9195    -999.2500      57.8669     114.7659      15.5810      14.1553       0.1545       0.0114       1.1509       3.6630
   2654.5352      32.1982    -999.2500      70.2467     143.7768      10.9031       9.9906       0.1670       0.0142       1.3948       4.3616
   2654.6875      38.4769    -999.2500      82.6066     160.9320       7.0550       6.5962       0.1795       0.0171       1.6388       5.0602
   2654.8401      44.7556    -999.2500      94.9863     166.5683       4.8573       4.7654       0.1920       0.0199       1.8828       5.7588
   2654.9924      51.0343    -999.2500     107.3747     168.8766       3.8910       3.8810       0.2045       0.0228       2.1267       6.4574
   2655.1448      48.2041    -999.2500     103.4167     167.7360       4.7034       4.1484       0.1999       0.0216       1.9641       6.3300
   2655.2971      44.8957    -999.2500      98.6170     170.1808       4.2539       3.7599       0.1945       0.0203       1.7801       6.1594
   2655.4497      41.5874    -999.2500      93.8207     161.3854       3.4099       3.2675       0.1891       0.0189       1.5961       5.9887
   2655.6021      38.2791    -999.2500      89.0246     147.5119       3.0277       3.1446       0.1837       0.0175       1.4122       5.8180
   2655.7544      34.9707    -999.2500      84.2281     128.0510       4.2120       4.1073       0.1782       0.0162       1.2282       5.6473
   2655.9067      31.6624    -999.2500      79.4315     116.0984       5.5406       5.2517       0.1728       0.0148       1.0442       5.4767
   2656.0591      29.0488    -999.2500      74.3498     111.1066       6.3540       6.2972       0.1649       0.0137       0.9090       5.1942
   2656.2117      27.5289    -999.2500      68.8374      95.9288       7.4267       7.5727       0.1532       0.0130       0.8505       4.7357
   2656.3640      26.0091    -999.2500      63.3163      72.3617       9.5265       9.5235       0.1414       0.0124       0.7920       4.2773
   2656.5164      24.4892    -999.2500      57.7942      54.9541      11.1138      10.9355       0.1297       0.0117       0.7336       3.8188
   2656.6687      22.9693    -999.2500      52.2809      46.3065      12.0342      11.9072       0.1179       0.0110       0.6751       3.3603
   2656.8213      21.4495    -999.2500      46.7588      47.7301      12.6495      12.7711       0.1062       0.0103       0.6166       2.9019
   2656.9736      19.9296    -999.2500      41.2354      54.6802      12.3106      12.3656       0.0944       0.0096       0.5581       2.4434
   2657.1260      18.4772    -999.2500      38.5891      62.6144      12.6599      12.2985       0.0931       0.0088       0.5512       2.3058
   2657.2783      17.0390    -999.2500      36.5363      64.8671      16.8928      16.0430       0.0938       0.0080       0.5550       2.2354
   2657.4309      15.6008    -999.2500      34.4845      59.4322      17.1846      16.3324       0.0946       0.0072       0.5588       2.1650
   2657.5833      14.1626    -999.2500      32.4320      51.4180      18.4255      17.7522       0.0954       0.0064       0.5626       2.0946
   2657.7356      12.7244    -999.2500      30.3807      46.6272      19.5505      19.7569       0.0962       0.0056       0.5665       2.0242
   2657.8879      11.2862    -999.2500      28.3284      41.3371      20.7792      21.7813       0.0970       0.0048       0.5703       1.9538
   2658.0403      10.3170    -999.2500      27.1377      43.6725      22.2839      22.5825       0.0965       0.0042       0.5867       1.9283
   2658.1929      10.6480    -999.2500      28.3304      49.1486      23.2899      22.7024       0.0923       0.0043       0.6380       2.0273
   2658.3452      10.9789    -999.2500      29.5256      51.6461      24.7210      24.2007       0.0881       0.0043       0.6892       2.1263
   2658.4976      11.3099    -999.2500      30.7207      47.8767      26.1695      25.5616       0.0840       0.0044       0.7405       2.2253
   2658.6499      11.6408    -999.2500      31.9141      47.4520      26.3548      25.7382       0.0798       0.0045       0.7918       2.3243
   2658.8025      11.9718    -999.2500      33.1092      45.6722      27.2007      26.5531       0.0756       0.0045       0.8430       2.4233
   2658.9548      12.3027    -999.2500      34.3042      43.5177      28.1755      27.6992       0.0714       0.0046       0.8943       2.5223
   2659.1072      12.2347    -999.2500      34.5242      41.3739      28.2534      28.0630       0.0718       0.0047       0.8456       2.5555
   2659.2595      11.9984    -999.2500      34.3347      35.6790      28.3285      28.4528       0.0740       0.0048       0.7548       2.5608
   2659.4121      11.7621    -999.2500      34.1452      33.9912      28.4132      28.5481       0.0762       0.0048       0.6640       2.5662
   2659.5645      11.5259    -999.2500      33.9556      36.5315      28.5569      28.6947       0.0784       0.0049       0.5732       2.5716
