#------------------------------------------------------------------------------
#
#   Created by  : [OpenWorks] Log Export Utility (LEXP)
#   Created on  : 2016-05-23 17:15:22
#   Project     : CANT971
#   User        : R5K
#   Interpreter : PEP
#
#------------------------------------------------------------------------------
~VERSION INFORMATION
VERS. 2.0 : CWLS Log ASCII Standard - version 2.0
WRAP.  NO : One line per depth step
~WELL INFORMATION
#MNEMONIC   .UNIT                                           VALUE :DESCRIPTION
#------------------------------------------------------------------------------
STRT        .M                                           125.0000 :START DEPTH
STOP        .M                                          3105.7915 :STOP DEPTH
STEP        .M                                             0.1524 :STEP
NULL        .                                           -999.2500 :NULL VALUE
COMP        .                                             UNKNOWN :COMPANY
WELL        .                                               3007D :WELL
FLD         .                                             UNKNOWN :FIELD
LOC         .                                             UNKNOWN :LOCATION
CNTY        .                                             UNKNOWN :COUNTY
STAT        .                                             UNKNOWN :STATE
CTRY        .                                             UNKNOWN :COUNTRY
SRVC        .                                             UNKNOWN :SERVICE COMPANY
DATE        .                                             UNKNOWN :LOG DATE
UWI         .                                               3007D :UNIQUE WELL ID
XCOORD      .                                       599721.440000 :SURFACE X
YCOORD      .                                      2152053.210000 :SURFACE Y
LAT         .                                           19.461622 :LATITUDE
LON         .                                          -92.049925 :LONGITUDE
ELEV        .M                                             0.0000 :SURFACE ELEV
ELEV_TYPE   .                                                  NA :ELEV TYPE
~CURVE INFORMATION
#MNEMONIC.UNIT        API CODE       : CURVE DESCRIPTION
#------------------------------------------------------------------------------
DEPTH    .M                          : Measured Depth
CGR      .API         UNKNOWN        : CGR:Entubado:rC:NONE:v0 (auto-composite)
DT       .us/ft       UNKNOWN        : DT:PETROWORKS:rC:NONE:v1 
GR       .API         UNKNOWN        : GR:PETROWORKS:rC:NONE:v2 
GR-LWD   .API         UNKNOWN        : GR-LWD:PETROWORKS:rC:NONE:v2 
ILD-LWD  .ohm.m       UNKNOWN        : ILD-LWD:PETROWORKS:rC:NONE:v2 
ILM-LWD  .ohm.m       UNKNOWN        : ILM-LWD:PETROWORKS:rC:NONE:v2 
NPHI     .v/v_decimal UNKNOWN        : NPHI:Entubado:rC:NONE:v0 (auto-composite)
POTA     .UNKNOWN     UNKNOWN        : POTA:Entubado:rC:NONE:v0 (auto-composite)
THOR     .ppm         UNKNOWN        : THOR:Entubado:rC:NONE:v0 (auto-composite)
URAN     .ppm         UNKNOWN        : URAN:Entubado:rC:NONE:v0 (auto-composite)
~A     DEPTH          CGR           DT           GR       GR-LWD      ILD-LWD      ILM-LWD         NPHI         POTA         THOR         URAN
# ...
   1891.6208    -999.2500     108.8310      44.9504      41.8882       1.4150       1.4077    -999.2500    -999.2500    -999.2500    -999.2500
   1891.7732    -999.2500     109.7561      42.4158      40.8522       1.2322       1.2158    -999.2500    -999.2500    -999.2500    -999.2500
   1891.9257    -999.2500     109.9813      44.1783      39.8157       1.0492       1.0237    -999.2500    -999.2500    -999.2500    -999.2500
   1892.0780    -999.2500     105.2962      47.8823      41.5146       0.9257       0.8972    -999.2500    -999.2500    -999.2500    -999.2500
   1892.2303    -999.2500      95.0073      51.7299      45.8178       0.8586       0.8332    -999.2500    -999.2500    -999.2500    -999.2500
   1892.3828    -999.2500     100.4850      52.3019      50.1203       0.7916       0.7692    -999.2500    -999.2500    -999.2500    -999.2500
   1892.5352    -999.2500     104.7341      53.7414      53.8571       0.7675       0.7454    -999.2500    -999.2500    -999.2500    -999.2500
   1892.6876    -999.2500     109.1215      54.6465      55.7009       0.8864       0.8551    -999.2500    -999.2500    -999.2500    -999.2500
   1892.8400    -999.2500     106.9319      56.0797      57.5439       1.0052       0.9648    -999.2500    -999.2500    -999.2500    -999.2500
   1892.9924    -999.2500     103.4239      56.7095      59.3894       1.1242       1.0746    -999.2500    -999.2500    -999.2500    -999.2500
   1893.1448    -999.2500     100.0636      54.5958      57.6484       1.2279       1.2073    -999.2500    -999.2500    -999.2500    -999.2500
   1893.2972    -999.2500      93.1917      51.9625      56.5091       1.2889       1.2865    -999.2500    -999.2500    -999.2500    -999.2500
   1893.4496    -999.2500      91.8096      50.6221      54.8798       1.3866       1.3956    -999.2500    -999.2500    -999.2500    -999.2500
   1893.6021    -999.2500      89.2044      51.1346      52.2404       1.5603       1.5663    -999.2500    -999.2500    -999.2500    -999.2500
   1893.7544    -999.2500      85.5837      50.8352      49.6014       1.7340       1.7370    -999.2500    -999.2500    -999.2500    -999.2500
   1893.9069    -999.2500      83.6427      48.5412      46.9259       1.9008       1.9010    -999.2500    -999.2500    -999.2500    -999.2500
   1894.0592    -999.2500      80.0301      45.0940      43.5193       1.9191       1.9223    -999.2500    -999.2500    -999.2500    -999.2500
   1894.2115    -999.2500      77.2923      41.4915      39.8480       1.9388       1.9453    -999.2500    -999.2500    -999.2500    -999.2500
   1894.3640    -999.2500      73.8488      38.2257      35.1393       1.9690       1.9751    -999.2500    -999.2500    -999.2500    -999.2500
   1894.5164    -999.2500      72.1545      35.8078      33.3288       1.9903       1.9873    -999.2500    -999.2500    -999.2500    -999.2500
   1894.6688    -999.2500      69.5101      35.3914      31.5178       2.0116       1.9995    -999.2500    -999.2500    -999.2500    -999.2500
   1894.8212    -999.2500      67.8602      35.5465      29.5387       2.0296       2.0100    -999.2500    -999.2500    -999.2500    -999.2500
   1894.9736    -999.2500      68.6441      35.9495      26.5188       2.0265       2.0100    -999.2500    -999.2500    -999.2500    -999.2500
   1895.1260    -999.2500      69.5478      35.7324      23.4975       2.0235       2.0100    -999.2500    -999.2500    -999.2500    -999.2500
   1895.2784    -999.2500      68.4261      34.7758      20.4766       2.0204       2.0100    -999.2500    -999.2500    -999.2500    -999.2500
   1895.4308    -999.2500      66.9289      34.0887      21.4104       2.0174       2.0100    -999.2500    -999.2500    -999.2500    -999.2500
   1895.5833    -999.2500      67.3826      33.4184      23.8625       2.0127       2.0100    -999.2500    -999.2500    -999.2500    -999.2500
   1895.7356    -999.2500      68.0010      33.8093      25.6363       2.0000       2.0000    -999.2500    -999.2500    -999.2500    -999.2500
   1895.8879    -999.2500      69.3616      33.6723      27.2842       1.9574       1.9574    -999.2500    -999.2500    -999.2500    -999.2500
   1896.0404    -999.2500      69.3495      33.7629      28.9335       1.9147       1.9147    -999.2500    -999.2500    -999.2500    -999.2500
   1896.1927    -999.2500      67.8690      33.6140      30.5839       1.8720       1.8720    -999.2500    -999.2500    -999.2500    -999.2500
   1896.3452    -999.2500      68.9490      33.8531      31.5195       1.8729       1.8758    -999.2500    -999.2500    -999.2500    -999.2500
   1896.4976    -999.2500      71.2711      35.0326      32.4220       1.8760       1.8819    -999.2500    -999.2500    -999.2500    -999.2500
   1896.6500    -999.2500      74.7280      38.4867      33.3247       1.8790       1.8880    -999.2500    -999.2500    -999.2500    -999.2500
   1896.8024    -999.2500      80.7027      43.6770      39.5821       1.6371       1.6390    -999.2500    -999.2500    -999.2500    -999.2500
   1896.9548    -999.2500      86.6505      47.4637      44.0729       1.4542       1.4500    -999.2500    -999.2500    -999.2500    -999.2500
   1897.1072    -999.2500      92.9757      51.0768      48.4880       1.2840       1.2740    -999.2500    -999.2500    -999.2500    -999.2500
   1897.2596    -999.2500      93.3268      53.4985      51.3508       1.3662       1.3562    -999.2500    -999.2500    -999.2500    -999.2500
   1897.4120    -999.2500      90.7650      56.7898      54.2157       1.4485       1.4385    -999.2500    -999.2500    -999.2500    -999.2500
   1897.5645    -999.2500      90.9415      56.8991      57.0827       1.5308       1.5208    -999.2500    -999.2500    -999.2500    -999.2500
   1897.7168    -999.2500      90.4449      56.8596      58.3226       1.5336       1.5166    -999.2500    -999.2500    -999.2500    -999.2500
   1897.8691    -999.2500      81.9914      55.0402      59.0691       1.5123       1.4862    -999.2500    -999.2500    -999.2500    -999.2500
   1898.0216    -999.2500      77.1035      55.7485      59.8161       1.4910       1.4557    -999.2500    -999.2500    -999.2500    -999.2500
   1898.1740    -999.2500      72.5490      56.3318      58.5684       1.4978       1.4607    -999.2500    -999.2500    -999.2500    -999.2500
   1898.3264    -999.2500      64.4354      58.0907      55.2150       1.5343       1.5034    -999.2500    -999.2500    -999.2500    -999.2500
   1898.4788    -999.2500      79.3032      57.6381      51.8583       1.5709       1.5461    -999.2500    -999.2500    -999.2500    -999.2500
   1898.6312    -999.2500      81.1894      56.6375      49.1718       1.5969       1.5775    -999.2500    -999.2500    -999.2500    -999.2500
   1898.7836    -999.2500      80.5336      54.5826      49.0835       1.5816       1.5653    -999.2500    -999.2500    -999.2500    -999.2500
   1898.9360    -999.2500      80.9227      53.5099      48.9951       1.5664       1.5531    -999.2500    -999.2500    -999.2500    -999.2500
   1899.0884    -999.2500      82.9944      51.6556      48.9067       1.5511       1.5409    -999.2500    -999.2500    -999.2500    -999.2500
   1899.2408    -999.2500      81.4278      50.7813      47.7159       1.5387       1.5259    -999.2500    -999.2500    -999.2500    -999.2500
   1899.3932    -999.2500      81.5255      49.7692      45.6503       1.5191       1.5014    -999.2500    -999.2500    -999.2500    -999.2500
   1899.5457    -999.2500      81.3628      50.2665      43.0863       1.4947       1.4709    -999.2500    -999.2500    -999.2500    -999.2500
   1899.6980    -999.2500      77.4619      49.2451      40.4900       1.4700       1.4400    -999.2500    -999.2500    -999.2500    -999.2500
   1899.8503    -999.2500      82.4229      49.3779      41.5578       1.4399       1.4129    -999.2500    -999.2500    -999.2500    -999.2500
   1900.0028    -999.2500      94.0256      49.6797      42.6401       1.4094       1.3855    -999.2500    -999.2500    -999.2500    -999.2500
