#------------------------------------------------------------------------------
#
#   Created by  : [OpenWorks] Log Export Utility (LEXP)
#   Created on  : 2016-05-23 17:15:22
#   Project     : CANT971
#   User        : R5K
#   Interpreter : PEP
#
#------------------------------------------------------------------------------
~VERSION INFORMATION
VERS. 2.0 : CWLS Log ASCII Standard - version 2.0
WRAP.  NO : One line per depth step
~WELL INFORMATION
#MNEMONIC   .UNIT                                           VALUE :DESCRIPTION
#------------------------------------------------------------------------------
STRT        .M                                           125.0000 :START DEPTH
STOP        .M                                          3105.7915 :STOP DEPTH
STEP        .M                                             0.1524 :STEP
NULL        .                                           -999.2500 :NULL VALUE
COMP        .                                             UNKNOWN :COMPANY
WELL        .                                               3007D :WELL
FLD         .                                             UNKNOWN :FIELD
LOC         .                                             UNKNOWN :LOCATION
CNTY        .                                             UNKNOWN :COUNTY
STAT        .                                             UNKNOWN :STATE
CTRY        .                                             UNKNOWN :COUNTRY
SRVC        .                                             UNKNOWN :SERVICE COMPANY
DATE        .                                             UNKNOWN :LOG DATE
UWI         .                                               3007D :UNIQUE WELL ID
XCOORD      .                                       599721.440000 :SURFACE X
YCOORD      .                                      2152053.210000 :SURFACE Y
LAT         .                                           19.461622 :LATITUDE
LON         .                                          -92.049925 :LONGITUDE
ELEV        .M                                             0.0000 :SURFACE ELEV
ELEV_TYPE   .                                                  NA :ELEV TYPE
~CURVE INFORMATION
#MNEMONIC.UNIT        API CODE       : CURVE DESCRIPTION
#------------------------------------------------------------------------------
DEPTH    .M                          : Measured Depth
CGR      .API         UNKNOWN        : CGR:Entubado:rC:NONE:v0 (auto-composite)
DT       .us/ft       UNKNOWN        : DT:PETROWORKS:rC:NONE:v1 
GR       .API         UNKNOWN        : GR:PETROWORKS:rC:NONE:v2 
GR-LWD   .API         UNKNOWN        : GR-LWD:PETROWORKS:rC:NONE:v2 
ILD-LWD  .ohm.m       UNKNOWN        : ILD-LWD:PETROWORKS:rC:NONE:v2 
ILM-LWD  .ohm.m       UNKNOWN        : ILM-LWD:PETROWORKS:rC:NONE:v2 
NPHI     .v/v_decimal UNKNOWN        : NPHI:Entubado:rC:NONE:v0 (auto-composite)
POTA     .UNKNOWN     UNKNOWN        : POTA:Entubado:rC:NONE:v0 (auto-composite)
THOR     .ppm         UNKNOWN        : THOR:Entubado:rC:NONE:v0 (auto-composite)
URAN     .ppm         UNKNOWN        : URAN:Entubado:rC:NONE:v0 (auto-composite)
~A     DEPTH          CGR           DT           GR       GR-LWD      ILD-LWD      ILM-LWD         NPHI         POTA         THOR         URAN
# ...
   2403.6848       4.5472    -999.2500      39.5148      40.4342      32.4773      32.5613      -0.0039       0.0013       0.4813       4.0091
   2403.8372       4.7922    -999.2500      39.6273      39.3957      33.0627      33.7802      -0.0050       0.0014       0.5206       3.9938
   2403.9895       5.0372    -999.2500      39.7396      37.7258      33.0271      34.1604      -0.0061       0.0014       0.5600       3.9786
   2404.1421       5.5256    -999.2500      40.5615      36.1102      32.6664      33.7386      -0.0114       0.0017       0.5391       4.0169
   2404.2944       6.0319    -999.2500      41.4359      34.9642      32.7138      33.9003      -0.0170       0.0020       0.5138       4.0590
   2404.4468       6.5382    -999.2500      42.3090      36.0191      28.9437      29.5406      -0.0226       0.0024       0.4885       4.1012
   2404.5991       7.0445    -999.2500      43.1872      35.8692      24.6256      24.8322      -0.0283       0.0027       0.4632       4.1433
   2404.7517       7.5508    -999.2500      44.0573      36.7377      27.6267      27.7553      -0.0339       0.0031       0.4379       4.1855
   2404.9041       8.0571    -999.2500      44.9311      37.0719      24.4277      24.7136      -0.0395       0.0034       0.4125       4.2276
   2405.0564       8.3037    -999.2500      44.9922      38.5274      22.1917      22.5149      -0.0402       0.0036       0.3890       4.2064
   2405.2087       8.1084    -999.2500      43.6706      39.4315      23.3709      23.4024      -0.0327       0.0035       0.3683       4.0772
   2405.3611       7.9131    -999.2500      42.3478      40.2465      24.5816      23.5649      -0.0252       0.0035       0.3477       3.9480
   2405.5137       7.7178    -999.2500      41.0265      41.3661      24.3049      22.9816      -0.0176       0.0034       0.3271       3.8188
   2405.6660       7.5225    -999.2500      39.7038      40.5438      24.2402      23.2792      -0.0101       0.0034       0.3065       3.6896
   2405.8184       7.3271    -999.2500      38.3807      39.8913      26.6790      25.8980      -0.0026       0.0034       0.2859       3.5604
   2405.9707       7.1318    -999.2500      37.0590      39.4188      28.4617      27.6633       0.0050       0.0033       0.2653       3.4312
   2406.1233       7.0669    -999.2500      36.9372      40.5952      28.6032      27.6976       0.0084       0.0031       0.3211       3.4246
   2406.2756       7.0330    -999.2500      37.1000      42.3499      29.4139      28.2038       0.0108       0.0029       0.3952       3.4472
   2406.4280       6.9990    -999.2500      37.2626      42.4439      28.6660      27.4311       0.0133       0.0027       0.4692       3.4697
   2406.5803       6.9650    -999.2500      37.4254      41.1790      28.1315      27.4307       0.0157       0.0025       0.5432       3.4923
   2406.7329       6.9311    -999.2500      37.5881      38.9638      27.8686      27.4142       0.0182       0.0023       0.6172       3.5149
   2406.8853       6.8971    -999.2500      37.7509      38.9384      27.7208      27.0451       0.0207       0.0021       0.6912       3.5374
   2407.0376       6.8180    -999.2500      37.8259      41.2342      30.5190      30.4952       0.0219       0.0019       0.7395       3.5551
   2407.1899       6.6014    -999.2500      37.6332      43.1371      31.2413      31.4287       0.0194       0.0018       0.7090       3.5578
   2407.3423       6.3847    -999.2500      37.4403      42.2745      32.9434      32.7290       0.0170       0.0018       0.6785       3.5605
   2407.4949       6.1680    -999.2500      37.2476      40.9651      36.0182      35.7946       0.0145       0.0018       0.6480       3.5633
   2407.6472       5.9513    -999.2500      37.0547      39.8989      34.9945      34.2320       0.0120       0.0017       0.6176       3.5660
   2407.7996       5.7346    -999.2500      36.8615      40.1900      34.7600      34.2700       0.0095       0.0017       0.5871       3.5687
   2407.9519       5.5179    -999.2500      36.6690      39.6065      35.1109      34.6935       0.0071       0.0016       0.5566       3.5714
   2408.1045       5.2558    -999.2500      36.1654      39.6531      33.1095      32.4919       0.0089       0.0016       0.4905       3.5438
   2408.2568       4.9728    -999.2500      35.5192      39.1888      33.1820      32.3543       0.0127       0.0017       0.4080       3.5021
   2408.4092       4.6898    -999.2500      34.8730      39.3000      35.8675      35.0043       0.0165       0.0018       0.3255       3.4605
   2408.5615       4.4068    -999.2500      34.2267      42.3453      36.9046      36.0487       0.0203       0.0018       0.2430       3.4188
   2408.7141       4.1237    -999.2500      33.5804      44.4097      37.5792      35.9588       0.0241       0.0019       0.1605       3.3772
   2408.8665       3.8407    -999.2500      32.9339      43.3644      37.0849      35.5056       0.0279       0.0019       0.0780       3.3355
   2409.0188       3.5971    -999.2500      32.3968      39.5829      36.6769      34.9354       0.0308       0.0020       0.0121       3.3019
   2409.1711       3.6338    -999.2500      32.6360      37.3203      34.2186      33.7477       0.0276       0.0019       0.0641       3.3251
   2409.3235       3.6705    -999.2500      32.8754      37.5582      34.2924      32.9106       0.0243       0.0017       0.1161       3.3483
   2409.4761       3.7071    -999.2500      33.1144      37.8774      35.4012      33.5723       0.0211       0.0016       0.1682       3.3715
   2409.6284       3.7438    -999.2500      33.3538      36.2553      37.1109      35.1696       0.0178       0.0015       0.2202       3.3948
   2409.7808       3.7805    -999.2500      33.5931      34.5843      39.9891      37.9675       0.0146       0.0014       0.2722       3.4180
   2409.9331       3.8171    -999.2500      33.8322      34.4427      43.5758      42.1410       0.0113       0.0013       0.3242       3.4412
   2410.0857       4.0298    -999.2500      34.1465      35.2819      41.8332      41.0990       0.0062       0.0013       0.3663       3.4529
   2410.2380       4.3797    -999.2500      34.5191      34.4188      36.8716      35.6740      -0.0005       0.0014       0.4006       3.4555
   2410.3904       4.7297    -999.2500      34.8918      32.6001      29.6161      27.9466      -0.0071       0.0015       0.4349       3.4581
   2410.5427       5.0797    -999.2500      35.2643      30.9441      26.7044      23.8412      -0.0137       0.0016       0.4692       3.4607
   2410.6953       5.4297    -999.2500      35.6370      29.8324      30.3979      26.6949      -0.0203       0.0018       0.5035       3.4633
   2410.8477       5.7796    -999.2500      36.0099      28.6437      35.7777      30.1178      -0.0270       0.0019       0.5378       3.4659
   2411.0000       6.1296    -999.2500      36.3825      27.6000      37.6400      30.0700      -0.0336       0.0020       0.5721       3.4685
   2411.1523       6.1353    -999.2500      35.7437      27.0831      39.1104      30.9851      -0.0307       0.0022       0.4928       3.3946
   2411.3047       6.1411    -999.2500      35.1043      25.8790      39.9189      30.9820      -0.0277       0.0024       0.4136       3.3207
   2411.4573       6.1468    -999.2500      34.4660      24.9639      34.9660      26.8132      -0.0248       0.0026       0.3343       3.2468
   2411.6096       6.1525    -999.2500      33.8267      24.2474      35.8885      27.9377      -0.0219       0.0028       0.2550       3.1728
   2411.7620       6.1583    -999.2500      33.1877      25.1406      47.7156      38.0994      -0.0190       0.0030       0.1758       3.0989
   2411.9143       6.1640    -999.2500      32.5490      28.1924      57.6618      46.9191      -0.0160       0.0032       0.0965       3.0250
   2412.0669       6.1344    -999.2500      32.3512      32.2807      62.2854      52.2867      -0.0129       0.0032       0.0876       3.0057
