#------------------------------------------------------------------------------
#
#   Created by  : [OpenWorks] Log Export Utility (LEXP)
#   Created on  : 2016-05-13 12:15:22
#   Project     : CANT971
#   User        : R5K
#   Interpreter : PEP
#
#------------------------------------------------------------------------------
~VERSION INFORMATION
VERS. 2.0 : CWLS Log ASCII Standard - version 2.0
WRAP.  NO : One line per depth step
~WELL INFORMATION
#MNEMONIC   .UNIT                                           VALUE :DESCRIPTION
#------------------------------------------------------------------------------
STRT        .M                                          1978.3888 :START DEPTH
STOP        .M                                          3448.5916 :STOP DEPTH
STEP        .M                                             0.1524 :STEP
NULL        .                                           -999.2500 :NULL VALUE
COMP        .                                             UNKNOWN :COMPANY
WELL        .                                               3028D :WELL
FLD         .                                             UNKNOWN :FIELD
LOC         .                                             UNKNOWN :LOCATION
CNTY        .                                             UNKNOWN :COUNTY
STAT        .                                             UNKNOWN :STATE
CTRY        .                                             UNKNOWN :COUNTRY
SRVC        .                                             UNKNOWN :SERVICE COMPANY
DATE        .                                             UNKNOWN :LOG DATE
UWI         .                                               3028D :UNIQUE WELL ID
XCOORD      .                                       595289.450000 :SURFACE X
YCOORD      .                                      2149890.790000 :SURFACE Y
LAT         .                                           19.442298 :LATITUDE
LON         .                                          -92.092254 :LONGITUDE
ELEV        .M                                             0.0000 :SURFACE ELEV
ELEV_TYPE   .                                                  KB :ELEV TYPE
~CURVE INFORMATION
#MNEMONIC.UNIT        API CODE       : CURVE DESCRIPTION
#------------------------------------------------------------------------------
DEPTH    .M                          : Measured Depth
CALI     .inches      UNKNOWN        : CALI:litodensidad:r1:0001:v1 
CGR      .API         UNKNOWN        : CGR:radioactividad:r1:0001:v1 
DRHO     .g/cm3       UNKNOWN        : DRHO:litodensidad:r1:0001:v1 
DT       .us/ft       UNKNOWN        : DT:PETROWORKS:rC:NONE:v1 
GR-LWD   .API         UNKNOWN        : GR-LWD:resistivos-LWD:r2:0001:v3 
GR       .API         UNKNOWN        : GR:PETROWORKS:rC:NONE:v1 
LLD-LWD  .ohm.m       UNKNOWN        : LLD-LWD:resistivos-LWD:r2:0001:v4 
LLD      .ohm.m       UNKNOWN        : LLD:resistivos:r1:0001:v1 
LLS-LWD  .ohm.m       UNKNOWN        : LLS-LWD:resistivos-LWD:r2:0001:v4 
LLS      .ohm.m       UNKNOWN        : LLS:resistivos:r1:0001:v1 
MSFL     .ohm.m       UNKNOWN        : MSFL:resistivos:r1:0001:v1 
NPHI     .v/v_decimal UNKNOWN        : NPHI:porosidad:r1:0001:v1 
PEF      .UNKNOWN     UNKNOWN        : PEF:litodensidad:r1:0001:v1 
POTA     .UNKNOWN     UNKNOWN        : POTA:radioactividad:r1:0001:v1 
RHOB     .g/cm3       UNKNOWN        : RHOB:litodensidad:r1:0001:v1 
THOR     .ppm         UNKNOWN        : THOR:radioactividad:r1:0001:v1 
URAN     .ppm         UNKNOWN        : URAN:radioactividad:r1:0001:v1 
~A     DEPTH         CALI          CGR         DRHO           DT       GR-LWD           GR      LLD-LWD          LLD      LLS-LWD          LLS         MSFL         NPHI          PEF         POTA         RHOB         THOR         URAN
# ...
   3215.8767       8.3864       5.4515      -0.0075      56.5716      59.2139      52.1622    2000.0000  100000.0000    2000.0000   78583.1719    2061.4363       0.1168       3.0903       0.0025       2.6410       0.2702       5.8529
   3216.0293       8.3822       6.4504      -0.0019      54.8935      61.4673      54.2706    2000.0000  100000.0000    2000.0000   91950.2266    2139.8726       0.1081       3.0885       0.0030       2.6988       0.3279       5.9858
   3216.1816       8.3788       5.9236       0.0020      52.9520      44.9108      44.7266    2000.0000  100000.0000    2000.0000   86552.5078    2189.6191       0.0815       3.1188       0.0027       2.7572       0.3159       4.8672
   3216.3340       8.3873       4.0027       0.0017      51.7933      31.5644      30.6402    2000.0000  100000.0000    2000.0000   57596.0000    2068.2722       0.0592       3.1597       0.0017       2.7773       0.2379       3.3630
   3216.4863       8.4026       2.7460      -0.0006      52.3192      28.0946      22.0983    2000.0000  100000.0000    2000.0000   37900.9570    2284.1616       0.0518       3.1810       0.0012       2.7651       0.1820       2.4580
   3216.6387       8.3967       2.5296      -0.0014      52.7835      29.6396      21.2853    2000.0000  100000.0000    2000.0000   51584.0742    2561.1272       0.0521       3.1443       0.0011       2.7475       0.1563       2.3819
   3216.7913       8.3864       2.7654      -0.0007      52.6250      31.4166      23.8648    2000.0000  100000.0000    2000.0000   84811.6641    2485.6787       0.0527       3.0385       0.0012       2.7350       0.1773       2.6929
   3216.9436       8.3949       2.6284       0.0004      52.1220      32.4947      25.3273    2000.0000  100000.0000    2000.0000  100000.0000    2588.9607       0.0530       2.9198       0.0011       2.7251       0.1844       2.8960
   3217.0959       8.4018       2.9217       0.0005      52.4528      36.3125      26.8788    2000.0000  100000.0000    2000.0000  100000.0000    2864.5095       0.0556       2.8656       0.0012       2.7146       0.2484       3.0274
   3217.2483       8.3933       3.8933      -0.0004      53.0305      41.5461      29.6047    2000.0000  100000.0000    2000.0000  100000.0000    3149.2068       0.0613       2.8838       0.0015       2.7054       0.3750       3.2298
   3217.4009       8.3853       4.3775      -0.0024      53.0962      36.3963      33.0575    2000.0000  100000.0000    2000.0000  100000.0000    2365.0242       0.0654       2.9322       0.0015       2.6975       0.4788       3.6096
   3217.5532       8.3909       4.4970      -0.0050      53.0733      38.7425      34.7852    2000.0000  100000.0000    2000.0000  100000.0000    1540.0988       0.0644       2.9698       0.0016       2.6942       0.5326       3.8186
   3217.7056       8.4056       3.7382      -0.0068      53.1261      37.8597      34.1055    2000.0000  100000.0000    2000.0000   75757.5781    1343.7175       0.0612       3.0059       0.0013       2.6991       0.4607       3.8227
   3217.8579       8.4101       2.7653      -0.0055      53.3232      36.0428      31.9584    2000.0000  100000.0000    2000.0000   57218.4922     927.5257       0.0593       3.0335       0.0008       2.7201       0.3816       3.6871
   3218.0105       8.4001       2.7468      -0.0010      53.5423      36.0499      29.3127    2000.0000  100000.0000    2000.0000   69961.1953     683.1359       0.0585       3.0640       0.0008       2.7492       0.3829       3.3410
   3218.1628       8.3898       3.2491       0.0030      53.1188      37.5999      27.3348    2000.0000  100000.0000    2000.0000   90905.4922     773.9282       0.0579       3.0911       0.0011       2.7638       0.4033       3.0025
   3218.3152       8.3886       3.3651       0.0049      52.8193      37.4130      26.7246    2000.0000  100000.0000    2000.0000   96824.4766    1486.5667       0.0620       3.1125       0.0011       2.7531       0.4088       2.8963
   3218.4675       8.3935       3.9708       0.0063      52.3790      34.7736      28.6213    2000.0000   77833.6016    2000.0000   59877.9883    1907.4408       0.0698       3.1284       0.0012       2.7311       0.5633       3.0213
   3218.6199       8.3864       4.5709       0.0094      51.5372      31.9892      31.3972    2000.0000   38215.8125    2000.0000   21946.1113    1116.2090       0.0745       3.1579       0.0012       2.7277       0.7418       3.2737
   3218.7725       8.3873       4.2655       0.0100      50.7893      27.9719      31.9494    2000.0000   30806.0352    2000.0000   20215.7129     521.2739       0.0698       3.1976       0.0011       2.7489       0.7273       3.3918
   3218.9248       8.3984       3.3994       0.0074      50.1119      28.7596      29.2877    2000.0000   72803.8438    2000.0000   53737.9570     522.8204       0.0583       3.2134       0.0009       2.7794       0.5545       3.1803
   3219.0771       8.4018       3.1883       0.0029      49.0727      27.9234      25.3611    2000.0000  100000.0000    2000.0000   89493.8828    1226.6035       0.0486       3.2065       0.0010       2.7949       0.4435       2.7061
   3219.2295       8.4061       3.3867       0.0010      48.5875      24.6376      22.5624    2000.0000  100000.0000    2000.0000  100000.0000    3044.2515       0.0449       3.1838       0.0010       2.7981       0.4543       2.3355
   3219.3821       8.4138       3.2946       0.0013      48.8142      22.5116      20.7298    2000.0000   84064.9609    2000.0000   63314.8359    3939.4963       0.0457       3.1629       0.0010       2.8010       0.4547       2.1345
   3219.5344       8.4215       3.2036       0.0013      48.6011      24.0365      19.4297    2000.0000   71120.6953    2000.0000   28509.9414    2932.2195       0.0469       3.1494       0.0010       2.8075       0.4289       1.9843
   3219.6868       8.4334       3.2548       0.0004      48.7745      25.8432      19.9528    2000.0000   53815.7109    2000.0000   17426.0273    1529.8446       0.0442       3.1628       0.0009       2.8113       0.4731       2.0704
   3219.8391       8.4285       3.1283      -0.0022      49.1695      25.1336      20.7594    2000.0000   39751.1445    2000.0000   10126.2832     859.2592       0.0395       3.2037       0.0008       2.8062       0.5014       2.2130
   3219.9917       8.4223       3.0976      -0.0044      49.2696      25.6887      20.4962    2000.0000   36027.4453    2000.0000    7019.0903     844.8660       0.0358       3.2405       0.0009       2.8002       0.4898       2.1872
   3220.1440       8.4313       2.5719      -0.0048      50.4246      28.0121      19.5629    2000.0000   21595.9082    2000.0000    3759.6133    1609.5852       0.0351       3.2456       0.0007       2.8002       0.3826       2.1528
   3220.2964       8.4236       2.3688      -0.0035      50.4733      27.8709      19.5889    2000.0000   16025.5166    2000.0000    2687.9849    3453.2119       0.0356       3.2250       0.0007       2.8034       0.3414       2.1775
   3220.4487       8.3973       2.6058      -0.0013      49.8228      25.3430      20.5970    2000.0000   56312.2930    2000.0000    8316.5088    4031.3989       0.0363       3.1983       0.0008       2.8033       0.3826       2.2492
   3220.6011       8.4005       2.7064       0.0015      49.8675      23.8666      21.8318    2000.0000   93862.4609    2000.0000   12807.2188    2043.6134       0.0378       3.1897       0.0008       2.7997       0.3995       2.3761
   3220.7537       8.4101       2.4836       0.0034      49.9204      28.0470      22.9666    2000.0000   81777.9531    2000.0000   10694.0508     681.4899       0.0412       3.1827       0.0007       2.7950       0.3807       2.5549
   3220.9060       8.3884       1.8956       0.0033      49.9412      32.6932      24.2272    2000.0000   55491.2617    2000.0000    7174.3794     642.3790       0.0462       3.1731       0.0005       2.7940       0.3036       2.8112
   3221.0583       8.3410       1.3804       0.0025      48.8033      34.3102      24.8293    2000.0000   56998.8984    2000.0000    6927.3906    1513.8789       0.0495       3.1707       0.0003       2.8003       0.2463       2.9427
