#------------------------------------------------------------------------------
#
#   Created by  : [OpenWorks] Log Export Utility (LEXP)
#   Created on  : 2016-05-13 12:15:22
#   Project     : CANT971
#   User        : R5K
#   Interpreter : PEP
#
#------------------------------------------------------------------------------
~VERSION INFORMATION
VERS. 2.0 : CWLS Log ASCII Standard - version 2.0
WRAP.  NO : One line per depth step
~WELL INFORMATION
#MNEMONIC   .UNIT                                           VALUE :DESCRIPTION
#------------------------------------------------------------------------------
STRT        .M                                          1978.3888 :START DEPTH
STOP        .M                                          3448.5916 :STOP DEPTH
STEP        .M                                             0.1524 :STEP
NULL        .                                           -999.2500 :NULL VALUE
COMP        .                                             UNKNOWN :COMPANY
WELL        .                                               3028D :WELL
FLD         .                                             UNKNOWN :FIELD
LOC         .                                             UNKNOWN :LOCATION
CNTY        .                                             UNKNOWN :COUNTY
STAT        .                                             UNKNOWN :STATE
CTRY        .                                             UNKNOWN :COUNTRY
SRVC        .                                             UNKNOWN :SERVICE COMPANY
DATE        .                                             UNKNOWN :LOG DATE
UWI         .                                               3028D :UNIQUE WELL ID
XCOORD      .                                       595289.450000 :SURFACE X
YCOORD      .                                      2149890.790000 :SURFACE Y
LAT         .                                           19.442298 :LATITUDE
LON         .                                          -92.092254 :LONGITUDE
ELEV        .M                                             0.0000 :SURFACE ELEV
ELEV_TYPE   .                                                  KB :ELEV TYPE
~CURVE INFORMATION
#MNEMONIC.UNIT        API CODE       : CURVE DESCRIPTION
#------------------------------------------------------------------------------
DEPTH    .M                          : Measured Depth
CALI     .inches      UNKNOWN        : CALI:litodensidad:r1:0001:v1 
CGR      .API         UNKNOWN        : CGR:radioactividad:r1:0001:v1 
DRHO     .g/cm3       UNKNOWN        : DRHO:litodensidad:r1:0001:v1 
DT       .us/ft       UNKNOWN        : DT:PETROWORKS:rC:NONE:v1 
GR-LWD   .API         UNKNOWN        : GR-LWD:resistivos-LWD:r2:0001:v3 
GR       .API         UNKNOWN        : GR:PETROWORKS:rC:NONE:v1 
LLD-LWD  .ohm.m       UNKNOWN        : LLD-LWD:resistivos-LWD:r2:0001:v4 
LLD      .ohm.m       UNKNOWN        : LLD:resistivos:r1:0001:v1 
LLS-LWD  .ohm.m       UNKNOWN        : LLS-LWD:resistivos-LWD:r2:0001:v4 
LLS      .ohm.m       UNKNOWN        : LLS:resistivos:r1:0001:v1 
MSFL     .ohm.m       UNKNOWN        : MSFL:resistivos:r1:0001:v1 
NPHI     .v/v_decimal UNKNOWN        : NPHI:porosidad:r1:0001:v1 
PEF      .UNKNOWN     UNKNOWN        : PEF:litodensidad:r1:0001:v1 
POTA     .UNKNOWN     UNKNOWN        : POTA:radioactividad:r1:0001:v1 
RHOB     .g/cm3       UNKNOWN        : RHOB:litodensidad:r1:0001:v1 
THOR     .ppm         UNKNOWN        : THOR:radioactividad:r1:0001:v1 
URAN     .ppm         UNKNOWN        : URAN:radioactividad:r1:0001:v1 
~A     DEPTH         CALI          CGR         DRHO           DT       GR-LWD           GR      LLD-LWD          LLD      LLS-LWD          LLS         MSFL         NPHI          PEF         POTA         RHOB         THOR         URAN
# ...
   3098.5288       8.5086       9.5717      -0.0023      64.1936      32.0419      35.4853    2000.0000    1978.7878    1764.6915    2280.6589     178.3826       0.1297       3.0200       0.0037       2.5438       0.9023       3.1898
   3098.6812       8.4847      10.3682       0.0015      64.4152      38.2112      36.8817    2000.0000    2374.0486    1806.0803    2658.0242     153.3452       0.1585       3.0386       0.0040       2.5283       1.0057       3.2414
   3098.8335       8.4902      10.0415       0.0051      63.7196      39.4991      33.6991    2000.0000    5483.3872    1874.5779    5940.7500     235.4393       0.1616       3.0061       0.0038       2.5496       1.0078       2.8852
   3098.9861       8.5248       8.8032       0.0032      57.2209      33.7234      28.4547    2000.0000   16332.0078    1959.3937   16850.0352     449.0102       0.1427       2.9741       0.0032       2.5641       0.9288       2.3860
   3099.1384       8.5359       7.6454      -0.0007      56.6506      26.3680      24.3154    2000.0000   37814.7148    2000.0000   33748.7891     567.9536       0.1233       2.9681       0.0028       2.5651       0.8141       2.0438
   3099.2908       8.5410       7.3473      -0.0017      54.8465      20.2387      22.4298    2000.0000   49684.7031    2000.0000   38828.8438     516.6835       0.1145       2.9707       0.0027       2.5686       0.7786       1.8469
   3099.4431       8.5137       6.5222      -0.0020      55.7945      20.6362      21.6855    2000.0000   53868.5742    2000.0000   38745.6719     444.2499       0.1106       2.9843       0.0025       2.5706       0.6272       1.8610
   3099.5957       8.4778       5.4935      -0.0025      59.5311      23.0693      21.3792    2000.0000   61496.0781    2000.0000   46702.8242     409.1679       0.1107       3.0181       0.0022       2.5685       0.4383       1.9872
   3099.7480       8.5051       4.6542      -0.0039      59.2750      25.0673      20.7374    2000.0000   55576.4375    2000.0000   47126.7148     439.1882       0.1189       3.0690       0.0020       2.5587       0.2970       2.0437
   3099.9004       8.5069       4.6141      -0.0040      58.8026      25.7101      20.2650    2000.0000   41319.3203    2000.0000   37332.1250     438.0362       0.1299       3.0796       0.0023       2.5491       0.1301       1.9899
   3100.0527       8.4608       5.5102      -0.0010      60.1820      37.9907      20.1549    2000.0000   29181.4746    2000.0000   26339.7715     372.2577       0.1385       3.0492       0.0029       2.5464       0.0679       1.8588
   3100.2051       8.4573       6.3376       0.0048      61.6897      66.2422      20.6801    2000.0000   23673.3008    2000.0000   21841.5254     317.1675       0.1373       3.0237       0.0033       2.5537       0.0747       1.8454
   3100.3577       8.4070       6.7640       0.0074      61.7630      72.3181      21.7875    2000.0000   17882.7188    2000.0000   17380.0430     270.8679       0.1366       3.0471       0.0036       2.5569       0.0865       1.9507
   3100.5100       8.4196       8.8609       0.0051      61.6547      62.6224      28.9696    2000.0000    7731.7827    1999.3696    8094.1890     239.2201       0.1376       3.1524       0.0047       2.5467       0.1266       2.6123
   3100.6624       8.4625      15.1709       0.0004      60.9451      47.0219      49.2285    2000.0000    1941.7607    1979.7217    2207.6460     175.5216       0.1540       3.3022       0.0079       2.5320       0.2403       4.4147
   3100.8147       8.4727      22.8610      -0.0020      60.1426      36.8783      71.7352    2000.0000     925.9420    1804.4197    1063.2784     134.3152       0.1643       3.3991       0.0119       2.5399       0.3663       6.3441
   3100.9673       8.4779      24.7395      -0.0007      59.0477      42.5232      76.3124    2000.0000    2653.9854    1728.5594    3059.1431     158.3800       0.1523       3.3587       0.0127       2.5833       0.4624       6.6731
   3101.1196       8.4753      19.1128       0.0012      58.1839      42.4975      59.2480    2000.0000    9100.7041    1737.5940   10890.4443     313.3311       0.1222       3.2228       0.0098       2.6344       0.4031       5.1911
   3101.2720       8.5256      12.6965       0.0025      57.1016      28.8153      39.3230    2000.0000   10207.6631    1790.9789   12490.6016     384.4577       0.0969       3.1179       0.0065       2.6662       0.2729       3.4189
   3101.4243       8.5280      11.0429       0.0034      56.3614      27.2621      33.8404    2000.0000    5337.2041    1829.0299    6672.8662     300.4512       0.0950       3.1005       0.0055       2.6769       0.3256       2.8939
   3101.5769       8.5180      11.9260       0.0029      55.1599      32.3170      37.7231    2000.0000    2443.6477    1856.2903    3066.6067     235.6458       0.1007       3.1120       0.0058       2.6793       0.4583       3.2951
   3101.7292       8.5197      11.2041       0.0015      53.7632      39.3235      38.3410    2000.0000    1742.8636    1903.0911    2174.0400     276.7715       0.0993       3.1013       0.0053       2.6794       0.4956       3.4877
   3101.8816       8.4668       8.5662      -0.0007      53.8204      39.7824      32.0485    2000.0000   12082.5273    1978.3766   14387.1787     352.8600       0.0880       3.0624       0.0039       2.6623       0.4503       3.0031
   3102.0339       8.4368       6.3384       0.0043      55.5463      26.0866      25.1718    2000.0000   18367.7109    2000.0000   20197.9570     319.2990       0.0763       3.0359       0.0028       2.6340       0.3713       2.3855
   3102.1863       8.4488       6.1003       0.0197      58.8449      20.6234      25.3952    2000.0000   16123.9199    2000.0000   16171.0498     233.3455       0.0798       3.0475       0.0027       2.5852       0.3510       2.4628
   3102.3389       8.3916       6.7729       0.0478      64.7470      19.5347      29.6999    2000.0000   22803.9141    2000.0000   22345.8887     168.4806       0.0978       3.1001       0.0031       2.5232       0.3707       2.9564
   3102.4912       8.3574       6.4550       0.0838      66.8475      18.8427      30.2240    2000.0000   48279.9648    2000.0000   44000.4766     108.3130       0.1109       3.1615       0.0029       2.4981       0.3832       3.0274
   3102.6436       8.3593       5.1651       0.1108      65.4655      18.5957      25.0909    2000.0000   74327.5234    2000.0000   57105.1367      82.1036       0.1097       3.1878       0.0023       2.5370       0.2947       2.5188
   3102.7959       8.3787       3.8432       0.1125      64.1241      19.4355      18.9101    2000.0000   84552.4609    2000.0000   53534.7930      99.7084       0.0980       3.1748       0.0018       2.5956       0.1974       1.9012
   3102.9485       8.3890       3.0533       0.0904      61.1346      19.9841      15.7309    2000.0000   93856.5859    2000.0000   48480.1523     170.1924       0.0883       3.1523       0.0014       2.6083       0.1643       1.5892
   3103.1008       8.3745       2.7668       0.0630      57.6274      21.0127      15.0198    2000.0000  100000.0000    2000.0000   45042.5000     183.5131       0.0846       3.1412       0.0014       2.5888       0.0804       1.5405
   3103.2532       8.4393       2.4099       0.0439      54.7666      13.4696      15.2861    2000.0000  100000.0000    2000.0000   50178.5234     173.7590       0.0808       3.1377       0.0013       2.6058       0.0097       1.6039
   3103.4055       8.4684       2.1039       0.0286      52.2887      13.8930      15.9067    2000.0000  100000.0000    2000.0000   68849.0391     347.4069       0.0764       3.1341       0.0011       2.6607       0.0092       1.6803
   3103.5581       8.4778       1.8239       0.0130      50.6947      26.7665      15.7474    2000.0000  100000.0000    2000.0000   90935.4375    1519.3832       0.0718       3.1538       0.0010       2.7073      -0.0036       1.6677
   3103.7104       8.4910       1.6786       0.0011      50.4638      35.8690      15.1760    2000.0000  100000.0000    2000.0000  100000.0000    2516.5549       0.0689       3.1841       0.0008       2.7280       0.0239       1.5990
