#------------------------------------------------------------------------------
#
#   Created by  : [OpenWorks] Log Export Utility (LEXP)
#   Created on  : 2016-05-13 12:15:22
#   Project     : CANT971
#   User        : R5K
#   Interpreter : PEP
#
#------------------------------------------------------------------------------
~VERSION INFORMATION
VERS. 2.0 : CWLS Log ASCII Standard - version 2.0
WRAP.  NO : One line per depth step
~WELL INFORMATION
#MNEMONIC   .UNIT                                           VALUE :DESCRIPTION
#------------------------------------------------------------------------------
STRT        .M                                          1978.3888 :START DEPTH
STOP        .M                                          3448.5916 :STOP DEPTH
STEP        .M                                             0.1524 :STEP
NULL        .                                           -999.2500 :NULL VALUE
COMP        .                                             UNKNOWN :COMPANY
WELL        .                                               3028D :WELL
FLD         .                                             UNKNOWN :FIELD
LOC         .                                             UNKNOWN :LOCATION
CNTY        .                                             UNKNOWN :COUNTY
STAT        .                                             UNKNOWN :STATE
CTRY        .                                             UNKNOWN :COUNTRY
SRVC        .                                             UNKNOWN :SERVICE COMPANY
DATE        .                                             UNKNOWN :LOG DATE
UWI         .                                               3028D :UNIQUE WELL ID
XCOORD      .                                       595289.450000 :SURFACE X
YCOORD      .                                      2149890.790000 :SURFACE Y
LAT         .                                           19.442298 :LATITUDE
LON         .                                          -92.092254 :LONGITUDE
ELEV        .M                                             0.0000 :SURFACE ELEV
ELEV_TYPE   .                                                  KB :ELEV TYPE
~CURVE INFORMATION
#MNEMONIC.UNIT        API CODE       : CURVE DESCRIPTION
#------------------------------------------------------------------------------
DEPTH    .M                          : Measured Depth
CALI     .inches      UNKNOWN        : CALI:litodensidad:r1:0001:v1 
CGR      .API         UNKNOWN        : CGR:radioactividad:r1:0001:v1 
DRHO     .g/cm3       UNKNOWN        : DRHO:litodensidad:r1:0001:v1 
DT       .us/ft       UNKNOWN        : DT:PETROWORKS:rC:NONE:v1 
GR-LWD   .API         UNKNOWN        : GR-LWD:resistivos-LWD:r2:0001:v3 
GR       .API         UNKNOWN        : GR:PETROWORKS:rC:NONE:v1 
LLD-LWD  .ohm.m       UNKNOWN        : LLD-LWD:resistivos-LWD:r2:0001:v4 
LLD      .ohm.m       UNKNOWN        : LLD:resistivos:r1:0001:v1 
LLS-LWD  .ohm.m       UNKNOWN        : LLS-LWD:resistivos-LWD:r2:0001:v4 
LLS      .ohm.m       UNKNOWN        : LLS:resistivos:r1:0001:v1 
MSFL     .ohm.m       UNKNOWN        : MSFL:resistivos:r1:0001:v1 
NPHI     .v/v_decimal UNKNOWN        : NPHI:porosidad:r1:0001:v1 
PEF      .UNKNOWN     UNKNOWN        : PEF:litodensidad:r1:0001:v1 
POTA     .UNKNOWN     UNKNOWN        : POTA:radioactividad:r1:0001:v1 
RHOB     .g/cm3       UNKNOWN        : RHOB:litodensidad:r1:0001:v1 
THOR     .ppm         UNKNOWN        : THOR:radioactividad:r1:0001:v1 
URAN     .ppm         UNKNOWN        : URAN:radioactividad:r1:0001:v1 
~A     DEPTH         CALI          CGR         DRHO           DT       GR-LWD           GR      LLD-LWD          LLD      LLS-LWD          LLS         MSFL         NPHI          PEF         POTA         RHOB         THOR         URAN
# ...
   2906.5049       8.9332       1.0024       0.0099      89.7863      16.1907      13.7140      78.2895     268.5071      81.2310     295.8144     155.6941       0.0454       4.8697       0.0001       2.4398       0.2433       1.5855
   2906.6572       8.7539       0.3793       0.0124      99.4900      16.8438      13.0598      72.3390     250.4364      73.7450     273.8057     153.5418       0.0423       4.8717      -0.0001       2.4542       0.1527       1.6029
   2906.8096       8.6785      -0.1691       0.0093      99.3204      14.9945      12.4876      65.9004     221.6111      65.8019     238.4577     159.4206       0.0397       4.8392      -0.0003       2.4579       0.0883       1.6158
   2906.9619       8.2434      -0.5770       0.0063      99.6282      13.8559      11.8416      87.0233     221.4209      91.1458     234.1746     165.3200       0.0415       4.7619      -0.0004       2.4567       0.0576       1.5724
   2907.1145       8.3804      -0.7221       0.0131      99.0184      13.7922      11.1914     101.3486     272.8183     116.1495     279.5527     165.0278       0.0357       4.6596      -0.0004       2.4753       0.0341       1.5109
   2907.2668       8.8474      -0.4942       0.0228      84.3745      12.2738      10.8463     101.8162     370.5603     123.0962     368.4674     166.8964       0.0287       4.5512      -0.0003       2.5104       0.0556       1.4433
   2907.4192       8.9943      -0.1629       0.0245      76.0178      12.4278      11.1440     101.9022     418.3521     126.3225     412.3354     169.8291       0.0283       4.5132      -0.0002       2.5410       0.0741       1.4481
   2907.5715       9.1182      -0.1054       0.0175      81.2711      13.5656      11.9640     101.4860     449.9952     136.7305     446.5487     200.4468       0.0272       4.5966      -0.0001       2.5506       0.0306       1.5632
   2907.7239       9.1457       0.2578       0.0086      79.6551      15.3189      12.0857     100.1178     544.8815     145.2019     550.1010     258.3180       0.0264       4.7548       0.0001       2.5450       0.0185       1.5423
   2907.8765       9.0383       0.8134       0.0040      73.9632      14.8618      11.6155      98.4282     555.3240     162.4707     574.5649     330.4008       0.0282       4.8951       0.0004       2.5456       0.0334       1.4121
   2908.0288       8.8904       1.1245       0.0026      71.2121      16.2398      10.8956      95.3258     531.9886     165.7686     564.1704     402.8405       0.0302       4.9633       0.0005       2.5605       0.0664       1.2846
   2908.1812       8.8365       2.1979       0.0024      70.6284      18.2561      11.2508      92.3488     470.8282     145.3100     506.6899     450.1880       0.0293       4.9861       0.0008       2.5881       0.2436       1.1913
   2908.3335       8.8527       4.0605       0.0053      70.6331      19.2016      12.4585      87.3799     339.9362     106.5892     371.0771     425.7990       0.0268       4.9817       0.0014       2.6144       0.4887       1.1044
   2908.4861       8.8758       5.4147       0.0151      69.4469      22.6923      13.4583      82.8198     258.5100      97.3155     284.6194     364.9800       0.0262       4.9447       0.0020       2.6195       0.5934       1.0469
   2908.6384       8.8647       6.4544       0.0403      62.1398      24.4368      15.0513      73.9035     188.9738      82.3465     208.5717     250.7424       0.0296       4.8839       0.0024       2.6010       0.6650       1.1184
   2908.7908       8.9328       7.8396       0.0785      59.3074      29.3531      17.9800      70.7967     118.3566      75.7950     130.9401     111.9060       0.0338       4.8184       0.0030       2.5656       0.7768       1.3150
   2908.9431       8.9843       9.9211       0.1217      63.3920      31.1880      21.7976      67.3982      77.6137      69.8963      85.5692      42.5484       0.0420       4.7482       0.0038       2.5608       0.9707       1.5260
   2909.0957       8.9365      11.6110       0.1504      65.6746      29.9102      24.1995      59.9248      61.5189      63.9938      67.3868      27.4694       0.0525       4.6790       0.0044       2.5924       1.1202       1.6000
   2909.2480       8.8878      12.3594       0.1636      67.9460      30.7670      24.6343      53.1435      68.5664      59.0239      74.6471      31.0949       0.0582       4.6435       0.0047       2.6299       1.1918       1.5658
   2909.4004       8.8493      12.5136       0.1674      70.9748      33.1803      24.6188      49.8183      63.3772      55.9899      68.4793      41.4232       0.0572       4.6524       0.0048       2.6233       1.1966       1.5535
   2909.5527       8.9473      12.7915       0.1757      72.4917      32.3366      25.1589      46.4212      51.6244      52.0870      54.8489      42.4333       0.0574       4.6621       0.0050       2.5956       1.1915       1.5732
   2909.7051       9.1334      13.6015       0.1806      73.0459      33.5684      25.3061      39.4429      48.4044      43.1897      50.5727      39.9307       0.0682       4.6510       0.0053       2.5882       1.2517       1.4750
   2909.8577       9.1364      14.0697       0.1705      69.4452      33.7724      25.0613      34.2727      40.3999      36.7577      41.8257      47.0952       0.0829       4.6413       0.0058       2.6183       1.1265       1.3793
   2910.0100       9.0270      13.4739       0.1457      68.0889      32.0732      25.0185      31.9197      44.6575      33.8494      45.3879      70.9860       0.0877       4.6659       0.0057       2.6498       0.9610       1.4233
   2910.1624       8.9219      13.8122       0.1197      69.6160      32.6450      26.6284      30.1165      44.7304      31.4138      44.5101      67.6657       0.0794       4.6990       0.0058       2.6687       1.0120       1.5630
   2910.3147       8.8151      15.4866       0.1002      69.8830      26.4209      29.4102      28.8763      33.3205      29.1201      32.4443      48.4530       0.0732       4.7012       0.0065       2.6699       1.1221       1.6675
   2910.4673       8.8133      16.0698       0.0946      70.4100      28.9643      29.5129      26.9296      36.1553      26.0921      34.7131      49.0538       0.0689       4.6932       0.0068       2.6540       1.1423       1.5964
   2910.6196       8.8987      14.6537       0.1108      62.4120      31.0504      25.8513      25.0935      47.2515      24.3851      46.1759      79.5118       0.0607       4.6907       0.0063       2.6152       1.0254       1.3193
   2910.7720       9.3320      12.4859       0.1440      64.5696      32.9794      21.5725      23.5589      41.8007      23.0743      41.1409      57.1829       0.0557       4.6442       0.0053       2.5765       0.8643       1.0638
   2910.9243       9.3014      12.6634       0.1707      80.5017      34.7568      21.7157      20.7481      24.8908      21.0960      24.1717      18.3878       0.0753       4.4746       0.0055       2.5657       0.8155       1.0610
   2911.0769       9.2545      15.5974       0.1683      82.3471      37.9327      25.6299      16.1647      16.7525      16.3151      16.1351      14.9344       0.0958       4.2017       0.0067       2.5306       1.0739       1.1864
   2911.2292       9.1115      19.0099       0.1637      68.0731      40.2089      29.9533      14.9182      17.2862      15.0076      16.7767      13.9869       0.0954       3.9258       0.0081       2.4383       1.3594       1.3081
   2911.3816       9.0671      20.8676       0.1808      77.8754      42.6493      32.9428      13.9375      15.5356      14.0846      15.1592      10.6571       0.0782       3.6936       0.0089       2.3099       1.4408       1.4411
   2911.5339       9.2327      23.1124       0.2148      91.0858      51.7956      38.1641      12.8494      11.1081      13.1229      10.8175       7.0093       0.0906       3.5171       0.0099       2.2628       1.5748       1.8106
   2911.6863       9.8420      27.3757       0.2142      88.9929      59.7811      46.4964      11.8653       8.7558      12.0161       8.5722       5.9339       0.1304       3.4450       0.0118       2.3173       1.8783       2.3124
