#------------------------------------------------------------------------------
#
#   Created by  : [OpenWorks] Log Export Utility (LEXP)
#   Created on  : 2016-05-13 12:15:22
#   Project     : CANT971
#   User        : R5K
#   Interpreter : PEP
#
#------------------------------------------------------------------------------
~VERSION INFORMATION
VERS. 2.0 : CWLS Log ASCII Standard - version 2.0
WRAP.  NO : One line per depth step
~WELL INFORMATION
#MNEMONIC   .UNIT                                           VALUE :DESCRIPTION
#------------------------------------------------------------------------------
STRT        .M                                          1978.3888 :START DEPTH
STOP        .M                                          3448.5916 :STOP DEPTH
STEP        .M                                             0.1524 :STEP
NULL        .                                           -999.2500 :NULL VALUE
COMP        .                                             UNKNOWN :COMPANY
WELL        .                                               3028D :WELL
FLD         .                                             UNKNOWN :FIELD
LOC         .                                             UNKNOWN :LOCATION
CNTY        .                                             UNKNOWN :COUNTY
STAT        .                                             UNKNOWN :STATE
CTRY        .                                             UNKNOWN :COUNTRY
SRVC        .                                             UNKNOWN :SERVICE COMPANY
DATE        .                                             UNKNOWN :LOG DATE
UWI         .                                               3028D :UNIQUE WELL ID
XCOORD      .                                       595289.450000 :SURFACE X
YCOORD      .                                      2149890.790000 :SURFACE Y
LAT         .                                           19.442298 :LATITUDE
LON         .                                          -92.092254 :LONGITUDE
ELEV        .M                                             0.0000 :SURFACE ELEV
ELEV_TYPE   .                                                  KB :ELEV TYPE
~CURVE INFORMATION
#MNEMONIC.UNIT        API CODE       : CURVE DESCRIPTION
#------------------------------------------------------------------------------
DEPTH    .M                          : Measured Depth
CALI     .inches      UNKNOWN        : CALI:litodensidad:r1:0001:v1 
CGR      .API         UNKNOWN        : CGR:radioactividad:r1:0001:v1 
DRHO     .g/cm3       UNKNOWN        : DRHO:litodensidad:r1:0001:v1 
DT       .us/ft       UNKNOWN        : DT:PETROWORKS:rC:NONE:v1 
GR-LWD   .API         UNKNOWN        : GR-LWD:resistivos-LWD:r2:0001:v3 
GR       .API         UNKNOWN        : GR:PETROWORKS:rC:NONE:v1 
LLD-LWD  .ohm.m       UNKNOWN        : LLD-LWD:resistivos-LWD:r2:0001:v4 
LLD      .ohm.m       UNKNOWN        : LLD:resistivos:r1:0001:v1 
LLS-LWD  .ohm.m       UNKNOWN        : LLS-LWD:resistivos-LWD:r2:0001:v4 
LLS      .ohm.m       UNKNOWN        : LLS:resistivos:r1:0001:v1 
MSFL     .ohm.m       UNKNOWN        : MSFL:resistivos:r1:0001:v1 
NPHI     .v/v_decimal UNKNOWN        : NPHI:porosidad:r1:0001:v1 
PEF      .UNKNOWN     UNKNOWN        : PEF:litodensidad:r1:0001:v1 
POTA     .UNKNOWN     UNKNOWN        : POTA:radioactividad:r1:0001:v1 
RHOB     .g/cm3       UNKNOWN        : RHOB:litodensidad:r1:0001:v1 
THOR     .ppm         UNKNOWN        : THOR:radioactividad:r1:0001:v1 
URAN     .ppm         UNKNOWN        : URAN:radioactividad:r1:0001:v1 
~A     DEPTH         CALI          CGR         DRHO           DT       GR-LWD           GR      LLD-LWD          LLD      LLS-LWD          LLS         MSFL         NPHI          PEF         POTA         RHOB         THOR         URAN
# ...
   3253.2148       8.7032       0.0720       0.0132      59.0343      17.8159      11.7558    2000.0000  100000.0000    2000.0000   15176.2490      76.5468       0.1174       2.9686      -0.0001       2.5678       0.0356       1.4456
   3253.3672       8.6061       0.1414       0.0168      57.6980      17.5408      12.0855    2000.0000  100000.0000    2000.0000   12160.8018      89.8871       0.1227       2.9046      -0.0000       2.5867       0.0543       1.4877
   3253.5195       8.5171       0.5103       0.0119      55.5729      17.1545      11.7143    2000.0000   84518.8672    2000.0000    8523.6250     104.5269       0.1220       2.8900       0.0001       2.6007       0.0869       1.3695
   3253.6719       8.5085       0.7297       0.0033      53.4897      14.9309      11.0061    2000.0000   44123.5781    1994.9403    4256.6753     113.1847       0.1148       2.9296       0.0002       2.5987       0.1196       1.2182
   3253.8245       8.5487       0.7176       0.0047      52.0038      14.0258      10.7617    2000.0000   16389.7891    1841.4081    1868.5922     129.3060       0.1069       3.0052       0.0002       2.5959       0.1316       1.2036
   3253.9768       8.5308       1.0043       0.0146      54.8594      14.7230      11.0583    2000.0000    9975.2188    1026.2804    1162.2606     156.3427       0.1051       3.0772       0.0001       2.6020       0.2489       1.2284
   3254.1292       8.4864       1.2878       0.0207      58.6351      15.2351      11.6475    2000.0000    6634.5083     933.2070     791.3071     175.3696       0.1037       3.1012       0.0001       2.6106       0.3560       1.2726
   3254.2815       8.5771       1.4296       0.0171      60.2142      16.1869      12.1580    2000.0000    4354.0044     944.7186     518.6872     195.4467       0.0993       3.0757       0.0000       2.6114       0.4228       1.3191
   3254.4341       8.6016       1.5982       0.0120      61.9911      16.7865      12.6278    2000.0000    3257.5574    1534.6107     394.3363     253.1107       0.0954       3.0380       0.0001       2.6170       0.4456       1.3486
   3254.5864       8.5078       1.8565       0.0131      62.2865      17.2896      12.5675    2000.0000    4248.2002    1799.3296     511.6990     277.7025       0.0896       3.0065       0.0002       2.6322       0.4789       1.3054
   3254.7388       8.5443       1.8846       0.0156      61.3967      18.5591      12.1212    2000.0000    6549.6162    2000.0000     731.4555     194.1870       0.0800       2.9617       0.0001       2.6421       0.5351       1.2383
   3254.8911       8.5517       1.8224       0.0122      60.3369      19.6555      12.1157    2000.0000    6973.5142    1956.6703     714.7264     115.5799       0.0739       2.9086       0.0001       2.6115       0.5445       1.2330
   3255.0437       8.5664       2.0135       0.0225      61.1293      19.9279      12.1946    2000.0000    5156.7368    1850.7524     493.1531      78.4259       0.0777       2.8899       0.0002       2.5542       0.5361       1.1872
   3255.1960       8.5927       1.8335       0.0660      65.2204      17.3356      11.9077    2000.0000    3918.2336    1731.8265     358.0182      55.3783       0.0920       2.8693       0.0002       2.4862       0.4892       1.1793
   3255.3484       8.8965       1.9311       0.1445      66.3003      17.3223      11.4174    2000.0000    4450.4565    1726.0251     360.9559      40.0610       0.0988       2.7281       0.0003       2.4086       0.4592       1.1447
   3255.5007       9.4280       2.3667       0.2012      56.8185      21.3922      11.6379    2000.0000    5512.5156    1720.9707     358.7104      21.9639       0.0971       2.4849       0.0005       2.2518       0.4382       1.1353
   3255.6531       9.8517       2.5129       0.2242      50.6363      23.2117      12.6926    2000.0000    5994.2607    1448.0042     309.2002      11.8402       0.0970       2.2809       0.0008       2.0968       0.3456       1.2453
   3255.8057       9.8023       2.6788       0.2241      53.6030      21.3611      14.8403    2000.0000    7167.2856    1171.9191     294.9546      10.0511       0.1154       2.2521       0.0009       2.0558       0.3171       1.4758
   3255.9580       9.8832       3.5405       0.2202      51.4084      16.6945      18.8887    2000.0000   10175.3770     848.0425     339.9025      12.9656       0.1397       2.3987       0.0012       2.1317       0.4457       1.8660
   3256.1104      10.1841       4.6867       0.2137      48.4676      19.9949      23.5661    2000.0000   11361.5576     616.8766     326.2825      16.2110       0.1457       2.6208       0.0015       2.2149       0.6128       2.2971
   3256.2627      10.0045       5.0196       0.2129      49.1902      34.1239      26.9825    2000.0000    9665.1562     477.4739     251.1250      18.2101       0.1361       2.7858       0.0017       2.2790       0.6228       2.6627
   3256.4153       9.4019       4.8148       0.2219      61.2207      35.6877      28.0194    2000.0000    9431.7695     262.0336     227.4452      21.7674       0.1261       2.8572       0.0017       2.3629       0.5445       2.8036
   3256.5676       9.1989       4.7924       0.2380      73.4978      34.0026      27.4190    2000.0000   12781.5732     260.4823     281.4672      39.7618       0.1233       2.8730       0.0018       2.4481       0.5090       2.7272
   3256.7200       9.6753       4.5722       0.2439      76.4333      30.6484      26.2517    2000.0000   15885.7803     256.8862     308.7907      40.7307       0.1245       2.9034       0.0017       2.4383       0.4871       2.6445
   3256.8723      10.1557       4.0861       0.2397      76.4736      28.3138      24.1108    2000.0000   17530.5547     241.1281     293.6585      27.0050       0.1249       2.9149       0.0015       2.3805       0.4471       2.4694
   3257.0249      10.1357       3.5097       0.2199      76.3561      24.3112      21.7836    1927.5583   18049.5566     237.4031     281.9952      23.1737       0.1349       2.9080       0.0012       2.3647       0.4261       2.2568
   3257.1772       9.9706       2.8144       0.1843      72.4021      23.9752      19.3213    1808.4398   19540.6465     240.6701     311.7043      29.3200       0.1482       2.9384       0.0008       2.4012       0.4064       2.0327
   3257.3296       9.7515       2.2453       0.1547      67.1239      23.3277      17.1863    1516.7616   20590.8105     248.7038     360.9323      46.5855       0.1534       2.9980       0.0006       2.4514       0.3679       1.8482
   3257.4819       9.2873       2.2446       0.1360      59.9308      22.7969      15.7034    1365.5033   18072.9551     259.6848     367.4552      59.2764       0.1478       3.0454       0.0007       2.4634       0.3383       1.6685
   3257.6343       9.0423       2.0349       0.1234      55.6428      21.2435      15.6217    1365.5033   14434.5283     264.3544     364.6635      57.7942       0.1315       3.0416       0.0007       2.4627       0.2442       1.6726
   3257.7869       8.9534       1.5911       0.0959      54.5409      21.3262      17.2295    1361.4390   11494.1143     264.3544     393.8414      47.6563       0.1197       3.0027       0.0005       2.4524       0.1726       1.9260
   3257.9392       8.8527       1.6243       0.0562      53.0365      22.2820      18.6488    1233.7456    8751.5029     263.8821     417.4008      44.1688       0.1181       2.9585       0.0006       2.4536       0.1798       2.1144
   3258.0916       8.7341       1.9736       0.0186      51.0914      21.0220      18.8039     907.9717    6172.7295     261.8226     389.5184      62.6423       0.1225       2.9189       0.0006       2.4718       0.2667       2.1102
   3258.2439       8.6597       2.1801      -0.0007      48.7607      23.1369      17.7046     893.6686    4579.8750     173.1865     348.3630     144.8416       0.1254       2.8852       0.0006       2.5129       0.3393       1.9585
   3258.3965       8.5948       2.2668      -0.0045      48.4407      23.4338      16.8136     893.6686    4366.0498     136.2545     371.1100     250.2600       0.1236       2.8788       0.0007       2.5651       0.3296       1.8258
