#------------------------------------------------------------------------------
#
#   Created by  : [OpenWorks] Log Export Utility (LEXP)
#   Created on  : 2016-05-13 12:15:22
#   Project     : CANT971
#   User        : R5K
#   Interpreter : PEP
#
#------------------------------------------------------------------------------
~VERSION INFORMATION
VERS. 2.0 : CWLS Log ASCII Standard - version 2.0
WRAP.  NO : One line per depth step
~WELL INFORMATION
#MNEMONIC   .UNIT                                           VALUE :DESCRIPTION
#------------------------------------------------------------------------------
STRT        .M                                          1978.3888 :START DEPTH
STOP        .M                                          3448.5916 :STOP DEPTH
STEP        .M                                             0.1524 :STEP
NULL        .                                           -999.2500 :NULL VALUE
COMP        .                                             UNKNOWN :COMPANY
WELL        .                                               3028D :WELL
FLD         .                                             UNKNOWN :FIELD
LOC         .                                             UNKNOWN :LOCATION
CNTY        .                                             UNKNOWN :COUNTY
STAT        .                                             UNKNOWN :STATE
CTRY        .                                             UNKNOWN :COUNTRY
SRVC        .                                             UNKNOWN :SERVICE COMPANY
DATE        .                                             UNKNOWN :LOG DATE
UWI         .                                               3028D :UNIQUE WELL ID
XCOORD      .                                       595289.450000 :SURFACE X
YCOORD      .                                      2149890.790000 :SURFACE Y
LAT         .                                           19.442298 :LATITUDE
LON         .                                          -92.092254 :LONGITUDE
ELEV        .M                                             0.0000 :SURFACE ELEV
ELEV_TYPE   .                                                  KB :ELEV TYPE
~CURVE INFORMATION
#MNEMONIC.UNIT        API CODE       : CURVE DESCRIPTION
#------------------------------------------------------------------------------
DEPTH    .M                          : Measured Depth
CALI     .inches      UNKNOWN        : CALI:litodensidad:r1:0001:v1 
CGR      .API         UNKNOWN        : CGR:radioactividad:r1:0001:v1 
DRHO     .g/cm3       UNKNOWN        : DRHO:litodensidad:r1:0001:v1 
DT       .us/ft       UNKNOWN        : DT:PETROWORKS:rC:NONE:v1 
GR-LWD   .API         UNKNOWN        : GR-LWD:resistivos-LWD:r2:0001:v3 
GR       .API         UNKNOWN        : GR:PETROWORKS:rC:NONE:v1 
LLD-LWD  .ohm.m       UNKNOWN        : LLD-LWD:resistivos-LWD:r2:0001:v4 
LLD      .ohm.m       UNKNOWN        : LLD:resistivos:r1:0001:v1 
LLS-LWD  .ohm.m       UNKNOWN        : LLS-LWD:resistivos-LWD:r2:0001:v4 
LLS      .ohm.m       UNKNOWN        : LLS:resistivos:r1:0001:v1 
MSFL     .ohm.m       UNKNOWN        : MSFL:resistivos:r1:0001:v1 
NPHI     .v/v_decimal UNKNOWN        : NPHI:porosidad:r1:0001:v1 
PEF      .UNKNOWN     UNKNOWN        : PEF:litodensidad:r1:0001:v1 
POTA     .UNKNOWN     UNKNOWN        : POTA:radioactividad:r1:0001:v1 
RHOB     .g/cm3       UNKNOWN        : RHOB:litodensidad:r1:0001:v1 
THOR     .ppm         UNKNOWN        : THOR:radioactividad:r1:0001:v1 
URAN     .ppm         UNKNOWN        : URAN:radioactividad:r1:0001:v1 
~A     DEPTH         CALI          CGR         DRHO           DT       GR-LWD           GR      LLD-LWD          LLD      LLS-LWD          LLS         MSFL         NPHI          PEF         POTA         RHOB         THOR         URAN
# ...
   3135.8667       8.4803      47.5118      -0.0024      65.9977      81.2100      81.5608      57.3828      80.7237      56.6109      96.2817      53.6796       0.1951       3.6251       0.0226       2.6050       1.9716       4.4270
   3136.0193       8.4940      41.8732      -0.0035      65.7413      66.7886      74.5836      57.5071      87.0122      61.1544     104.5950      49.0625       0.1860       3.6370       0.0205       2.6108       1.4230       4.2701
   3136.1716       8.4983      38.0295      -0.0030      65.4098      45.8777      70.9752      57.5071     179.3704      67.6988     205.5680      50.1110       0.1816       3.5853       0.0191       2.6195       0.9752       4.2866
   3136.3240       8.5188      35.4520      -0.0021      62.4216      30.2430      67.7166      57.6466    1602.6948      74.0441    1581.8090      60.3875       0.1752       3.5125       0.0181       2.6390       0.7708       4.1888
   3136.4763       8.5325      30.4481      -0.0021      60.3433      26.5857      60.7569      76.4118    5477.1460      82.0294    5078.1104      98.5024       0.1547       3.4437       0.0159       2.6625       0.4546       3.9073
   3136.6289       8.5239      22.5892      -0.0021      59.9562      26.0918      48.6603      95.7889    8832.0537      83.4534    7938.9639     298.5908       0.1204       3.3598       0.0120       2.6819       0.2344       3.2759
   3136.7812       8.5086      15.1956      -0.0023      57.8193      25.5442      35.7901     107.9258    9865.7725      83.4534    8755.3740    1019.6944       0.0867       3.2678       0.0079       2.6827       0.2146       2.5640
   3136.9336       8.5188      10.0738      -0.0021      56.1986      27.6578      26.6722     108.1070   14381.2744     169.3133   12148.9189    1375.9409       0.0705       3.1812       0.0052       2.6644       0.1930       2.0986
   3137.0859       8.5026       6.5637      -0.0013      56.3390      29.2346      22.2643     108.7960   31360.4609     349.1735   24183.1387     988.9505       0.0738       3.1323       0.0034       2.6410       0.1180       1.9899
   3137.2383       8.4573       4.4412      -0.0010      55.8241      31.1805      21.0931     124.1033   54562.3750     349.1735   40732.5039     688.1630       0.0845       3.1165       0.0023       2.6296       0.1207       2.0986
   3137.3909       8.4146       3.7499      -0.0015      55.6842      39.7581      20.8005     165.3545   51564.3633     349.1735   40216.5000     589.9836       0.0930       3.1092       0.0018       2.6293       0.1375       2.1368
   3137.5432       8.3898       3.7259      -0.0026      56.3416      43.6839      20.1647     213.4860   36323.0742     497.1544   30429.5938     638.0502       0.0967       3.1082       0.0017       2.6259       0.1738       2.0721
   3137.6956       8.3694       4.2406      -0.0005      56.6900      54.1135      21.7901     253.4410   25743.9473     820.8116   22095.3027     571.4231       0.0959       3.1331       0.0019       2.6192       0.2340       2.2278
   3137.8479       8.3600       5.3141       0.0044      57.0238      74.6049      28.2082     282.5514   12627.9707    1236.2122   10996.9580     443.3709       0.0967       3.1957       0.0024       2.6091       0.2943       2.9036
   3138.0005       8.3634       8.1759       0.0073      57.9337      82.4989      44.2289     282.5514    4049.4912    1529.3903    3551.4426     370.5677       0.1080       3.2998       0.0036       2.5756       0.4851       4.5640
   3138.1528       8.3506      12.2615       0.0040      59.2974      81.5591      66.5932     292.0746    2301.7507    1914.6229    2074.7825     323.9366       0.1420       3.3966       0.0055       2.5197       0.7166       6.8787
   3138.3052       8.3425      15.3780      -0.0008      58.8297      82.6443      84.0931     297.8732    3188.0371    2000.0000    2969.1848     362.6382       0.1809       3.4078       0.0068       2.4874       0.9385       8.7639
   3138.4575       8.3634      15.2893      -0.0017      56.9600      91.0349      84.3220     935.0922    5378.2305    2000.0000    5006.7212     392.4344       0.1900       3.3322       0.0067       2.5209       0.9644       8.8029
   3138.6101       8.3788      12.2097       0.0008      54.9545      89.5550      66.6755    1365.5033   23168.6172    2000.0000   20635.0664     483.7353       0.1582       3.2223       0.0053       2.5998       0.8055       6.8836
   3138.7625       8.3916       8.5629       0.0037      52.8517      60.4442      44.4471    1365.5033   71688.6250    2000.0000   69829.4297     654.4268       0.1116       3.1696       0.0037       2.6725       0.6126       4.5013
   3138.9148       8.3975       5.3912       0.0038      51.2943      38.0732      28.4046    1372.6189  100000.0000    2000.0000   88831.7500    1268.3309       0.0800       3.1611       0.0023       2.7100       0.3916       2.8826
   3139.0671       8.4026       3.7282       0.0015      51.7591      30.6378      21.2924    1578.4629  100000.0000    1999.1012   86737.7422    1702.6703       0.0678       3.1654       0.0015       2.7187       0.2956       2.2222
   3139.2195       8.3967       2.9192      -0.0019      53.4434      25.3656      18.3581    2000.0000  100000.0000    1945.0251   96556.1250    1804.0353       0.0630       3.1654       0.0012       2.7163       0.2494       1.9521
   3139.3721       8.3907       2.4356      -0.0039      55.0219      22.7649      17.5435    2000.0000  100000.0000    1913.4668  100000.0000    2368.9065       0.0598       3.1584       0.0009       2.7081       0.2599       1.8826
   3139.5244       8.3941       2.4336      -0.0016      56.3696      19.6542      17.6677    2000.0000  100000.0000    1876.3756  100000.0000    1632.1746       0.0603       3.1572       0.0008       2.6982       0.3199       1.8722
   3139.6768       8.3941       2.3812       0.0019      56.4167      21.1448      17.9307    2000.0000   80931.7891    1838.1936   63621.0391     455.6135       0.0677       3.1580       0.0007       2.6847       0.3167       1.9204
   3139.8291       8.3131       2.0725       0.0022      55.8510      23.3896      17.9375    2000.0000   57969.0234    1773.7659   27372.0547     227.7318       0.0778       3.1748       0.0006       2.6773       0.2937       1.9828
   3139.9817       8.3164       2.1687       0.0008      53.9080      22.5946      18.1604    2000.0000   78587.5938    1749.1531   37682.1797     262.3844       0.0780       3.2186       0.0007       2.6804       0.2711       1.9932
   3140.1340       8.3689       2.6669      -0.0016      52.1724      23.0112      18.6818    2000.0000  100000.0000    1769.0369   41479.6992    1001.3423       0.0719       3.2742       0.0010       2.6899       0.2729       1.9901
   3140.2864       8.3694       3.0282      -0.0023      52.1871      25.7223      19.2276    2000.0000  100000.0000    1910.7800   29439.7793    2346.4954       0.0671       3.3038       0.0012       2.7042       0.2646       2.0044
   3140.4387       8.3796       2.9792      -0.0027      52.0632      25.2307      19.6941    2000.0000  100000.0000    1953.4784   42474.2031    3339.5569       0.0684       3.2914       0.0012       2.7161       0.2145       2.0724
   3140.5913       8.4035       3.0453      -0.0036      51.2455      23.2526      20.3234    2000.0000  100000.0000    1976.9175   59406.0312    3592.3303       0.0682       3.2616       0.0013       2.7174       0.1932       2.1599
   3140.7437       8.3895       3.0427      -0.0051      52.8545      24.0345      20.5098    2000.0000  100000.0000    1879.5245   56020.9453    3055.5376       0.0670       3.2444       0.0013       2.7057       0.2182       2.1521
   3140.8960       8.3736       3.0480      -0.0074      54.2778      23.8830      19.3058    2000.0000  100000.0000    1332.7501   32876.3867    2617.0056       0.0642       3.2563       0.0012       2.6824       0.2897       1.9626
   3141.0483       8.3756       3.2703      -0.0107      56.6161      21.1731      18.3242    2000.0000  100000.0000     977.5201   12672.1045    2968.7505       0.0595       3.3172       0.0013       2.6459       0.3270       1.8128
