#------------------------------------------------------------------------------
#
#   Created by  : [OpenWorks] Log Export Utility (LEXP)
#   Created on  : 2016-05-13 12:15:22
#   Project     : CANT971
#   User        : R5K
#   Interpreter : PEP
#
#------------------------------------------------------------------------------
~VERSION INFORMATION
VERS. 2.0 : CWLS Log ASCII Standard - version 2.0
WRAP.  NO : One line per depth step
~WELL INFORMATION
#MNEMONIC   .UNIT                                           VALUE :DESCRIPTION
#------------------------------------------------------------------------------
STRT        .M                                          1978.3888 :START DEPTH
STOP        .M                                          3448.5916 :STOP DEPTH
STEP        .M                                             0.1524 :STEP
NULL        .                                           -999.2500 :NULL VALUE
COMP        .                                             UNKNOWN :COMPANY
WELL        .                                               3028D :WELL
FLD         .                                             UNKNOWN :FIELD
LOC         .                                             UNKNOWN :LOCATION
CNTY        .                                             UNKNOWN :COUNTY
STAT        .                                             UNKNOWN :STATE
CTRY        .                                             UNKNOWN :COUNTRY
SRVC        .                                             UNKNOWN :SERVICE COMPANY
DATE        .                                             UNKNOWN :LOG DATE
UWI         .                                               3028D :UNIQUE WELL ID
XCOORD      .                                       595289.450000 :SURFACE X
YCOORD      .                                      2149890.790000 :SURFACE Y
LAT         .                                           19.442298 :LATITUDE
LON         .                                          -92.092254 :LONGITUDE
ELEV        .M                                             0.0000 :SURFACE ELEV
ELEV_TYPE   .                                                  KB :ELEV TYPE
~CURVE INFORMATION
#MNEMONIC.UNIT        API CODE       : CURVE DESCRIPTION
#------------------------------------------------------------------------------
DEPTH    .M                          : Measured Depth
CALI     .inches      UNKNOWN        : CALI:litodensidad:r1:0001:v1 
CGR      .API         UNKNOWN        : CGR:radioactividad:r1:0001:v1 
DRHO     .g/cm3       UNKNOWN        : DRHO:litodensidad:r1:0001:v1 
DT       .us/ft       UNKNOWN        : DT:PETROWORKS:rC:NONE:v1 
GR-LWD   .API         UNKNOWN        : GR-LWD:resistivos-LWD:r2:0001:v3 
GR       .API         UNKNOWN        : GR:PETROWORKS:rC:NONE:v1 
LLD-LWD  .ohm.m       UNKNOWN        : LLD-LWD:resistivos-LWD:r2:0001:v4 
LLD      .ohm.m       UNKNOWN        : LLD:resistivos:r1:0001:v1 
LLS-LWD  .ohm.m       UNKNOWN        : LLS-LWD:resistivos-LWD:r2:0001:v4 
LLS      .ohm.m       UNKNOWN        : LLS:resistivos:r1:0001:v1 
MSFL     .ohm.m       UNKNOWN        : MSFL:resistivos:r1:0001:v1 
NPHI     .v/v_decimal UNKNOWN        : NPHI:porosidad:r1:0001:v1 
PEF      .UNKNOWN     UNKNOWN        : PEF:litodensidad:r1:0001:v1 
POTA     .UNKNOWN     UNKNOWN        : POTA:radioactividad:r1:0001:v1 
RHOB     .g/cm3       UNKNOWN        : RHOB:litodensidad:r1:0001:v1 
THOR     .ppm         UNKNOWN        : THOR:radioactividad:r1:0001:v1 
URAN     .ppm         UNKNOWN        : URAN:radioactividad:r1:0001:v1 
~A     DEPTH         CALI          CGR         DRHO           DT       GR-LWD           GR      LLD-LWD          LLD      LLS-LWD          LLS         MSFL         NPHI          PEF         POTA         RHOB         THOR         URAN
# ...
   3290.5527       8.7437       3.1138       0.1325      51.8269      37.0789      37.6870     705.3728   92484.4609    2000.0000   86267.3125     210.7662       0.1062       3.1190       0.0015       2.7391       0.1282       4.3350
   3290.7051       8.5436       2.9615       0.0880      51.9137      37.4924      38.4616     282.5514  100000.0000    2000.0000   84062.6719     397.4842       0.0923       3.2307       0.0013       2.7173       0.1698       4.4538
   3290.8577       8.4838       3.1169       0.0704      52.8892      37.3832      38.6587     295.4163   66047.7812    2000.0000   40270.1914     350.4096       0.0766       3.2817       0.0015       2.6702       0.1271       4.4630
   3291.0100       8.3609       3.4706       0.0672      53.9747      36.6389      38.1389    1181.2789   29839.2422    2000.0000   17642.6191     213.3879       0.0760       3.2722       0.0018       2.6303       0.0898       4.3223
   3291.1624       8.2735       3.7302       0.0674      54.2928      36.6663      37.9824    1770.5111   27293.1250    2000.0000   15597.7314     183.9675       0.0843       3.2349       0.0018       2.6358       0.1314       4.2515
   3291.3147       8.4068       3.7641       0.0650      54.1758      36.8669      36.5738    2000.0000   38278.1250    2000.0000   20857.8594     184.2399       0.0862       3.2038       0.0018       2.6735       0.1551       4.0780
   3291.4673       8.5459       3.9023       0.0527      53.2558      36.4262      35.2641    2000.0000   42709.5586    2000.0000   23336.1680     205.3653       0.0798       3.1855       0.0019       2.6888       0.1846       3.8983
   3291.6196       8.5572       3.9325       0.0348      52.8569      36.4660      35.9514    2000.0000   54715.7812    2000.0000   30276.2617     232.2251       0.0750       3.1693       0.0016       2.6690       0.3127       4.0139
   3291.7720       8.5692       4.3137       0.0282      54.4744      36.3257      38.9558    2000.0000   67183.9453    2000.0000   38104.9531     357.8120       0.0730       3.1679       0.0015       2.6510       0.4876       4.3526
   3291.9243       8.6535       4.5610       0.0368      55.4984      36.2611      42.2013    2000.0000   53460.8438    2000.0000   31159.9668     354.6709       0.0735       3.1963       0.0015       2.6569       0.5678       4.7718
   3292.0769       8.5761       4.8259       0.0547      55.6314      37.2923      44.6924    2000.0000   35121.3867    2000.0000   20450.9160     283.7819       0.0757       3.2482       0.0016       2.6928       0.6238       5.1068
   3292.2292       8.4198       5.1930       0.0663      55.8355      37.4991      46.4079    1996.6499   39827.6484    2000.0000   21327.2930     333.0057       0.0767       3.2812       0.0018       2.7333       0.6387       5.2966
   3292.3816       8.3788       5.5125       0.0668      56.0364      38.8993      45.5790    1976.3030   70710.4922    2000.0000   30737.9590     527.8214       0.0735       3.2751       0.0018       2.7428       0.6999       5.1577
   3292.5339       8.3020       5.5392       0.0699      57.3416      39.7049      42.9131    1365.5033   89135.9844    1998.1533   31423.9297     531.1629       0.0711       3.2518       0.0017       2.7175       0.7764       4.8029
   3292.6863       8.4666       5.2392       0.0891      56.4096      39.6623      41.4742    1365.5033   76566.3125    1939.5682   22660.0605     300.1468       0.0706       3.2302       0.0015       2.6843       0.7921       4.6201
   3292.8389       8.6104       5.0983       0.1188      54.0041      39.4204      41.5809    1371.4974   72708.6641    1747.0510   18631.5605     167.7403       0.0744       3.2175       0.0014       2.6521       0.7911       4.6125
   3292.9912       8.6221       5.0259       0.1441      52.5079      38.7026      40.4292    1650.2360   79773.1953    1721.0286   18095.1895     109.3052       0.0832       3.2191       0.0014       2.6225       0.7836       4.4571
   3293.1436       8.7535       4.5240       0.1557      51.2383      38.1693      37.2042    2000.0000   66908.6328    1068.5917   13259.3047      82.8232       0.0944       3.2440       0.0013       2.6219       0.7020       4.1064
   3293.2959       8.7085       4.1362       0.1403      51.3601      37.8631      34.0429    2000.0000   55172.9453     525.9650    9204.3066      91.9790       0.1107       3.2678       0.0012       2.6574       0.6138       3.7396
   3293.4485       8.4898       3.9617       0.0991      51.0283      37.4320      32.1962    2000.0000   57500.1406     510.0349    8749.1211     184.9606       0.1185       3.2496       0.0013       2.7045       0.5372       3.5381
   3293.6008       8.3792       3.6981       0.0481      51.1269      38.2523      30.9395    2000.0000   58175.2031     510.0349    8399.1807     327.3302       0.1105       3.1798       0.0012       2.7103       0.4829       3.4229
   3293.7532       8.3821       3.8896       0.0167      51.8906      39.2641      29.5448    2000.0000   56158.0781     510.0349    8228.0703     265.0276       0.0929       3.1141       0.0012       2.6769       0.5499       3.2242
   3293.9055       8.4112       4.6890       0.0159      52.7251      38.6726      28.8316    2000.0000   42861.8086     510.0349    6988.6289     145.9369       0.0829       3.1062       0.0014       2.6430       0.6991       3.0191
   3294.0581       8.3310       5.7334       0.0240      52.0993      37.5932      32.5467    2000.0000   33258.0781     510.0349    6797.6655     114.9295       0.0858       3.1502       0.0018       2.6278       0.8109       3.3366
   3294.2104       8.3498       7.2094       0.0289      51.0228      36.5474      43.8232    2000.0000   35038.5195     510.0349    7464.0664     108.9211       0.0959       3.1954       0.0022       2.6405       1.0064       4.5750
   3294.3628       8.6457       8.8709       0.0381      50.7483      37.5559      55.9661    2000.0000   23685.0469     510.0349    4833.8638     155.9149       0.0995       3.2131       0.0026       2.6703       1.2876       5.9353
   3294.5151       8.9388       9.6022       0.0688      50.8150      40.0093      58.4672    2000.0000   15438.2168     510.0349    3190.6304     137.7043       0.0951       3.2234       0.0029       2.7000       1.3669       6.1989
   3294.6675       8.9510       8.6081       0.1168      51.0926      34.9105      48.4886    1989.7625   15469.3311     510.0349    3244.9580      94.4839       0.0936       3.2475       0.0026       2.7078       1.2463       5.0948
   3294.8201       9.1209       6.5820       0.1539      50.6354      32.4986      35.1583    1823.9713   14790.1797     510.0349    2979.2847      77.1662       0.0959       3.2879       0.0020       2.6978       0.9468       3.6473
   3294.9724       9.0389       5.3154       0.1561      49.5300      34.2256      26.8845     945.5176   14974.3398     510.0349    2790.7930      91.4418       0.1070       3.3204       0.0018       2.7045       0.6679       2.7409
   3295.1248       8.6020       5.1261       0.1195      49.5392      34.2687      24.7221     898.4625   23512.8320     865.9970    3723.3213     154.2699       0.1121       3.3210       0.0018       2.7397       0.6098       2.4840
   3295.2771       8.3652       5.7371       0.0667      50.2065      36.4543      25.3071     933.9799   69071.1562    2000.0000    8417.4414     607.5755       0.0991       3.2971       0.0020       2.7764       0.6611       2.4268
   3295.4297       8.3301       6.1895       0.0210      51.0067      33.6500      26.5914    2000.0000  100000.0000    2000.0000   13411.3486     735.6596       0.0769       3.2716       0.0023       2.7855       0.6319       2.4459
   3295.5820       8.3744       5.9026       0.0002      50.9601      35.4896      28.8062    2000.0000  100000.0000    1956.5176   12165.6572     595.2681       0.0595       3.2600       0.0023       2.7817       0.5121       2.7424
   3295.7344       8.5361       5.6925      -0.0030      50.9306      38.6777      30.8061    1995.6487  100000.0000     660.1813    9089.9639     615.6778       0.0517       3.2471       0.0024       2.7756       0.4034       3.0378
