#------------------------------------------------------------------------------
#
#   Created by  : [OpenWorks] Log Export Utility (LEXP)
#   Created on  : 2016-05-13 12:15:22
#   Project     : CANT971
#   User        : R5K
#   Interpreter : PEP
#
#------------------------------------------------------------------------------
~VERSION INFORMATION
VERS. 2.0 : CWLS Log ASCII Standard - version 2.0
WRAP.  NO : One line per depth step
~WELL INFORMATION
#MNEMONIC   .UNIT                                           VALUE :DESCRIPTION
#------------------------------------------------------------------------------
STRT        .M                                          1978.3888 :START DEPTH
STOP        .M                                          3448.5916 :STOP DEPTH
STEP        .M                                             0.1524 :STEP
NULL        .                                           -999.2500 :NULL VALUE
COMP        .                                             UNKNOWN :COMPANY
WELL        .                                               3028D :WELL
FLD         .                                             UNKNOWN :FIELD
LOC         .                                             UNKNOWN :LOCATION
CNTY        .                                             UNKNOWN :COUNTY
STAT        .                                             UNKNOWN :STATE
CTRY        .                                             UNKNOWN :COUNTRY
SRVC        .                                             UNKNOWN :SERVICE COMPANY
DATE        .                                             UNKNOWN :LOG DATE
UWI         .                                               3028D :UNIQUE WELL ID
XCOORD      .                                       595289.450000 :SURFACE X
YCOORD      .                                      2149890.790000 :SURFACE Y
LAT         .                                           19.442298 :LATITUDE
LON         .                                          -92.092254 :LONGITUDE
ELEV        .M                                             0.0000 :SURFACE ELEV
ELEV_TYPE   .                                                  KB :ELEV TYPE
~CURVE INFORMATION
#MNEMONIC.UNIT        API CODE       : CURVE DESCRIPTION
#------------------------------------------------------------------------------
DEPTH    .M                          : Measured Depth
CALI     .inches      UNKNOWN        : CALI:litodensidad:r1:0001:v1 
CGR      .API         UNKNOWN        : CGR:radioactividad:r1:0001:v1 
DRHO     .g/cm3       UNKNOWN        : DRHO:litodensidad:r1:0001:v1 
DT       .us/ft       UNKNOWN        : DT:PETROWORKS:rC:NONE:v1 
GR-LWD   .API         UNKNOWN        : GR-LWD:resistivos-LWD:r2:0001:v3 
GR       .API         UNKNOWN        : GR:PETROWORKS:rC:NONE:v1 
LLD-LWD  .ohm.m       UNKNOWN        : LLD-LWD:resistivos-LWD:r2:0001:v4 
LLD      .ohm.m       UNKNOWN        : LLD:resistivos:r1:0001:v1 
LLS-LWD  .ohm.m       UNKNOWN        : LLS-LWD:resistivos-LWD:r2:0001:v4 
LLS      .ohm.m       UNKNOWN        : LLS:resistivos:r1:0001:v1 
MSFL     .ohm.m       UNKNOWN        : MSFL:resistivos:r1:0001:v1 
NPHI     .v/v_decimal UNKNOWN        : NPHI:porosidad:r1:0001:v1 
PEF      .UNKNOWN     UNKNOWN        : PEF:litodensidad:r1:0001:v1 
POTA     .UNKNOWN     UNKNOWN        : POTA:radioactividad:r1:0001:v1 
RHOB     .g/cm3       UNKNOWN        : RHOB:litodensidad:r1:0001:v1 
THOR     .ppm         UNKNOWN        : THOR:radioactividad:r1:0001:v1 
URAN     .ppm         UNKNOWN        : URAN:radioactividad:r1:0001:v1 
~A     DEPTH         CALI          CGR         DRHO           DT       GR-LWD           GR      LLD-LWD          LLD      LLS-LWD          LLS         MSFL         NPHI          PEF         POTA         RHOB         THOR         URAN
# ...
   2869.1667       8.2481      16.5121       1.4213      58.1166      57.8665      26.5933       1.4548       0.2130       1.4296       0.2127       0.0981       0.3351      10.0000       0.0049       4.6288       2.3856       1.3317
   2869.3191       8.2438      18.1757       1.4318      58.8461      57.2519      29.0110       1.5311       0.2138       1.4968       0.2142       0.0974       0.3412      10.0000       0.0053       4.6288       2.7170       1.3920
   2869.4717       8.2404      18.8689       1.4408      58.5958      58.8184      31.0022       1.6314       0.2075       1.6090       0.2080       0.0960       0.3544      10.0000       0.0054       4.6288       2.8847       1.5062
   2869.6240       8.2404      18.9139       1.4436      59.0347      59.1957      31.2195       1.6252       0.2045       1.6156       0.2044       0.0927       0.3643      10.0000       0.0052       4.6288       3.0037       1.5108
   2869.7764       8.2361      18.2759       1.4362      59.4963      60.4266      29.8991       1.7054       0.2133       1.7360       0.2131       0.0857       0.3634      10.0000       0.0048       4.6288       3.0648       1.4440
   2869.9287       8.2242      16.7672       1.4285      59.0293      60.9802      28.6753       1.6801       0.2152       1.7293       0.2150       0.0846       0.3606      10.0000       0.0044       4.6288       2.7749       1.5261
   2870.0813       8.2238      16.2826       1.4185      58.1003      62.1759      28.9397       1.6038       0.2183       1.6619       0.2178       0.0898       0.3515      10.0000       0.0045       4.6288       2.6115       1.6596
   2870.2336       8.2310      16.2293       1.4086      58.0955      64.5851      29.7032       1.4827       0.2182       1.5106       0.2175       0.1031       0.3422      10.0000       0.0045       4.6288       2.5720       1.7693
   2870.3860       8.2327      16.6855       1.4196      58.0975      65.5404      30.3292       1.4790       0.2168       1.4820       0.2165       0.1084       0.3326      10.0000       0.0047       4.6288       2.6151       1.8062
   2870.5383       8.2284      17.2758       1.4341      57.2726      67.1707      30.4697       1.4480       0.2134       1.4117       0.2135       0.1085       0.3359      10.0000       0.0048       4.6288       2.7147       1.7611
   2870.6907       8.2293      17.3429       1.4436      55.3462      65.9972      31.3449       1.4145       0.2123       1.3837       0.2122       0.1019       0.3642      10.0000       0.0049       4.6288       2.6978       1.8607
   2870.8433       8.2242      18.9307       1.4468      53.2514      62.1510      32.7301       1.3620       0.2125       1.3447       0.2123       0.0923       0.3940      10.0000       0.0052       4.6288       2.9750       1.8000
   2870.9956       8.2259      20.2678       1.4553      53.5108      61.2738      33.2410       1.3002       0.2156       1.2751       0.2156       0.0884       0.4102      10.0000       0.0058       4.6288       3.0862       1.6826
   2871.1479       8.2370      19.6871       1.4674      54.4057      62.0012      32.6197       1.3159       0.2168       1.2667       0.2168       0.0909       0.4143      10.0000       0.0059       4.6288       2.8140       1.6925
   2871.3003       8.2404      19.5929       1.4610      54.6595      78.1330      31.8063       1.3607       0.2122       1.2792       0.2117       0.0953       0.4103      10.0000       0.0060       4.6288       2.7444       1.5819
   2871.4529       8.2468      19.7770       1.4460      55.0543      77.0507      31.3366       1.5053       0.2152       1.4377       0.2160       0.1004       0.3988      10.0000       0.0062       4.6288       2.7360       1.4813
   2871.6052       8.2413      20.4451       1.4355      56.5383      73.4451      31.2941       1.5368       0.2098       1.5088       0.2100       0.1069       0.3806      10.0000       0.0063       4.6288       2.8735       1.3719
   2871.7576       8.2370      21.4171       1.4385      57.8262      63.5367      31.3186       1.4861       0.2102       1.4789       0.2094       0.1062       0.3717      10.0000       0.0063       4.6288       3.1562       1.2562
   2871.9099       8.2404      22.7530       1.4450      58.3292      63.7580      30.9743       1.5331       0.2181       1.5432       0.2179       0.1077       0.3663      10.0000       0.0064       4.6288       3.5580       1.0746
   2872.0625       8.2361      23.9797       1.4435      58.3458      63.7068      30.4549       1.5466       0.2252       1.5832       0.2255       0.1095       0.3702      10.0000       0.0063       4.6288       3.9447       0.8513
   2872.2148       8.2284      25.1186       1.4342      67.5183      64.1141      31.0334       1.3672       0.2302       1.4129       0.2308       0.1040       0.3736      10.0000       0.0066       4.6288       4.1882       0.7791
   2872.3672       8.2272      26.4910       1.4274      75.5496      65.3676      32.5107       1.2568       0.2178       1.2636       0.2182       0.0958       0.3683      10.0000       0.0070       4.6288       4.3719       0.7971
   2872.5195       8.2225      27.0433       1.4304      76.5237      65.3300      33.9241       1.2832       0.2151       1.1857       0.2146       0.0964       0.3557      10.0000       0.0071       4.6288       4.4906       0.9577
   2872.6719       8.2174      26.9600       1.4349      76.4238      68.9754      33.9195       1.3396       0.2211       1.2000       0.2207       0.1016       0.3555      10.0000       0.0069       4.6288       4.5397       1.0182
   2872.8245       8.2259      27.4052       1.4289      78.7392      74.0014      33.0052       1.3792       0.2146       1.2183       0.2128       0.1074       0.3699      10.0000       0.0068       4.6288       4.7465       0.8727
   2872.9768       8.2284      26.9763       1.4130      79.7357      73.4327      32.2531       1.4611       0.2177       1.3022       0.2164       0.1121       0.3826      10.0000       0.0067       4.6288       4.6740       0.8813
   2873.1292       8.2272      26.3365       1.3998      78.3018      72.9016      31.6568       1.4767       0.2199       1.3575       0.2205       0.1087       0.3791      10.0000       0.0068       4.6288       4.4690       0.9115
   2873.2815       8.2267      26.4517       1.3951      77.4622      71.0143      31.6745       1.4329       0.2098       1.4014       0.2101       0.1038       0.3708      10.0000       0.0069       4.6288       4.4067       0.8961
   2873.4341       8.2250      26.5880       1.3992      68.0391      68.4430      31.7130       1.3776       0.2145       1.3916       0.2145       0.1017       0.3677      10.0000       0.0068       4.6288       4.4878       0.8836
   2873.5864       8.2272      26.4100       1.4091      68.6596      68.3650      32.3846       1.3696       0.2143       1.3802       0.2143       0.1014       0.3642      10.0000       0.0070       4.6288       4.3243       1.0009
   2873.7388       8.2310      26.8302       1.4226      75.6673      69.0490      33.7993       1.3855       0.2111       1.3487       0.2115       0.1011       0.3648      10.0000       0.0076       4.6288       4.1407       1.1249
   2873.8911       8.2242      28.0349       1.4308      76.9370      67.1124      35.4206       1.3980       0.2182       1.3215       0.2182       0.1005       0.3616      10.0000       0.0079       4.6288       4.3467       1.1866
   2874.0437       8.2174      28.7007       1.4287      77.8855      68.1880      36.0494       1.3776       0.2236       1.2822       0.2231       0.0892       0.3707      10.0000       0.0080       4.6288       4.5107       1.1782
   2874.1960       8.2301      28.2319       1.4133      77.0217      67.2490      35.1435       1.3560       0.2254       1.2480       0.2254       0.0836       0.3809      10.0000       0.0079       4.6288       4.4037       1.0928
   2874.3484       8.2361      26.5870       1.3981      74.7616      70.7862      33.3874       1.3400       0.2208       1.2118       0.2210       0.0925       0.3912      10.0000       0.0074       4.6288       4.1643       1.0519
