#------------------------------------------------------------------------------
#
#   Created by  : [OpenWorks] Log Export Utility (LEXP)
#   Created on  : 2016-05-13 12:15:22
#   Project     : CANT971
#   User        : R5K
#   Interpreter : PEP
#
#------------------------------------------------------------------------------
~VERSION INFORMATION
VERS. 2.0 : CWLS Log ASCII Standard - version 2.0
WRAP.  NO : One line per depth step
~WELL INFORMATION
#MNEMONIC   .UNIT                                           VALUE :DESCRIPTION
#------------------------------------------------------------------------------
STRT        .M                                          1978.3888 :START DEPTH
STOP        .M                                          3448.5916 :STOP DEPTH
STEP        .M                                             0.1524 :STEP
NULL        .                                           -999.2500 :NULL VALUE
COMP        .                                             UNKNOWN :COMPANY
WELL        .                                               3028D :WELL
FLD         .                                             UNKNOWN :FIELD
LOC         .                                             UNKNOWN :LOCATION
CNTY        .                                             UNKNOWN :COUNTY
STAT        .                                             UNKNOWN :STATE
CTRY        .                                             UNKNOWN :COUNTRY
SRVC        .                                             UNKNOWN :SERVICE COMPANY
DATE        .                                             UNKNOWN :LOG DATE
UWI         .                                               3028D :UNIQUE WELL ID
XCOORD      .                                       595289.450000 :SURFACE X
YCOORD      .                                      2149890.790000 :SURFACE Y
LAT         .                                           19.442298 :LATITUDE
LON         .                                          -92.092254 :LONGITUDE
ELEV        .M                                             0.0000 :SURFACE ELEV
ELEV_TYPE   .                                                  KB :ELEV TYPE
~CURVE INFORMATION
#MNEMONIC.UNIT        API CODE       : CURVE DESCRIPTION
#------------------------------------------------------------------------------
DEPTH    .M                          : Measured Depth
CALI     .inches      UNKNOWN        : CALI:litodensidad:r1:0001:v1 
CGR      .API         UNKNOWN        : CGR:radioactividad:r1:0001:v1 
DRHO     .g/cm3       UNKNOWN        : DRHO:litodensidad:r1:0001:v1 
DT       .us/ft       UNKNOWN        : DT:PETROWORKS:rC:NONE:v1 
GR-LWD   .API         UNKNOWN        : GR-LWD:resistivos-LWD:r2:0001:v3 
GR       .API         UNKNOWN        : GR:PETROWORKS:rC:NONE:v1 
LLD-LWD  .ohm.m       UNKNOWN        : LLD-LWD:resistivos-LWD:r2:0001:v4 
LLD      .ohm.m       UNKNOWN        : LLD:resistivos:r1:0001:v1 
LLS-LWD  .ohm.m       UNKNOWN        : LLS-LWD:resistivos-LWD:r2:0001:v4 
LLS      .ohm.m       UNKNOWN        : LLS:resistivos:r1:0001:v1 
MSFL     .ohm.m       UNKNOWN        : MSFL:resistivos:r1:0001:v1 
NPHI     .v/v_decimal UNKNOWN        : NPHI:porosidad:r1:0001:v1 
PEF      .UNKNOWN     UNKNOWN        : PEF:litodensidad:r1:0001:v1 
POTA     .UNKNOWN     UNKNOWN        : POTA:radioactividad:r1:0001:v1 
RHOB     .g/cm3       UNKNOWN        : RHOB:litodensidad:r1:0001:v1 
THOR     .ppm         UNKNOWN        : THOR:radioactividad:r1:0001:v1 
URAN     .ppm         UNKNOWN        : URAN:radioactividad:r1:0001:v1 
~A     DEPTH         CALI          CGR         DRHO           DT       GR-LWD           GR      LLD-LWD          LLD      LLS-LWD          LLS         MSFL         NPHI          PEF         POTA         RHOB         THOR         URAN
# ...
   3407.9009       8.3489       8.8686       0.0017      50.6026      24.2520      17.8335     900.2488    1834.8226     712.4896    1704.7382    1614.9436       0.0397       3.2589       0.0029       2.7710       1.1214       1.0940
   3408.0532       8.3335       8.7480       0.0003      50.0224      20.5567      17.5555     893.6686    2524.5903     764.7917    2339.9500    1352.3760       0.0441       3.2925       0.0028       2.7714       1.1535       1.0990
   3408.2056       8.3659       8.6742      -0.0033      49.3687      18.7266      18.1233     986.9802    2667.5725     916.8658    2447.3503    1367.9631       0.0466       3.3577       0.0029       2.7657       1.0914       1.1660
   3408.3579       8.3949       8.7224      -0.0065      49.8311      18.7266      19.1225    1127.7295    2095.3779     933.2070    1925.0226    1663.5671       0.0467       3.4138       0.0030       2.7563       1.0514       1.2964
   3408.5105       8.3570       8.2816      -0.0065      50.9963      18.7266      19.2215    1259.5344    1696.2106     933.2070    1538.8390    1856.9895       0.0462       3.4280       0.0030       2.7504       0.9125       1.3709
   3408.6628       8.3233       7.6616      -0.0040      51.9195      18.7722      18.8758    1365.5033    2277.2300     933.2070    2019.2217    1606.7607       0.0438       3.3899       0.0030       2.7477       0.6973       1.3864
   3408.8152       8.3549       7.3361      -0.0008      52.2352      19.4923      17.9690    1365.0173    2349.5703     933.2070    2080.7725    1189.1786       0.0444       3.3213       0.0029       2.7435       0.6456       1.3164
   3408.9675       8.4427       6.5592       0.0007      52.1148      25.5626      16.9864    1360.1556    2074.5417     933.2070    1824.3268     895.5590       0.0499       3.2743       0.0026       2.7306       0.5695       1.3190
   3409.1199       8.4258       5.6814       0.0070      51.6610      26.2109      16.4117    1180.4606    2011.0458     933.2070    1757.5875     853.2491       0.0591       3.2662       0.0022       2.7294       0.4987       1.3649
   3409.2725       8.3241       5.9841       0.0114      50.5874      26.1503      16.9998     949.3181    2165.6538     933.2070    1904.3583    1004.3194       0.0654       3.2836       0.0022       2.7409       0.6269       1.3829
   3409.4248       8.3420       6.4382       0.0102      49.5968      23.1651      18.0245     689.6478    2434.4490     933.2070    2173.2656    1203.9431       0.0630       3.3185       0.0022       2.7552       0.7573       1.4495
   3409.5771       8.4333       6.1544       0.0025      49.5541      22.4719      18.4613     662.9264    3357.7080     933.2070    3054.1504    1215.1888       0.0561       3.3715       0.0023       2.7549       0.6640       1.5383
   3409.7295       8.4240       6.4429      -0.0040      49.4117      24.3530      18.8914     664.4477    3191.8218     933.2070    2925.8206     939.5781       0.0518       3.4293       0.0025       2.7467       0.6252       1.5446
   3409.8821       8.3822       7.7231      -0.0056      49.4332      27.4960      20.3434     727.7379    2102.0701     933.2070    1914.4027     739.5919       0.0511       3.4544       0.0029       2.7455       0.7866       1.5555
   3410.0344       8.3788       9.1040      -0.0082      49.6385      28.0814      21.7779     771.0420    2440.3750     933.2070    2131.8025     656.6083       0.0518       3.4430       0.0033       2.7457       0.9693       1.5213
   3410.1868       8.3745       9.8013      -0.0089      49.6774      26.6705      22.3218     868.8483    2810.7480     933.2070    2316.2090     700.8547       0.0526       3.3864       0.0036       2.7551       1.0494       1.4758
   3410.3391       8.3711      10.2073      -0.0066      49.6191      25.0369      22.5606     893.6686    2344.8640     820.4216    1837.3392     686.6303       0.0527       3.3166       0.0036       2.7723       1.1393       1.4727
   3410.4917       8.3583      10.1856      -0.0033      48.8564      24.3446      22.8081     893.6686    1812.4095     522.7487    1412.5081     618.6878       0.0520       3.2750       0.0035       2.7893       1.1584       1.5083
   3410.6440       8.3587      10.2470      -0.0016      48.5053      25.9410      22.8124     823.8344    1324.4681     510.0349    1041.8237     575.5726       0.0502       3.2755       0.0035       2.7970       1.2062       1.4447
   3410.7964       8.3779      10.2779      -0.0012      48.6175      29.3478      21.6985     667.2383    1385.6792     510.0349    1157.2311     590.3910       0.0469       3.2943       0.0035       2.7966       1.2298       1.2667
   3410.9487       8.3864       9.4454      -0.0009      48.7222      31.8352      19.8253     662.9264    2016.7338     510.0349    1822.8761     807.0418       0.0446       3.3218       0.0032       2.7934       1.1387       1.1662
   3411.1011       8.3822       8.4905      -0.0010      48.3983      31.7183      18.2449     662.9264    3429.9102     510.0349    3208.5520    1154.9946       0.0428       3.3575       0.0029       2.7914       1.0336       1.1102
   3411.2537       8.3745       8.1296      -0.0012      48.0356      25.2199      17.6534     662.9264    3817.4404     509.6933    3581.4807    1285.3096       0.0419       3.3781       0.0027       2.7946       1.0260       1.0832
   3411.4060       8.3754       8.4313       0.0007      48.6416      22.4719      18.5175     662.9264    2733.2261     467.4233    2558.6162    1172.0847       0.0420       3.3722       0.0028       2.8049       1.0725       1.1645
   3411.5583       8.3660       8.1128       0.0015      48.8758      22.5292      19.2184     662.9264    2425.5312     434.1119    2252.8169    1015.8016       0.0431       3.3594       0.0027       2.8108       1.0351       1.2827
   3411.7107       8.3514       7.2624      -0.0004      49.2072      28.8475      18.9840     525.3317    2909.0938     374.3008    2634.7349     858.1179       0.0434       3.3489       0.0024       2.8097       0.9397       1.3676
   3411.8633       8.3523       6.7528      -0.0025      49.3696      29.9625      18.9159     525.3317    2166.9692     311.6477    1902.5509     504.7484       0.0427       3.3328       0.0022       2.8071       0.8634       1.4416
   3412.0156       8.3600       6.4753      -0.0024      49.1871      29.9418      19.6540     525.3317     777.9619     264.3544     661.3196     276.7758       0.0420       3.3220       0.0021       2.8103       0.8336       1.5763
   3412.1680       8.3634       6.7709       0.0001      49.4994      26.0729      20.1912     525.3317     768.3430     279.9038     641.2719     332.6014       0.0410       3.3287       0.0022       2.8172       0.8932       1.6199
   3412.3203       8.3634       6.6456       0.0016      49.5409      22.4719      18.7462     524.8873    2195.4292     326.9552    1834.1038    1356.1029       0.0392       3.3380       0.0022       2.8210       0.8305       1.4827
   3412.4729       8.3720       5.8839       0.0024      49.8896      22.4719      16.8733     521.9640    2452.8191     412.8325    2059.4751    1312.8718       0.0373       3.3265       0.0020       2.8227       0.7125       1.3644
   3412.6252       8.3745       5.8563       0.0023      50.4774      21.8129      16.9133     434.0290    1448.6361     414.8900    1229.6328     654.3224       0.0369       3.3038       0.0021       2.8164       0.6745       1.3753
   3412.7776       8.3754       6.7281       0.0019      50.6696      18.9648      18.0247     434.0290    1323.5502     414.8900    1107.3650     591.5346       0.0376       3.2844       0.0024       2.8036       0.7271       1.4200
   3412.9299       8.3788       7.2590       0.0027      51.0920      18.7266      17.6517     431.9071    1534.6238     414.8900    1270.3409     656.8392       0.0402       3.2874       0.0025       2.7948       0.8487       1.3347
   3413.0823       8.3788       6.4995       0.0048      51.7792      18.7266      15.4565     382.5923    1586.9573     414.8900    1317.9614     795.9686       0.0425       3.3014       0.0021       2.7967       0.8524       1.1541
