#------------------------------------------------------------------------------
#
#   Created by  : [OpenWorks] Log Export Utility (LEXP)
#   Created on  : 2016-05-13 12:15:22
#   Project     : CANT971
#   User        : R5K
#   Interpreter : PEP
#
#------------------------------------------------------------------------------
~VERSION INFORMATION
VERS. 2.0 : CWLS Log ASCII Standard - version 2.0
WRAP.  NO : One line per depth step
~WELL INFORMATION
#MNEMONIC   .UNIT                                           VALUE :DESCRIPTION
#------------------------------------------------------------------------------
STRT        .M                                          1978.3888 :START DEPTH
STOP        .M                                          3448.5916 :STOP DEPTH
STEP        .M                                             0.1524 :STEP
NULL        .                                           -999.2500 :NULL VALUE
COMP        .                                             UNKNOWN :COMPANY
WELL        .                                               3028D :WELL
FLD         .                                             UNKNOWN :FIELD
LOC         .                                             UNKNOWN :LOCATION
CNTY        .                                             UNKNOWN :COUNTY
STAT        .                                             UNKNOWN :STATE
CTRY        .                                             UNKNOWN :COUNTRY
SRVC        .                                             UNKNOWN :SERVICE COMPANY
DATE        .                                             UNKNOWN :LOG DATE
UWI         .                                               3028D :UNIQUE WELL ID
XCOORD      .                                       595289.450000 :SURFACE X
YCOORD      .                                      2149890.790000 :SURFACE Y
LAT         .                                           19.442298 :LATITUDE
LON         .                                          -92.092254 :LONGITUDE
ELEV        .M                                             0.0000 :SURFACE ELEV
ELEV_TYPE   .                                                  KB :ELEV TYPE
~CURVE INFORMATION
#MNEMONIC.UNIT        API CODE       : CURVE DESCRIPTION
#------------------------------------------------------------------------------
DEPTH    .M                          : Measured Depth
CALI     .inches      UNKNOWN        : CALI:litodensidad:r1:0001:v1 
CGR      .API         UNKNOWN        : CGR:radioactividad:r1:0001:v1 
DRHO     .g/cm3       UNKNOWN        : DRHO:litodensidad:r1:0001:v1 
DT       .us/ft       UNKNOWN        : DT:PETROWORKS:rC:NONE:v1 
GR-LWD   .API         UNKNOWN        : GR-LWD:resistivos-LWD:r2:0001:v3 
GR       .API         UNKNOWN        : GR:PETROWORKS:rC:NONE:v1 
LLD-LWD  .ohm.m       UNKNOWN        : LLD-LWD:resistivos-LWD:r2:0001:v4 
LLD      .ohm.m       UNKNOWN        : LLD:resistivos:r1:0001:v1 
LLS-LWD  .ohm.m       UNKNOWN        : LLS-LWD:resistivos-LWD:r2:0001:v4 
LLS      .ohm.m       UNKNOWN        : LLS:resistivos:r1:0001:v1 
MSFL     .ohm.m       UNKNOWN        : MSFL:resistivos:r1:0001:v1 
NPHI     .v/v_decimal UNKNOWN        : NPHI:porosidad:r1:0001:v1 
PEF      .UNKNOWN     UNKNOWN        : PEF:litodensidad:r1:0001:v1 
POTA     .UNKNOWN     UNKNOWN        : POTA:radioactividad:r1:0001:v1 
RHOB     .g/cm3       UNKNOWN        : RHOB:litodensidad:r1:0001:v1 
THOR     .ppm         UNKNOWN        : THOR:radioactividad:r1:0001:v1 
URAN     .ppm         UNKNOWN        : URAN:radioactividad:r1:0001:v1 
~A     DEPTH         CALI          CGR         DRHO           DT       GR-LWD           GR      LLD-LWD          LLD      LLS-LWD          LLS         MSFL         NPHI          PEF         POTA         RHOB         THOR         URAN
# ...
   3178.5388      10.8736       1.9271       0.0035      56.5625      33.4994      31.0090    2000.0000  100000.0000     933.0607    1953.5483     386.2766       0.0704       3.2323       0.0009       2.7297       0.0791       3.6250
   3178.6912       9.4574       1.6134       0.0064      54.7070      31.3194      29.6663    2000.0000  100000.0000     932.4166    2650.5410     300.5639       0.0829       3.2216       0.0009       2.7272       0.0197       3.4820
   3178.8435       8.5444       1.5383       0.0078      53.3195      28.8835      28.0373    2000.0000  100000.0000     881.8745    2542.1538     168.8401       0.0888       3.1885       0.0007       2.7120       0.0775       3.3254
   3178.9961       8.5478       1.4525       0.0102      52.6858      25.3005      26.7616    2000.0000  100000.0000     855.1769    1900.9208     122.2344       0.0832       3.1439       0.0007       2.6893       0.1009       3.2192
   3179.1484       8.4966       1.4083       0.0128      52.2378      26.0748      25.7557    2000.0000  100000.0000     820.8046    2618.6328     160.1025       0.0779       3.1155       0.0006       2.6710       0.0865       3.0840
   3179.3008       8.4641       1.5733       0.0162      51.4487      27.1347      24.3087    2000.0000  100000.0000     805.9590    2920.2134     199.9842       0.0713       3.1173       0.0007       2.6682       0.1241       2.8635
   3179.4531       8.4454       1.4299       0.0153      50.6461      23.3606      22.9396    2000.0000  100000.0000     776.7809    2315.5923     255.1298       0.0658       3.1172       0.0005       2.6797       0.1496       2.7465
   3179.6057       8.4185       1.0481       0.0111      50.3952      25.0290      21.5857    2000.0000  100000.0000     727.6023    2508.8389     317.9014       0.0637       3.1174       0.0003       2.7121       0.1654       2.6555
   3179.7581       8.4197       1.2452       0.0062      50.3435      27.8684      20.9878    2000.0000  100000.0000     707.3703    3488.1304     805.4774       0.0624       3.1283       0.0004       2.7534       0.1793       2.5341
   3179.9104       8.4441       1.5857       0.0011      51.3365      27.6451      20.0838    2000.0000  100000.0000     668.9446    3448.9836     844.8890       0.0582       3.1527       0.0005       2.7779       0.2075       2.3634
   3180.0627       8.4232       1.5843      -0.0022      51.7052      30.8324      18.9225    2000.0000  100000.0000     660.1813    2302.4321     517.6195       0.0573       3.1732       0.0005       2.7792       0.2197       2.2176
   3180.2151       8.1381       1.7879      -0.0033      51.6239      26.6080      18.8914    2000.0000  100000.0000     666.5419    1720.3502     516.5501       0.0633       3.1721       0.0006       2.7733       0.2422       2.1762
   3180.3677       8.0205       2.0784      -0.0014      52.1152      23.5781      20.7433    2000.0000  100000.0000    1529.7736    2174.9421     774.0425       0.0658       3.1606       0.0006       2.7738       0.3048       2.3695
   3180.5200       8.1097       2.1418       0.0017      51.9536      26.7209      22.5396    2000.0000  100000.0000    2000.0000    5859.0298    3145.8071       0.0614       3.1426       0.0006       2.7675       0.3376       2.5468
   3180.6724       8.1059       2.0611       0.0105      51.3828      28.2452      22.5131    2000.0000  100000.0000    2000.0000    9875.7158    4473.8086       0.0611       3.1246       0.0005       2.7489       0.3292       2.4992
   3180.8247       8.1737       2.4021       0.0237      51.4021      29.1825      21.6177    2000.0000  100000.0000    2000.0000    9375.1445    3173.2463       0.0689       3.1053       0.0007       2.7252       0.3706       2.3397
   3180.9773       8.2340       2.5841       0.0320      51.8227      29.3515      21.5834    2000.0000  100000.0000    2000.0000   11809.2666    2303.7554       0.0783       3.0885       0.0007       2.7143       0.3984       2.3182
   3181.1296       8.2140       3.0615       0.0266      52.0045      31.8404      22.4076    2000.0000  100000.0000    2000.0000   17185.8262    2556.1475       0.0795       3.0921       0.0010       2.7185       0.3988       2.3593
   3181.2820       8.1764       3.9610       0.0125      52.3713      36.3546      23.2506    2000.0000  100000.0000    2000.0000   26645.1699    3513.4783       0.0721       3.1196       0.0015       2.7335       0.3928       2.3658
   3181.4343       8.1644       4.1790       0.0022      52.9349      37.5012      24.4707    2000.0000  100000.0000    2000.0000   43848.1953    4497.7290       0.0646       3.1476       0.0016       2.7479       0.3906       2.5224
   3181.5869       8.1840       4.1003      -0.0018      52.8156      32.9934      25.5639    2000.0000   69506.5781    2000.0000   43748.5273    3126.4072       0.0613       3.1768       0.0016       2.7472       0.4035       2.7027
   3181.7393       8.1687       4.7812      -0.0016      52.2153      27.0206      28.8198    2000.0000   21945.8945    2000.0000   18037.5879    1115.9253       0.0691       3.1951       0.0018       2.7395       0.5083       3.0734
   3181.8916       8.1184       5.7575      -0.0024      52.0650      27.9382      32.2870    2000.0000    3774.8303    2000.0000    3564.3796     606.3668       0.0834       3.1876       0.0021       2.7304       0.6169       3.4344
   3182.0439       8.1114       6.0312      -0.0042      53.0146      35.8637      32.9544    2000.0000   33316.3203    2000.0000   29712.4863     999.0920       0.0918       3.1557       0.0022       2.7139       0.6259       3.4997
   3182.1963       8.0910       5.1056      -0.0053      53.7076      38.8584      29.0266    2000.0000   80767.3750    2000.0000   77968.2891    1237.1318       0.0873       3.1088       0.0020       2.6923       0.4805       3.1244
   3182.3489       8.0465       4.1177      -0.0042      53.7212      37.1585      24.2183    2000.0000  100000.0000    2000.0000  100000.0000    1171.8812       0.0760       3.0704       0.0017       2.6810       0.3328       2.6415
   3182.5012       8.0286       3.8056      -0.0020      53.5233      34.9107      23.9099    2000.0000  100000.0000    2000.0000  100000.0000    1525.0046       0.0711       3.0536       0.0017       2.6857       0.2457       2.6193
   3182.6536       8.1403       4.7512      -0.0015      53.5585      36.9133      26.6988    2000.0000  100000.0000    2000.0000  100000.0000    2543.7241       0.0744       3.0472       0.0020       2.6905       0.3628       2.8430
   3182.8059       8.2284       5.7315      -0.0021      53.7875      40.3236      29.3745    2000.0000  100000.0000    2000.0000  100000.0000    2600.6873       0.0784       3.0398       0.0021       2.6889       0.5792       3.0505
   3182.9585       8.2122       5.3327      -0.0021      53.9143      38.5841      29.3291    2000.0000  100000.0000    2000.0000  100000.0000    2174.0586       0.0806       3.0381       0.0018       2.6957       0.6341       3.0706
   3183.1108       8.2105       5.0225      -0.0020      54.4930      31.4020      28.3187    2000.0000  100000.0000    2000.0000  100000.0000    3348.6919       0.0806       3.0617       0.0017       2.7109       0.6142       2.9351
   3183.2632       8.2089       5.3035      -0.0020      54.8263      32.6970      30.1346    2000.0000  100000.0000    2000.0000  100000.0000    3727.2629       0.0817       3.0755       0.0018       2.7231       0.6657       3.1007
   3183.4155       8.2063       5.2006      -0.0023      54.8656      36.5524      32.3057    2000.0000  100000.0000    2000.0000  100000.0000    2411.9312       0.0809       3.0539       0.0017       2.7243       0.6600       3.3775
   3183.5681       8.3036       4.6412      -0.0028      54.9928      42.7788      32.2022    2000.0000  100000.0000    2000.0000  100000.0000    1652.2402       0.0764       3.0345       0.0015       2.7171       0.5811       3.4038
   3183.7205       8.4385       4.1989      -0.0043      55.0676      37.2531      29.6241    2000.0000  100000.0000    2000.0000  100000.0000    1904.6877       0.0734       3.0758       0.0013       2.7073       0.5349       3.1319
