#------------------------------------------------------------------------------
#
#   Created by  : [OpenWorks] Log Export Utility (LEXP)
#   Created on  : 2016-05-13 12:15:22
#   Project     : CANT971
#   User        : R5K
#   Interpreter : PEP
#
#------------------------------------------------------------------------------
~VERSION INFORMATION
VERS. 2.0 : CWLS Log ASCII Standard - version 2.0
WRAP.  NO : One line per depth step
~WELL INFORMATION
#MNEMONIC   .UNIT                                           VALUE :DESCRIPTION
#------------------------------------------------------------------------------
STRT        .M                                          1978.3888 :START DEPTH
STOP        .M                                          3448.5916 :STOP DEPTH
STEP        .M                                             0.1524 :STEP
NULL        .                                           -999.2500 :NULL VALUE
COMP        .                                             UNKNOWN :COMPANY
WELL        .                                               3028D :WELL
FLD         .                                             UNKNOWN :FIELD
LOC         .                                             UNKNOWN :LOCATION
CNTY        .                                             UNKNOWN :COUNTY
STAT        .                                             UNKNOWN :STATE
CTRY        .                                             UNKNOWN :COUNTRY
SRVC        .                                             UNKNOWN :SERVICE COMPANY
DATE        .                                             UNKNOWN :LOG DATE
UWI         .                                               3028D :UNIQUE WELL ID
XCOORD      .                                       595289.450000 :SURFACE X
YCOORD      .                                      2149890.790000 :SURFACE Y
LAT         .                                           19.442298 :LATITUDE
LON         .                                          -92.092254 :LONGITUDE
ELEV        .M                                             0.0000 :SURFACE ELEV
ELEV_TYPE   .                                                  KB :ELEV TYPE
~CURVE INFORMATION
#MNEMONIC.UNIT        API CODE       : CURVE DESCRIPTION
#------------------------------------------------------------------------------
DEPTH    .M                          : Measured Depth
CALI     .inches      UNKNOWN        : CALI:litodensidad:r1:0001:v1 
CGR      .API         UNKNOWN        : CGR:radioactividad:r1:0001:v1 
DRHO     .g/cm3       UNKNOWN        : DRHO:litodensidad:r1:0001:v1 
DT       .us/ft       UNKNOWN        : DT:PETROWORKS:rC:NONE:v1 
GR-LWD   .API         UNKNOWN        : GR-LWD:resistivos-LWD:r2:0001:v3 
GR       .API         UNKNOWN        : GR:PETROWORKS:rC:NONE:v1 
LLD-LWD  .ohm.m       UNKNOWN        : LLD-LWD:resistivos-LWD:r2:0001:v4 
LLD      .ohm.m       UNKNOWN        : LLD:resistivos:r1:0001:v1 
LLS-LWD  .ohm.m       UNKNOWN        : LLS-LWD:resistivos-LWD:r2:0001:v4 
LLS      .ohm.m       UNKNOWN        : LLS:resistivos:r1:0001:v1 
MSFL     .ohm.m       UNKNOWN        : MSFL:resistivos:r1:0001:v1 
NPHI     .v/v_decimal UNKNOWN        : NPHI:porosidad:r1:0001:v1 
PEF      .UNKNOWN     UNKNOWN        : PEF:litodensidad:r1:0001:v1 
POTA     .UNKNOWN     UNKNOWN        : POTA:radioactividad:r1:0001:v1 
RHOB     .g/cm3       UNKNOWN        : RHOB:litodensidad:r1:0001:v1 
THOR     .ppm         UNKNOWN        : THOR:radioactividad:r1:0001:v1 
URAN     .ppm         UNKNOWN        : URAN:radioactividad:r1:0001:v1 
~A     DEPTH         CALI          CGR         DRHO           DT       GR-LWD           GR      LLD-LWD          LLD      LLS-LWD          LLS         MSFL         NPHI          PEF         POTA         RHOB         THOR         URAN
# ...
   2943.8428       8.5325       7.2981       0.0140      77.1251      72.6819      67.6220     139.0598      50.1770      14.0235      47.2285       7.1850       0.1747       3.1067       0.0014       2.6523       1.5573       7.7320
   2943.9951       8.5453       5.7708       0.0158      81.6401      55.1391      66.2840     200.0339     147.5481      19.9932     141.0089      13.9752       0.1437       3.1225       0.0007       2.6433       1.4448       7.8293
   2944.1477       8.5598       3.9610       0.0202      93.8347      47.9779      54.6674     132.8894     441.2037      28.8312     435.6736      45.5518       0.1069       3.1567       0.0003       2.6409       1.0961       6.5568
   2944.3000       8.5249       2.5659       0.0259     102.5106      39.6719      41.3704      95.7755     873.4086      30.8578     809.1084     191.0786       0.0824       3.2055       0.0002       2.6732       0.7051       4.9710
   2944.4524       9.1290       1.7075       0.0247      97.7592      38.3154      36.4092     116.0063    1099.8896      29.5152     962.7429     385.9805       0.0644       3.2296       0.0000       2.7263       0.5361       4.4216
   2944.6047      11.7545       1.5095       0.0130      92.6693      38.0880      39.3110     158.7632     844.3760      29.8519     671.3140     508.5286       0.0400       3.2162      -0.0000       2.7645       0.5177       4.8035
   2944.7571      14.7935       0.7558      -0.0008      90.9800      35.7292      43.1732     168.3132     481.8240      63.5280     310.6046     707.3450       0.0224       3.2018      -0.0003       2.7707       0.4405       5.3369
   2944.9097      16.9198       0.2300      -0.0049      90.1432      32.1245      43.8952     132.0891     366.3628     101.1640     192.1815     857.0612       0.0167       3.1969      -0.0005       2.7686       0.3912       5.4658
   2945.0620      17.8057       0.0615      -0.0033      81.1921      29.6910      39.7851     121.1352     496.4554     114.0745     241.3794     930.6784       0.0128       3.1830      -0.0006       2.7696       0.3688       5.0015
   2945.2144      12.9624       0.1707      -0.0027      72.3062      30.4016      34.5399     112.8981    1104.0980     131.1019     520.9094     760.3978       0.0257       3.1709      -0.0005       2.7619       0.3336       4.3262
   2945.3667       8.9749       0.1726      -0.0030      69.1211      36.6351      32.2659     123.9541    1055.2657     166.2366     506.8170     503.6523       0.0367       3.1859      -0.0003       2.7417       0.2501       4.0343
   2945.5193       8.8486       0.4105      -0.0042      64.6333      41.5765      33.2704     139.1679     649.1392     220.0709     325.2574     374.1799       0.0424       3.2059      -0.0002       2.7219       0.2399       4.1264
   2945.6716       8.7427       0.6403      -0.0022      66.5679      38.4827      34.5445     154.7179    1120.0367     264.2294     531.2004     432.4023       0.0500       3.2303      -0.0001       2.7064       0.2650       4.2969
   2945.8240       8.8678       0.6764       0.0007      69.9056      39.8775      33.7123     168.9224    1523.5673     258.8730     741.3778     522.8320       0.0475       3.2534      -0.0002       2.6939       0.3199       4.2243
   2945.9763       8.8947       0.6977       0.0018      69.5726      42.9908      33.6884     176.7862    1316.9191     245.3537     689.7572     728.3936       0.0437       3.2557      -0.0003       2.6871       0.3932       4.2514
   2946.1289       8.9796       0.5741       0.0006      73.2501      42.2197      34.6973     182.8624     971.0661     242.4684     535.6422     692.4862       0.0442       3.2206      -0.0003       2.6888       0.3876       4.4402
   2946.2812       8.9377       0.0789      -0.0020      76.2034      38.1916      35.5534     187.3152     750.1213     238.3264     429.7047     541.2278       0.0489       3.1846      -0.0005       2.6888       0.3210       4.6161
   2946.4336       8.8108      -0.2005      -0.0019      71.1876      37.7195      35.1516     188.8737     677.2581     216.4653     409.5735     461.8552       0.0521       3.1786      -0.0005       2.6801       0.2662       4.6365
   2946.5859       8.8245      -0.1941       0.0000      66.5465      39.2951      34.8104     192.3652     747.9964     184.4588     465.2583     471.1601       0.0482       3.1780      -0.0006       2.6644       0.2824       4.6386
   2946.7383       8.7264       0.7606       0.0035      65.3174      38.4754      34.9739     217.7627     686.4628     200.9296     436.9090     346.7882       0.0497       3.1726      -0.0003       2.6537       0.4170       4.5120
   2946.8909       8.5966       1.7152       0.0055      64.8288      37.1810      35.1100     237.4566     490.9795     221.5707     329.5551     197.1241       0.0590       3.1670      -0.0001       2.6457       0.5849       4.3769
   2947.0432       8.5726       1.9125       0.0039      63.3965      36.8125      35.2787     248.1784     360.0947     220.2221     267.7917     194.0992       0.0723       3.1612      -0.0000       2.6374       0.6518       4.3523
   2947.1956       8.5649       2.0070      -0.0010      61.5880      39.2044      34.8973     245.6542     373.4128     209.3747     315.8750     344.0543       0.0783       3.1599       0.0001       2.6230       0.6309       4.2684
   2947.3479       8.5884       2.3644      -0.0063      60.4641      42.5809      35.3364     250.8938     448.6428     233.4551     405.0852     410.0220       0.0737       3.1775       0.0002       2.6053       0.6307       4.2091
   2947.5005       8.6486       2.7753      -0.0072      58.7159      43.8809      35.9970     241.9652     404.0116     249.1776     374.5598     280.6486       0.0670       3.1836       0.0005       2.6101       0.6060       4.2040
   2947.6528       8.6282       3.0467      -0.0045      59.0413      41.2649      37.7789     234.9085     337.6935     245.0999     313.3677     181.2323       0.0648       3.1538       0.0007       2.6426       0.5877       4.3893
   2947.8052       8.6068       3.4949      -0.0021      58.2733      37.3777      39.1332     235.5599     352.2657     229.5289     322.8404     163.1304       0.0644       3.1208       0.0009       2.6802       0.5989       4.4813
   2947.9575       8.6192       4.0411       0.0016      54.9724      37.9936      38.5515     236.1774     415.1313     222.7352     371.0006     189.3689       0.0610       3.1217       0.0010       2.7039       0.6935       4.3379
   2948.1101       8.5846       3.9679       0.0139      72.8527      39.4500      35.7309     235.5469     464.4288     210.9758     404.7416     282.7020       0.0568       3.1714       0.0009       2.7190       0.7358       3.9873
   2948.2625       8.5470       3.8175       0.0323      89.1230      40.3286      32.7540     251.7314     534.4593     236.7465     457.9013     301.2369       0.0523       3.2398       0.0010       2.7315       0.6641       3.6058
   2948.4148       8.5210       3.1801       0.0425      91.8577      40.4572      32.0558     260.4810     512.6181     253.8155     435.9504     231.5935       0.0494       3.2815       0.0009       2.7344       0.4824       3.6063
   2948.5671       8.5312       2.3959       0.0333      93.4560      40.3648      34.3779     247.5567     392.5801     234.2996     331.1269     174.0363       0.0492       3.2771       0.0008       2.7170       0.3140       4.0143
   2948.7195       8.5624       2.2753       0.0147      93.2804      39.6515      37.2741     229.1144     384.8956     201.1822     315.8104     166.5361       0.0533       3.2280       0.0008       2.6966       0.2724       4.3917
   2948.8721       8.5539       2.3675       0.0016      84.5887      39.4316      38.6223     239.0469     485.6596     196.7431     388.5959     217.8759       0.0582       3.1776       0.0009       2.6834       0.2481       4.4997
   2949.0244       8.5615       2.2562      -0.0037      74.4851      38.5829      37.3099     254.8423     684.7424     230.1591     537.7286     354.3251       0.0608       3.1689       0.0008       2.6720       0.2310       4.3243
