#------------------------------------------------------------------------------
#
#   Created by  : [OpenWorks] Log Export Utility (LEXP)
#   Created on  : 2016-05-13 12:15:22
#   Project     : CANT971
#   User        : R5K
#   Interpreter : PEP
#
#------------------------------------------------------------------------------
~VERSION INFORMATION
VERS. 2.0 : CWLS Log ASCII Standard - version 2.0
WRAP.  NO : One line per depth step
~WELL INFORMATION
#MNEMONIC   .UNIT                                           VALUE :DESCRIPTION
#------------------------------------------------------------------------------
STRT        .M                                          1978.3888 :START DEPTH
STOP        .M                                          3448.5916 :STOP DEPTH
STEP        .M                                             0.1524 :STEP
NULL        .                                           -999.2500 :NULL VALUE
COMP        .                                             UNKNOWN :COMPANY
WELL        .                                               3028D :WELL
FLD         .                                             UNKNOWN :FIELD
LOC         .                                             UNKNOWN :LOCATION
CNTY        .                                             UNKNOWN :COUNTY
STAT        .                                             UNKNOWN :STATE
CTRY        .                                             UNKNOWN :COUNTRY
SRVC        .                                             UNKNOWN :SERVICE COMPANY
DATE        .                                             UNKNOWN :LOG DATE
UWI         .                                               3028D :UNIQUE WELL ID
XCOORD      .                                       595289.450000 :SURFACE X
YCOORD      .                                      2149890.790000 :SURFACE Y
LAT         .                                           19.442298 :LATITUDE
LON         .                                          -92.092254 :LONGITUDE
ELEV        .M                                             0.0000 :SURFACE ELEV
ELEV_TYPE   .                                                  KB :ELEV TYPE
~CURVE INFORMATION
#MNEMONIC.UNIT        API CODE       : CURVE DESCRIPTION
#------------------------------------------------------------------------------
DEPTH    .M                          : Measured Depth
CALI     .inches      UNKNOWN        : CALI:litodensidad:r1:0001:v1 
CGR      .API         UNKNOWN        : CGR:radioactividad:r1:0001:v1 
DRHO     .g/cm3       UNKNOWN        : DRHO:litodensidad:r1:0001:v1 
DT       .us/ft       UNKNOWN        : DT:PETROWORKS:rC:NONE:v1 
GR-LWD   .API         UNKNOWN        : GR-LWD:resistivos-LWD:r2:0001:v3 
GR       .API         UNKNOWN        : GR:PETROWORKS:rC:NONE:v1 
LLD-LWD  .ohm.m       UNKNOWN        : LLD-LWD:resistivos-LWD:r2:0001:v4 
LLD      .ohm.m       UNKNOWN        : LLD:resistivos:r1:0001:v1 
LLS-LWD  .ohm.m       UNKNOWN        : LLS-LWD:resistivos-LWD:r2:0001:v4 
LLS      .ohm.m       UNKNOWN        : LLS:resistivos:r1:0001:v1 
MSFL     .ohm.m       UNKNOWN        : MSFL:resistivos:r1:0001:v1 
NPHI     .v/v_decimal UNKNOWN        : NPHI:porosidad:r1:0001:v1 
PEF      .UNKNOWN     UNKNOWN        : PEF:litodensidad:r1:0001:v1 
POTA     .UNKNOWN     UNKNOWN        : POTA:radioactividad:r1:0001:v1 
RHOB     .g/cm3       UNKNOWN        : RHOB:litodensidad:r1:0001:v1 
THOR     .ppm         UNKNOWN        : THOR:radioactividad:r1:0001:v1 
URAN     .ppm         UNKNOWN        : URAN:radioactividad:r1:0001:v1 
~A     DEPTH         CALI          CGR         DRHO           DT       GR-LWD           GR      LLD-LWD          LLD      LLS-LWD          LLS         MSFL         NPHI          PEF         POTA         RHOB         THOR         URAN
# ...
   3023.8528       8.4377      16.0784      -0.0035      55.8059      53.6731      51.4208      66.0588      94.1047      54.5812     101.0884      67.9479       0.0553       4.6340       0.0078       2.6323       0.5910       4.6261
   3024.0051       8.4415      14.3006      -0.0001      55.3024      52.2103      48.5365      66.0588     134.0742      52.6771     143.1164     106.6031       0.0511       4.6580       0.0070       2.6463       0.4479       4.4531
   3024.1577       8.4385      13.0026       0.0033      54.9289      46.5350      45.3640      68.4686     189.1021      52.6771     200.2372     130.6612       0.0444       4.6680       0.0065       2.6592       0.3562       4.1778
   3024.3101       8.4360      11.9012       0.0064      54.5320      42.0662      43.2335      74.9696     238.8107      53.6522     253.3644     187.5292       0.0385       4.6954       0.0060       2.6744       0.3233       4.0621
   3024.4624       8.4326      10.8764       0.0070      54.5309      39.5915      41.0967      81.3971     310.0961      66.9959     331.7117     353.2267       0.0361       4.6827       0.0053       2.6824       0.3826       3.9588
   3024.6147       8.4368      10.1529       0.0053      54.8169      44.8737      39.0331      82.8201     423.7544      71.9942     454.9962     820.8774       0.0346       4.6133       0.0047       2.6802       0.5326       3.8092
   3024.7671       8.4317      10.0689       0.0025      55.0676      43.6246      38.6181      82.8201     437.7101      81.3470     473.3471     869.0286       0.0349       4.5297       0.0045       2.6708       0.6089       3.7716
   3024.9197       8.4249      10.4056       0.0007      55.3592      45.8573      40.5579      83.4913     287.1021      90.6551     312.7933     464.3831       0.0366       4.4972       0.0045       2.6665       0.6916       3.9160
   3025.0720       8.4334      11.1904       0.0002      55.5011      50.0325      44.1575      87.4635     176.9341      95.6322     192.6505     230.5400       0.0380       4.4933       0.0047       2.6712       0.8027       4.2290
   3025.2244       8.4317      13.1923       0.0005      55.4006      50.6971      47.4146      89.2804     148.1447      95.6322     161.9430     182.3282       0.0391       4.4600       0.0053       2.6790       1.0926       4.4308
   3025.3767       8.4292      13.9766       0.0023      55.1511      49.1004      46.5196      90.2246     142.6566      95.6322     157.5012     218.6682       0.0385       4.4161       0.0054       2.6903       1.2738       4.2169
   3025.5293       8.4368      13.6544       0.0041      54.8443      52.5259      43.7472      90.2246     143.5070      94.3877     159.6124     214.1063       0.0364       4.3792       0.0053       2.6943       1.2516       3.9025
   3025.6816       8.4402      14.3092       0.0066      54.8452      54.9561      43.7283      90.2246     131.5561      91.2165     147.5617     158.4306       0.0338       4.3348       0.0056       2.6825       1.2854       3.7906
   3025.8340       8.4573      15.8191       0.0140      54.6597      54.2935      46.4480      90.2246     127.9697      91.2165     144.5103     107.8462       0.0332       4.2619       0.0063       2.6597       1.3733       3.9368
   3025.9863       8.4667      17.0834       0.0230      54.1569      50.6277      48.4798      90.2246     129.8378      93.2822     147.1418      89.0173       0.0358       4.2007       0.0069       2.6412       1.4609       4.0158
   3026.1387       8.4846      17.3325       0.0263      53.6767      50.1713      48.1618      90.2246     132.7099      98.7409     150.5801     101.0435       0.0399       4.2167       0.0071       2.6404       1.4160       3.8873
   3026.2913       8.4879      17.3829       0.0205      53.3305      52.9225      46.8415      90.2246     167.0207     105.5806     190.3947     138.2019       0.0414       4.3124       0.0072       2.6518       1.3361       3.6680
   3026.4436       8.4779      17.1720       0.0121      53.2484      53.1815      45.2988      90.2246     219.6526     114.0856     253.0086     249.6853       0.0380       4.4639       0.0072       2.6621       1.2783       3.4719
   3026.5959       8.5085      17.5498       0.0076      53.4748      48.9590      43.5898      90.2246     311.4518     119.7882     368.3070     403.5024       0.0302       4.6305       0.0074       2.6653       1.2627       3.2385
   3026.7483       8.5432      18.9781       0.0088      53.8482      38.9394      42.1060      90.2246     511.1343     120.1693     599.7980     413.4287       0.0233       4.7074       0.0080       2.6699       1.3748       2.9207
   3026.9009       8.5623      19.8129       0.0142      55.6329      44.7202      42.7903      90.2246     475.1985     120.1693     547.5822     314.8151       0.0211       4.6222       0.0084       2.6795       1.4099       2.9234
   3027.0532       8.7030      22.4517       0.0306      57.4265      57.6807      49.7104      90.2246     269.5891      95.8394     304.2403     202.7822       0.0231       4.4212       0.0096       2.6810       1.5875       3.4786
   3027.2056       8.6344      27.9645       0.0641      57.8696      93.9194      63.4147      90.0757     151.5083      87.1715     168.5969     123.6925       0.0312       4.2261       0.0118       2.6558       2.0584       4.5212
   3027.3579       8.5196      33.5016       0.1063      58.4618      93.0673      77.9398      80.3334      83.1561      81.4553      91.8857      57.1454       0.0480       4.1031       0.0141       2.6210       2.4785       5.7518
   3027.5105       8.6851      38.7944       0.1308      59.4663      83.2141      88.1868      68.0630      36.4291      72.6578      40.2403      17.3023       0.0697       4.0227       0.0162       2.6110       2.9441       6.4532
   3027.6628       8.7376      40.8162       0.1192      59.3720      78.2685      89.2961      55.1005      22.3317      60.2157      25.2183      17.3643       0.0853       3.9686       0.0171       2.6337       3.0595       6.3303
   3027.8152       8.5839      40.2226       0.0835      58.1090      75.7023      84.0901      45.9308      95.3911      52.6771     111.8762      57.6094       0.0814       3.9594       0.0167       2.6598       3.1136       5.7343
   3027.9675       8.5017      38.7663       0.0507      59.0484      76.8163      78.5990      34.3546     107.8979      52.6771     127.0520      91.2418       0.0621       3.9897       0.0160       2.6625       3.0861       5.2218
   3028.1199       8.4974      40.1115       0.0338      61.9415      85.7938      78.7813      33.1027      69.8575      50.0221      82.6577      66.8677       0.0494       3.9947       0.0165       2.6487       3.1485       5.1117
   3028.2725       8.4812      43.4780       0.0309      63.2194      93.6086      84.2715      33.1027      63.0448      36.4719      74.6636      34.3198       0.0542       3.9196       0.0180       2.6354       3.3547       5.4373
   3028.4248       8.4795      45.5303       0.0354      63.7168      92.2778      89.5455      30.4313      40.9318      35.5827      48.2336      20.3769       0.0691       3.7756       0.0187       2.6196       3.6611       5.8863
   3028.5771       8.5162      47.1541       0.0476      63.4804      91.3815      93.4599      25.8846      21.3362      35.4684      24.8534      15.6955       0.0883       3.6364       0.0190       2.6082       3.9903       6.1848
   3028.7295       8.5103      48.2939       0.0579      62.3258      82.2809      95.7202      24.8103      15.7847      25.7845      17.9560      13.2017       0.1110       3.5582       0.0195       2.6100       4.0183       6.3155
   3028.8821       8.5077      47.8158       0.0599      60.4243      76.9705      93.4708      24.6146      14.2075      20.1352      15.7793      13.1678       0.1237       3.5679       0.0194       2.6333       3.9339       6.0300
   3029.0344       8.4886      43.8030       0.0502      56.7895      73.1824      85.4623      24.1856      27.8718      16.0085      30.8863      16.0316       0.1185       3.6728       0.0176       2.6628       3.7297       5.4365
