#------------------------------------------------------------------------------
#
#   Created by  : [OpenWorks] Log Export Utility (LEXP)
#   Created on  : 2016-05-13 12:15:22
#   Project     : CANT971
#   User        : R5K
#   Interpreter : PEP
#
#------------------------------------------------------------------------------
~VERSION INFORMATION
VERS. 2.0 : CWLS Log ASCII Standard - version 2.0
WRAP.  NO : One line per depth step
~WELL INFORMATION
#MNEMONIC   .UNIT                                           VALUE :DESCRIPTION
#------------------------------------------------------------------------------
STRT        .M                                          1978.3888 :START DEPTH
STOP        .M                                          3448.5916 :STOP DEPTH
STEP        .M                                             0.1524 :STEP
NULL        .                                           -999.2500 :NULL VALUE
COMP        .                                             UNKNOWN :COMPANY
WELL        .                                               3028D :WELL
FLD         .                                             UNKNOWN :FIELD
LOC         .                                             UNKNOWN :LOCATION
CNTY        .                                             UNKNOWN :COUNTY
STAT        .                                             UNKNOWN :STATE
CTRY        .                                             UNKNOWN :COUNTRY
SRVC        .                                             UNKNOWN :SERVICE COMPANY
DATE        .                                             UNKNOWN :LOG DATE
UWI         .                                               3028D :UNIQUE WELL ID
XCOORD      .                                       595289.450000 :SURFACE X
YCOORD      .                                      2149890.790000 :SURFACE Y
LAT         .                                           19.442298 :LATITUDE
LON         .                                          -92.092254 :LONGITUDE
ELEV        .M                                             0.0000 :SURFACE ELEV
ELEV_TYPE   .                                                  KB :ELEV TYPE
~CURVE INFORMATION
#MNEMONIC.UNIT        API CODE       : CURVE DESCRIPTION
#------------------------------------------------------------------------------
DEPTH    .M                          : Measured Depth
CALI     .inches      UNKNOWN        : CALI:litodensidad:r1:0001:v1 
CGR      .API         UNKNOWN        : CGR:radioactividad:r1:0001:v1 
DRHO     .g/cm3       UNKNOWN        : DRHO:litodensidad:r1:0001:v1 
DT       .us/ft       UNKNOWN        : DT:PETROWORKS:rC:NONE:v1 
GR-LWD   .API         UNKNOWN        : GR-LWD:resistivos-LWD:r2:0001:v3 
GR       .API         UNKNOWN        : GR:PETROWORKS:rC:NONE:v1 
LLD-LWD  .ohm.m       UNKNOWN        : LLD-LWD:resistivos-LWD:r2:0001:v4 
LLD      .ohm.m       UNKNOWN        : LLD:resistivos:r1:0001:v1 
LLS-LWD  .ohm.m       UNKNOWN        : LLS-LWD:resistivos-LWD:r2:0001:v4 
LLS      .ohm.m       UNKNOWN        : LLS:resistivos:r1:0001:v1 
MSFL     .ohm.m       UNKNOWN        : MSFL:resistivos:r1:0001:v1 
NPHI     .v/v_decimal UNKNOWN        : NPHI:porosidad:r1:0001:v1 
PEF      .UNKNOWN     UNKNOWN        : PEF:litodensidad:r1:0001:v1 
POTA     .UNKNOWN     UNKNOWN        : POTA:radioactividad:r1:0001:v1 
RHOB     .g/cm3       UNKNOWN        : RHOB:litodensidad:r1:0001:v1 
THOR     .ppm         UNKNOWN        : THOR:radioactividad:r1:0001:v1 
URAN     .ppm         UNKNOWN        : URAN:radioactividad:r1:0001:v1 
~A     DEPTH         CALI          CGR         DRHO           DT       GR-LWD           GR      LLD-LWD          LLD      LLS-LWD          LLS         MSFL         NPHI          PEF         POTA         RHOB         THOR         URAN
# ...
   3061.1907       8.7286      25.4034      -0.0052      51.0046      59.7710      52.8205     893.6686     234.4139     309.4868     266.3809      53.9931       0.1386       3.2475       0.0124       2.5901       0.8566       3.3707
   3061.3433       8.6955      26.1499       0.0062      48.1849      54.1001      52.5122     898.8713     358.7937     354.8918     399.7290     338.4489       0.1253       3.2035       0.0128       2.6936       0.8609       3.3032
   3061.4956       8.6616      21.8112       0.0025      47.8761      34.2004      43.7794    1193.8229     672.6172     415.6702     687.3551     631.1066       0.0944       3.2142       0.0108       2.7452       0.6760       2.7600
   3061.6479       8.5778      15.7003      -0.0019      49.5098      27.1427      32.5044    1365.5033    3721.5762     525.6288    3815.7549    1006.2916       0.0668       3.2252       0.0078       2.7648       0.4932       2.1138
   3061.8003       8.5240      11.1901      -0.0040      51.1232      21.3410      23.8042    1365.5033    6742.7627     650.7568    6501.2559    1216.8662       0.0535       3.2315       0.0055       2.7696       0.3578       1.6012
   3061.9529       8.4779       8.3688      -0.0061      51.7344      25.5281      18.2382    1365.5033    5436.9727     669.5262    4837.8530    1069.8691       0.0502       3.2280       0.0040       2.7598       0.3216       1.2497
   3062.1052       8.4412       6.8793      -0.0078      52.3448      29.7831      16.7933    1365.5033    4006.0977    1460.2543    3187.0913     931.7939       0.0526       3.2232       0.0032       2.7415       0.2986       1.2540
   3062.2576       8.4129       5.8192      -0.0081      52.8724      29.2615      17.4664    1376.0646    4345.5273    1800.1472    3138.6887    1052.4773       0.0586       3.2153       0.0028       2.7262       0.2378       1.4808
   3062.4099       8.4138       4.9659      -0.0073      52.7664      24.3004      18.0544    1426.6041    4873.9058    2000.0000    3367.3789    1433.8229       0.0645       3.2026       0.0024       2.7207       0.2021       1.6661
   3062.5625       8.4300       4.9285      -0.0052      52.1572      23.6466      17.9463    2000.0000    4732.1089    1951.6002    3303.2581    1857.9681       0.0675       3.1741       0.0024       2.7288       0.2033       1.6406
   3062.7148       8.4402       5.3443      -0.0036      51.4807      23.3823      18.7869    1996.3867    3840.1470    1873.5836    2719.8647    1429.8145       0.0691       3.1569       0.0026       2.7340       0.2338       1.6978
   3062.8672       8.4317       5.6409      -0.0018      51.0872      23.3108      20.9269    1958.2240    2740.4343    1728.5594    1939.3392     835.2586       0.0690       3.1343       0.0027       2.7330       0.2086       1.9287
   3063.0195       8.4292       5.5722      -0.0001      50.4268      25.1246      21.8214     893.6686    2389.5784    1678.9620    1712.5114     598.6771       0.0688       3.0936       0.0026       2.7264       0.2210       2.0132
   3063.1719       8.4198       5.1312      -0.0004      50.6481      26.8007      20.2349     893.6686    2464.4160    1338.4286    1890.6920     555.1312       0.0666       3.0668       0.0024       2.7126       0.2173       1.8277
   3063.3245       8.3967       4.6096      -0.0036      51.3054      27.4733      17.4927     885.9822    2197.6931     587.6398    1817.2959     627.8308       0.0661       3.1166       0.0023       2.6846       0.1560       1.5500
   3063.4768       8.4035       4.9116      -0.0092      51.6588      22.7620      18.0363     723.5110    1370.9542     510.0349    1200.2198     434.4000       0.0718       3.2440       0.0024       2.6511       0.1621       1.6035
   3063.6292       8.4150       5.9354      -0.0123      52.7733      21.9419      22.4412     662.9264     696.5599     412.0155     627.6486     247.9172       0.0793       3.3297       0.0029       2.6463       0.1725       2.0469
   3063.7815       8.4282       6.5421      -0.0101      53.5053      27.4078      26.8298     662.9264     800.5713     256.0433     703.3955     233.2728       0.0799       3.2964       0.0033       2.6832       0.1684       2.5079
   3063.9341       8.4360       6.8614      -0.0053      53.9252      33.7560      28.3980     662.9264    1250.9866     207.9856    1110.7180     349.0655       0.0720       3.2084       0.0032       2.7299       0.2884       2.6649
   3064.0864       8.4326       7.3577      -0.0011      54.2892      34.9479      29.8021     662.9264    1159.7544     278.9574    1060.7805     342.5941       0.0635       3.1565       0.0034       2.7549       0.3584       2.7991
   3064.2388       8.4283       8.4051       0.0016      54.3140      46.6402      36.5489     662.2904     507.3549     301.0712     479.2221     192.8006       0.0635       3.1648       0.0039       2.7627       0.3988       3.5548
   3064.3911       8.4292       9.2302       0.0039      53.6954      49.5899      43.6160     660.5598     291.5401     301.0712     281.1714     139.1133       0.0648       3.1816       0.0043       2.7705       0.4244       4.3179
   3064.5437       8.4326       8.9206       0.0059      52.1060      34.0315      42.8221     561.1760     779.9890     312.8085     796.7924     202.8340       0.0620       3.1870       0.0042       2.7763       0.4161       4.2278
   3064.6960       8.4603       7.4281       0.0068      50.6950      31.7213      34.4409     485.3109    1130.5098     333.4753    1222.5132     440.0311       0.0544       3.1834       0.0036       2.7731       0.3205       3.3551
   3064.8484       8.4847       6.4142       0.0070      50.2384      32.7127      27.3874     376.8124     934.8399     349.1735    1063.2083     576.9811       0.0474       3.1733       0.0031       2.7652       0.2677       2.6162
   3065.0007       8.4821       7.2810       0.0076      50.6979      35.5465      28.0340     368.9530     615.5547     347.2523     718.9902     502.1298       0.0447       3.1728       0.0033       2.7576       0.4143       2.6048
   3065.1531       8.4872       8.5252       0.0107      51.8999      38.8970      31.6047     367.4748     557.1311     254.9058     649.2349     305.5593       0.0439       3.1960       0.0038       2.7457       0.5173       2.8665
   3065.3057       8.4940       9.8295       0.0224      52.8805      43.8359      34.5467     247.8647     539.3758     235.4162     635.5494     117.3441       0.0450       3.2462       0.0044       2.7455       0.5749       3.0348
   3065.4580       8.4812      11.5998       0.0320      53.1477      51.9208      38.7524     222.6932     345.0592     235.0890     407.5545      53.2527       0.0508       3.2820       0.0051       2.7504       0.6982       3.3611
   3065.6104       8.4710      13.4836       0.0306      53.1036      51.7907      45.4565     229.6385     187.0396     210.3385     210.1045      50.3787       0.0647       3.2694       0.0062       2.7549       0.6925       3.9807
   3065.7627       8.4710      14.7173       0.0188      52.5819      40.6837      49.9356     453.6857     186.3643     207.1638     199.4056     138.1947       0.0778       3.2167       0.0069       2.7472       0.6887       4.3583
   3065.9153       8.5008      13.8866       0.0088      52.0174      30.7226      46.0776     662.9264     307.6098     237.2933     323.0728     429.2787       0.0797       3.1686       0.0064       2.7337       0.7193       3.9556
   3066.0676       8.5035      10.9301       0.0068      51.5209      16.2089      35.1977     662.9264     757.7745     658.2391     781.1405     968.3970       0.0724       3.1515       0.0050       2.7214       0.5970       2.9828
   3066.2200       8.4608       7.4122       0.0089      50.5524      16.1622      23.7692     680.5922    1271.8027     933.2070    1275.1094    1080.7734       0.0654       3.1614       0.0034       2.7116       0.3935       2.0176
   3066.3723       8.4317       4.9099       0.0104      49.8124      17.2685      16.2229     798.1034    1790.3842     933.2070    1707.5514     864.6970       0.0624       3.1572       0.0022       2.7037       0.2851       1.4138
