#------------------------------------------------------------------------------
#
#   Created by  : [OpenWorks] Log Export Utility (LEXP)
#   Created on  : 2016-05-13 12:15:22
#   Project     : CANT971
#   User        : R5K
#   Interpreter : PEP
#
#------------------------------------------------------------------------------
~VERSION INFORMATION
VERS. 2.0 : CWLS Log ASCII Standard - version 2.0
WRAP.  NO : One line per depth step
~WELL INFORMATION
#MNEMONIC   .UNIT                                           VALUE :DESCRIPTION
#------------------------------------------------------------------------------
STRT        .M                                          1978.3888 :START DEPTH
STOP        .M                                          3448.5916 :STOP DEPTH
STEP        .M                                             0.1524 :STEP
NULL        .                                           -999.2500 :NULL VALUE
COMP        .                                             UNKNOWN :COMPANY
WELL        .                                               3028D :WELL
FLD         .                                             UNKNOWN :FIELD
LOC         .                                             UNKNOWN :LOCATION
CNTY        .                                             UNKNOWN :COUNTY
STAT        .                                             UNKNOWN :STATE
CTRY        .                                             UNKNOWN :COUNTRY
SRVC        .                                             UNKNOWN :SERVICE COMPANY
DATE        .                                             UNKNOWN :LOG DATE
UWI         .                                               3028D :UNIQUE WELL ID
XCOORD      .                                       595289.450000 :SURFACE X
YCOORD      .                                      2149890.790000 :SURFACE Y
LAT         .                                           19.442298 :LATITUDE
LON         .                                          -92.092254 :LONGITUDE
ELEV        .M                                             0.0000 :SURFACE ELEV
ELEV_TYPE   .                                                  KB :ELEV TYPE
~CURVE INFORMATION
#MNEMONIC.UNIT        API CODE       : CURVE DESCRIPTION
#------------------------------------------------------------------------------
DEPTH    .M                          : Measured Depth
CALI     .inches      UNKNOWN        : CALI:litodensidad:r1:0001:v1 
CGR      .API         UNKNOWN        : CGR:radioactividad:r1:0001:v1 
DRHO     .g/cm3       UNKNOWN        : DRHO:litodensidad:r1:0001:v1 
DT       .us/ft       UNKNOWN        : DT:PETROWORKS:rC:NONE:v1 
GR-LWD   .API         UNKNOWN        : GR-LWD:resistivos-LWD:r2:0001:v3 
GR       .API         UNKNOWN        : GR:PETROWORKS:rC:NONE:v1 
LLD-LWD  .ohm.m       UNKNOWN        : LLD-LWD:resistivos-LWD:r2:0001:v4 
LLD      .ohm.m       UNKNOWN        : LLD:resistivos:r1:0001:v1 
LLS-LWD  .ohm.m       UNKNOWN        : LLS-LWD:resistivos-LWD:r2:0001:v4 
LLS      .ohm.m       UNKNOWN        : LLS:resistivos:r1:0001:v1 
MSFL     .ohm.m       UNKNOWN        : MSFL:resistivos:r1:0001:v1 
NPHI     .v/v_decimal UNKNOWN        : NPHI:porosidad:r1:0001:v1 
PEF      .UNKNOWN     UNKNOWN        : PEF:litodensidad:r1:0001:v1 
POTA     .UNKNOWN     UNKNOWN        : POTA:radioactividad:r1:0001:v1 
RHOB     .g/cm3       UNKNOWN        : RHOB:litodensidad:r1:0001:v1 
THOR     .ppm         UNKNOWN        : THOR:radioactividad:r1:0001:v1 
URAN     .ppm         UNKNOWN        : URAN:radioactividad:r1:0001:v1 
~A     DEPTH         CALI          CGR         DRHO           DT       GR-LWD           GR      LLD-LWD          LLD      LLS-LWD          LLS         MSFL         NPHI          PEF         POTA         RHOB         THOR         URAN
# ...
   3370.5627       8.8858       4.3650       0.0915      60.5721      15.3694      13.3647    1365.5033    1604.8322     526.7434     561.6490      54.8491       0.1556       3.1330       0.0013       2.4664       0.6252       1.0828
   3370.7151       9.1072       4.1468       0.1040      56.5469      16.8446      12.5789    1343.5880    1698.1426     235.4162     521.7245      48.8265       0.1777       3.1320       0.0013       2.4545       0.5725       0.9870
   3370.8677       8.9894       4.3501       0.1040      50.3998      16.2587      13.0144     909.1642    1971.5854     237.4309     529.7628      51.7905       0.1963       3.1415       0.0014       2.4673       0.6050       0.9970
   3371.0200       8.7531       4.8982       0.0899      52.0934      15.3633      14.0019     663.5928    2290.6934     241.7993     556.6119      71.3299       0.2008       3.1522       0.0016       2.5072       0.6563       1.0393
   3371.1724       8.6879       5.3947       0.0691      54.4565      15.9921      14.6616     788.2717    2820.0825     260.9100     615.2421      99.3520       0.1817       3.1666       0.0018       2.5828       0.6993       1.0481
   3371.3247       8.6734       5.5511       0.0470      54.4692      18.0824      14.9174     875.1269    4574.3042     271.2872     828.2755     143.0711       0.1475       3.1855       0.0019       2.6642       0.7011       1.0618
   3371.4773       8.5607       5.0880       0.0263      55.4714      19.2592      14.2902     893.6686    7463.9092     305.7258    1153.4969     180.3589       0.1156       3.1887       0.0018       2.7102       0.5989       1.0516
   3371.6296       8.5043       4.6223       0.0091      56.2807      19.4569      13.2601    1028.2078    7427.1909     349.1735    1085.7310     186.6482       0.0948       3.1715       0.0015       2.6998       0.6143       0.9780
   3371.7820       8.5334       3.7701       0.0002      57.2915      15.3597      12.2541    1365.5033    5146.5039     349.1735     740.0682     158.2612       0.0894       3.1237       0.0011       2.6529       0.5253       0.9802
   3371.9343       8.5615       3.2882       0.0012      58.5111      16.2941      11.5923    1365.5033    3528.5837     349.1735     501.4006     129.8155       0.0980       3.0779       0.0009       2.6041       0.4769       0.9862
   3372.0869       8.6981       3.2534       0.0112      58.7673      18.1256      11.1855    1365.5033    2761.0664     349.1735     398.5914     143.7904       0.1175       3.0640       0.0008       2.5757       0.5471       0.9446
   3372.2393       8.8450       3.4302       0.0278      58.2208      19.4277      11.4936    1359.1791    2725.0022     322.4059     406.1839     155.9503       0.1304       3.0993       0.0007       2.5907       0.6694       0.9977
   3372.3916       8.8604       4.0468       0.0344      57.3974      19.7171      12.6471     946.6663    3609.8186     305.2605     535.0319     127.8577       0.1299       3.1488       0.0007       2.6323       0.8716       1.0887
   3372.5439       8.6949       4.5337       0.0260      54.4788      18.9877      13.8279     746.2584    4629.9150     335.0369     682.4509     113.6991       0.1163       3.1566       0.0008       2.6830       1.0074       1.1842
   3372.6963       8.5146       3.8460       0.0104      52.4004      18.9705      14.2556    1283.4128    5320.1152     493.7951     799.5745     222.6796       0.0959       3.1442       0.0005       2.7235       0.9162       1.3326
   3372.8489       8.5102       3.0326       0.0006      52.0424      22.4109      14.6056    1720.6089    7789.3740     604.0309    1180.3082     580.4004       0.0796       3.1729       0.0004       2.7354       0.7590       1.4753
   3373.0012       8.5265       3.1466       0.0040      49.6770      25.3309      15.4935    2000.0000    8502.9561     784.9188    1289.4193     686.4334       0.0752       3.2445       0.0005       2.7373       0.7505       1.5819
   3373.1536       8.4582       3.9596       0.0097      48.3498      22.2585      16.9436    2000.0000    6021.7529     775.5331     912.3867     582.7367       0.0817       3.3062       0.0007       2.7367       0.8694       1.6778
   3373.3059       8.4257       4.2510       0.0123      49.3913      20.8333      17.7736    2000.0000    5231.5962     620.9758     730.6073     734.1894       0.0872       3.3172       0.0009       2.7475       0.8660       1.7552
   3373.4585       8.4283       4.4655       0.0091      50.1530      19.8507      18.1300    1635.3029    6084.1631     519.3431     779.5652    1548.2832       0.0826       3.3110       0.0010       2.7603       0.8801       1.7582
   3373.6108       8.4334       4.6520       0.0053      50.4755      19.6602      17.8320    1365.5033    5677.3491     592.9800     740.5508    2115.5056       0.0709       3.3129       0.0011       2.7639       0.8393       1.6840
   3373.7632       8.4530       4.8079       0.0102      50.7031      19.7857      16.7465    1365.5033    4401.8525     660.1813     611.5204    1366.6895       0.0604       3.3082       0.0014       2.7657       0.7151       1.5251
   3373.9155       8.4718       4.7354       0.0187      51.2586      20.0615      15.7904    1365.5033    3738.5061     660.1813     563.7130     525.5093       0.0576       3.2782       0.0017       2.7571       0.5651       1.3986
   3374.0681       8.4957       4.2808       0.0334      51.6529      20.2306      14.8535    1365.5033    3535.1658     660.1813     607.7872     339.0221       0.0611       3.2435       0.0015       2.7395       0.4684       1.3182
   3374.2205       8.4795       3.8237       0.0523      51.6599      20.5349      14.2267    1872.6366    3229.7056     666.4586     636.6837     253.8685       0.0660       3.2325       0.0014       2.7169       0.3933       1.2912
   3374.3728       8.4471       3.9453       0.0670      51.3203      20.7616      13.4223    2000.0000    2549.8948     836.0714     558.1963     142.8179       0.0694       3.2408       0.0014       2.7013       0.4334       1.1689
   3374.5251       8.4445       4.0686       0.0620      50.6870      20.9463      12.3915    2000.0000    3558.2996     933.2070     830.7640     112.3469       0.0682       3.2418       0.0013       2.7030       0.5163       1.0370
   3374.6775       8.4010       4.1169       0.0391      50.9263      21.2424      11.8789    2000.0000    8073.0747     933.2070    2054.1177     185.6670       0.0642       3.2190       0.0012       2.7277       0.5829       0.9769
   3374.8301       8.3720       4.3602       0.0164      50.5809      21.4436      11.3972    2000.0000   11739.2666     928.6567    3183.4070     695.0934       0.0603       3.1951       0.0012       2.7649       0.6906       0.8680
   3374.9824       8.3745       4.6897       0.0050      49.2346      21.6790      11.6102    2000.0000   10990.8418     911.2008    3164.4783    1153.3208       0.0574       3.1800       0.0014       2.7910       0.7183       0.8321
   3375.1348       8.3711       4.4697       0.0026      49.0495      21.9243      11.8589    2000.0000    9198.8867     764.4948    2738.8882    1970.5428       0.0555       3.1741       0.0013       2.7902       0.6518       0.8954
   3375.2871       8.3839       4.3640       0.0028      51.0492      22.1523      12.5379    2000.0000    8402.6523     667.2639    2486.8809    2397.9985       0.0540       3.1698       0.0012       2.7634       0.6972       1.0092
   3375.4397       8.3898       4.3347       0.0117      52.1903      22.4235      13.6099    2000.0000    5834.6865     912.4356    1798.1055    1641.0415       0.0572       3.1733       0.0010       2.7445       0.7811       1.1504
   3375.5920       8.4633       4.5114       0.0230      51.8267      22.4719      15.6335    2000.0000    3093.5696    1442.9121    1056.5696     739.0015       0.0648       3.1760       0.0011       2.7444       0.8151       1.3859
   3375.7444       8.4907       5.0604       0.0246      52.3055      23.1971      17.7829    2000.0000    2539.4551    1906.8400     971.8477     341.2322       0.0716       3.1605       0.0014       2.7531       0.8006       1.6113
