#------------------------------------------------------------------------------
#
#   Created by  : [OpenWorks] Log Export Utility (LEXP)
#   Created on  : 2016-05-13 12:15:22
#   Project     : CANT971
#   User        : R5K
#   Interpreter : PEP
#
#------------------------------------------------------------------------------
~VERSION INFORMATION
VERS. 2.0 : CWLS Log ASCII Standard - version 2.0
WRAP.  NO : One line per depth step
~WELL INFORMATION
#MNEMONIC   .UNIT                                           VALUE :DESCRIPTION
#------------------------------------------------------------------------------
STRT        .M                                          1978.3888 :START DEPTH
STOP        .M                                          3448.5916 :STOP DEPTH
STEP        .M                                             0.1524 :STEP
NULL        .                                           -999.2500 :NULL VALUE
COMP        .                                             UNKNOWN :COMPANY
WELL        .                                               3028D :WELL
FLD         .                                             UNKNOWN :FIELD
LOC         .                                             UNKNOWN :LOCATION
CNTY        .                                             UNKNOWN :COUNTY
STAT        .                                             UNKNOWN :STATE
CTRY        .                                             UNKNOWN :COUNTRY
SRVC        .                                             UNKNOWN :SERVICE COMPANY
DATE        .                                             UNKNOWN :LOG DATE
UWI         .                                               3028D :UNIQUE WELL ID
XCOORD      .                                       595289.450000 :SURFACE X
YCOORD      .                                      2149890.790000 :SURFACE Y
LAT         .                                           19.442298 :LATITUDE
LON         .                                          -92.092254 :LONGITUDE
ELEV        .M                                             0.0000 :SURFACE ELEV
ELEV_TYPE   .                                                  KB :ELEV TYPE
~CURVE INFORMATION
#MNEMONIC.UNIT        API CODE       : CURVE DESCRIPTION
#------------------------------------------------------------------------------
DEPTH    .M                          : Measured Depth
CALI     .inches      UNKNOWN        : CALI:litodensidad:r1:0001:v1 
CGR      .API         UNKNOWN        : CGR:radioactividad:r1:0001:v1 
DRHO     .g/cm3       UNKNOWN        : DRHO:litodensidad:r1:0001:v1 
DT       .us/ft       UNKNOWN        : DT:PETROWORKS:rC:NONE:v1 
GR-LWD   .API         UNKNOWN        : GR-LWD:resistivos-LWD:r2:0001:v3 
GR       .API         UNKNOWN        : GR:PETROWORKS:rC:NONE:v1 
LLD-LWD  .ohm.m       UNKNOWN        : LLD-LWD:resistivos-LWD:r2:0001:v4 
LLD      .ohm.m       UNKNOWN        : LLD:resistivos:r1:0001:v1 
LLS-LWD  .ohm.m       UNKNOWN        : LLS-LWD:resistivos-LWD:r2:0001:v4 
LLS      .ohm.m       UNKNOWN        : LLS:resistivos:r1:0001:v1 
MSFL     .ohm.m       UNKNOWN        : MSFL:resistivos:r1:0001:v1 
NPHI     .v/v_decimal UNKNOWN        : NPHI:porosidad:r1:0001:v1 
PEF      .UNKNOWN     UNKNOWN        : PEF:litodensidad:r1:0001:v1 
POTA     .UNKNOWN     UNKNOWN        : POTA:radioactividad:r1:0001:v1 
RHOB     .g/cm3       UNKNOWN        : RHOB:litodensidad:r1:0001:v1 
THOR     .ppm         UNKNOWN        : THOR:radioactividad:r1:0001:v1 
URAN     .ppm         UNKNOWN        : URAN:radioactividad:r1:0001:v1 
~A     DEPTH         CALI          CGR         DRHO           DT       GR-LWD           GR      LLD-LWD          LLD      LLS-LWD          LLS         MSFL         NPHI          PEF         POTA         RHOB         THOR         URAN
# ...
   2986.5149       8.9211       1.6753       0.0518      57.7251      22.4441      13.7623     201.5800     266.9626     104.6647     140.7892      81.6405       0.0917       3.2473       0.0002       2.6280       0.4254       1.4811
   2986.6672       8.8809       1.7079       0.0237      57.2288      23.9278      14.9511     202.8402     285.9634     110.1112     142.8632     100.2106       0.0881       3.2279       0.0001       2.6309       0.4747       1.6394
   2986.8196       8.8834       2.0384       0.0028      59.7811      25.3766      17.0436     192.5882     307.7424     132.4030     143.4478     124.5424       0.0806       3.2041       0.0002       2.6318       0.5706       1.8573
   2986.9719       8.8553       2.1890       0.0000      62.6660      24.0167      18.6996     175.8571     338.5411     130.6779     148.7147     126.0940       0.0752       3.1739       0.0002       2.6294       0.5834       2.0254
   2987.1245       8.8394       2.4232       0.0185      63.2744      22.0478      18.9646     165.2582     372.6515     126.0606     154.7689     120.4470       0.0711       3.1654       0.0004       2.6092       0.5492       1.9936
   2987.2769       8.8493       2.5948       0.0577      63.3690      18.8117      16.9594     160.9390     381.5023     113.9727     151.0494     100.5595       0.0687       3.2033       0.0004       2.5600       0.5795       1.7091
   2987.4292       8.8945       2.0399       0.1076      64.8219      17.4499      14.3556     161.8087     367.0350     109.3553     141.4686      59.0984       0.0732       3.2691       0.0003       2.5072       0.5021       1.4743
   2987.5815       8.9897       1.6897       0.1422      65.4255      17.2589      12.8986     153.6067     357.1213      98.8098     136.3545      35.7410       0.0858       3.3184       0.0003       2.4944       0.3709       1.3371
   2987.7339       8.9868       1.6000       0.1393      64.2118      17.4704      12.6926     159.4707     386.4400      90.8880     148.8803      37.2263       0.0986       3.3303       0.0005       2.5389       0.2228       1.3139
   2987.8865       8.9731       1.7700       0.0999      62.7562      18.0624      13.7482     173.7316     399.3630      91.5035     156.1757      58.6383       0.1040       3.3213       0.0008       2.5934       0.1352       1.3902
   2988.0388       8.9638       2.1752       0.0545      60.8817      18.2395      15.1516     174.8902     346.7928      86.0977     135.9907      69.8145       0.0980       3.3212       0.0010       2.6176       0.1435       1.5198
   2988.1912       8.7661       2.5631       0.0329      59.6007      18.1105      16.1997     178.6749     286.2510      88.2478     111.5027      68.1723       0.0911       3.3383       0.0011       2.6270       0.1805       1.6243
   2988.3435       8.6511       2.7414       0.0375      58.9409      20.3839      17.2903     184.3294     274.6852      94.2609     106.7857      69.1406       0.0823       3.3556       0.0012       2.6514       0.1886       1.7320
   2988.4961       8.6580       2.7175       0.0400      58.2581      17.9539      18.1383     175.2851     308.0504      96.4901     121.7146      79.6375       0.0729       3.3243       0.0011       2.6800       0.1878       1.8338
   2988.6484       8.6435       2.7771       0.0264      56.1455      17.6571      18.4856     175.0978     353.2087     102.1015     144.6245     102.3340       0.0679       3.2559       0.0011       2.6951       0.2357       1.8638
   2988.8008       8.6401       2.3262       0.0116      56.7243      18.8427      17.5064     162.6714     354.9898     115.1784     152.3721     157.1121       0.0658       3.1829       0.0009       2.7063       0.2460       1.8307
   2988.9531       8.6614       1.3882       0.0202      58.9655      18.6219      16.1197     150.9366     380.0056     108.4021     171.0376     263.5024       0.0628       3.1609       0.0005       2.7137       0.1672       1.8040
   2989.1057       8.6870       1.0740       0.0534      60.0760      17.5082      14.6867     141.9309     483.0867      99.6303     224.2982     240.0235       0.0567       3.1909       0.0004       2.7022       0.1208       1.6843
   2989.2581       8.7322       0.9676       0.0917      59.4732      17.2610      13.3916     146.3132     530.2546     101.1246     251.9959     132.1769       0.0541       3.2313       0.0003       2.6803       0.0922       1.5479
   2989.4104       8.7758       0.7782       0.1073      54.2655      17.6924      12.1377     151.1452     467.7260     102.5543     226.3700      92.0665       0.0589       3.2321       0.0003       2.6632       0.0789       1.4168
   2989.5627       8.8031       0.7524       0.0862      60.8199      17.4414      11.1583     147.2921     350.9151      99.6110     171.5597     111.2059       0.0694       3.1703       0.0002       2.6556       0.0965       1.3144
   2989.7151       8.9192       0.7911       0.0537      78.8952      18.1147      11.7512     163.0840     277.5641     112.4774     137.6670     265.3376       0.0760       3.1121       0.0001       2.6518       0.1486       1.3973
   2989.8677       8.8734       1.1124       0.0337      88.1537      19.1252      15.0819     170.2125     270.4401     119.5988     139.1991     278.0584       0.0803       3.0982       0.0002       2.6506       0.2464       1.7722
   2990.0200       8.7707       2.0159       0.0294      88.9877      24.9189      19.1946     188.0093     255.6186     135.3385     136.8725     173.1883       0.0807       3.1124       0.0003       2.6497       0.4438       2.1624
   2990.1724       8.7281       2.4641       0.0231      89.0849      27.8875      21.0398     206.8274     391.5410     156.7095     204.6557     135.7967       0.0767       3.1106       0.0003       2.6370       0.5645       2.3486
   2990.3247       8.6725       2.0330       0.0102      89.4670      24.6093      18.6357     211.8358     603.3104     187.5770     297.6033     125.7130       0.0755       3.0963       0.0002       2.6201       0.4848       2.1153
   2990.4773       8.6298       1.6254       0.0014      89.4842      18.9709      14.4259     190.8335     615.1162     183.4658     297.1989     139.5953       0.0790       3.1041       0.0003       2.6160       0.3758       1.6421
   2990.6296       8.6136       1.3521      -0.0019      90.4608      15.4463      11.2550     180.7990     557.4566     178.7146     277.2623     163.5314       0.0825       3.1378       0.0003       2.6220       0.2751       1.2629
   2990.7820       8.6383       1.3383      -0.0021      73.1623      13.9013       9.9476     190.7854     571.2776     165.7679     301.0948     189.0720       0.0818       3.1632       0.0004       2.6293       0.2353       1.0684
   2990.9343       8.6853       1.4515      -0.0008      62.3012      14.4906      10.0288     199.8011     592.8439     166.3500     331.0656     190.7391       0.0789       3.1510       0.0003       2.6407       0.2649       1.0472
   2991.0869       8.7050       1.5713       0.0006      69.0457      15.1160      10.8030     210.8841     673.1580     173.9524     393.4648     192.6472       0.0779       3.1187       0.0002       2.6567       0.3397       1.1246
   2991.2393       8.7229       1.6333       0.0014      65.8919      17.1881      12.0060     198.9577     742.9506     163.1101     448.1442     212.8853       0.0750       3.0968       0.0002       2.6692       0.4006       1.2737
   2991.3916       8.7400       1.9552       0.0045      58.6439      19.7799      14.2123     191.4663     621.6317     146.9819     385.7552     198.1705       0.0686       3.1175       0.0004       2.6689       0.4102       1.5000
   2991.5439       8.7528       2.1646       0.0160      56.3849      21.7054      16.2538     188.7629     488.6261     137.8727     314.4854     164.7779       0.0629       3.1646       0.0004       2.6675       0.4567       1.7363
   2991.6963       8.7225       2.2216       0.0225      55.6763      20.3302      16.5618     190.5493     491.2569     141.5868     308.5848     142.3252       0.0639       3.1994       0.0004       2.6594       0.4970       1.7709
