#------------------------------------------------------------------------------
#
#   Created by  : [OpenWorks] Log Export Utility (LEXP)
#   Created on  : 2016-05-13 12:15:22
#   Project     : CANT971
#   User        : R5K
#   Interpreter : PEP
#
#------------------------------------------------------------------------------
~VERSION INFORMATION
VERS. 2.0 : CWLS Log ASCII Standard - version 2.0
WRAP.  NO : One line per depth step
~WELL INFORMATION
#MNEMONIC   .UNIT                                           VALUE :DESCRIPTION
#------------------------------------------------------------------------------
STRT        .M                                          1978.3888 :START DEPTH
STOP        .M                                          3448.5916 :STOP DEPTH
STEP        .M                                             0.1524 :STEP
NULL        .                                           -999.2500 :NULL VALUE
COMP        .                                             UNKNOWN :COMPANY
WELL        .                                               3028D :WELL
FLD         .                                             UNKNOWN :FIELD
LOC         .                                             UNKNOWN :LOCATION
CNTY        .                                             UNKNOWN :COUNTY
STAT        .                                             UNKNOWN :STATE
CTRY        .                                             UNKNOWN :COUNTRY
SRVC        .                                             UNKNOWN :SERVICE COMPANY
DATE        .                                             UNKNOWN :LOG DATE
UWI         .                                               3028D :UNIQUE WELL ID
XCOORD      .                                       595289.450000 :SURFACE X
YCOORD      .                                      2149890.790000 :SURFACE Y
LAT         .                                           19.442298 :LATITUDE
LON         .                                          -92.092254 :LONGITUDE
ELEV        .M                                             0.0000 :SURFACE ELEV
ELEV_TYPE   .                                                  KB :ELEV TYPE
~CURVE INFORMATION
#MNEMONIC.UNIT        API CODE       : CURVE DESCRIPTION
#------------------------------------------------------------------------------
DEPTH    .M                          : Measured Depth
CALI     .inches      UNKNOWN        : CALI:litodensidad:r1:0001:v1 
CGR      .API         UNKNOWN        : CGR:radioactividad:r1:0001:v1 
DRHO     .g/cm3       UNKNOWN        : DRHO:litodensidad:r1:0001:v1 
DT       .us/ft       UNKNOWN        : DT:PETROWORKS:rC:NONE:v1 
GR-LWD   .API         UNKNOWN        : GR-LWD:resistivos-LWD:r2:0001:v3 
GR       .API         UNKNOWN        : GR:PETROWORKS:rC:NONE:v1 
LLD-LWD  .ohm.m       UNKNOWN        : LLD-LWD:resistivos-LWD:r2:0001:v4 
LLD      .ohm.m       UNKNOWN        : LLD:resistivos:r1:0001:v1 
LLS-LWD  .ohm.m       UNKNOWN        : LLS-LWD:resistivos-LWD:r2:0001:v4 
LLS      .ohm.m       UNKNOWN        : LLS:resistivos:r1:0001:v1 
MSFL     .ohm.m       UNKNOWN        : MSFL:resistivos:r1:0001:v1 
NPHI     .v/v_decimal UNKNOWN        : NPHI:porosidad:r1:0001:v1 
PEF      .UNKNOWN     UNKNOWN        : PEF:litodensidad:r1:0001:v1 
POTA     .UNKNOWN     UNKNOWN        : POTA:radioactividad:r1:0001:v1 
RHOB     .g/cm3       UNKNOWN        : RHOB:litodensidad:r1:0001:v1 
THOR     .ppm         UNKNOWN        : THOR:radioactividad:r1:0001:v1 
URAN     .ppm         UNKNOWN        : URAN:radioactividad:r1:0001:v1 
~A     DEPTH         CALI          CGR         DRHO           DT       GR-LWD           GR      LLD-LWD          LLD      LLS-LWD          LLS         MSFL         NPHI          PEF         POTA         RHOB         THOR         URAN
# ...
   3327.8909       8.4172       6.4968       0.0104      57.7347      36.9016      32.3264      68.4104   10488.8037     127.0106   10697.1064     675.9260       0.0865       3.1522       0.0022       2.7539       0.7816       3.2680
   3328.0432       8.4342       6.5337       0.0135      58.1872      36.2454      35.2501      68.8312    4797.8232     210.6385    4924.4097     427.5842       0.0849       3.1885       0.0021       2.7325       0.8832       3.6420
   3328.1956       8.4266       7.6939       0.0112      58.4731      36.9889      48.2161      70.4761    1142.9136     298.3985     966.6248     283.6903       0.1066       3.1876       0.0020       2.7035       1.2610       5.1126
   3328.3479       8.4138       8.0326       0.0047      58.5004      38.2676      57.7071     144.2785    4381.3804     301.0946    2834.3367     320.9556       0.1190       3.1630       0.0019       2.6952       1.4203       6.2278
   3328.5005       8.4129       6.8245       0.0007      55.8994      38.1329      53.6493     172.2376    9944.7773     301.1758    5932.2539    1166.1287       0.1065       3.1470       0.0020       2.7161       1.0222       5.8906
   3328.6528       8.4181       4.9079       0.0009      53.9502      37.6853      40.7876     172.2376    7510.3315     308.4592    4415.6382    1287.4205       0.0814       3.1547       0.0016       2.7393       0.6131       4.5159
   3328.8052       8.4163       4.2880       0.0016      55.1246      38.0166      33.7836     173.8683    3180.7424     310.0700    2067.8906     852.9479       0.0660       3.1696       0.0014       2.7350       0.5676       3.6762
   3328.9575       8.4223       4.5936       0.0046      58.6026      38.6607      34.8632     243.4728    1801.7687     308.3665    1308.6833     507.4868       0.0693       3.1777       0.0013       2.7127       0.6768       3.7883
   3329.1101       8.4667       5.4265       0.0053      63.1582      38.4994      38.4687     252.4022     883.1865     229.9310     750.2349     234.7784       0.0821       3.1711       0.0016       2.6761       0.8236       4.1452
   3329.2625       8.6008       6.9155       0.0017      65.7353      35.6562      42.4078     251.9850     628.6711     177.4396     569.5242     166.4524       0.1045       3.1646       0.0021       2.6288       0.9940       4.4067
   3329.4148       8.7032       8.0783      -0.0040      68.1827      34.5786      48.1316     227.8658     543.8768     156.6287     484.3434     118.0504       0.1263       3.1655       0.0025       2.5697       1.1176       4.9270
   3329.5671       8.5868       8.3043       0.0015      69.7803      35.0069      50.4357     222.6932     630.2495     140.9531     549.7477     101.4485       0.1373       3.1749       0.0025       2.5354       1.1873       5.1912
   3329.7195       8.4761       7.6065       0.0153      70.8091      37.5142      43.3203     224.0239     684.4541     123.2443     596.9393      78.8680       0.1371       3.1900       0.0022       2.5394       1.1654       4.4382
   3329.8721       8.3941       5.2856       0.0270      70.1780      38.7861      30.8960     368.9382     662.8646     120.5976     581.6063      72.8618       0.1337       3.2065       0.0015       2.5752       0.8245       3.1879
   3330.0244       8.3486       3.4829       0.0265      68.3798      38.8160      23.2929     434.0290     612.0746     130.2195     536.8087      67.6427       0.1332       3.2237       0.0010       2.6208       0.5497       2.4622
   3330.1768       8.3497       3.9085       0.0190      67.7198      36.9060      27.6776     434.0290     576.4069     175.4120     489.8246      85.3376       0.1325       3.2419       0.0010       2.6635       0.6729       2.9108
   3330.3291       8.3574       5.2704       0.0140      64.0510      37.6504      36.8817     374.6834    1198.7295     207.1102     974.5552     102.3075       0.1266       3.2517       0.0014       2.6966       0.8940       3.8644
   3330.4817       8.3625       5.3496       0.0108      63.5705      39.3229      43.0031     222.6932    1191.2570     206.7838     997.6823     150.1675       0.1190       3.2186       0.0014       2.7101       0.8935       4.6976
   3330.6340       8.4497       4.9580       0.0113      65.8986      38.1604      41.7070     223.6330     694.6960     188.4638     624.4838     171.3517       0.1084       3.1657       0.0014       2.7163       0.7982       4.6088
   3330.7864       8.6827       4.5537       0.0171      67.6124      37.8114      34.0746     253.7020     618.0180     181.1741     560.0247     197.6496       0.0965       3.1384       0.0013       2.7180       0.6634       3.6892
   3330.9387       8.7751       3.5752       0.0250      69.7571      35.4085      25.9410     320.3756     538.6248     181.2739     483.1790     170.2375       0.0909       3.1643       0.0012       2.7008       0.4593       2.7979
   3331.0913       8.7520       2.9680       0.0250      68.3569      36.5427      20.7091     320.2390     372.7850     213.0231     337.4133      98.6100       0.0990       3.2008       0.0011       2.6597       0.3241       2.1996
   3331.2437       8.6358       3.4682       0.0158      64.4407      38.1359      21.6386     317.0793     344.0582     239.2947     325.5811      80.0255       0.1163       3.2179       0.0015       2.6343       0.2593       2.2197
   3331.3960       8.4292       4.3992       0.0060      58.3561      38.0266      25.9084     302.0655    1293.1256     286.6538    1252.0790     128.9113       0.1248       3.2278       0.0020       2.6561       0.2255       2.5592
   3331.5483       8.4214       6.1647       0.0007      51.4856      38.7516      29.8240     292.4250    2785.8015     301.0712    2686.9858     594.8727       0.1088       3.2556       0.0027       2.7025       0.3898       2.7772
   3331.7007       8.4437       9.0805      -0.0018      48.6457      39.1720      33.1218     282.6717    2757.5159     301.0712    2646.0442     971.4625       0.0846       3.2775       0.0034       2.7373       0.8921       2.8337
   3331.8533       8.3882      11.2676      -0.0027      47.2821      39.3640      33.8980     282.0097    2600.5161     264.2414    2422.1272    1124.0405       0.0708       3.2748       0.0039       2.7554       1.3191       2.6978
   3332.0056       8.3785      11.8318      -0.0014      49.1464      40.8780      32.5896     280.3434    2687.5632     157.0205    2515.5300    1274.5215       0.0660       3.2615       0.0041       2.7680       1.3906       2.4906
   3332.1580       8.3856      11.7948       0.0004      51.9598      38.5692      31.2583     184.7685    1277.3656     156.7656    1231.4595     665.6999       0.0669       3.2544       0.0042       2.7744       1.3386       2.3037
   3332.3103       8.3917      13.2980       0.0019      53.1753      37.3602      33.4436     172.3781     176.0763     147.9375     181.6181     127.5516       0.0713       3.2489       0.0049       2.7690       1.3871       2.3364
   3332.4629       8.3779      15.1650       0.0035      52.6264      38.5011      36.9530     175.8318     208.6717     136.7781     209.9334      79.7164       0.0760       3.2308       0.0057       2.7628       1.4968       2.5245
   3332.6152       8.3591      15.9509       0.0054      51.2142      40.2558      37.1237     282.5514     287.6188     137.4003     289.2228      66.0000       0.0801       3.2224       0.0060       2.7657       1.5850       2.4630
   3332.7676       8.3856      14.6278       0.0060      50.6361      39.9542      32.4778     282.5514     493.4854     169.8119     467.8279      83.9192       0.0784       3.2419       0.0054       2.7795       1.4990       2.1037
   3332.9199       8.4095      12.1355       0.0058      49.8285      38.5404      26.7415     322.6041     994.2699     235.4162     984.6630     449.5886       0.0733       3.2689       0.0044       2.7953       1.3111       1.7513
   3333.0725       8.4009      10.5002       0.0040      49.3325      36.5688      23.2536     407.1975    1313.3739     238.0336    1333.2633     715.9807       0.0652       3.2796       0.0038       2.7965       1.1654       1.5695
