#------------------------------------------------------------------------------
#
#   Created by  : [OpenWorks] Log Export Utility (LEXP)
#   Created on  : 2016-05-13 12:15:22
#   Project     : CANT971
#   User        : R5K
#   Interpreter : PEP
#
#------------------------------------------------------------------------------
~VERSION INFORMATION
VERS. 2.0 : CWLS Log ASCII Standard - version 2.0
WRAP.  NO : One line per depth step
~WELL INFORMATION
#MNEMONIC   .UNIT                                           VALUE :DESCRIPTION
#------------------------------------------------------------------------------
STRT        .M                                          1978.3888 :START DEPTH
STOP        .M                                          3448.5916 :STOP DEPTH
STEP        .M                                             0.1524 :STEP
NULL        .                                           -999.2500 :NULL VALUE
COMP        .                                             UNKNOWN :COMPANY
WELL        .                                               3028D :WELL
FLD         .                                             UNKNOWN :FIELD
LOC         .                                             UNKNOWN :LOCATION
CNTY        .                                             UNKNOWN :COUNTY
STAT        .                                             UNKNOWN :STATE
CTRY        .                                             UNKNOWN :COUNTRY
SRVC        .                                             UNKNOWN :SERVICE COMPANY
DATE        .                                             UNKNOWN :LOG DATE
UWI         .                                               3028D :UNIQUE WELL ID
XCOORD      .                                       595289.450000 :SURFACE X
YCOORD      .                                      2149890.790000 :SURFACE Y
LAT         .                                           19.442298 :LATITUDE
LON         .                                          -92.092254 :LONGITUDE
ELEV        .M                                             0.0000 :SURFACE ELEV
ELEV_TYPE   .                                                  KB :ELEV TYPE
~CURVE INFORMATION
#MNEMONIC.UNIT        API CODE       : CURVE DESCRIPTION
#------------------------------------------------------------------------------
DEPTH    .M                          : Measured Depth
CALI     .inches      UNKNOWN        : CALI:litodensidad:r1:0001:v1 
CGR      .API         UNKNOWN        : CGR:radioactividad:r1:0001:v1 
DRHO     .g/cm3       UNKNOWN        : DRHO:litodensidad:r1:0001:v1 
DT       .us/ft       UNKNOWN        : DT:PETROWORKS:rC:NONE:v1 
GR-LWD   .API         UNKNOWN        : GR-LWD:resistivos-LWD:r2:0001:v3 
GR       .API         UNKNOWN        : GR:PETROWORKS:rC:NONE:v1 
LLD-LWD  .ohm.m       UNKNOWN        : LLD-LWD:resistivos-LWD:r2:0001:v4 
LLD      .ohm.m       UNKNOWN        : LLD:resistivos:r1:0001:v1 
LLS-LWD  .ohm.m       UNKNOWN        : LLS-LWD:resistivos-LWD:r2:0001:v4 
LLS      .ohm.m       UNKNOWN        : LLS:resistivos:r1:0001:v1 
MSFL     .ohm.m       UNKNOWN        : MSFL:resistivos:r1:0001:v1 
NPHI     .v/v_decimal UNKNOWN        : NPHI:porosidad:r1:0001:v1 
PEF      .UNKNOWN     UNKNOWN        : PEF:litodensidad:r1:0001:v1 
POTA     .UNKNOWN     UNKNOWN        : POTA:radioactividad:r1:0001:v1 
RHOB     .g/cm3       UNKNOWN        : RHOB:litodensidad:r1:0001:v1 
THOR     .ppm         UNKNOWN        : THOR:radioactividad:r1:0001:v1 
URAN     .ppm         UNKNOWN        : URAN:radioactividad:r1:0001:v1 
~A     DEPTH         CALI          CGR         DRHO           DT       GR-LWD           GR      LLD-LWD          LLD      LLS-LWD          LLS         MSFL         NPHI          PEF         POTA         RHOB         THOR         URAN
# ...
   3445.2388       5.9335      -4.5269       0.1908      50.4574    -999.2500      20.1295    -999.2500    1038.4282    -999.2500     635.7192       7.8781       0.1000       2.4807       0.0009       2.1147      -1.9472       3.1906
   3445.3911       5.9270      -4.5250       0.1907      50.4574    -999.2500      20.1212    -999.2500    1038.2167    -999.2500     635.5501       7.8757       0.1000       2.4876       0.0009       2.1146      -1.9463       3.1893
   3445.5437       5.9228      -4.5235       0.1912      50.4574    -999.2500      20.1144    -999.2500    1038.0050    -999.2500     635.3813       7.8738       0.1000       2.4990       0.0009       2.1140      -1.9457       3.1882
   3445.6960       5.9221      -4.5227       0.1932      50.4574    -999.2500      20.1110    -999.2500    1037.7938    -999.2500     635.2132       7.8726       0.1000       2.5107       0.0009       2.1141      -1.9453       3.1876
   3445.8484       5.9142      -4.5225       0.1950      50.4574    -999.2500      20.1099    -999.2500    1037.6313    -999.2500     635.0838       7.8720       0.1001       2.5155       0.0009       2.1141      -1.9453       3.1875
   3446.0007       5.9070      -4.5223       0.1942      50.4574    -999.2500      20.1090    -999.2500    1037.5175    -999.2500     634.9932       7.8718       0.1002       2.5071       0.0009       2.1130      -1.9452       3.1873
   3446.1531       5.9096      -4.5221       0.1926      50.4574    -999.2500      20.1082    -999.2500    1037.4259    -999.2500     634.9202       7.8715       0.1001       2.4913       0.0009       2.1124      -1.9451       3.1872
   3446.3057       5.9116      -4.5216       0.5812      50.4574    -999.2500      20.1062    -999.2500    1037.3785    -999.2500     634.8824       7.8710       0.1001       2.4786       0.0009       2.1118      -1.9449       3.1869
   3446.4580       5.9090      -4.5212       1.2830      50.4574    -999.2500      20.1046    -999.2500    1037.3738    -999.2500     634.8788       7.8707       0.1002       2.4749       0.0009       2.1110      -1.9447       3.1866
   3446.6104       5.9053      -4.5208       1.8567      50.4574    -999.2500      20.1025    -999.2500    1037.3757    -999.2500     634.8806       7.8702       0.1002       2.4805       0.0009       2.1113      -1.9445       3.1863
   3446.7627       5.9082      -4.5206    -999.2500      50.4574    -999.2500      20.1019    -999.2500    1037.3466    -999.2500     634.8571       7.8695       0.1001    -999.2500       0.0009    -999.2500      -1.9445       3.1862
   3446.9153       5.9116      -4.5204    -999.2500      50.4574    -999.2500      20.1007    -999.2500    1037.3120    -999.2500     634.8294       7.8687       0.1001    -999.2500       0.0009    -999.2500      -1.9444       3.1860
   3447.0676       5.9052      -4.5204    -999.2500      50.4574    -999.2500      20.1011    -999.2500    1037.3148    -999.2500     634.8320       7.8680       0.1002    -999.2500       0.0009    -999.2500      -1.9444       3.1860
   3447.2200       5.9033      -4.5204    -999.2500      50.4574    -999.2500      20.1007    -999.2500    1037.3038    -999.2500     634.8234       7.8672       0.1002    -999.2500       0.0009    -999.2500      -1.9444       3.1860
   3447.3723       5.9090      -4.5202    -999.2500      50.4574    -999.2500      20.1001    -999.2500    1037.2772    -999.2500     634.8021       7.8661       0.1001    -999.2500       0.0009    -999.2500      -1.9443       3.1859
   3447.5249       5.9084      -4.5200    -999.2500      50.4574    -999.2500      20.0988    -999.2500    1037.2450    -999.2500     634.7763       7.8649       0.1002    -999.2500       0.0009    -999.2500      -1.9442       3.1857
   3447.6772       5.9058      -4.5194    -999.2500      50.4574    -999.2500      20.0965    -999.2500    1037.1472    -999.2500     634.6982       7.8637       0.1002    -999.2500       0.0009    -999.2500      -1.9439       3.1853
   3447.8296       5.8994      -4.5191    -999.2500      50.4574    -999.2500      20.0950    -999.2500    1036.9955    -999.2500     634.5774       7.8625       0.1003    -999.2500       0.0009    -999.2500      -1.9438       3.1850
   3447.9819       5.8932      -4.5188    -999.2500      50.4574    -999.2500      20.0939    -999.2500    1036.8523    -999.2500     634.4636       7.8745       0.1003    -999.2500       0.0009    -999.2500      -1.9437       3.1848
   3448.1343       5.8903      -4.5188    -999.2500      50.4574    -999.2500      20.0938    -999.2500    1036.7433    -999.2500     634.3768       7.8921       0.1003    -999.2500       0.0009    -999.2500      -1.9437       3.1849
   3448.2869    -999.2500    -999.2500    -999.2500      50.4574    -999.2500    -999.2500    -999.2500    -999.2500    -999.2500    -999.2500    -999.2500    -999.2500    -999.2500    -999.2500    -999.2500    -999.2500    -999.2500
   3448.4392    -999.2500    -999.2500    -999.2500      50.4574    -999.2500    -999.2500    -999.2500    -999.2500    -999.2500    -999.2500    -999.2500    -999.2500    -999.2500    -999.2500    -999.2500    -999.2500    -999.2500
   3448.5916    -999.2500    -999.2500    -999.2500      50.4574    -999.2500    -999.2500    -999.2500    -999.2500    -999.2500    -999.2500    -999.2500    -999.2500    -999.2500    -999.2500    -999.2500    -999.2500    -999.2500
