#------------------------------------------------------------------------------
#
#   Created by  : [OpenWorks] Log Export Utility (LEXP)
#   Created on  : 2016-05-13 12:21:08
#   Project     : CANT971
#   User        : R5K
#   Interpreter : PEP
#
#------------------------------------------------------------------------------
~VERSION INFORMATION
VERS. 2.0 : CWLS Log ASCII Standard - version 2.0
WRAP.  NO : One line per depth step
~WELL INFORMATION
#MNEMONIC   .UNIT                                           VALUE :DESCRIPTION
#------------------------------------------------------------------------------
STRT        .M                                          1966.7219 :START DEPTH
STOP        .M                                          3141.8784 :STOP DEPTH
STEP        .M                                             0.1524 :STEP
NULL        .                                           -999.2500 :NULL VALUE
COMP        .                                             UNKNOWN :COMPANY
WELL        .                                                3034 :WELL
FLD         .                                             UNKNOWN :FIELD
LOC         .                                             UNKNOWN :LOCATION
CNTY        .                                             UNKNOWN :COUNTY
STAT        .                                             UNKNOWN :STATE
CTRY        .                                             UNKNOWN :COUNTRY
SRVC        .                                             UNKNOWN :SERVICE COMPANY
DATE        .                                             UNKNOWN :LOG DATE
UWI         .                                                3034 :UNIQUE WELL ID
XCOORD      .                                            0.000000 :SURFACE X
YCOORD      .                                            0.000000 :SURFACE Y
LAT         .                                            0.000000 :LATITUDE
LON         .                                            0.000000 :LONGITUDE
ELEV        .M                                             0.0000 :SURFACE ELEV
ELEV_TYPE   .                                                  KB :ELEV TYPE
~CURVE INFORMATION
#MNEMONIC.UNIT        API CODE       : CURVE DESCRIPTION
#------------------------------------------------------------------------------
DEPTH    .M                          : Measured Depth
CALI     .inches      UNKNOWN        : CALI:LDL-GR:r1:0001:v2 
DRHO     .g/cm3       UNKNOWN        : DRHO:LDL-GR:r1:0001:v2 
DT       .us/ft       UNKNOWN        : DT:sonico:r1:0001:v2 
GR-LWD   .API         UNKNOWN        : GR-LWD:PETROWORKS:rC:NONE:v5 
GR       .API         UNKNOWN        : GR:LDL-GR:r1:0001:v2 
LLD-LWD  .ohm.m       UNKNOWN        : LLD-LWD:PETROWORKS:rC:NONE:v5 
LLM-LWD  .UNKNOWN     UNKNOWN        : LLM-LWD:PETROWORKS:rC:NONE:v5 
LLS-LWD  .ohm.m       UNKNOWN        : LLS-LWD:PETROWORKS:rC:NONE:v5 
MSFL-LWD .ohm.m       UNKNOWN        : MSFL-LWD:PETROWORKS:rC:NONE:v5 
PEF      .b/elec      UNKNOWN        : PEF:LDL-GR:r1:0001:v2 
RHOB     .g/cm3       UNKNOWN        : RHOB:LDL-GR:r1:0001:v2 
~A     DEPTH         CALI         DRHO           DT       GR-LWD           GR      LLD-LWD      LLM-LWD      LLS-LWD     MSFL-LWD          PEF         RHOB
# ...
   3020.7202       2.7094      -0.0145      88.2908      72.3710      32.9756       1.3437       1.3512       1.3683       1.3696       8.0984       2.6082
   3020.8728       2.7083      -0.0159      88.2908      76.2551      32.9756       1.2264       1.2489       1.3070       1.3351       8.1524       2.6010
   3021.0251       2.7081      -0.0155      88.2908      74.1767      32.9756       1.2075       1.2931       1.4078       1.4676       8.6336       2.6018
   3021.1775       2.7079      -0.0174      88.2908      73.0671      32.9756       1.3302       1.4745       1.6117       1.7206       8.3619       2.5954
   3021.3298       2.7099      -0.0180      88.2908      72.0199      32.9756       1.4705       1.6580       1.8412       1.9445       7.8365       2.6009
   3021.4824       2.7083      -0.0154      88.2908      67.1538      32.9756       1.5478       1.6710       1.8575       1.9924       7.4826       2.6023
   3021.6348       2.7077      -0.0113      88.2908      63.5684      32.9756       1.5580       1.5697       1.7708       1.9498       7.4948       2.6073
   3021.7871       2.7099      -0.0133      88.2908      61.1503      32.9756       1.5598       1.5026       1.7013       1.8609       7.8901       2.6015
   3021.9395       2.7081      -0.0159      88.2908      63.6125      32.9756       1.5117       1.4295       1.5869       1.7450       7.6692       2.5939
   3022.0920       2.7090      -0.0173      88.2908      64.9591      32.9756       1.4746       1.3833       1.5294       1.6981       7.5214       2.5957
   3022.2444       2.7075      -0.0178      88.2908      63.8068      32.9756       1.4223       1.3619       1.5417       1.6804       7.2564       2.5986
   3022.3967       2.7091      -0.0218      88.2908      62.6874      32.9756       1.4936       1.4443       1.6219       1.7084       7.2549       2.5928
   3022.5491       2.7094      -0.0246      88.2908      61.9410      32.9756       1.6088       1.5449       1.6891       1.7368       7.4831       2.5850
   3022.7014       2.7077      -0.0242      88.2908      60.5898      32.9756       1.6486       1.5649       1.6843       1.7470       7.9688       2.5828
   3022.8540       2.7088      -0.0219      88.2908      63.0597      32.9756       1.7234       1.5988       1.7073       1.8167       8.5563       2.5844
   3023.0063       2.7088      -0.0235      88.2908      63.8150      32.9756       2.0917       1.8383       1.9098       2.0033       8.5563       2.5830
   3023.1587    -999.2500    -999.2500    -999.2500      63.1008    -999.2500       2.3820       1.9735       2.0250       2.0872    -999.2500    -999.2500
   3023.3110    -999.2500    -999.2500    -999.2500      58.7412    -999.2500       2.3809       1.8930       1.9508       2.0331    -999.2500    -999.2500
   3023.4636    -999.2500    -999.2500    -999.2500      55.4636    -999.2500       2.2965       1.7770       1.8644       1.9729    -999.2500    -999.2500
   3023.6160    -999.2500    -999.2500    -999.2500      56.9207    -999.2500       2.3634       1.7844       1.8534       1.9734    -999.2500    -999.2500
   3023.7683    -999.2500    -999.2500    -999.2500      59.0794    -999.2500       2.6507       1.9593       1.9151       2.0148    -999.2500    -999.2500
   3023.9207    -999.2500    -999.2500    -999.2500      57.8864    -999.2500       2.8596       2.1053       1.9633       2.0098    -999.2500    -999.2500
   3024.0732    -999.2500    -999.2500    -999.2500      55.7026    -999.2500       2.9621       2.1938       2.0326       2.0080    -999.2500    -999.2500
   3024.2256    -999.2500    -999.2500    -999.2500      54.5344    -999.2500       3.0419       2.2994       2.1824       2.1224    -999.2500    -999.2500
   3024.3779    -999.2500    -999.2500    -999.2500      55.0881    -999.2500       3.2348       2.5640       2.5081       2.4579    -999.2500    -999.2500
   3024.5303    -999.2500    -999.2500    -999.2500      55.1756    -999.2500       3.6909       3.1174       3.1065       3.1012    -999.2500    -999.2500
   3024.6826    -999.2500    -999.2500    -999.2500      50.6095    -999.2500       4.1554       3.6417       3.6826       3.7048    -999.2500    -999.2500
   3024.8352    -999.2500    -999.2500    -999.2500      43.3069    -999.2500       4.8236       4.4702       4.6948       4.8068    -999.2500    -999.2500
   3024.9875    -999.2500    -999.2500    -999.2500      37.4577    -999.2500       6.0824       5.9610       6.3628       6.6333    -999.2500    -999.2500
   3025.1399    -999.2500    -999.2500    -999.2500      33.7699    -999.2500       7.8154       7.8643       8.4806       9.0498    -999.2500    -999.2500
   3025.2922    -999.2500    -999.2500    -999.2500      30.5984    -999.2500       9.2748       9.4282      10.3811      11.2381    -999.2500    -999.2500
   3025.4448    -999.2500    -999.2500    -999.2500      28.3343    -999.2500      10.3260      10.4365      11.5314      12.4376    -999.2500    -999.2500
   3025.5972    -999.2500    -999.2500    -999.2500      26.1232    -999.2500      10.9552      10.8760      11.7827      12.5910    -999.2500    -999.2500
   3025.7495    -999.2500    -999.2500    -999.2500      24.9845    -999.2500      11.2554      10.8554      11.4889      12.2229    -999.2500    -999.2500
   3025.9019    -999.2500    -999.2500    -999.2500      24.3913    -999.2500      11.5341      10.7188      11.1258      11.7076    -999.2500    -999.2500
   3026.0544    -999.2500    -999.2500    -999.2500      23.2680    -999.2500      11.8225      10.5025      10.6692      11.0474    -999.2500    -999.2500
   3026.2068    -999.2500    -999.2500    -999.2500      21.1644    -999.2500      11.9503      10.3529      10.2930      10.6227    -999.2500    -999.2500
   3026.3591    -999.2500    -999.2500    -999.2500      19.5506    -999.2500      12.6688      10.4215      10.2503      10.5104    -999.2500    -999.2500
   3026.5115    -999.2500    -999.2500    -999.2500      18.5364    -999.2500      14.0216      10.9563      10.5756      10.6778    -999.2500    -999.2500
   3026.6638    -999.2500    -999.2500    -999.2500      16.8462    -999.2500      15.0325      12.4695      10.7499      10.8802    -999.2500    -999.2500
   3026.8164    -999.2500    -999.2500    -999.2500      16.2995    -999.2500      16.1455      13.7019      11.0368      10.8770    -999.2500    -999.2500
   3026.9688    -999.2500    -999.2500    -999.2500      19.7467    -999.2500      19.0795      15.5413      12.9981      10.9332    -999.2500    -999.2500
   3027.1211    -999.2500    -999.2500    -999.2500      24.6746    -999.2500      17.2597      14.6539      13.0749      11.0708    -999.2500    -999.2500
   3027.2734    -999.2500    -999.2500    -999.2500      26.8826    -999.2500      13.4396      12.1882      12.4604      11.8363    -999.2500    -999.2500
   3027.4260    -999.2500    -999.2500    -999.2500      23.8211    -999.2500      15.4417      14.5142      14.9982      15.1552    -999.2500    -999.2500
   3027.5784    -999.2500    -999.2500    -999.2500      20.9334    -999.2500      18.5859      18.1716      19.2419      20.1402    -999.2500    -999.2500
   3027.7307    -999.2500    -999.2500    -999.2500      20.9695    -999.2500      20.0843      20.4848      23.0093      24.5840    -999.2500    -999.2500
   3027.8831    -999.2500    -999.2500    -999.2500      20.2433    -999.2500      21.1059      22.6471      26.7475      28.8654    -999.2500    -999.2500
   3028.0356    -999.2500    -999.2500    -999.2500      17.3191    -999.2500      22.3384      24.3129      29.1390      32.0344    -999.2500    -999.2500
   3028.1880    -999.2500    -999.2500    -999.2500      16.0435    -999.2500      23.1490      26.2083      31.6259      35.3963    -999.2500    -999.2500
   3028.3403    -999.2500    -999.2500    -999.2500      16.1100    -999.2500      25.2082      28.2709      34.6020      37.9100    -999.2500    -999.2500
   3028.4927    -999.2500    -999.2500    -999.2500      15.6561    -999.2500      27.2411      29.6303      36.9037      39.0052    -999.2500    -999.2500
