#------------------------------------------------------------------------------
#
#   Created by  : [OpenWorks] Log Export Utility (LEXP)
#   Created on  : 2016-05-13 12:21:08
#   Project     : CANT971
#   User        : R5K
#   Interpreter : PEP
#
#------------------------------------------------------------------------------
~VERSION INFORMATION
VERS. 2.0 : CWLS Log ASCII Standard - version 2.0
WRAP.  NO : One line per depth step
~WELL INFORMATION
#MNEMONIC   .UNIT                                           VALUE :DESCRIPTION
#------------------------------------------------------------------------------
STRT        .M                                          1966.7219 :START DEPTH
STOP        .M                                          3141.8784 :STOP DEPTH
STEP        .M                                             0.1524 :STEP
NULL        .                                           -999.2500 :NULL VALUE
COMP        .                                             UNKNOWN :COMPANY
WELL        .                                                3034 :WELL
FLD         .                                             UNKNOWN :FIELD
LOC         .                                             UNKNOWN :LOCATION
CNTY        .                                             UNKNOWN :COUNTY
STAT        .                                             UNKNOWN :STATE
CTRY        .                                             UNKNOWN :COUNTRY
SRVC        .                                             UNKNOWN :SERVICE COMPANY
DATE        .                                             UNKNOWN :LOG DATE
UWI         .                                                3034 :UNIQUE WELL ID
XCOORD      .                                            0.000000 :SURFACE X
YCOORD      .                                            0.000000 :SURFACE Y
LAT         .                                            0.000000 :LATITUDE
LON         .                                            0.000000 :LONGITUDE
ELEV        .M                                             0.0000 :SURFACE ELEV
ELEV_TYPE   .                                                  KB :ELEV TYPE
~CURVE INFORMATION
#MNEMONIC.UNIT        API CODE       : CURVE DESCRIPTION
#------------------------------------------------------------------------------
DEPTH    .M                          : Measured Depth
CALI     .inches      UNKNOWN        : CALI:LDL-GR:r1:0001:v2 
DRHO     .g/cm3       UNKNOWN        : DRHO:LDL-GR:r1:0001:v2 
DT       .us/ft       UNKNOWN        : DT:sonico:r1:0001:v2 
GR-LWD   .API         UNKNOWN        : GR-LWD:PETROWORKS:rC:NONE:v5 
GR       .API         UNKNOWN        : GR:LDL-GR:r1:0001:v2 
LLD-LWD  .ohm.m       UNKNOWN        : LLD-LWD:PETROWORKS:rC:NONE:v5 
LLM-LWD  .UNKNOWN     UNKNOWN        : LLM-LWD:PETROWORKS:rC:NONE:v5 
LLS-LWD  .ohm.m       UNKNOWN        : LLS-LWD:PETROWORKS:rC:NONE:v5 
MSFL-LWD .ohm.m       UNKNOWN        : MSFL-LWD:PETROWORKS:rC:NONE:v5 
PEF      .b/elec      UNKNOWN        : PEF:LDL-GR:r1:0001:v2 
RHOB     .g/cm3       UNKNOWN        : RHOB:LDL-GR:r1:0001:v2 
~A     DEPTH         CALI         DRHO           DT       GR-LWD           GR      LLD-LWD      LLM-LWD      LLS-LWD     MSFL-LWD          PEF         RHOB
# ...
   2212.3906      13.4465      -0.0088     122.8880      88.4864      52.2190       0.8728       0.8411       0.8631       0.9117       5.5438       2.3123
   2212.5432      13.4392      -0.0082     123.8870      87.7536      54.2148       0.8711       0.8436       0.8662       0.9137       6.8584       2.2904
   2212.6956      13.4494      -0.0333     127.9444      87.4156      50.5074       0.8613       0.8361       0.8621       0.9045       9.3826       2.2227
   2212.8479      13.5388      -0.0563     129.8745      88.9792      44.9195       0.8349       0.7974       0.8181       0.8606      19.6098       2.1749
   2213.0002      13.9877      -0.0525     129.5489      91.0233      40.7581       0.8293       0.7885       0.8087       0.8528      41.0429       2.1978
   2213.1528      14.3598      -0.0631     127.5048      93.0674      39.4613       0.8237       0.7795       0.7994       0.8449      56.5686       2.2193
   2213.3052      14.3101      -0.0543     130.1779      92.1990      40.2938       0.8156       0.7637       0.7862       0.8341      42.8715       2.2508
   2213.4575      14.3605      -0.0338     127.4003      86.6683      41.0338       0.8029       0.7497       0.7597       0.7987      36.3537       2.2696
   2213.6099      14.1741      -0.0309     125.7450      87.0213      42.6194       0.8028       0.7557       0.7602       0.7956      28.6190       2.2732
   2213.7622      14.1300      -0.0368     125.0928      87.3744      46.4634       0.8027       0.7616       0.7607       0.7925      25.5289       2.2694
   2213.9148      14.0623      -0.0497     125.8485      88.8438      48.7865       0.8030       0.7683       0.7636       0.7925      24.6676       2.2511
   2214.0671      14.0425      -0.0523     125.6812      93.1140      48.7517       0.8509       0.8191       0.8122       0.8404      26.4419       2.2481
   2214.2195      13.8740      -0.0456     124.6262      93.1410      49.3707       0.8713       0.8461       0.8430       0.8803      32.3158       2.2671
   2214.3718      13.7482      -0.0344     122.2314      93.1519      52.5519       0.8728       0.8486       0.8512       0.8950      18.4512       2.2936
   2214.5244      13.5187      -0.0307     120.3695      93.1629      59.8397       0.8743       0.8511       0.8594       0.9098      13.5471       2.3006
   2214.6768      13.5132      -0.0164     119.1292      91.2394      64.2577       0.8711       0.8451       0.8686       0.9238       9.6992       2.3151
   2214.8291      13.5048      -0.0158     119.7141      89.2458      64.8833       0.8705       0.8416       0.8663       0.9261       7.5221       2.3180
   2214.9814      13.5046      -0.0151     119.0290      89.1000      59.2132       0.8815       0.8485       0.8721       0.9263       5.8316       2.3325
   2215.1340      13.5294      -0.0105     121.4996      88.9542      57.2215       0.8925       0.8554       0.8779       0.9265       4.9495       2.3401
   2215.2864      13.5074      -0.0115     121.3922      89.9939      52.8844       0.9159       0.8724       0.8875       0.9262       4.9100       2.3332
   2215.4387      13.5048      -0.0194     121.6253      94.5525      53.5651       0.9475       0.9089       0.9051       0.9395       5.5790       2.3145
   2215.5911      13.5074      -0.0219     121.9129      93.8169      52.8286       0.9515       0.9126       0.9088       0.9437       5.7663       2.3106
   2215.7434      13.5156      -0.0198     121.3796      93.0814      57.0702       0.9555       0.9164       0.9125       0.9478       6.2854       2.3186
   2215.8960      13.5132      -0.0219     120.8941      89.8604      58.7551       0.9583       0.9140       0.9124       0.9486       5.2771       2.3270
   2216.0483      13.5234      -0.0271     121.9729      90.2384      54.3535       0.9488       0.9053       0.9029       0.9400       5.4000       2.3271
   2216.2007      13.5404      -0.0261     123.7052      98.2978      50.8892       0.9368       0.8960       0.8946       0.9345       4.9274       2.3240
   2216.3530      13.5449      -0.0277     124.1197      96.7031      51.5079       0.9345       0.8917       0.8907       0.9320       5.4203       2.3202
   2216.5056      13.5359      -0.0315     124.4696      95.1084      52.2752       0.9323       0.8874       0.8868       0.9295       5.1185       2.2996
   2216.6580      13.6198      -0.0286     125.6236      93.2923      55.2648       0.9308       0.8848       0.8857       0.9281       4.9580       2.3040
   2216.8103      13.5263      -0.0276     125.6395      93.4302      56.5493       0.9115       0.8745       0.8821       0.9276       4.5913       2.3000
   2216.9626      13.5074      -0.0252     125.0817      93.3995      59.0477       0.9008       0.8686       0.8791       0.9251       4.6434       2.3062
   2217.1152      13.4738      -0.0192     124.9002      93.3688      58.7851       0.8902       0.8628       0.8760       0.9226       5.5296       2.3083
   2217.2676      13.4814      -0.0153     125.3488      93.1949      56.7697       0.8663       0.8454       0.8649       0.9099       5.7703       2.3028
   2217.4199      13.4786      -0.0190     125.9883      93.1687      56.3585       0.8542       0.8329       0.8485       0.8961       5.6183       2.2958
   2217.5723      13.5079      -0.0161     126.5145      93.7150      56.3006       0.8604       0.8365       0.8518       0.9000       5.0593       2.2981
   2217.7246      13.5578      -0.0144     127.2987      94.2613      60.3141       0.8665       0.8401       0.8551       0.9039       4.8855       2.3038
   2217.8772      13.7251      -0.0170     127.7945      95.4793      62.7336       0.8692       0.8375       0.8557       0.9055       4.7235       2.2993
   2218.0295      13.5795      -0.0209     127.4890      97.9153      63.2197       0.8540       0.8256       0.8442       0.8925       4.6397       2.2909
   2218.1819      13.6041      -0.0194     127.6028      99.1294      57.0854       0.8589       0.8293       0.8424       0.8898       4.8000       2.2881
   2218.3342      13.5910      -0.0190     126.8736      99.1441      56.9494       0.8636       0.8322       0.8439       0.8895       4.7838       2.2846
   2218.4868      13.6242      -0.0173     126.5502      99.1589      60.0422       0.8683       0.8351       0.8454       0.8891       4.5932       2.2872
   2218.6392      13.6415      -0.0190     125.9063      99.1791      62.8939       0.8722       0.8361       0.8496       0.8929       4.3900       2.2901
   2218.7915      13.6553      -0.0172     125.8808     104.8388      62.8973       0.8899       0.8536       0.8523       0.8936       4.5090       2.3014
   2218.9438      13.6617      -0.0207     126.3759     105.1854      57.5210       0.8900       0.8535       0.8508       0.8921       4.5707       2.3002
   2219.0964      13.6487      -0.0211     126.5857     105.5320      60.7666       0.8901       0.8533       0.8494       0.8906       4.4927       2.3029
   2219.2488      13.6694      -0.0271     126.6054     105.4295      61.7623       0.8866       0.8517       0.8488       0.8879       4.5589       2.3032
   2219.4011      13.6787      -0.0256     127.2204     104.8389      64.8853       0.8788       0.8467       0.8403       0.8783       4.7648       2.2970
   2219.5535      13.6892      -0.0242     127.4157     104.6673      63.1850       0.8766       0.8435       0.8368       0.8749       4.7761       2.2892
   2219.7058      13.6709      -0.0248     126.7671     104.4957      64.1776       0.8745       0.8403       0.8332       0.8714       4.6034       2.2779
   2219.8584      13.6761      -0.0275     127.0563     105.2218      63.7664       0.8618       0.8249       0.8194       0.8617       4.5322       2.2785
   2220.0107      13.6911      -0.0219     127.0170     104.7962      65.5745       0.8397       0.8046       0.8073       0.8525       4.8141       2.2867
   2220.1631      13.6911      -0.0260     126.8550     105.6937      64.1537       0.8286       0.7951       0.8126       0.8666       5.9375       2.2883
