#------------------------------------------------------------------------------
#
#   Created by  : [OpenWorks] Log Export Utility (LEXP)
#   Created on  : 2016-05-13 12:21:08
#   Project     : CANT971
#   User        : R5K
#   Interpreter : PEP
#
#------------------------------------------------------------------------------
~VERSION INFORMATION
VERS. 2.0 : CWLS Log ASCII Standard - version 2.0
WRAP.  NO : One line per depth step
~WELL INFORMATION
#MNEMONIC   .UNIT                                           VALUE :DESCRIPTION
#------------------------------------------------------------------------------
STRT        .M                                          1966.7219 :START DEPTH
STOP        .M                                          3141.8784 :STOP DEPTH
STEP        .M                                             0.1524 :STEP
NULL        .                                           -999.2500 :NULL VALUE
COMP        .                                             UNKNOWN :COMPANY
WELL        .                                                3034 :WELL
FLD         .                                             UNKNOWN :FIELD
LOC         .                                             UNKNOWN :LOCATION
CNTY        .                                             UNKNOWN :COUNTY
STAT        .                                             UNKNOWN :STATE
CTRY        .                                             UNKNOWN :COUNTRY
SRVC        .                                             UNKNOWN :SERVICE COMPANY
DATE        .                                             UNKNOWN :LOG DATE
UWI         .                                                3034 :UNIQUE WELL ID
XCOORD      .                                            0.000000 :SURFACE X
YCOORD      .                                            0.000000 :SURFACE Y
LAT         .                                            0.000000 :LATITUDE
LON         .                                            0.000000 :LONGITUDE
ELEV        .M                                             0.0000 :SURFACE ELEV
ELEV_TYPE   .                                                  KB :ELEV TYPE
~CURVE INFORMATION
#MNEMONIC.UNIT        API CODE       : CURVE DESCRIPTION
#------------------------------------------------------------------------------
DEPTH    .M                          : Measured Depth
CALI     .inches      UNKNOWN        : CALI:LDL-GR:r1:0001:v2 
DRHO     .g/cm3       UNKNOWN        : DRHO:LDL-GR:r1:0001:v2 
DT       .us/ft       UNKNOWN        : DT:sonico:r1:0001:v2 
GR-LWD   .API         UNKNOWN        : GR-LWD:PETROWORKS:rC:NONE:v5 
GR       .API         UNKNOWN        : GR:LDL-GR:r1:0001:v2 
LLD-LWD  .ohm.m       UNKNOWN        : LLD-LWD:PETROWORKS:rC:NONE:v5 
LLM-LWD  .UNKNOWN     UNKNOWN        : LLM-LWD:PETROWORKS:rC:NONE:v5 
LLS-LWD  .ohm.m       UNKNOWN        : LLS-LWD:PETROWORKS:rC:NONE:v5 
MSFL-LWD .ohm.m       UNKNOWN        : MSFL-LWD:PETROWORKS:rC:NONE:v5 
PEF      .b/elec      UNKNOWN        : PEF:LDL-GR:r1:0001:v2 
RHOB     .g/cm3       UNKNOWN        : RHOB:LDL-GR:r1:0001:v2 
~A     DEPTH         CALI         DRHO           DT       GR-LWD           GR      LLD-LWD      LLM-LWD      LLS-LWD     MSFL-LWD          PEF         RHOB
# ...
   2957.3220       8.6612      -0.0119      97.5141      41.6355      34.7972       2.9785       3.6432       2.9056       2.5696       5.5972       2.5291
   2957.4744       8.6637      -0.0039      96.8118      38.1564      33.8698       2.5255       3.3564       2.4669       2.0044       5.3169       2.5520
   2957.6267       8.6666      -0.0003     100.6259      39.3110      34.9881       2.3012       2.9662       2.2611       1.8663       5.4200       2.5568
   2957.7791       8.6619      -0.0007     101.1527      40.4656      35.8853       2.0769       2.5759       2.0552       1.7283       5.3648       2.5279
   2957.9316       8.6676       0.0000     101.3204      43.9896      37.6075       1.7117       1.9908       1.7658       1.5640       5.2342       2.5007
   2958.0840       8.6436      -0.0020     100.7421      40.7452      37.1966       1.5821       1.6751       1.5292       1.4411       5.2770       2.4806
   2958.2363       8.6379      -0.0036      97.4608      42.4743      37.5618       1.7034       1.6830       1.5187       1.4761       4.9982       2.4927
   2958.3887       8.6379       0.0002      94.4743      44.9502      37.4293       1.6718       1.5827       1.4779       1.4595       5.0345       2.5322
   2958.5410       8.6330      -0.0005      92.2842      47.4261      36.9870       1.6402       1.4824       1.4371       1.4429       4.7782       2.5674
   2958.6936       8.6298      -0.0027      90.7299      48.6245      36.2607       1.5099       1.3171       1.3428       1.3789       5.3219       2.5852
   2958.8459       8.6330      -0.0016      90.0052      40.2914      34.2794       1.9297       1.7497       1.5398       1.4751       5.6102       2.5902
   2958.9983       8.6361      -0.0026      89.1840      40.5289      33.7902       1.9571       1.8075       1.5450       1.5001       5.7872       2.5905
   2959.1506       8.6330      -0.0045      89.6789      40.7663      32.0419       1.9846       1.8652       1.5501       1.5250       5.5630       2.5836
   2959.3032       8.6330      -0.0039      92.9923      38.2313      33.5067       1.8541       1.7498       1.5274       1.4821       5.4074       2.5703
   2959.4556       8.6361      -0.0064      95.9344      36.9220      32.5892       2.1649       1.7500       1.5352       1.3718       5.6307       2.5391
   2959.6079       8.6339      -0.0075      93.1414      37.2689      33.4606       2.3503       2.1129       1.5540       1.4054       5.3962       2.4508
   2959.7603       8.6330      -0.0200      84.1278      37.6158      32.5070       2.5358       2.4758       1.5728       1.4390       5.5815       2.3557
   2959.9128       8.6172      -0.0285      83.7056      38.3960      31.4516       1.9723       1.9237       1.6280       1.5162       5.7075       2.3511
   2960.0652       8.6022      -0.0204      83.5594      44.7951      29.0954       2.6995       2.6063       2.2512       2.2441       6.2747       2.4435
   2960.2175       8.6022      -0.0073      86.0393      44.6367      27.1262       3.6786       4.0361       2.7295       2.4958       6.1340       2.5712
   2960.3699       8.5822      -0.0158      84.8793      41.8493      26.3756       3.0552       3.3280       2.5917       2.3973       6.0557       2.5669
   2960.5222       8.5695      -0.0272      84.7197      39.0619      29.8675       2.4318       2.6198       2.4538       2.2989       5.9718       2.5248
   2960.6748       8.5667      -0.0269      86.1005      28.1607      28.8613       1.9636       2.3227       2.3111       2.1228       6.1425       2.5298
   2960.8271       8.5607      -0.0214      85.2941      35.8764      29.7394       1.3290       1.8792       1.9035       1.9247       5.7415       2.5635
   2960.9795       8.5499      -0.0151      84.4301      36.0407      26.5645       1.8021       2.1291       2.0311       2.0343       5.5155       2.5999
   2961.1318       8.5502      -0.0182      84.1730      36.2050      29.9052       2.2752       2.3789       2.1588       2.1440       5.2775       2.5982
   2961.2844       8.5378      -0.0157      86.3915      42.3917      30.6313       2.4016       2.5339       2.1674       2.1769       5.4409       2.5804
   2961.4368       8.5254      -0.0108      88.8352      35.0943      31.6917       1.8973       1.8915       1.8543       1.7794       5.7793       2.5644
   2961.5891       8.5230      -0.0133      88.3873      36.1887      29.6222       1.7571       1.7921       1.7847       1.7120       6.0802       2.5449
   2961.7415       8.5214      -0.0194      86.9876      37.2831      27.7662       1.6170       1.6927       1.7152       1.6445       6.3311       2.5412
   2961.8940       8.5168      -0.0166      86.1092      28.3443      27.8688       1.4737       1.3696       1.4708       1.5516       6.1985       2.5547
   2962.0464       8.5214      -0.0199      84.8272      38.2029      28.5316       2.1176       1.9399       1.7833       1.8218       5.9270       2.5710
   2962.1987       8.5147      -0.0253      85.0399      35.9576      28.6553       2.0930       1.9863       1.9020       1.8353       5.5876       2.5727
   2962.3511       8.5211      -0.0220      84.9921      37.6850      26.5604       2.0588       1.9804       1.8909       1.8253       5.3997       2.5731
   2962.5034       8.5011      -0.0174      84.7694      39.4123      25.7651       2.0246       1.9745       1.8799       1.8153       5.2571       2.5677
   2962.6560       8.4879      -0.0156      84.8480      32.4563      26.5028       1.9663       1.9759       1.8322       1.7801       5.3387       2.5800
   2962.8083       8.4888      -0.0120      84.7509      33.9080      27.3652       2.0293       1.8775       1.7127       1.7404       5.8301       2.6025
   2962.9607       8.4879      -0.0088      83.3991      31.7824      26.0352       2.1361       1.9819       1.8047       1.8182       6.3602       2.6089
   2963.1130       8.4916      -0.0138      82.6843      29.6567      25.4169       2.2430       2.0863       1.8966       1.8960       6.4672       2.6024
   2963.2656       8.4818      -0.0207      81.9691      35.7608      26.2817       2.2172       2.0874       1.9324       1.9223       6.1710       2.5935
   2963.4180       8.4838      -0.0204      83.9040      29.6822      28.4474       2.1023       1.9900       1.8434       1.8602       6.0933       2.6039
   2963.5703       8.4833      -0.0203      85.4407      31.1466      29.0641       2.1417       2.0051       1.8397       1.8431       5.9736       2.5919
   2963.7227       8.4847      -0.0234      86.0192      32.6111      29.5554       2.1812       2.0202       1.8360       1.8259       5.9661       2.5636
   2963.8752       8.4806      -0.0207      86.1515      30.2855      31.2930       2.3576       2.0409       1.8630       1.7869       5.7130       2.5524
   2964.0276       8.4847      -0.0121      85.7607      33.9959      31.9500       2.3653       1.9034       1.7960       1.7782       5.6165       2.5778
   2964.1799       8.4867      -0.0072      85.4731      33.8679      32.3210       2.4253       1.9754       1.8660       1.9331       5.6513       2.6118
   2964.3323       8.4887      -0.0028      85.2544      34.5549      30.9290       2.4106       2.0844       1.9025       2.0123       5.9522       2.6270
   2964.4846       8.4887      -0.0014      85.9619      35.2419      32.4939       2.3958       2.1934       1.9391       2.0915       5.9626       2.6104
   2964.6372       8.4913      -0.0020      88.0930      34.6705      34.3489       1.8702       1.5923       1.5116       1.6066       5.5603       2.5825
   2964.7896       8.4876      -0.0020      88.6350      40.0540      34.4873       2.2409       1.9157       1.7721       1.7582       5.5984       2.5612
   2964.9419       8.4868      -0.0024      89.5951      39.3670      33.9984       2.2248       1.9762       1.8284       1.8002       5.7512       2.5533
   2965.0942       8.4913      -0.0025      89.6693      38.6800      33.1247       2.2086       2.0368       1.8848       1.8422       6.1730       2.5624
