#------------------------------------------------------------------------------
#
#   Created by  : [OpenWorks] Log Export Utility (LEXP)
#   Created on  : 2016-05-13 12:21:08
#   Project     : CANT971
#   User        : R5K
#   Interpreter : PEP
#
#------------------------------------------------------------------------------
~VERSION INFORMATION
VERS. 2.0 : CWLS Log ASCII Standard - version 2.0
WRAP.  NO : One line per depth step
~WELL INFORMATION
#MNEMONIC   .UNIT                                           VALUE :DESCRIPTION
#------------------------------------------------------------------------------
STRT        .M                                          1966.7219 :START DEPTH
STOP        .M                                          3141.8784 :STOP DEPTH
STEP        .M                                             0.1524 :STEP
NULL        .                                           -999.2500 :NULL VALUE
COMP        .                                             UNKNOWN :COMPANY
WELL        .                                                3034 :WELL
FLD         .                                             UNKNOWN :FIELD
LOC         .                                             UNKNOWN :LOCATION
CNTY        .                                             UNKNOWN :COUNTY
STAT        .                                             UNKNOWN :STATE
CTRY        .                                             UNKNOWN :COUNTRY
SRVC        .                                             UNKNOWN :SERVICE COMPANY
DATE        .                                             UNKNOWN :LOG DATE
UWI         .                                                3034 :UNIQUE WELL ID
XCOORD      .                                            0.000000 :SURFACE X
YCOORD      .                                            0.000000 :SURFACE Y
LAT         .                                            0.000000 :LATITUDE
LON         .                                            0.000000 :LONGITUDE
ELEV        .M                                             0.0000 :SURFACE ELEV
ELEV_TYPE   .                                                  KB :ELEV TYPE
~CURVE INFORMATION
#MNEMONIC.UNIT        API CODE       : CURVE DESCRIPTION
#------------------------------------------------------------------------------
DEPTH    .M                          : Measured Depth
CALI     .inches      UNKNOWN        : CALI:LDL-GR:r1:0001:v2 
DRHO     .g/cm3       UNKNOWN        : DRHO:LDL-GR:r1:0001:v2 
DT       .us/ft       UNKNOWN        : DT:sonico:r1:0001:v2 
GR-LWD   .API         UNKNOWN        : GR-LWD:PETROWORKS:rC:NONE:v5 
GR       .API         UNKNOWN        : GR:LDL-GR:r1:0001:v2 
LLD-LWD  .ohm.m       UNKNOWN        : LLD-LWD:PETROWORKS:rC:NONE:v5 
LLM-LWD  .UNKNOWN     UNKNOWN        : LLM-LWD:PETROWORKS:rC:NONE:v5 
LLS-LWD  .ohm.m       UNKNOWN        : LLS-LWD:PETROWORKS:rC:NONE:v5 
MSFL-LWD .ohm.m       UNKNOWN        : MSFL-LWD:PETROWORKS:rC:NONE:v5 
PEF      .b/elec      UNKNOWN        : PEF:LDL-GR:r1:0001:v2 
RHOB     .g/cm3       UNKNOWN        : RHOB:LDL-GR:r1:0001:v2 
~A     DEPTH         CALI         DRHO           DT       GR-LWD           GR      LLD-LWD      LLM-LWD      LLS-LWD     MSFL-LWD          PEF         RHOB
# ...
   2751.2771       8.9323      -0.0128      68.0878      19.3362      20.7922       9.7916      10.6756      11.2739      12.6519       6.7958       2.5601
   2751.4294       8.9359      -0.0099      69.5212      18.3948      21.4542       8.1004       8.7433       9.9211      11.4577       6.8241       2.5492
   2751.5820       8.9349      -0.0173      70.2127      22.9231      25.1989       5.2826       5.4237       5.7387       5.9735       7.0959       2.4973
   2751.7344       8.9313      -0.0224      71.8619      23.1053      24.4003       5.1962       5.0616       5.2454       5.2013       6.9724       2.4503
   2751.8867       8.9331      -0.0159      79.2745      17.1683      20.6537       5.0335       5.0460       5.0451       4.9372       7.1271       2.4310
   2752.0391       8.9359      -0.0136      79.5123      18.8797      16.6959       4.9489       4.9790       4.8535       4.6589       7.0331       2.4168
   2752.1914       8.9340      -0.0178      79.5561      18.3924      15.3748       4.7050       4.5795       4.3467       4.1598       6.8405       2.4023
   2752.3440       8.9341      -0.0104      79.3028      18.3442      15.1491       4.4016       4.3450       3.9974       3.8174       6.8276       2.4202
   2752.4963       8.9350      -0.0072      77.9566      18.6159      16.0274       4.1759       4.0004       3.6599       3.6064       7.0743       2.4435
   2752.6487       8.9446      -0.0078      78.0583      15.8639      15.7653       3.6551       3.5102       3.3475       3.4003       6.9378       2.4595
   2752.8010       8.9608      -0.0119      76.0094      16.8049      17.4295       3.3092       3.1911       3.1739       3.2786       6.4688       2.4574
   2752.9536       8.9674      -0.0092      76.7248      18.0652      17.5845       2.9277       2.8156       2.9096       3.0022       6.2010       2.4663
   2753.1060       8.9609      -0.0069      79.9205      17.5736      17.9684       2.8787       2.7678       2.7937       2.8176       6.4499       2.4647
   2753.2583       8.9727      -0.0063      79.2636      22.0528      17.7641       2.8072       2.6750       2.6795       2.6429       6.9215       2.4480
   2753.4106       8.9666      -0.0096      80.0756      23.5544      16.8142       2.6782       2.5320       2.4868       2.4764       7.3197       2.4126
   2753.5632       8.9677      -0.0084      79.5517      19.1289      16.4246       2.6510       2.4679       2.4103       2.4223       7.2138       2.3809
   2753.7156       8.9754      -0.0102      79.3469      25.5130      16.2921       2.5230       2.4786       2.5079       2.5618       7.0589       2.3667
   2753.8679       8.9702      -0.0166      77.7760      23.8757      17.4844       2.4581       2.3503       2.3863       2.4466       6.5898       2.3718
   2754.0203       8.9680      -0.0105      77.6186      21.3556      19.8678       2.4309       2.3281       2.3467       2.3718       6.6032       2.4022
   2754.1726       8.9994      -0.0096      79.7153      23.8172      20.7951       2.4243       2.2986       2.3046       2.2775       6.3801       2.4112
   2754.3252       8.9983      -0.0076      79.3674      24.7247      21.8703       2.4417       2.3006       2.2500       2.1920       6.0072       2.4033
   2754.4775       9.0024      -0.0094      78.3358      22.3749      22.4044       2.4752       2.3410       2.2145       2.1523       6.0221       2.3895
   2754.6299       8.9994      -0.0074      79.7029      19.5893      21.3445       2.5632       2.3942       2.2684       2.2410       6.3809       2.3749
   2754.7822       8.9997      -0.0126      78.8984      19.5195      21.7266       2.6389       2.4462       2.3331       2.3443       6.7737       2.3596
   2754.9348       8.9994      -0.0163      82.3029      22.7115      18.5471       2.6223       2.4297       2.2640       2.2231       6.7443       2.3521
   2755.0872       8.9965      -0.0206      82.3081      22.8063      18.3951       2.6462       2.4326       2.2860       2.2377       6.4666       2.3530
   2755.2395       9.0034      -0.0198      81.7208      20.4375      17.3352       2.6238       2.4193       2.3069       2.2579       6.5850       2.3577
   2755.3918       8.9997      -0.0221      80.6161      22.9868      18.7925       2.6231       2.4162       2.2660       2.2040       6.3766       2.3475
   2755.5444       8.9994      -0.0239      80.0186      22.0662      19.0770       2.7164       2.5297       2.3356       2.2476       6.1294       2.3476
   2755.6968       8.9965      -0.0228      79.2171      18.1567      19.7356       2.7580       2.6093       2.4160       2.3217       5.8339       2.3609
   2755.8491       9.0023      -0.0261      79.1006      17.1529      17.3272       2.7469       2.6333       2.4556       2.3929       6.1427       2.3751
   2756.0015       8.9994      -0.0265      79.0620      18.9523      18.2508       2.7063       2.6106       2.4576       2.4138       6.6361       2.3728
   2756.1538       8.9994      -0.0283      79.9616      20.9534      18.3911       2.6820       2.5945       2.4616       2.4225       6.7899       2.3543
   2756.3064       8.9983      -0.0282      82.2554      20.6623      21.8552       2.6451       2.5774       2.4508       2.4149       6.9725       2.3426
   2756.4587       8.9983      -0.0225      83.0566      18.6611      21.8590       2.5801       2.5074       2.3892       2.3768       6.7739       2.3381
   2756.6111       8.9994      -0.0166      81.5192      18.8986      22.1125       2.5348       2.4133       2.3272       2.3637       6.8559       2.3393
   2756.7634       8.9994      -0.0114      80.4664      19.0706      19.8644       2.6365       2.4074       2.3460       2.3951       6.6780       2.3473
   2756.9160       9.0024      -0.0117      79.8203      20.0033      18.2634       2.9711       2.7434       2.5948       2.6500       6.5669       2.3564
   2757.0684       8.9965      -0.0120      78.2765      19.5400      16.5486       3.0463       2.9501       2.7497       2.7688       6.7398       2.3677
   2757.2207       8.9994      -0.0178      78.7128      22.6780      17.3923       3.3690       3.0866       2.9336       2.9744       6.6064       2.3600
   2757.3730       9.0005      -0.0173      78.7150      19.8156      18.3310       3.7539       3.4920       3.1749       3.2888       6.6696       2.3742
   2757.5256       8.9994      -0.0221      78.8036      18.5113      18.9934       3.7356       3.7020       3.5607       3.6026       6.4054       2.3867
   2757.6780       8.9997      -0.0210      76.5756      19.7660      18.0172       3.7431       3.9232       3.8590       3.8509       6.5476       2.3976
   2757.8303       8.9994      -0.0201      74.4043      18.7274      17.0898       3.9297       4.2204       4.2791       4.1616       6.5894       2.4123
   2757.9827       8.9994      -0.0184      72.6030      18.0716      15.9161       3.8843       4.2042       4.1211       4.1977       6.6267       2.4326
   2758.1350       8.9994      -0.0127      74.8911      19.4876      16.1811       4.0042       4.4436       4.0291       4.1903       6.6445       2.4777
   2758.2876       8.9919      -0.0062      70.6345      19.5708      16.0457       4.2003       4.6262       4.1216       4.1798       7.0618       2.4975
   2758.4399       8.9648      -0.0066      72.2698      19.2385      17.2194       3.7336       3.8352       3.6991       3.6510       6.8282       2.4926
   2758.5923       8.9670      -0.0029      71.9843      21.4307      15.6297       3.7716       3.8373       3.7206       3.6614       6.5486       2.4978
   2758.7446       8.9721      -0.0023      73.7146      17.5069      16.9573       3.7097       3.7714       3.6891       3.6778       6.0922       2.5046
   2758.8972       8.9661      -0.0046      72.6249      13.7968      17.3585       3.7186       3.7372       3.6434       3.7438       6.8662       2.5123
   2759.0496       8.9659      -0.0035      74.9156      14.5038      19.2132       3.6919       3.6859       3.6156       3.7206       7.1305       2.4841
