#------------------------------------------------------------------------------
#
#   Created by  : [OpenWorks] Log Export Utility (LEXP)
#   Created on  : 2016-05-13 12:21:08
#   Project     : CANT971
#   User        : R5K
#   Interpreter : PEP
#
#------------------------------------------------------------------------------
~VERSION INFORMATION
VERS. 2.0 : CWLS Log ASCII Standard - version 2.0
WRAP.  NO : One line per depth step
~WELL INFORMATION
#MNEMONIC   .UNIT                                           VALUE :DESCRIPTION
#------------------------------------------------------------------------------
STRT        .M                                          1966.7219 :START DEPTH
STOP        .M                                          3141.8784 :STOP DEPTH
STEP        .M                                             0.1524 :STEP
NULL        .                                           -999.2500 :NULL VALUE
COMP        .                                             UNKNOWN :COMPANY
WELL        .                                                3034 :WELL
FLD         .                                             UNKNOWN :FIELD
LOC         .                                             UNKNOWN :LOCATION
CNTY        .                                             UNKNOWN :COUNTY
STAT        .                                             UNKNOWN :STATE
CTRY        .                                             UNKNOWN :COUNTRY
SRVC        .                                             UNKNOWN :SERVICE COMPANY
DATE        .                                             UNKNOWN :LOG DATE
UWI         .                                                3034 :UNIQUE WELL ID
XCOORD      .                                            0.000000 :SURFACE X
YCOORD      .                                            0.000000 :SURFACE Y
LAT         .                                            0.000000 :LATITUDE
LON         .                                            0.000000 :LONGITUDE
ELEV        .M                                             0.0000 :SURFACE ELEV
ELEV_TYPE   .                                                  KB :ELEV TYPE
~CURVE INFORMATION
#MNEMONIC.UNIT        API CODE       : CURVE DESCRIPTION
#------------------------------------------------------------------------------
DEPTH    .M                          : Measured Depth
CALI     .inches      UNKNOWN        : CALI:LDL-GR:r1:0001:v2 
DRHO     .g/cm3       UNKNOWN        : DRHO:LDL-GR:r1:0001:v2 
DT       .us/ft       UNKNOWN        : DT:sonico:r1:0001:v2 
GR-LWD   .API         UNKNOWN        : GR-LWD:PETROWORKS:rC:NONE:v5 
GR       .API         UNKNOWN        : GR:LDL-GR:r1:0001:v2 
LLD-LWD  .ohm.m       UNKNOWN        : LLD-LWD:PETROWORKS:rC:NONE:v5 
LLM-LWD  .UNKNOWN     UNKNOWN        : LLM-LWD:PETROWORKS:rC:NONE:v5 
LLS-LWD  .ohm.m       UNKNOWN        : LLS-LWD:PETROWORKS:rC:NONE:v5 
MSFL-LWD .ohm.m       UNKNOWN        : MSFL-LWD:PETROWORKS:rC:NONE:v5 
PEF      .b/elec      UNKNOWN        : PEF:LDL-GR:r1:0001:v2 
RHOB     .g/cm3       UNKNOWN        : RHOB:LDL-GR:r1:0001:v2 
~A     DEPTH         CALI         DRHO           DT       GR-LWD           GR      LLD-LWD      LLM-LWD      LLS-LWD     MSFL-LWD          PEF         RHOB
# ...
   2418.4355      13.8088      -0.0156     100.5659      87.7247      51.9302       1.5927       1.5234       1.3815       1.3726       4.8126       2.4152
   2418.5879      13.8044      -0.0190     100.5893      88.9556      50.4645       1.6121       1.5296       1.4002       1.3941       4.9293       2.4069
   2418.7402      13.8088      -0.0227     100.3531      80.1439      50.1994       1.6262       1.5623       1.4350       1.4308       4.9226       2.3887
   2418.8928      13.8088      -0.0186      99.6169      78.2188      48.1160       1.6303       1.5664       1.4430       1.4421       5.2057       2.3944
   2419.0452      13.8191      -0.0198      98.7386      76.2937      47.4368       1.6344       1.5706       1.4510       1.4534       5.0450       2.3943
   2419.1975      13.8044      -0.0140      98.0132      75.2197      49.0243       1.6366       1.5659       1.4571       1.4701       5.2313       2.4149
   2419.3499      13.8059      -0.0133      98.5006      79.6371      49.0243       1.6371       1.5608       1.4628       1.4756       5.2608       2.4164
   2419.5024      13.8014      -0.0115      98.4118      79.6451      49.2891       1.6379       1.5625       1.4655       1.4751       5.3881       2.4135
   2419.6548      13.8249      -0.0177      99.7281      79.6530      47.8341       1.6387       1.5643       1.4682       1.4747       5.7237       2.3971
   2419.8071      13.7928      -0.0213     100.3693      79.8105      49.5573       1.6448       1.5762       1.4794       1.4800       5.5115       2.3798
   2419.9595      13.7951      -0.0238     100.6523      83.2298      49.1438       1.6609       1.6028       1.4954       1.4980       5.4253       2.3765
   2420.1118      13.8463      -0.0236     101.7382      83.9231      49.3143       1.6669       1.6113       1.4962       1.4984       5.0976       2.3645
   2420.2644      13.8492      -0.0246     103.2349      84.6165      51.1294       1.6729       1.6198       1.4969       1.4987       4.9015       2.3548
   2420.4167      13.8492      -0.0223     105.4552      82.7581      53.2642       1.6863       1.6313       1.4934       1.4854       5.2087       2.3464
   2420.5691      13.8360      -0.0175     108.4417      84.4850      55.1938       1.6886       1.6382       1.4874       1.4639       5.0385       2.3396
   2420.7214      13.8541      -0.0117     109.3051      93.2734      54.1357       1.7104       1.6417       1.4632       1.4263       5.0031       2.3391
   2420.8740      13.8492      -0.0113     108.2376      93.0567      56.2751       1.7056       1.6310       1.4484       1.4112       4.6623       2.3407
   2421.0264      13.8360      -0.0090     109.2511      92.8400      58.7196       1.7008       1.6204       1.4337       1.3961       4.5246       2.3607
   2421.1787      13.8715      -0.0063     109.5699      92.4055      58.7196       1.6734       1.5920       1.4045       1.3717       4.5751       2.3730
   2421.3311      13.8735      -0.0105     110.7267      91.5365      60.5753       1.6025       1.5281       1.3737       1.3494       4.7317       2.3549
   2421.4836      13.8838      -0.0158     110.0694      91.3195      56.5230       1.5787       1.5135       1.3697       1.3479       5.5517       2.3393
   2421.6360      13.9040      -0.0178     108.8862      91.1024      57.0717       1.5550       1.4988       1.3657       1.3464       6.7253       2.3307
   2421.7883      13.9080      -0.0147     109.6768      90.8054      53.3982       1.5137       1.4662       1.3606       1.3526       7.2856       2.3390
   2421.9407      13.9244      -0.0167     110.4917     103.6877      51.6787       1.5127       1.5200       1.3684       1.3224       6.0476       2.3335
   2422.0930      13.8965      -0.0116     112.1563     103.6884      53.3785       1.5134       1.5295       1.3691       1.3165       5.1431       2.3395
   2422.2456      13.9069      -0.0159     112.8510     103.6892      54.2486       1.5140       1.5390       1.3699       1.3106       4.7117       2.3282
   2422.3979      13.9098      -0.0146     114.6244     101.9334      55.3250       1.5449       1.5735       1.3683       1.2978       5.0278       2.3276
   2422.5503      13.9007      -0.0140     114.5493      99.2954      55.1927       1.5568       1.5907       1.3648       1.2914       5.0653       2.3318
   2422.7026      13.9069      -0.0135     113.5449      99.5778      53.3055       1.5199       1.5315       1.3351       1.2748       5.0573       2.3420
   2422.8552      13.8936      -0.0194     113.2766      99.8967      55.1592       1.5220       1.5233       1.3340       1.2776       4.6735       2.3367
   2423.0076      13.9127      -0.0141     113.6392     100.2155      53.5917       1.5241       1.5151       1.3328       1.2804       4.7599       2.3382
   2423.1599      13.9023      -0.0163     113.4059     100.5518      56.7817       1.5375       1.5175       1.3389       1.2867       4.8526       2.3332
   2423.3123      13.9127      -0.0186     113.1312      98.2411      58.2164       1.5352       1.5141       1.3325       1.2665       5.0517       2.3338
   2423.4648      13.8927      -0.0217     113.4742      98.6740      59.2548       1.5410       1.5281       1.3379       1.2696       4.8595       2.3369
   2423.6172      13.8896      -0.0223     113.1396      99.1070      59.0777       1.5467       1.5422       1.3433       1.2726       4.6162       2.3369
   2423.7695      13.8838      -0.0251     112.5408     100.5095      58.1727       1.5727       1.5744       1.3552       1.2859       4.3411       2.3304
   2423.9219      13.8607      -0.0237     111.5452      99.0899      55.2628       1.5614       1.5577       1.3289       1.2758       4.4783       2.3267
   2424.0742      13.8492      -0.0231     112.2939      98.1410      53.8373       1.5656       1.5648       1.3225       1.2662       4.6743       2.3233
   2424.2268      13.8448      -0.0189     112.2965      97.8207      55.8234       1.5698       1.5612       1.3175       1.2612       4.9362       2.3237
   2424.3792      13.8463      -0.0150     111.6959      97.5004      59.2837       1.5741       1.5576       1.3124       1.2562       5.0173       2.3181
   2424.5315      13.8405      -0.0133     109.1477      97.5408      59.0539       1.5639       1.5228       1.3018       1.2559       5.0544       2.3193
   2424.6838      13.8509      -0.0143     108.6165      93.8006      56.9147       1.4963       1.4494       1.3102       1.2868       5.2965       2.3248
   2424.8364      13.8377      -0.0128     107.4767      92.8165      57.7484       1.4843       1.4382       1.3154       1.2928       5.2113       2.3379
   2424.9888      13.8902      -0.0108     104.3713      91.8325      59.0518       1.4722       1.4270       1.3207       1.2988       5.2477       2.3548
   2425.1411      13.9087      -0.0080     102.3909      93.5553      60.7938       1.4858       1.4287       1.3358       1.3142       4.9765       2.3705
   2425.2935      13.9087      -0.0072     101.2369      87.8144      57.1795       1.5424       1.5013       1.3886       1.3662       5.0126       2.3881
   2425.4460      13.9058      -0.0072      98.8998      86.4004      57.0678       1.5546       1.5153       1.3940       1.3737       5.0165       2.3984
   2425.5984      13.9087      -0.0051      97.9352      84.9864      54.8169       1.5668       1.5294       1.3994       1.3811       5.1464       2.4046
   2425.7507      13.8954      -0.0070      97.2991      84.3667      54.7028       1.5865       1.5509       1.4085       1.3904       5.4258       2.4047
   2425.9031      13.9040      -0.0129      98.0295      83.6353      53.7564       1.6302       1.5792       1.4311       1.4220       5.5922       2.3861
   2426.0554      13.9069      -0.0141      99.5713      85.7157      52.9273       1.6321       1.5813       1.4417       1.4440       5.6259       2.3794
   2426.2080      13.9040      -0.0142      99.7868      86.6281      55.4247       1.6320       1.5779       1.4446       1.4489       5.3846       2.3690
