#------------------------------------------------------------------------------
#
#   Created by  : [OpenWorks] Log Export Utility (LEXP)
#   Created on  : 2016-05-13 12:21:08
#   Project     : CANT971
#   User        : R5K
#   Interpreter : PEP
#
#------------------------------------------------------------------------------
~VERSION INFORMATION
VERS. 2.0 : CWLS Log ASCII Standard - version 2.0
WRAP.  NO : One line per depth step
~WELL INFORMATION
#MNEMONIC   .UNIT                                           VALUE :DESCRIPTION
#------------------------------------------------------------------------------
STRT        .M                                          1966.7219 :START DEPTH
STOP        .M                                          3141.8784 :STOP DEPTH
STEP        .M                                             0.1524 :STEP
NULL        .                                           -999.2500 :NULL VALUE
COMP        .                                             UNKNOWN :COMPANY
WELL        .                                                3034 :WELL
FLD         .                                             UNKNOWN :FIELD
LOC         .                                             UNKNOWN :LOCATION
CNTY        .                                             UNKNOWN :COUNTY
STAT        .                                             UNKNOWN :STATE
CTRY        .                                             UNKNOWN :COUNTRY
SRVC        .                                             UNKNOWN :SERVICE COMPANY
DATE        .                                             UNKNOWN :LOG DATE
UWI         .                                                3034 :UNIQUE WELL ID
XCOORD      .                                            0.000000 :SURFACE X
YCOORD      .                                            0.000000 :SURFACE Y
LAT         .                                            0.000000 :LATITUDE
LON         .                                            0.000000 :LONGITUDE
ELEV        .M                                             0.0000 :SURFACE ELEV
ELEV_TYPE   .                                                  KB :ELEV TYPE
~CURVE INFORMATION
#MNEMONIC.UNIT        API CODE       : CURVE DESCRIPTION
#------------------------------------------------------------------------------
DEPTH    .M                          : Measured Depth
CALI     .inches      UNKNOWN        : CALI:LDL-GR:r1:0001:v2 
DRHO     .g/cm3       UNKNOWN        : DRHO:LDL-GR:r1:0001:v2 
DT       .us/ft       UNKNOWN        : DT:sonico:r1:0001:v2 
GR-LWD   .API         UNKNOWN        : GR-LWD:PETROWORKS:rC:NONE:v5 
GR       .API         UNKNOWN        : GR:LDL-GR:r1:0001:v2 
LLD-LWD  .ohm.m       UNKNOWN        : LLD-LWD:PETROWORKS:rC:NONE:v5 
LLM-LWD  .UNKNOWN     UNKNOWN        : LLM-LWD:PETROWORKS:rC:NONE:v5 
LLS-LWD  .ohm.m       UNKNOWN        : LLS-LWD:PETROWORKS:rC:NONE:v5 
MSFL-LWD .ohm.m       UNKNOWN        : MSFL-LWD:PETROWORKS:rC:NONE:v5 
PEF      .b/elec      UNKNOWN        : PEF:LDL-GR:r1:0001:v2 
RHOB     .g/cm3       UNKNOWN        : RHOB:LDL-GR:r1:0001:v2 
~A     DEPTH         CALI         DRHO           DT       GR-LWD           GR      LLD-LWD      LLM-LWD      LLS-LWD     MSFL-LWD          PEF         RHOB
# ...
   2077.6692      14.7757      -0.0055     103.0711    -999.2500      32.2967    -999.2500    -999.2500    -999.2500    -999.2500       5.6300       2.4599
   2077.8215      14.7753      -0.0082     103.0292    -999.2500      34.4129    -999.2500    -999.2500    -999.2500    -999.2500       5.8045       2.4492
   2077.9739      14.7899      -0.0060     103.6101    -999.2500      34.7567    -999.2500    -999.2500    -999.2500    -999.2500       5.7621       2.4545
   2078.1262      14.9196      -0.0052     104.2514    -999.2500      35.1418    -999.2500    -999.2500    -999.2500    -999.2500       5.9677       2.4581
   2078.2788      14.9600      -0.0067     104.2281    -999.2500      34.3605    -999.2500    -999.2500    -999.2500    -999.2500       5.8088       2.4649
   2078.4312      14.8563      -0.0116     103.9984    -999.2500      33.8843    -999.2500    -999.2500    -999.2500    -999.2500       5.7789       2.4541
   2078.5835      14.7614      -0.0055     104.0366    -999.2500      34.6779    -999.2500    -999.2500    -999.2500    -999.2500       5.4530       2.4615
   2078.7358      14.5622      -0.0067     103.7588    -999.2500      34.7979    -999.2500    -999.2500    -999.2500    -999.2500       5.2230       2.4716
   2078.8884      14.4460      -0.0080     104.0456    -999.2500      35.5794    -999.2500    -999.2500    -999.2500    -999.2500       4.7480       2.4797
   2079.0408      14.3263      -0.0081     104.5952    -999.2500      33.1986    -999.2500    -999.2500    -999.2500    -999.2500       4.6969       2.4852
   2079.1931      14.1582      -0.0106     104.7446    -999.2500      33.6082    -999.2500    -999.2500    -999.2500    -999.2500       4.6261       2.4766
   2079.3455      14.2060      -0.0163     104.8795    -999.2500      34.2695    -999.2500    -999.2500    -999.2500    -999.2500       4.9486       2.4687
   2079.4978      14.2913      -0.0204     105.2100    -999.2500      36.6633    -999.2500    -999.2500    -999.2500    -999.2500       5.1862       2.4594
   2079.6504      14.3626      -0.0221     105.2876    -999.2500      36.6505    -999.2500    -999.2500    -999.2500    -999.2500       5.4151       2.4474
   2079.8027      14.3760      -0.0180     105.8493    -999.2500      36.6718    -999.2500    -999.2500    -999.2500    -999.2500       5.2582       2.4516
   2079.9551      14.3980      -0.0188     106.4350    -999.2500      37.9814    -999.2500    -999.2500    -999.2500    -999.2500       5.4311       2.4502
   2080.1074      14.5680      -0.0131     106.3684    -999.2500      36.6588    -999.2500    -999.2500    -999.2500    -999.2500       5.4155       2.4635
   2080.2600      14.6828      -0.0109     106.2047    -999.2500      36.4118    -999.2500    -999.2500    -999.2500    -999.2500       5.3261       2.4612
   2080.4124      14.7294      -0.0113     105.0525    -999.2500      35.2988    -999.2500    -999.2500    -999.2500    -999.2500       5.2405       2.4627
   2080.5647      14.7428      -0.0114     105.3559    -999.2500      36.6214    -999.2500    -999.2500    -999.2500    -999.2500       5.0674       2.4525
   2080.7170      14.6916      -0.0102     105.4876    -999.2500      35.8805    -999.2500    -999.2500    -999.2500    -999.2500       5.1588       2.4528
   2080.8696      14.4868      -0.0128     105.5009    -999.2500      35.6709    -999.2500    -999.2500    -999.2500    -999.2500       5.1336       2.4464
   2081.0220      14.3288      -0.0122     104.8866    -999.2500      34.2160    -999.2500    -999.2500    -999.2500    -999.2500       5.1356       2.4585
   2081.1743      14.3163      -0.0129     104.5983    -999.2500      33.3308    -999.2500    -999.2500    -999.2500    -999.2500       5.3356       2.4560
   2081.3267      14.3760      -0.0142     103.8257    -999.2500      32.5373    -999.2500    -999.2500    -999.2500    -999.2500       5.1728       2.4530
   2081.4790      14.4527      -0.0111     103.5516    -999.2500      34.2567    -999.2500    -999.2500    -999.2500    -999.2500       5.2428       2.4526
   2081.6316      14.5181      -0.0117     103.9612    -999.2500      36.3730    -999.2500    -999.2500    -999.2500    -999.2500       5.0693       2.4554
   2081.7839      14.4758      -0.0111     104.0108    -999.2500      36.6375    -999.2500    -999.2500    -999.2500    -999.2500       4.9525       2.4581
   2081.9363      14.5910      -0.0101     104.2122    -999.2500      37.2988    -999.2500    -999.2500    -999.2500    -999.2500       5.1612       2.4555
   2082.0886      14.7021      -0.0109     104.4133    -999.2500      34.7858    -999.2500    -999.2500    -999.2500    -999.2500       5.2167       2.4498
   2082.2412      14.8253      -0.0168     104.5269    -999.2500      35.9762    -999.2500    -999.2500    -999.2500    -999.2500       5.5469       2.4389
   2082.3936      14.8619      -0.0173     104.8915    -999.2500      33.1986    -999.2500    -999.2500    -999.2500    -999.2500       5.6628       2.4356
   2082.5459      14.8186      -0.0184     105.1009    -999.2500      35.1826    -999.2500    -999.2500    -999.2500    -999.2500       5.6909       2.4353
   2082.6982      14.6109      -0.0189     105.1057    -999.2500      32.9453    -999.2500    -999.2500    -999.2500    -999.2500       5.7575       2.4350
   2082.8508      14.4181      -0.0199     104.5778    -999.2500      33.2210    -999.2500    -999.2500    -999.2500    -999.2500       5.5609       2.4356
   2083.0032      14.3801      -0.0158     104.3861    -999.2500      30.7902    -999.2500    -999.2500    -999.2500    -999.2500       5.5508       2.4422
   2083.1555      14.3974      -0.0169     104.6127    -999.2500      30.0062    -999.2500    -999.2500    -999.2500    -999.2500       5.4885       2.4350
   2083.3079      14.4758      -0.0147     103.8911    -999.2500      32.3758    -999.2500    -999.2500    -999.2500    -999.2500       5.4131       2.4362
   2083.4602      14.5907      -0.0153     104.0422    -999.2500      32.4367    -999.2500    -999.2500    -999.2500    -999.2500       5.4766       2.4466
   2083.6128      14.6224      -0.0148     102.9075    -999.2500      35.0744    -999.2500    -999.2500    -999.2500    -999.2500       5.2537       2.4652
   2083.7651      14.6228      -0.0191     102.4297    -999.2500      33.0904    -999.2500    -999.2500    -999.2500    -999.2500       5.3427       2.4721
   2083.9175      14.7409      -0.0207     102.4786    -999.2500      33.6086    -999.2500    -999.2500    -999.2500    -999.2500       5.6584       2.4583
   2084.0698      14.8443      -0.0218     102.4090    -999.2500      36.1244    -999.2500    -999.2500    -999.2500    -999.2500       5.8342       2.4426
   2084.2224      14.8648      -0.0209     101.7437    -999.2500      35.7387    -999.2500    -999.2500    -999.2500    -999.2500       5.5613       2.4356
   2084.3748      14.8619      -0.0181     102.9054    -999.2500      36.6646    -999.2500    -999.2500    -999.2500    -999.2500       5.1723       2.4462
   2084.5271      14.7320      -0.0150     103.8322    -999.2500      34.4137    -999.2500    -999.2500    -999.2500    -999.2500       4.9349       2.4589
   2084.6794      14.5680      -0.0134     103.6761    -999.2500      36.5702    -999.2500    -999.2500    -999.2500    -999.2500       5.2032       2.4731
   2084.8320      14.4527      -0.0136     103.5439    -999.2500      40.1414    -999.2500    -999.2500    -999.2500    -999.2500       5.2907       2.4687
   2084.9844      14.4009      -0.0139     103.4323    -999.2500      40.9214    -999.2500    -999.2500    -999.2500    -999.2500       5.2846       2.4570
   2085.1367      14.4614      -0.0198     103.8093    -999.2500      41.1345    -999.2500    -999.2500    -999.2500    -999.2500       5.0539       2.4343
   2085.2891      14.5705      -0.0157     105.9017    -999.2500      36.2517    -999.2500    -999.2500    -999.2500    -999.2500       5.0829       2.4334
   2085.4414      14.6513      -0.0117     106.0665    -999.2500      33.7503    -999.2500    -999.2500    -999.2500    -999.2500       5.1650       2.4408
