#------------------------------------------------------------------------------
#
#   Created by  : [OpenWorks] Log Export Utility (LEXP)
#   Created on  : 2016-05-13 12:21:08
#   Project     : CANT971
#   User        : R5K
#   Interpreter : PEP
#
#------------------------------------------------------------------------------
~VERSION INFORMATION
VERS. 2.0 : CWLS Log ASCII Standard - version 2.0
WRAP.  NO : One line per depth step
~WELL INFORMATION
#MNEMONIC   .UNIT                                           VALUE :DESCRIPTION
#------------------------------------------------------------------------------
STRT        .M                                          1966.7219 :START DEPTH
STOP        .M                                          3141.8784 :STOP DEPTH
STEP        .M                                             0.1524 :STEP
NULL        .                                           -999.2500 :NULL VALUE
COMP        .                                             UNKNOWN :COMPANY
WELL        .                                                3034 :WELL
FLD         .                                             UNKNOWN :FIELD
LOC         .                                             UNKNOWN :LOCATION
CNTY        .                                             UNKNOWN :COUNTY
STAT        .                                             UNKNOWN :STATE
CTRY        .                                             UNKNOWN :COUNTRY
SRVC        .                                             UNKNOWN :SERVICE COMPANY
DATE        .                                             UNKNOWN :LOG DATE
UWI         .                                                3034 :UNIQUE WELL ID
XCOORD      .                                            0.000000 :SURFACE X
YCOORD      .                                            0.000000 :SURFACE Y
LAT         .                                            0.000000 :LATITUDE
LON         .                                            0.000000 :LONGITUDE
ELEV        .M                                             0.0000 :SURFACE ELEV
ELEV_TYPE   .                                                  KB :ELEV TYPE
~CURVE INFORMATION
#MNEMONIC.UNIT        API CODE       : CURVE DESCRIPTION
#------------------------------------------------------------------------------
DEPTH    .M                          : Measured Depth
CALI     .inches      UNKNOWN        : CALI:LDL-GR:r1:0001:v2 
DRHO     .g/cm3       UNKNOWN        : DRHO:LDL-GR:r1:0001:v2 
DT       .us/ft       UNKNOWN        : DT:sonico:r1:0001:v2 
GR-LWD   .API         UNKNOWN        : GR-LWD:PETROWORKS:rC:NONE:v5 
GR       .API         UNKNOWN        : GR:LDL-GR:r1:0001:v2 
LLD-LWD  .ohm.m       UNKNOWN        : LLD-LWD:PETROWORKS:rC:NONE:v5 
LLM-LWD  .UNKNOWN     UNKNOWN        : LLM-LWD:PETROWORKS:rC:NONE:v5 
LLS-LWD  .ohm.m       UNKNOWN        : LLS-LWD:PETROWORKS:rC:NONE:v5 
MSFL-LWD .ohm.m       UNKNOWN        : MSFL-LWD:PETROWORKS:rC:NONE:v5 
PEF      .b/elec      UNKNOWN        : PEF:LDL-GR:r1:0001:v2 
RHOB     .g/cm3       UNKNOWN        : RHOB:LDL-GR:r1:0001:v2 
~A     DEPTH         CALI         DRHO           DT       GR-LWD           GR      LLD-LWD      LLM-LWD      LLS-LWD     MSFL-LWD          PEF         RHOB
# ...
   2687.8787       9.0796      -0.0242      94.4912      37.2371      35.1592       2.1952       1.9245       1.8754       1.8448       5.5276       2.2933
   2688.0310       9.0724      -0.0204      91.1897      39.5945      33.5515       2.0291       1.8961       1.8884       1.8176       5.9447       2.3669
   2688.1836       9.0773      -0.0204      87.0886      37.9376      31.6680       2.0195       1.9009       1.8592       1.8299       6.0060       2.4374
   2688.3359       9.0785      -0.0178      85.2774      36.2807      32.6204       2.0099       1.9058       1.8300       1.8422       6.4331       2.4953
   2688.4883       9.0816      -0.0242      82.2001      31.6394      30.8873       2.0015       1.9826       1.8443       1.7838       6.2191       2.5062
   2688.6406       9.0773      -0.0242      81.2113      34.1277      29.8027       1.9280       1.8354       1.8100       1.7428       5.9414       2.4996
   2688.7932       9.0802      -0.0267      82.0245      33.9753      29.1207       1.8902       1.7925       1.7750       1.7174       5.8347       2.4616
   2688.9456       9.0802      -0.0255      84.7270      33.8229      32.0287       1.8525       1.7497       1.7399       1.6919       5.6617       2.4253
   2689.0979       9.0762      -0.0268      89.0260      32.8844      36.0960       1.7158       1.6404       1.7231       1.6635       5.6011       2.3844
   2689.2502       9.0805      -0.0262      89.9882      34.2828      37.0233       1.5550       1.5245       1.6815       1.6674       5.4294       2.3543
   2689.4028       9.0802      -0.0272      89.1857      39.9015      41.1368       1.5921       1.5296       1.6953       1.6868       5.2882       2.3224
   2689.5552       9.0778      -0.0265      89.4749      36.8578      41.7310       1.6337       1.5877       1.7235       1.7132       5.2580       2.3071
   2689.7075       9.0842      -0.0240      89.1006      33.8141      45.8065       1.6754       1.6458       1.7517       1.7397       5.1726       2.3024
   2689.8599       9.0773      -0.0236      86.8677      30.4012      44.2088       1.7554       1.8617       1.8879       1.8259       5.4267       2.3065
   2690.0122       9.0805      -0.0173      87.0495      33.2861      44.7489       1.8637       2.1000       2.2057       1.9999       5.5192       2.3235
   2690.1648       9.0762      -0.0161      81.4813      33.6662      41.4683       1.9006       2.2299       2.2469       2.0939       5.7455       2.3541
   2690.3171       9.0802      -0.0127      76.8567      34.0463      39.7540       1.9375       2.3598       2.2882       2.1879       5.5863       2.4015
   2690.4695       9.0789      -0.0066      75.3134      34.6155      35.5364       1.9679       2.2724       2.3009       2.3521       5.7608       2.4559
   2690.6218       9.0785      -0.0024      73.7733      33.1235      34.0791       1.9942       2.0710       2.2114       2.2840       5.9218       2.4827
   2690.7744       9.0825      -0.0067      75.5222      44.9696      31.6081       1.9353       2.0248       2.1444       2.2058       6.4404       2.4938
   2690.9268       9.0778      -0.0084      75.8952      42.4648      33.2984       1.9908       2.0494       2.1216       2.1663       6.2169       2.4850
   2691.0791       9.0785      -0.0063      78.7151      39.9600      35.9409       2.0464       2.0741       2.0989       2.1268       5.9874       2.4650
   2691.2314       9.0785      -0.0118      78.9318      41.7524      39.1563       2.3997       2.1275       2.0654       2.1780       5.5720       2.4064
   2691.3840       9.0492      -0.0173      77.0840      40.3674      38.8257       2.5012       2.2735       2.1617       2.2442       5.4587       2.3842
   2691.5364       9.0150      -0.0133      73.8058      40.7548      38.3028       2.5463       2.3102       2.2071       2.2785       5.5565       2.4082
   2691.6887       8.9932      -0.0053      71.2802      41.1422      37.9559       2.5914       2.3468       2.2525       2.3128       6.0373       2.4554
   2691.8411       8.9717      -0.0036      70.4094      44.0866      38.4503       2.6194       2.4996       2.4430       2.4645       6.0266       2.4653
   2691.9934       8.9688      -0.0047      70.9159      41.8441      36.8606       2.6262       2.4972       2.4574       2.4402       6.1435       2.4464
   2692.1460       8.9608      -0.0074      69.9057      42.4840      36.6027       2.5985       2.5079       2.4021       2.3904       6.1841       2.4130
   2692.2983       8.9661      -0.0039      69.2607      48.2006      36.2380       2.6038       2.5062       2.3904       2.3679       5.9641       2.3874
   2692.4507       8.9561      -0.0038      67.0176      53.9172      39.6825       2.6091       2.5044       2.3787       2.3454       5.7812       2.3666
   2692.6030       8.9158      -0.0022      70.5969      46.6125      39.4174       2.9181       2.5447       2.3432       2.2877       5.3691       2.3635
   2692.7556       8.9226      -0.0019      68.4789      42.9968      42.0144       3.3424       2.7494       2.4518       2.3730       5.3395       2.3658
   2692.9080       8.9216       0.0019      67.0555      42.5781      42.4039       3.4897       2.7394       2.4936       2.3782       5.3050       2.3774
   2693.0603       8.9110       0.0005      66.3778      42.1595      43.1918       3.6369       2.7295       2.5355       2.3834       5.6350       2.4053
   2693.2126       8.8892      -0.0001      64.6968      42.4398      40.9595       3.6564       2.9745       2.7091       2.5369       5.9649       2.4473
   2693.3652       8.8659      -0.0032      65.5571      36.3270      38.8478       3.8541       3.3613       2.9935       2.6705       6.0824       2.4974
   2693.5176       8.8417      -0.0043      62.2973      36.8209      38.6756       4.0108       3.6693       3.2108       2.8108       6.0493       2.5344
   2693.6699       8.8418      -0.0071      61.2035      37.3147      36.7839       4.1676       3.9772       3.4280       2.9511       5.9791       2.5782
   2693.8223       8.8417      -0.0085      59.4839      30.8016      32.5445       6.1724       6.1193       5.2949       4.2996       6.1839       2.6178
   2693.9746       8.8435      -0.0055      61.6764      23.5809      28.5891       7.1138       7.1769       6.0383       5.0845       6.6917       2.6413
   2694.1272       8.8428      -0.0078      63.4772      20.0390      24.4844       7.5223       8.0759       6.9350       5.8607       7.3066       2.6371
   2694.2795       8.8447      -0.0099      62.9057      23.3020      23.0478       7.6159       8.3381       7.0345       6.3454       7.7301       2.6311
   2694.4319       8.8408      -0.0087      62.8620      24.5323      19.8856       6.6800       7.9174       7.3517       6.9358       7.5140       2.6352
   2694.5842       8.8457      -0.0024      62.7272      23.1890      21.0773       6.5633       7.3785       7.0124       7.3238       7.3768       2.6464
   2694.7368       8.8418      -0.0085      61.8990      21.7239      20.9607       6.5504       7.2915       7.1339       7.4727       7.3000       2.6453
   2694.8892       8.8435      -0.0066      59.6169      28.0162      21.3580       6.7589       6.8790       6.9962       7.6160       7.0306       2.6488
   2695.0415       8.8465      -0.0062      65.5827      25.7842      20.8475       6.7330       6.7472       6.9014       7.6168       7.4562       2.6533
   2695.1938       8.8462      -0.0063      66.3984      31.0392      23.1906       7.0121       6.9485       6.8956       7.5056       7.0970       2.6210
   2695.3464       8.8436      -0.0109      67.9980      32.0821      26.2413       7.1298       7.0998       6.9658       7.4763       6.9299       2.5896
   2695.4988       8.8471      -0.0086      70.8626      36.2044      29.9440       7.1674       7.2601       7.2369       7.4954       6.4463       2.5607
   2695.6511       8.8447      -0.0070      72.2089      38.7462      30.2088       6.8700       6.9807       7.2447       7.6481       6.8031       2.5475
