#------------------------------------------------------------------------------
#
#   Created by  : [OpenWorks] Log Export Utility (LEXP)
#   Created on  : 2016-05-13 12:21:08
#   Project     : CANT971
#   User        : R5K
#   Interpreter : PEP
#
#------------------------------------------------------------------------------
~VERSION INFORMATION
VERS. 2.0 : CWLS Log ASCII Standard - version 2.0
WRAP.  NO : One line per depth step
~WELL INFORMATION
#MNEMONIC   .UNIT                                           VALUE :DESCRIPTION
#------------------------------------------------------------------------------
STRT        .M                                          1966.7219 :START DEPTH
STOP        .M                                          3141.8784 :STOP DEPTH
STEP        .M                                             0.1524 :STEP
NULL        .                                           -999.2500 :NULL VALUE
COMP        .                                             UNKNOWN :COMPANY
WELL        .                                                3034 :WELL
FLD         .                                             UNKNOWN :FIELD
LOC         .                                             UNKNOWN :LOCATION
CNTY        .                                             UNKNOWN :COUNTY
STAT        .                                             UNKNOWN :STATE
CTRY        .                                             UNKNOWN :COUNTRY
SRVC        .                                             UNKNOWN :SERVICE COMPANY
DATE        .                                             UNKNOWN :LOG DATE
UWI         .                                                3034 :UNIQUE WELL ID
XCOORD      .                                            0.000000 :SURFACE X
YCOORD      .                                            0.000000 :SURFACE Y
LAT         .                                            0.000000 :LATITUDE
LON         .                                            0.000000 :LONGITUDE
ELEV        .M                                             0.0000 :SURFACE ELEV
ELEV_TYPE   .                                                  KB :ELEV TYPE
~CURVE INFORMATION
#MNEMONIC.UNIT        API CODE       : CURVE DESCRIPTION
#------------------------------------------------------------------------------
DEPTH    .M                          : Measured Depth
CALI     .inches      UNKNOWN        : CALI:LDL-GR:r1:0001:v2 
DRHO     .g/cm3       UNKNOWN        : DRHO:LDL-GR:r1:0001:v2 
DT       .us/ft       UNKNOWN        : DT:sonico:r1:0001:v2 
GR-LWD   .API         UNKNOWN        : GR-LWD:PETROWORKS:rC:NONE:v5 
GR       .API         UNKNOWN        : GR:LDL-GR:r1:0001:v2 
LLD-LWD  .ohm.m       UNKNOWN        : LLD-LWD:PETROWORKS:rC:NONE:v5 
LLM-LWD  .UNKNOWN     UNKNOWN        : LLM-LWD:PETROWORKS:rC:NONE:v5 
LLS-LWD  .ohm.m       UNKNOWN        : LLS-LWD:PETROWORKS:rC:NONE:v5 
MSFL-LWD .ohm.m       UNKNOWN        : MSFL-LWD:PETROWORKS:rC:NONE:v5 
PEF      .b/elec      UNKNOWN        : PEF:LDL-GR:r1:0001:v2 
RHOB     .g/cm3       UNKNOWN        : RHOB:LDL-GR:r1:0001:v2 
~A     DEPTH         CALI         DRHO           DT       GR-LWD           GR      LLD-LWD      LLM-LWD      LLS-LWD     MSFL-LWD          PEF         RHOB
# ...
   2481.8340      14.7320      -0.0163     100.9434      77.3957      47.5388       1.5309       1.4770       1.4717       1.5140       6.4187       2.3483
   2481.9863      14.7334      -0.0152     100.0917      78.5054      49.0115       1.5286       1.4829       1.4762       1.5214       7.0660       2.3482
   2482.1387      14.7329      -0.0125      99.5980      75.6353      48.4915       1.5563       1.5156       1.4792       1.5109       7.8067       2.3525
   2482.2910      14.7176      -0.0091     100.8479      74.2793      51.1298       1.5831       1.5402       1.4896       1.5173       7.7715       2.3614
   2482.4436      14.7263      -0.0052      99.1068      75.6928      50.5917       1.5833       1.5353       1.4934       1.5274       6.9599       2.3803
   2482.5959      14.7835      -0.0031      98.6022      77.1063      48.2155       1.5836       1.5304       1.4973       1.5375       5.7215       2.4042
   2482.7483      14.8286      -0.0033      98.2917      78.5912      44.1087       1.5897       1.5276       1.4930       1.5371       5.5144       2.4145
   2482.9006      14.8430      -0.0047      97.9790      81.2755      41.3349       1.6141       1.5615       1.5091       1.5288       5.5417       2.4167
   2483.0532      14.8459      -0.0042      96.3798      85.8515      40.0016       1.6112       1.5636       1.5103       1.5325       6.0404       2.4203
   2483.2056      14.8488      -0.0061      96.1346      90.4276      40.7961       1.6083       1.5658       1.5115       1.5363       5.9598       2.4182
   2483.3579      14.8446      -0.0056      96.0682      87.3638      44.2491       1.5721       1.5226       1.4837       1.5203       6.0787       2.4211
   2483.5103      14.8414      -0.0070      97.3640      75.9043      43.8517       1.5491       1.4883       1.4604       1.4968       5.9837       2.4118
   2483.6628      14.8272      -0.0120      97.3181      75.6147      42.9248       1.5459       1.4822       1.4528       1.4881       6.5927       2.3853
   2483.8152      14.7853      -0.0176      98.5862      75.3251      39.9947       1.5428       1.4762       1.4453       1.4794       7.6901       2.3370
   2483.9675      14.7147      -0.0160      99.6127      75.3251      40.5246       1.5372       1.4674       1.4266       1.4599       9.2870       2.3084
   2484.1199      14.6680      -0.0151     101.6937      78.9359      42.1135       1.5672       1.4856       1.4326       1.4636      11.0336       2.3060
   2484.2722      14.6381      -0.0065     102.8865      83.1568      45.9481       1.5753       1.5158       1.4584       1.4874      11.4269       2.3269
   2484.4248      14.6166       0.0021     103.0800      81.7865      48.2003       1.5826       1.5160       1.4520       1.4815       9.1622       2.3421
   2484.5771      14.6772       0.0020     104.9472      80.4163      49.1272       1.5900       1.5162       1.4456       1.4757       7.0994       2.3438
   2484.7295      14.8086      -0.0003     103.8389      87.7756      45.4320       1.5811       1.5286       1.4618       1.4673       5.9022       2.3404
   2484.8818      14.8128      -0.0004     105.5129      97.4934      45.5554       1.4644       1.4613       1.3981       1.4031       5.7234       2.3378
   2485.0344      14.8015      -0.0077     107.1071      96.4211      45.4314       1.3862       1.3850       1.3433       1.3601       7.2324       2.3238
   2485.1868      14.8042      -0.0153     109.5567      95.3488      50.5882       1.3080       1.3087       1.2886       1.3171      10.5989       2.3135
   2485.3391      14.8590      -0.0190     113.7347      86.0303      49.9731       1.1440       1.1153       1.1352       1.1809      18.0370       2.3015
   2485.4915      14.8388      -0.0418     116.4725     103.8330      48.7808       1.0834       1.0174       1.0067       1.0386      20.9286       2.2399
   2485.6440      15.1042      -0.0519     116.2061     103.8330      47.5891       1.0742       1.0087       0.9980       1.0347      25.3679       2.2234
   2485.7964      15.4197      -0.0463     117.8982     103.8330      46.3586       1.0651       1.0000       0.9892       1.0309      27.6651       2.2279
   2485.9487      15.3866      -0.0489     121.8467     102.5596      45.9611       1.0440       0.9769       0.9787       1.0320      33.7105       2.2469
   2486.1011      15.6123      -0.0557     118.5578      94.2402      46.6232       1.0571       0.9853       0.9920       1.0404      33.1448       2.2477
   2486.2534      15.6033      -0.0409     115.1462      87.9409      45.1513       1.2582       1.2043       1.1741       1.1951      40.7815       2.2804
   2486.4060      15.6333      -0.0314     115.7491      88.2111      45.9383       1.2872       1.2417       1.2135       1.2384      37.2676       2.3147
   2486.5583      16.1573      -0.0299     113.7580      88.4813      43.1496       1.3162       1.2791       1.2529       1.2817      27.0905       2.3247
   2486.7107      16.2150      -0.0230     109.9672      87.0619      46.2023       1.3068       1.2802       1.2825       1.3154      20.7504       2.3320
   2486.8630      16.5271      -0.0118     104.2558      87.6385      46.5914       1.2809       1.2827       1.2806       1.2966      17.3746       2.3451
   2487.0156      15.2988      -0.0095     101.4535      87.3942      49.5124       1.2838       1.2827       1.2698       1.2893      14.8166       2.3591
   2487.1680      14.9250      -0.0028     100.0036      87.1499      52.0282       1.2868       1.2828       1.2590       1.2819      10.5980       2.3763
   2487.3203      14.8922      -0.0051      99.9091      85.6087      55.0817       1.2549       1.2292       1.2131       1.2522       7.5665       2.3771
   2487.4727      14.7640      -0.0086     100.8008      79.0008      53.4840       1.2619       1.2016       1.2014       1.2388       6.4602       2.3717
   2487.6252      14.7176      -0.0124     102.8570      77.9619      48.5926       1.2566       1.2043       1.2020       1.2480       6.5967       2.3654
   2487.7776      14.6772      -0.0101     108.8209      76.9230      48.3758       1.2513       1.2071       1.2026       1.2572       6.5851       2.3775
   2487.9299      14.6772      -0.0133     110.5323      78.8333      46.5386       1.1791       1.1260       1.1508       1.2238       6.7682       2.3807
   2488.0823      14.6625      -0.0095     113.1420      81.2499      49.9831       1.1357       1.0670       1.0841       1.1508       7.9504       2.3880
   2488.2346      14.4927      -0.0103     115.5616      85.2554      48.6110       1.1100       1.0300       1.0348       1.0950      10.4061       2.3688
   2488.3872      13.5918      -0.0155     115.1784      86.0811      51.9230       1.1191       1.0400       1.0498       1.1094      14.4935       2.3386
   2488.5396      14.5169      -0.0110     108.6665      86.9067      47.2862       1.1283       1.0500       1.0648       1.1238      16.9315       2.3414
   2488.6919      15.0797      -0.0027     107.2199      84.7293      45.5649       1.1638       1.1101       1.1280       1.1875      17.7879       2.3781
   2488.8442      16.0699       0.0024     108.1445      81.2606      39.6033       1.1936       1.1932       1.2219       1.2533      11.7746       2.4134
   2488.9968      15.7764       0.0036     106.6218      81.2650      39.7287       1.2125       1.2219       1.2325       1.2601       8.0440       2.4123
   2489.1492      15.1635       0.0040     104.2441      81.2693      41.7239       1.2313       1.2506       1.2430       1.2669       8.4923       2.3873
   2489.3015      14.7305       0.0017     105.4242      80.7874      42.2472       1.2777       1.2984       1.2572       1.2804      10.9921       2.3531
   2489.4539      14.6641       0.0016     105.7833      81.6377      44.4981       1.2914       1.2897       1.2507       1.2706      13.9368       2.3551
   2489.6064      14.7564       0.0064     112.2719      83.1070      42.3705       1.2289       1.2140       1.1933       1.2185      14.4139       2.3613
