#------------------------------------------------------------------------------
#
#   Created by  : [OpenWorks] Log Export Utility (LEXP)
#   Created on  : 2016-05-13 12:21:08
#   Project     : CANT971
#   User        : R5K
#   Interpreter : PEP
#
#------------------------------------------------------------------------------
~VERSION INFORMATION
VERS. 2.0 : CWLS Log ASCII Standard - version 2.0
WRAP.  NO : One line per depth step
~WELL INFORMATION
#MNEMONIC   .UNIT                                           VALUE :DESCRIPTION
#------------------------------------------------------------------------------
STRT        .M                                          1966.7219 :START DEPTH
STOP        .M                                          3141.8784 :STOP DEPTH
STEP        .M                                             0.1524 :STEP
NULL        .                                           -999.2500 :NULL VALUE
COMP        .                                             UNKNOWN :COMPANY
WELL        .                                                3034 :WELL
FLD         .                                             UNKNOWN :FIELD
LOC         .                                             UNKNOWN :LOCATION
CNTY        .                                             UNKNOWN :COUNTY
STAT        .                                             UNKNOWN :STATE
CTRY        .                                             UNKNOWN :COUNTRY
SRVC        .                                             UNKNOWN :SERVICE COMPANY
DATE        .                                             UNKNOWN :LOG DATE
UWI         .                                                3034 :UNIQUE WELL ID
XCOORD      .                                            0.000000 :SURFACE X
YCOORD      .                                            0.000000 :SURFACE Y
LAT         .                                            0.000000 :LATITUDE
LON         .                                            0.000000 :LONGITUDE
ELEV        .M                                             0.0000 :SURFACE ELEV
ELEV_TYPE   .                                                  KB :ELEV TYPE
~CURVE INFORMATION
#MNEMONIC.UNIT        API CODE       : CURVE DESCRIPTION
#------------------------------------------------------------------------------
DEPTH    .M                          : Measured Depth
CALI     .inches      UNKNOWN        : CALI:LDL-GR:r1:0001:v2 
DRHO     .g/cm3       UNKNOWN        : DRHO:LDL-GR:r1:0001:v2 
DT       .us/ft       UNKNOWN        : DT:sonico:r1:0001:v2 
GR-LWD   .API         UNKNOWN        : GR-LWD:PETROWORKS:rC:NONE:v5 
GR       .API         UNKNOWN        : GR:LDL-GR:r1:0001:v2 
LLD-LWD  .ohm.m       UNKNOWN        : LLD-LWD:PETROWORKS:rC:NONE:v5 
LLM-LWD  .UNKNOWN     UNKNOWN        : LLM-LWD:PETROWORKS:rC:NONE:v5 
LLS-LWD  .ohm.m       UNKNOWN        : LLS-LWD:PETROWORKS:rC:NONE:v5 
MSFL-LWD .ohm.m       UNKNOWN        : MSFL-LWD:PETROWORKS:rC:NONE:v5 
PEF      .b/elec      UNKNOWN        : PEF:LDL-GR:r1:0001:v2 
RHOB     .g/cm3       UNKNOWN        : RHOB:LDL-GR:r1:0001:v2 
~A     DEPTH         CALI         DRHO           DT       GR-LWD           GR      LLD-LWD      LLM-LWD      LLS-LWD     MSFL-LWD          PEF         RHOB
# ...
   2616.5554       9.1494      -0.0270      99.7227      48.1521      50.4747       1.7739       1.7628       1.6863       1.6697       4.8065       2.3843
   2616.7080       9.1454      -0.0274      99.8247      48.1626      47.8307       1.7674       1.7572       1.6853       1.6721       5.0366       2.3920
   2616.8604       9.1540      -0.0272     100.4555      48.1731      44.7836       1.7609       1.7516       1.6843       1.6745       5.0065       2.3923
   2617.0127       9.1790      -0.0273     101.4331      48.7836      45.0395       1.7264       1.7296       1.6782       1.6814       5.0911       2.3853
   2617.1650       9.1783      -0.0284      99.5927      48.7936      48.0223       1.7089       1.7257       1.6866       1.6858       4.9050       2.3697
   2617.3176       9.1684      -0.0277      98.1548      48.9140      51.7224       1.7124       1.7287       1.6865       1.6840       5.0093       2.3696
   2617.4700       9.1521      -0.0234      98.0336      49.0344      49.2143       1.7158       1.7318       1.6863       1.6822       5.2172       2.3887
   2617.6223       9.1511      -0.0201      97.1866      48.8184      46.0857       1.6836       1.6920       1.6445       1.6562       5.4864       2.4007
   2617.7747       9.1292      -0.0192      96.3953      47.4545      42.4537       1.6781       1.6848       1.6316       1.6393       5.3717       2.4090
   2617.9270       9.0992      -0.0190      95.5824      46.0905      42.4460       1.6726       1.6775       1.6186       1.6224       5.0521       2.4127
   2618.0796       9.1036      -0.0134      95.9000      46.2782      40.0627       1.6687       1.6621       1.5982       1.5836       4.8575       2.4152
   2618.2319       9.0992      -0.0095      95.8859      47.9052      41.1789       1.6333       1.5935       1.5268       1.5146       4.9282       2.4098
   2618.3843       9.1062      -0.0037      94.9353      48.0110      41.9589       1.6286       1.5914       1.5177       1.5090       5.0168       2.4056
   2618.5366       9.0860      -0.0025      94.7227      48.1168      45.2691       1.6239       1.5892       1.5086       1.5034       5.0927       2.4081
   2618.6892       9.0794      -0.0023      94.4279      48.3283      42.7534       1.6145       1.5849       1.4903       1.4921       5.0902       2.4090
   2618.8416       9.0802      -0.0050      96.8469      48.9486      41.1861       1.5810       1.5495       1.4664       1.4606       5.2277       2.4051
   2618.9939       9.0802      -0.0100      96.8446      49.5689      40.4125       1.5475       1.5141       1.4425       1.4290       5.1881       2.3960
   2619.1462       9.0814      -0.0155      97.0095      43.6492      42.7958       1.3951       1.3568       1.3276       1.3298       5.1901       2.3937
   2619.2988       9.0744      -0.0150      97.0220      53.3150      42.6634       1.3632       1.3025       1.2733       1.2913       5.0775       2.3988
   2619.4512       9.0735      -0.0181      97.0013      52.4743      42.1129       1.3436       1.2822       1.2666       1.2922       5.1406       2.4082
   2619.6035       9.0340      -0.0170      98.1982      51.6337      39.5972       1.3240       1.2619       1.2600       1.2931       5.0209       2.4068
   2619.7559       9.0265      -0.0185      98.4435      48.4668      40.9186       1.3477       1.2842       1.3018       1.3310       5.1443       2.4005
   2619.9082       9.0067      -0.0170      98.7302      53.6966      43.5758       1.3656       1.3113       1.3226       1.3456       5.5821       2.3894
   2620.0608       8.9976      -0.0198      99.3167      58.9265      48.0777       1.3834       1.3384       1.3433       1.3603       6.2639       2.3764
   2620.2131       8.9936      -0.0122      99.9947      51.1213      47.3434       1.4242       1.4224       1.3860       1.3964       6.8857       2.3763
   2620.3655       8.9970      -0.0086     100.5901      51.1213      46.5486       1.4902       1.5321       1.4563       1.4547       6.3541       2.3739
   2620.5178       8.9965      -0.0066     101.7974      51.2457      45.6217       1.5820       1.5918       1.4941       1.4980       5.4317       2.3736
   2620.6704       9.0254      -0.0050     101.3488      51.3701      48.5883       1.6738       1.6515       1.5318       1.5413       4.7093       2.3828
   2620.8228       9.0265       0.0013     100.4207      52.0095      49.1182       1.8310       1.7778       1.6806       1.6919       4.7145       2.3950
   2620.9751       9.0223       0.0020     101.0530      52.0095      50.1866       1.8584       1.8108       1.7373       1.7696       5.4865       2.4077
   2621.1274       8.9814       0.0011     102.2377      52.0095      51.3922       1.8857       1.8437       1.7939       1.8473       7.4947       2.3992
   2621.2800       8.8775       0.0024     103.6501      58.9865      55.3497       1.8954       1.8508       1.8520       1.8927       9.8296       2.3919
   2621.4324       8.8071       0.0021     104.0139      66.9262      57.0620       1.9035       1.8816       1.8789       1.8940      11.1011       2.3818
   2621.5847       8.8229       0.0012     104.4968      74.8659      60.2283       1.9115       1.9123       1.9059       1.8953      10.3788       2.3775
   2621.7371       8.8803       0.0036     105.0849      75.2889      57.6338       1.9391       1.9669       1.9253       1.8904      10.8210       2.3819
   2621.8894       8.8475       0.0013     104.3895      75.7120      58.5502       1.9668       2.0214       1.9447       1.8855      11.0854       2.3779
   2622.0420       8.8542      -0.0003     102.2063      65.3532      57.4915       2.0205       2.0830       1.9660       1.9058      11.2968       2.3802
   2622.1943       8.8572      -0.0016     101.2232      58.2670      57.1209       2.0314       2.0951       1.9710       1.9093       9.9878       2.3887
   2622.3467       8.8562      -0.0016     100.4358      51.1808      55.0035       2.0422       2.1072       1.9760       1.9127       7.7774       2.4088
   2622.4990       8.9331      -0.0063      99.6288      49.1328      50.2477       2.0847       2.1102       1.9856       1.9026       5.9773       2.4236
   2622.6516       8.9948      -0.0093      97.5196      52.9096      47.1279       2.1595       2.1248       1.9957       1.9203       5.3034       2.4328
   2622.8040       8.9916      -0.0126      96.5400      48.2528      44.6097       2.2076       2.1378       1.9992       1.9167       5.3892       2.4220
   2622.9563       8.9879      -0.0156      96.5762      48.4806      44.9984       2.2155       2.1266       1.9959       1.9273       5.6776       2.4144
   2623.1086       8.9889      -0.0182      97.1476      48.7084      45.7847       2.2235       2.1155       1.9926       1.9379       5.8686       2.4038
   2623.2612       8.9255      -0.0184      97.1620      51.4038      45.2980       2.1956       2.0741       1.9761       1.9509       6.0562       2.4077
   2623.4136       8.9197      -0.0159      97.4496      53.2550      44.3797       2.1553       2.0388       1.9424       1.9323       5.8089       2.4052
   2623.5659       8.9158      -0.0160      96.7455      54.6350      47.1684       2.1230       2.0035       1.9048       1.8978       5.6099       2.4118
   2623.7183       8.9179      -0.0153      96.5559      54.3849      50.1920       2.1256       2.0154       1.9086       1.8931       5.2986       2.4177
   2623.8706       8.9186      -0.0147      95.8340      54.1349      52.0457       2.1282       2.0273       1.9123       1.8884       5.5290       2.4260
   2624.0232       8.9215      -0.0086      92.9441      55.8751      49.6623       2.1577       2.0746       1.9409       1.9116       5.5866       2.4287
   2624.1755       8.9158      -0.0093      92.8352      52.7497      48.8626       2.1491       2.1157       1.9710       1.9310       5.7522       2.4242
   2624.3279       8.9179      -0.0132      92.6282      51.4000      47.6709       2.1179       2.1020       1.9724       1.9231       6.0706       2.4242
