#------------------------------------------------------------------------------
#
#   Created by  : [OpenWorks] Log Export Utility (LEXP)
#   Created on  : 2016-05-13 12:21:08
#   Project     : CANT971
#   User        : R5K
#   Interpreter : PEP
#
#------------------------------------------------------------------------------
~VERSION INFORMATION
VERS. 2.0 : CWLS Log ASCII Standard - version 2.0
WRAP.  NO : One line per depth step
~WELL INFORMATION
#MNEMONIC   .UNIT                                           VALUE :DESCRIPTION
#------------------------------------------------------------------------------
STRT        .M                                          1966.7219 :START DEPTH
STOP        .M                                          3141.8784 :STOP DEPTH
STEP        .M                                             0.1524 :STEP
NULL        .                                           -999.2500 :NULL VALUE
COMP        .                                             UNKNOWN :COMPANY
WELL        .                                                3034 :WELL
FLD         .                                             UNKNOWN :FIELD
LOC         .                                             UNKNOWN :LOCATION
CNTY        .                                             UNKNOWN :COUNTY
STAT        .                                             UNKNOWN :STATE
CTRY        .                                             UNKNOWN :COUNTRY
SRVC        .                                             UNKNOWN :SERVICE COMPANY
DATE        .                                             UNKNOWN :LOG DATE
UWI         .                                                3034 :UNIQUE WELL ID
XCOORD      .                                            0.000000 :SURFACE X
YCOORD      .                                            0.000000 :SURFACE Y
LAT         .                                            0.000000 :LATITUDE
LON         .                                            0.000000 :LONGITUDE
ELEV        .M                                             0.0000 :SURFACE ELEV
ELEV_TYPE   .                                                  KB :ELEV TYPE
~CURVE INFORMATION
#MNEMONIC.UNIT        API CODE       : CURVE DESCRIPTION
#------------------------------------------------------------------------------
DEPTH    .M                          : Measured Depth
CALI     .inches      UNKNOWN        : CALI:LDL-GR:r1:0001:v2 
DRHO     .g/cm3       UNKNOWN        : DRHO:LDL-GR:r1:0001:v2 
DT       .us/ft       UNKNOWN        : DT:sonico:r1:0001:v2 
GR-LWD   .API         UNKNOWN        : GR-LWD:PETROWORKS:rC:NONE:v5 
GR       .API         UNKNOWN        : GR:LDL-GR:r1:0001:v2 
LLD-LWD  .ohm.m       UNKNOWN        : LLD-LWD:PETROWORKS:rC:NONE:v5 
LLM-LWD  .UNKNOWN     UNKNOWN        : LLM-LWD:PETROWORKS:rC:NONE:v5 
LLS-LWD  .ohm.m       UNKNOWN        : LLS-LWD:PETROWORKS:rC:NONE:v5 
MSFL-LWD .ohm.m       UNKNOWN        : MSFL-LWD:PETROWORKS:rC:NONE:v5 
PEF      .b/elec      UNKNOWN        : PEF:LDL-GR:r1:0001:v2 
RHOB     .g/cm3       UNKNOWN        : RHOB:LDL-GR:r1:0001:v2 
~A     DEPTH         CALI         DRHO           DT       GR-LWD           GR      LLD-LWD      LLM-LWD      LLS-LWD     MSFL-LWD          PEF         RHOB
# ...
   2822.6003       8.7551      -0.0220      90.3016      52.4889      46.4764       1.5084       1.4441       1.4790       1.5059       5.6440       2.4994
   2822.7527       8.7590      -0.0182      91.4515      55.1454      48.4770       1.4811       1.3988       1.4393       1.4724       5.2143       2.4941
   2822.9050       8.7581      -0.0136      91.8532      63.6492      51.8144       1.5452       1.4196       1.4420       1.4992       5.4078       2.4916
   2823.0576       8.7580      -0.0081      92.0353      63.6343      54.7810       1.9325       1.7959       1.8538       1.8504       5.7618       2.4939
   2823.2100       8.7617      -0.0088      92.0402      65.1884      58.4996       2.0649       2.0070       1.9995       2.0015       5.8416       2.4928
   2823.3623       8.7580      -0.0107      91.1293      63.6478      58.1384       2.1259       2.1223       2.1185       2.0994       5.6452       2.5000
   2823.5146       8.7581      -0.0080      91.3466      62.1072      53.6075       2.1870       2.2375       2.2375       2.1973       5.3726       2.5183
   2823.6672       8.7617      -0.0076      89.6606      61.8882      47.8757       2.3850       2.4808       2.4283       2.3585       5.4161       2.5290
   2823.8196       8.7551      -0.0084      88.5335      57.6252      46.8772       2.9251       3.0004       2.8077       2.6869       5.5540       2.5304
   2823.9719       8.7619      -0.0079      86.2426      53.5836      52.1913       3.0239       3.1272       2.9076       2.7733       5.5264       2.5275
   2824.1243       8.7590      -0.0030      85.0879      49.5420      53.6872       3.1227       3.2540       3.0075       2.8596       5.6849       2.5389
   2824.2766       8.7619      -0.0041      85.3605      44.1715      49.4183       3.0004       3.1550       3.0118       2.9473       5.9439       2.5448
   2824.4292       8.7581      -0.0018      84.9551      45.4631      43.6909       2.8397       3.0004       2.8629       2.8634       5.9878       2.5497
   2824.5815       8.7580      -0.0040      84.8855      43.1373      42.7516       2.8329       2.9679       2.8081       2.8007       5.9683       2.5361
   2824.7339       8.7608      -0.0042      86.0248      40.8115      39.7276       2.8261       2.9353       2.7533       2.7379       5.4936       2.5284
   2824.8862       8.7580      -0.0055      86.6996      43.8535      37.6263       2.7878       2.8089       2.6459       2.6243       5.3388       2.5262
   2825.0388       8.7608      -0.0055      85.7261      40.9490      34.9781       2.6403       2.5391       2.4056       2.3915       5.4324       2.5338
   2825.1912       8.7581      -0.0092      86.0659      43.0421      39.4280       2.6181       2.5270       2.3902       2.3667       5.7252       2.5195
   2825.3435       8.7581      -0.0082      85.1138      42.9241      40.0460       2.6293       2.5436       2.3944       2.3547       5.8030       2.5296
   2825.4958       8.7590      -0.0082      82.4178      42.8062      36.6086       2.6406       2.5602       2.3987       2.3426       5.9474       2.5389
   2825.6484       8.7608      -0.0082      81.3148      43.3077      34.1364       2.7084       2.5735       2.3840       2.3303       6.0510       2.5555
   2825.8008       8.7572      -0.0126      84.3634      40.6331      34.4582       2.4741       2.4038       2.2488       2.2631       6.1710       2.5518
   2825.9531       8.7580      -0.0144      82.8089      40.2883      39.2582       2.3962       2.3219       2.2084       2.2092       5.8479       2.5456
   2826.1055       8.7619      -0.0169      83.4000      39.9435      41.6143       2.3182       2.2399       2.1680       2.1554       5.4113       2.5337
   2826.2578       8.7600      -0.0190      84.8302      47.6682      45.1828       2.2219       2.1394       2.0776       2.0765       5.0733       2.5163
   2826.4104       8.7554      -0.0231      86.9501      59.4047      47.1393       1.9630       1.7967       1.7899       1.8053       4.8559       2.5011
   2826.5627       8.7564      -0.0147      88.5150      57.1258      50.1164       1.9329       1.7738       1.7708       1.7944       4.8825       2.5163
   2826.7151       8.7686      -0.0107      90.8597      54.8469      53.1577       1.9027       1.7510       1.7516       1.7835       4.8737       2.5224
   2826.8674       8.7788      -0.0051      91.0895      62.8466      51.5794       1.8860       1.7127       1.7345       1.7540       4.9714       2.5393
   2827.0200       8.7887      -0.0067      90.9533      58.9064      49.1471       1.9857       1.8670       1.8697       1.8003       5.1985       2.5268
   2827.1724       8.8148      -0.0038      91.3813      58.7911      46.2468       2.1135       2.0782       1.9868       1.7868       5.0790       2.5183
   2827.3247       8.8381      -0.0070      91.4056      56.6593      49.9569       2.2162       2.1184       2.0274       1.8684       5.3498       2.5009
   2827.4771       8.8620      -0.0086      91.3187      54.5275      50.8961       2.3188       2.1586       2.0680       1.9499       5.1908       2.4858
   2827.6296       8.8623      -0.0077      91.1042      65.9309      50.2419       2.5549       2.4124       2.1819       2.0446       5.5342       2.4902
   2827.7820       8.9027      -0.0057      90.2056      52.5329      47.0265       2.7470       3.0543       2.6372       2.6309       5.6770       2.4901
   2827.9343       8.9226      -0.0070      88.2163      47.3991      45.0275       2.4763       2.6606       2.4667       2.5538       5.9546       2.4975
   2828.0867       8.9243      -0.0085      85.3757      42.2652      43.6282       2.2056       2.2668       2.2962       2.4767       5.9842       2.4979
   2828.2390       8.9302      -0.0085      87.7771      47.0084      41.0023       2.2591       2.2380       2.2620       2.3950       5.8278       2.5109
   2828.3916       8.9377      -0.0081      84.2279      52.0992      38.6667       2.4606       2.4102       2.3381       2.2507       5.8008       2.5198
   2828.5439       8.9593      -0.0094      84.3833      50.1116      39.3876       2.5331       2.4546       2.3286       2.2559       5.8685       2.5181
   2828.6963       8.9620      -0.0075      84.4651      48.1241      39.6637       2.6056       2.4990       2.3191       2.2612       5.7749       2.5077
   2828.8486       8.9754      -0.0067      84.2874      51.3467      39.2929       2.4069       2.4216       2.1994       2.1683       5.6262       2.5081
   2829.0012       8.9792      -0.0078      84.5934      47.3340      35.1939       2.3010       2.2630       2.1405       2.1091       5.4434       2.5082
   2829.1536       8.9792      -0.0118      86.7803      41.5198      36.9252       2.2936       2.2537       2.1263       2.1057       5.3350       2.4989
   2829.3059       8.9781      -0.0095      90.0642      43.6917      39.7483       2.2801       2.2411       2.1148       2.1043       5.2835       2.4967
   2829.4583       8.9774      -0.0111      90.2616      45.8635      43.5044       2.2665       2.2285       2.1033       2.1029       5.3991       2.4925
   2829.6108       8.9787      -0.0129      89.6336      42.2773      47.0513       2.2276       2.2044       2.0946       2.0931       5.1306       2.4889
   2829.7632       8.9792      -0.0136      88.5033      46.2980      48.8017       2.1105       2.0787       2.0084       2.0077       4.9868       2.4817
   2829.9155       8.9808      -0.0088      90.5212      46.6969      50.0715       2.0910       2.0542       1.9853       1.9795       4.9066       2.4808
   2830.0679       8.9872      -0.0108      91.4378      47.0958      46.8881       2.0715       2.0297       1.9623       1.9513       5.2111       2.4789
   2830.2202       8.9850      -0.0075      87.6582      50.7541      46.0307       2.0541       1.9871       1.9178       1.9140       5.4742       2.4813
   2830.3728       8.9980      -0.0028      90.3136      54.5152      45.8982       2.1236       1.9858       1.8816       1.8658       5.4512       2.4867
