#------------------------------------------------------------------------------
#
#   Created by  : [OpenWorks] Log Export Utility (LEXP)
#   Created on  : 2016-05-13 12:21:08
#   Project     : CANT971
#   User        : R5K
#   Interpreter : PEP
#
#------------------------------------------------------------------------------
~VERSION INFORMATION
VERS. 2.0 : CWLS Log ASCII Standard - version 2.0
WRAP.  NO : One line per depth step
~WELL INFORMATION
#MNEMONIC   .UNIT                                           VALUE :DESCRIPTION
#------------------------------------------------------------------------------
STRT        .M                                          1966.7219 :START DEPTH
STOP        .M                                          3141.8784 :STOP DEPTH
STEP        .M                                             0.1524 :STEP
NULL        .                                           -999.2500 :NULL VALUE
COMP        .                                             UNKNOWN :COMPANY
WELL        .                                                3034 :WELL
FLD         .                                             UNKNOWN :FIELD
LOC         .                                             UNKNOWN :LOCATION
CNTY        .                                             UNKNOWN :COUNTY
STAT        .                                             UNKNOWN :STATE
CTRY        .                                             UNKNOWN :COUNTRY
SRVC        .                                             UNKNOWN :SERVICE COMPANY
DATE        .                                             UNKNOWN :LOG DATE
UWI         .                                                3034 :UNIQUE WELL ID
XCOORD      .                                            0.000000 :SURFACE X
YCOORD      .                                            0.000000 :SURFACE Y
LAT         .                                            0.000000 :LATITUDE
LON         .                                            0.000000 :LONGITUDE
ELEV        .M                                             0.0000 :SURFACE ELEV
ELEV_TYPE   .                                                  KB :ELEV TYPE
~CURVE INFORMATION
#MNEMONIC.UNIT        API CODE       : CURVE DESCRIPTION
#------------------------------------------------------------------------------
DEPTH    .M                          : Measured Depth
CALI     .inches      UNKNOWN        : CALI:LDL-GR:r1:0001:v2 
DRHO     .g/cm3       UNKNOWN        : DRHO:LDL-GR:r1:0001:v2 
DT       .us/ft       UNKNOWN        : DT:sonico:r1:0001:v2 
GR-LWD   .API         UNKNOWN        : GR-LWD:PETROWORKS:rC:NONE:v5 
GR       .API         UNKNOWN        : GR:LDL-GR:r1:0001:v2 
LLD-LWD  .ohm.m       UNKNOWN        : LLD-LWD:PETROWORKS:rC:NONE:v5 
LLM-LWD  .UNKNOWN     UNKNOWN        : LLM-LWD:PETROWORKS:rC:NONE:v5 
LLS-LWD  .ohm.m       UNKNOWN        : LLS-LWD:PETROWORKS:rC:NONE:v5 
MSFL-LWD .ohm.m       UNKNOWN        : MSFL-LWD:PETROWORKS:rC:NONE:v5 
PEF      .b/elec      UNKNOWN        : PEF:LDL-GR:r1:0001:v2 
RHOB     .g/cm3       UNKNOWN        : RHOB:LDL-GR:r1:0001:v2 
~A     DEPTH         CALI         DRHO           DT       GR-LWD           GR      LLD-LWD      LLM-LWD      LLS-LWD     MSFL-LWD          PEF         RHOB
# ...
   2347.1123      13.9866      -0.0253     113.0819     101.8208      58.2907       1.2125       1.1866       1.1027       1.1010       4.6721       2.3475
   2347.2646      13.9657      -0.0229     114.0444     104.7257      57.8399       1.1887       1.1722       1.0864       1.0944       4.3691       2.3465
   2347.4172      13.9761      -0.0201     114.8662     108.5825      63.8268       1.1664       1.1383       1.0572       1.0839       4.7088       2.3481
   2347.5696      13.9473      -0.0181     115.4411     105.9153      65.8367       1.1616       1.1197       1.0540       1.0834       5.0043       2.3435
   2347.7219      13.9196      -0.0153     115.7784     103.1940      65.7044       1.1638       1.1176       1.0587       1.0863       6.5238       2.3401
   2347.8743      13.9256      -0.0186     116.1027     100.4728      66.3124       1.1660       1.1155       1.0634       1.0893       8.0185       2.3326
   2348.0266      13.9196      -0.0146     117.9224      96.9250      67.0019       1.1563       1.1047       1.0549       1.0875       8.3399       2.3434
   2348.1792      13.9300      -0.0102     117.1689      95.2481      64.4889       1.1736       1.1184       1.0469       1.0783       6.3924       2.3472
   2348.3315      13.9175      -0.0121     115.0814     108.4275      62.6843       1.1987       1.1485       1.0728       1.0909       5.1581       2.3428
   2348.4839      13.9167      -0.0172     115.9172     116.0541      61.7773       1.2173       1.1771       1.1136       1.1197       4.8956       2.3291
   2348.6362      13.9225      -0.0140     115.9637     111.7856      68.1524       1.2542       1.2066       1.1413       1.1441       4.8540       2.3259
   2348.7888      13.9473      -0.0140     115.5182     110.1440      71.0418       1.2767       1.2292       1.1582       1.1569       4.8437       2.3221
   2348.9412      13.9369      -0.0184     114.5057     109.0286      71.6569       1.2698       1.2435       1.1651       1.1585       4.9024       2.3143
   2349.0935      13.9299      -0.0197     114.7094     106.6206      67.5709       1.2777       1.2487       1.1646       1.1590       4.8368       2.3186
   2349.2458      13.9444      -0.0197     113.7650     101.5845      64.5255       1.2986       1.2733       1.1899       1.1815       5.1047       2.3242
   2349.3984      13.9473      -0.0207     113.4892     103.7269      63.4651       1.3296       1.3115       1.2157       1.1988       4.9650       2.3266
   2349.5508      13.9657      -0.0206     113.7899     106.6279      59.7390       1.3721       1.3536       1.2503       1.2222       5.2978       2.3238
   2349.7031      13.9846      -0.0179     114.8348     105.8558      55.5791       1.3907       1.3747       1.2586       1.2232       6.1677       2.3246
   2349.8555      14.0021      -0.0212     114.4191     103.1814      52.7955       1.3461       1.3193       1.2142       1.1957       8.4581       2.3190
   2350.0078      14.0262      -0.0244     113.8609      96.4978      52.6810       1.2979       1.2525       1.1579       1.1580      13.4913       2.3202
   2350.1604      14.0778      -0.0234     112.8503      97.7398      53.9279       1.2707       1.1979       1.1121       1.1184      13.6088       2.3336
   2350.3127      14.0512      -0.0256     111.7126     103.2585      54.4735       1.2463       1.1563       1.0822       1.0974      10.4471       2.3480
   2350.4651      14.0147      -0.0276     110.7887     108.8438      54.6061       1.2605       1.1608       1.0753       1.0942       7.0061       2.3566
   2350.6174      13.9857      -0.0256     111.2109     108.1592      55.6868       1.2683       1.1724       1.0945       1.1206       5.7116       2.3476
   2350.7700      13.9992      -0.0229     111.7318     107.8304      57.6826       1.2596       1.1705       1.1145       1.1472       5.3171       2.3307
   2350.9224      13.9970      -0.0230     113.4767     102.6766      60.1804       1.2572       1.1859       1.1325       1.1570       6.4502       2.3170
   2351.0747      13.9830      -0.0181     114.1079     107.8820      61.1082       1.2154       1.1621       1.1446       1.1389       7.5655       2.3306
   2351.2271      13.9513      -0.0106     114.3995     116.7846      61.8570       1.1383       1.0961       1.0983       1.1094       7.4821       2.3518
   2351.3796      13.9648      -0.0092     114.0118     117.7579      67.9478       1.2155       1.1683       1.1034       1.1030       5.3776       2.3453
   2351.5320      13.9340      -0.0094     114.7850     119.7132      73.2557       1.3720       1.3058       1.1616       1.1537       4.8760       2.3347
   2351.6843      13.9358      -0.0110     115.2956     119.3125      76.8307       1.4293       1.3563       1.2078       1.2212       4.7557       2.3204
   2351.8367      13.9329      -0.0098     114.7829     116.7147      72.5936       1.4893       1.4001       1.2721       1.2811       4.9843       2.3204
   2351.9890      13.9113      -0.0101     114.6852     117.4579      70.8646       1.5021       1.4217       1.3004       1.2919       5.3490       2.3220
   2352.1416      13.9184      -0.0119     114.0183     117.3901      65.9945       1.3834       1.3472       1.3004       1.2986       6.0498       2.3421
   2352.2939      13.9349      -0.0094     112.6497     108.0113      64.3846       1.2380       1.2147       1.2011       1.2166       6.8489       2.3719
   2352.4463      13.8129      -0.0122     111.8825     103.7494      63.3242       1.1798       1.1515       1.1121       1.1302       5.7928       2.3771
   2352.5986      13.7684      -0.0149     111.6839     105.3095      63.2731       1.0901       1.0728       1.0368       1.0652       5.0402       2.3699
   2352.7512      13.7734      -0.0157     107.6427      97.6687      65.4359       1.0515       1.0089       0.9690       1.0067       4.4013       2.3660
   2352.9036      13.7755      -0.0102      87.6638      96.6029      58.8056       0.9924       0.9332       0.9294       0.9797       4.8905       2.4191
   2353.0559      13.7713      -0.0084      84.9631      95.7629      49.6793       0.9951       0.8900       0.9118       0.9734       5.2610       2.5108
   2353.2083      13.7482       0.0034      83.0625      92.1089      36.5567       1.0416       0.8992       0.9397       1.0101       6.1726       2.6228
   2353.3608      13.7409       0.0069      85.7880      62.7115      31.2451       1.6948       1.6888       1.6250       1.6598       5.6939       2.6461
   2353.5132      13.7765       0.0013      87.8194      66.4523      35.4091       1.9548       1.9910       1.8627       1.9203       5.7889       2.5847
   2353.6655      13.7973      -0.0074      94.7104      70.1931      46.6760       2.2148       2.2931       2.1003       2.1808       6.2625       2.4938
   2353.8179      13.7956      -0.0042      98.4362      86.5485      52.6156       2.3510       2.3033       2.1862       2.3955       5.5947       2.4233
   2353.9702      13.8896      -0.0052     113.2436     101.5269      58.9478       1.8981       1.8489       1.9076       2.1451       5.8340       2.3728
   2354.1228      13.9132      -0.0082     114.9601      97.7880      59.7499       1.5421       1.5883       1.6463       1.7007       6.2895       2.3429
   2354.2751      13.9531      -0.0085     114.7523      99.9689      60.7151       1.4502       1.4499       1.4065       1.3537       7.1761       2.3344
   2354.4275      14.4926      -0.0083     114.4311     100.9946      60.5357       1.4458       1.3368       1.2381       1.2052       6.2637       2.3323
   2354.5798      13.9815      -0.0095     114.2927      97.6930      57.0826       1.4417       1.2553       1.1751       1.1799       5.0497       2.3306
   2354.7324      13.9761      -0.0082     113.4145      98.4521      56.7737       1.3931       1.2140       1.1873       1.2128       4.5940       2.3434
   2354.8848      13.9704      -0.0082     111.9647     100.6150      50.9883       1.3128       1.2297       1.2381       1.2561       4.5298       2.3409
