#------------------------------------------------------------------------------
#
#   Created by  : [OpenWorks] Log Export Utility (LEXP)
#   Created on  : 2016-05-13 12:21:08
#   Project     : CANT971
#   User        : R5K
#   Interpreter : PEP
#
#------------------------------------------------------------------------------
~VERSION INFORMATION
VERS. 2.0 : CWLS Log ASCII Standard - version 2.0
WRAP.  NO : One line per depth step
~WELL INFORMATION
#MNEMONIC   .UNIT                                           VALUE :DESCRIPTION
#------------------------------------------------------------------------------
STRT        .M                                          1966.7219 :START DEPTH
STOP        .M                                          3141.8784 :STOP DEPTH
STEP        .M                                             0.1524 :STEP
NULL        .                                           -999.2500 :NULL VALUE
COMP        .                                             UNKNOWN :COMPANY
WELL        .                                                3034 :WELL
FLD         .                                             UNKNOWN :FIELD
LOC         .                                             UNKNOWN :LOCATION
CNTY        .                                             UNKNOWN :COUNTY
STAT        .                                             UNKNOWN :STATE
CTRY        .                                             UNKNOWN :COUNTRY
SRVC        .                                             UNKNOWN :SERVICE COMPANY
DATE        .                                             UNKNOWN :LOG DATE
UWI         .                                                3034 :UNIQUE WELL ID
XCOORD      .                                            0.000000 :SURFACE X
YCOORD      .                                            0.000000 :SURFACE Y
LAT         .                                            0.000000 :LATITUDE
LON         .                                            0.000000 :LONGITUDE
ELEV        .M                                             0.0000 :SURFACE ELEV
ELEV_TYPE   .                                                  KB :ELEV TYPE
~CURVE INFORMATION
#MNEMONIC.UNIT        API CODE       : CURVE DESCRIPTION
#------------------------------------------------------------------------------
DEPTH    .M                          : Measured Depth
CALI     .inches      UNKNOWN        : CALI:LDL-GR:r1:0001:v2 
DRHO     .g/cm3       UNKNOWN        : DRHO:LDL-GR:r1:0001:v2 
DT       .us/ft       UNKNOWN        : DT:sonico:r1:0001:v2 
GR-LWD   .API         UNKNOWN        : GR-LWD:PETROWORKS:rC:NONE:v5 
GR       .API         UNKNOWN        : GR:LDL-GR:r1:0001:v2 
LLD-LWD  .ohm.m       UNKNOWN        : LLD-LWD:PETROWORKS:rC:NONE:v5 
LLM-LWD  .UNKNOWN     UNKNOWN        : LLM-LWD:PETROWORKS:rC:NONE:v5 
LLS-LWD  .ohm.m       UNKNOWN        : LLS-LWD:PETROWORKS:rC:NONE:v5 
MSFL-LWD .ohm.m       UNKNOWN        : MSFL-LWD:PETROWORKS:rC:NONE:v5 
PEF      .b/elec      UNKNOWN        : PEF:LDL-GR:r1:0001:v2 
RHOB     .g/cm3       UNKNOWN        : RHOB:LDL-GR:r1:0001:v2 
~A     DEPTH         CALI         DRHO           DT       GR-LWD           GR      LLD-LWD      LLM-LWD      LLS-LWD     MSFL-LWD          PEF         RHOB
# ...
   2553.1572      13.3328      -0.0090      97.1478      86.8681      47.4052       1.5900       1.5141       1.4706       1.4894       5.8879       2.4580
   2553.3096      13.3789      -0.0103      94.8695      87.8638      48.9997       1.5803       1.4998       1.4602       1.4815       6.0922       2.4600
   2553.4619      13.4171      -0.0158      97.3357      89.3511      49.5069       1.5419       1.4570       1.4296       1.4738       5.7215       2.4394
   2553.6143      13.4415      -0.0150      99.5195      89.3511      49.5069       1.5246       1.4382       1.4097       1.4612       5.9844       2.4311
   2553.7668      13.4430      -0.0132      99.9613      89.6972      52.0010       1.5415       1.4545       1.4164       1.4486       6.0132       2.4172
   2553.9192      13.4748      -0.0084     100.4094      89.8318      53.6135       1.5590       1.4778       1.4302       1.4506       7.7608       2.4232
   2554.0715      13.5059      -0.0027     100.0799      89.9664      56.9897       1.5765       1.5010       1.4441       1.4527       7.8601       2.4281
   2554.2239      13.5170      -0.0047      99.3390      90.2354      54.3632       1.6066       1.5515       1.4706       1.4627       6.9509       2.4278
   2554.3762      13.6220      -0.0066      97.5702      90.7744      54.7369       1.6701       1.6328       1.5118       1.4854       5.5998       2.4259
   2554.5288      13.7756      -0.0122      98.9540      90.9431      53.7540       1.6709       1.6378       1.5157       1.4897       5.2800       2.4103
   2554.6812      13.6242      -0.0136      98.3703      91.1118      58.5322       1.6717       1.6428       1.5196       1.4940       5.1445       2.4028
   2554.8335      13.6336      -0.0172      99.0998      90.7963      56.0388       1.6796       1.6660       1.5206       1.4976       5.5966       2.3913
   2554.9858      13.6501      -0.0139      98.7233      87.4628      55.2439       1.7068       1.6816       1.5303       1.5086       5.9447       2.3923
   2555.1384      13.6799      -0.0113      98.7784      88.0043      50.3716    -999.2500    -999.2500    -999.2500    -999.2500       5.8270       2.3990
   2555.2908      13.7647      -0.0052     100.6352      88.3636      51.5734    -999.2500    -999.2500    -999.2500    -999.2500       5.7279       2.4013
   2555.4431      13.6112      -0.0113     100.6542      88.7230      51.9806    -999.2500    -999.2500    -999.2500    -999.2500       7.2986       2.3680
   2555.5955      13.3264      -0.0208      99.6151      89.5489      53.0936    -999.2500    -999.2500    -999.2500    -999.2500      12.1037       2.3406
   2555.7478      14.1878      -0.0166      99.4293      85.6654      54.5517    -999.2500    -999.2500    -999.2500    -999.2500      21.7751       2.3586
   2555.9004      14.0156      -0.0145      98.8582      81.9821      53.8795    -999.2500    -999.2500    -999.2500    -999.2500      17.5558       2.4005
   2556.0527      13.5318      -0.0116      94.6251      78.2989      47.4378    -999.2500    -999.2500    -999.2500    -999.2500      15.3755       2.4506
   2556.2051      13.5117      -0.0101      92.4878      67.9270      40.9428    -999.2500    -999.2500    -999.2500    -999.2500      14.8889       2.4716
   2556.3574      13.5030      -0.0071      89.1435      52.5816      34.7151    -999.2500    -999.2500    -999.2500    -999.2500      14.0020       2.4896
   2556.5100      13.4786      -0.0089      88.5560      51.7640      32.3352    -999.2500    -999.2500    -999.2500    -999.2500      15.0701       2.4992
   2556.6624      13.5802      -0.0072      89.3286      50.9463      32.7259    -999.2500    -999.2500    -999.2500    -999.2500      14.3154       2.4935
   2556.8147      13.5891      -0.0057      91.4253      59.9998      35.1190    -999.2500    -999.2500    -999.2500    -999.2500      11.0812       2.4644
   2556.9670      13.6386      -0.0097      95.9509      78.6728      42.6958    -999.2500    -999.2500    -999.2500    -999.2500      10.3984       2.4251
   2557.1196      13.7792      -0.0081      98.2651      82.2208      46.6611    -999.2500    -999.2500    -999.2500    -999.2500       8.8195       2.4038
   2557.2720      13.8746       0.0009      99.3139      83.5180      49.0384    -999.2500    -999.2500    -999.2500    -999.2500      10.3948       2.3954
   2557.4243      13.8665      -0.0006      97.6312      84.8152      47.5431    -999.2500    -999.2500    -999.2500    -999.2500      11.9745       2.3806
   2557.5767      13.8781      -0.0001      92.6016      87.4096      48.0236    -999.2500    -999.2500    -999.2500    -999.2500      16.1024       2.3762
   2557.7290      14.1146       0.0018      98.5092      85.9081      47.3529    -999.2500    -999.2500    -999.2500    -999.2500      15.5295       2.3787
   2557.8816      13.7878       0.0009     101.0170      85.3586      47.6177    -999.2500    -999.2500    -999.2500    -999.2500      14.2036       2.3755
   2558.0339      13.7895      -0.0026     100.9121      84.8090      49.5309    -999.2500    -999.2500    -999.2500    -999.2500      13.5413       2.3672
   2558.1863      13.6119      -0.0027     101.2631      82.2428      54.0328    -999.2500    -999.2500    -999.2500    -999.2500      15.5658       2.3659
   2558.3386      13.9848      -0.0090      99.4929      77.1609      53.6417    -999.2500    -999.2500    -999.2500    -999.2500      13.9771       2.3513
   2558.4912      13.8899      -0.0116     107.5092      76.8799      54.9554    -999.2500    -999.2500    -999.2500    -999.2500      12.4441       2.3445
   2558.6436      13.6047      -0.0123     106.6320      76.5990      51.2480    -999.2500    -999.2500    -999.2500    -999.2500      10.6026       2.3414
   2558.7959      13.7792      -0.0162     106.6094      82.6997      55.2141    -999.2500    -999.2500    -999.2500    -999.2500       9.5480       2.3478
   2558.9482      13.4719      -0.0105     104.8781      83.1552      55.0707    -999.2500    -999.2500    -999.2500    -999.2500       9.6465       2.3638
   2559.1008      13.4409      -0.0096     105.0566      83.0869      55.8426    -999.2500    -999.2500    -999.2500    -999.2500       9.5162       2.3705
   2559.2532      13.4395      -0.0102     104.7801      83.9220      54.5093    -999.2500    -999.2500    -999.2500    -999.2500       9.4411       2.3698
   2559.4055      13.4436      -0.0132     104.0127      84.7571      52.5242    -999.2500    -999.2500    -999.2500    -999.2500       8.6489       2.3573
   2559.5579      13.4424      -0.0152     104.9379      82.3744      52.1317    -999.2500    -999.2500    -999.2500    -999.2500       7.6045       2.3615
   2559.7102      13.4350      -0.0146     105.5021      81.4953      53.2126    -999.2500    -999.2500    -999.2500    -999.2500       6.2317       2.3578
   2559.8628      13.4661      -0.0125     104.5844      82.1936      50.6982    -999.2500    -999.2500    -999.2500    -999.2500       5.2783       2.3655
   2560.0151      13.4442      -0.0106     102.5090      82.8919      49.3838    -999.2500    -999.2500    -999.2500    -999.2500       4.7539       2.3671
   2560.1675      13.5780      -0.0090     101.5235      87.3293      48.5675    -999.2500    -999.2500    -999.2500    -999.2500       4.2865       2.3865
   2560.3198      14.1637      -0.0054     103.0221      87.0088      48.1705    -999.2500    -999.2500    -999.2500    -999.2500       4.5558       2.4038
   2560.4724      13.8449      -0.0047     102.7798      86.9302      50.6188    -999.2500    -999.2500    -999.2500    -999.2500       5.2194       2.3967
   2560.6248      13.6278      -0.0073     100.7244      86.8517      53.6736    -999.2500    -999.2500    -999.2500    -999.2500       7.6517       2.3701
   2560.7771      14.0059      -0.0065     103.0552      86.7516      55.1384    -999.2500    -999.2500    -999.2500    -999.2500      10.9963       2.3491
   2560.9294      13.1024      -0.0018      93.6358      87.5108      55.0722    -999.2500    -999.2500    -999.2500    -999.2500      14.6134       2.3525
