#------------------------------------------------------------------------------
#
#   Created by  : [OpenWorks] Log Export Utility (LEXP)
#   Created on  : 2016-05-13 12:21:08
#   Project     : CANT971
#   User        : R5K
#   Interpreter : PEP
#
#------------------------------------------------------------------------------
~VERSION INFORMATION
VERS. 2.0 : CWLS Log ASCII Standard - version 2.0
WRAP.  NO : One line per depth step
~WELL INFORMATION
#MNEMONIC   .UNIT                                           VALUE :DESCRIPTION
#------------------------------------------------------------------------------
STRT        .M                                          1966.7219 :START DEPTH
STOP        .M                                          3141.8784 :STOP DEPTH
STEP        .M                                             0.1524 :STEP
NULL        .                                           -999.2500 :NULL VALUE
COMP        .                                             UNKNOWN :COMPANY
WELL        .                                                3034 :WELL
FLD         .                                             UNKNOWN :FIELD
LOC         .                                             UNKNOWN :LOCATION
CNTY        .                                             UNKNOWN :COUNTY
STAT        .                                             UNKNOWN :STATE
CTRY        .                                             UNKNOWN :COUNTRY
SRVC        .                                             UNKNOWN :SERVICE COMPANY
DATE        .                                             UNKNOWN :LOG DATE
UWI         .                                                3034 :UNIQUE WELL ID
XCOORD      .                                            0.000000 :SURFACE X
YCOORD      .                                            0.000000 :SURFACE Y
LAT         .                                            0.000000 :LATITUDE
LON         .                                            0.000000 :LONGITUDE
ELEV        .M                                             0.0000 :SURFACE ELEV
ELEV_TYPE   .                                                  KB :ELEV TYPE
~CURVE INFORMATION
#MNEMONIC.UNIT        API CODE       : CURVE DESCRIPTION
#------------------------------------------------------------------------------
DEPTH    .M                          : Measured Depth
CALI     .inches      UNKNOWN        : CALI:LDL-GR:r1:0001:v2 
DRHO     .g/cm3       UNKNOWN        : DRHO:LDL-GR:r1:0001:v2 
DT       .us/ft       UNKNOWN        : DT:sonico:r1:0001:v2 
GR-LWD   .API         UNKNOWN        : GR-LWD:PETROWORKS:rC:NONE:v5 
GR       .API         UNKNOWN        : GR:LDL-GR:r1:0001:v2 
LLD-LWD  .ohm.m       UNKNOWN        : LLD-LWD:PETROWORKS:rC:NONE:v5 
LLM-LWD  .UNKNOWN     UNKNOWN        : LLM-LWD:PETROWORKS:rC:NONE:v5 
LLS-LWD  .ohm.m       UNKNOWN        : LLS-LWD:PETROWORKS:rC:NONE:v5 
MSFL-LWD .ohm.m       UNKNOWN        : MSFL-LWD:PETROWORKS:rC:NONE:v5 
PEF      .b/elec      UNKNOWN        : PEF:LDL-GR:r1:0001:v2 
RHOB     .g/cm3       UNKNOWN        : RHOB:LDL-GR:r1:0001:v2 
~A     DEPTH         CALI         DRHO           DT       GR-LWD           GR      LLD-LWD      LLM-LWD      LLS-LWD     MSFL-LWD          PEF         RHOB
# ...
   2283.7139      13.7383      -0.0124     118.0831      96.1604      52.6649       1.0544       1.0104       1.0273       1.0668       5.0292       2.3498
   2283.8662      13.7280      -0.0148     117.9943      94.4693      55.0856       1.0727       1.0335       1.0474       1.0868       5.0847       2.3500
   2284.0188      13.6988      -0.0150     117.4175      92.0565      55.3504       1.0871       1.0527       1.0672       1.1082       4.8144       2.3528
   2284.1711      13.7036      -0.0182     117.4852      91.7064      57.7337       1.0812       1.0502       1.0745       1.1188       5.0577       2.3451
   2284.3235      13.6974      -0.0151     117.5178      91.7766      58.7536       1.0787       1.0422       1.0693       1.1130       5.2353       2.3314
   2284.4758      13.7036      -0.0144     117.2883      91.8167      58.3369       1.0875       1.0480       1.0676       1.1100       5.2002       2.3222
   2284.6284      13.7007      -0.0146     117.4338      91.8567      59.2637       1.0964       1.0538       1.0659       1.1069       4.9706       2.3175
   2284.7808      13.7036      -0.0116     117.5462      91.9369      57.1047       1.1115       1.0700       1.0763       1.1096       4.8866       2.3312
   2284.9331      13.6905      -0.0121     116.9702      92.0171      59.2428       1.1151       1.0766       1.0847       1.1218       4.9902       2.3336
   2285.0854      13.6895      -0.0159     116.6456      92.0221      55.7346       1.1258       1.0868       1.0932       1.1326       5.2198       2.3370
   2285.2380      13.7036      -0.0159     116.5293      92.0221      58.1722       1.1350       1.0951       1.1025       1.1382       4.9219       2.3293
   2285.3904      13.6963      -0.0110     116.5996      82.5789      58.9440       1.1258       1.0880       1.1056       1.1458       5.0680       2.3407
   2285.5427      13.6926      -0.0137     116.7421      82.4194      60.3130       1.1149       1.0817       1.0997       1.1430       4.9378       2.3412
   2285.6951      13.7094      -0.0104     115.8859      93.6978      58.4450       1.1187       1.0834       1.0895       1.1310       5.2756       2.3524
   2285.8474      13.6926      -0.0095     116.0918      93.6772      55.9258       1.1170       1.0823       1.0893       1.1257       5.1436       2.3536
   2286.0000      13.6934      -0.0114     115.1633      93.5048      54.8677       1.1115       1.0746       1.0929       1.1296       5.1930       2.3532
   2286.1523      13.7065      -0.0129     115.7742      92.2195      53.0292       1.1217       1.0832       1.0998       1.1395       4.9885       2.3567
   2286.3047      13.6957      -0.0125     116.0058      90.3695      56.5890       1.1260       1.0928       1.1054       1.1456       4.7123       2.3567
   2286.4570      13.6963      -0.0140     116.4031      90.9168      58.0649       1.1086       1.0826       1.1036       1.1461       4.6429       2.3561
   2286.6096      13.7065      -0.0137     116.2150      96.0284      61.0426       1.0906       1.0627       1.0887       1.1324       4.6927       2.3588
   2286.7620      13.6895      -0.0170     116.2294      95.3106      58.4147       1.0893       1.0566       1.0732       1.1164       4.7107       2.3629
   2286.9143      13.6992      -0.0175     115.6417      89.9865      58.1292       1.1039       1.0625       1.0765       1.1130       4.6754       2.3676
   2287.0667      13.7065      -0.0165     115.7149      87.4846      56.9901       1.1179       1.0715       1.0871       1.1266       4.8405       2.3627
   2287.2192      13.6926      -0.0180     116.0647      90.9251      55.0061       1.1374       1.0895       1.1007       1.1432       4.8326       2.3563
   2287.3716      13.6963      -0.0197     115.7489      94.3233      52.4875       1.1582       1.1106       1.1183       1.1596       4.8672       2.3484
   2287.5239      13.7067      -0.0166     115.6741      93.0454      53.0329       1.1585       1.1174       1.1358       1.1786       4.7213       2.3528
   2287.6763      13.6861      -0.0157     115.5700      92.5872      56.1022       1.1570       1.1198       1.1401       1.1839       5.2518       2.3570
   2287.8286      13.7021      -0.0183     116.0240      94.6789      58.2442       1.1619       1.1260       1.1406       1.1805       5.4869       2.3589
   2287.9812      13.7019      -0.0129     116.0952      92.8147      58.7733       1.1670       1.1328       1.1427       1.1807       5.6384       2.3610
   2288.1335      13.6861      -0.0134     116.0670      86.4534      57.9408       1.1582       1.1217       1.1355       1.1783       5.4038       2.3498
   2288.2859      13.7160      -0.0162     115.1912      87.8990      58.8464       1.1543       1.1111       1.1239       1.1692       5.1742       2.3393
   2288.4382      13.6861      -0.0175     116.4542      90.4056      59.0764       1.1651       1.1121       1.1197       1.1599       4.9311       2.3394
   2288.5908      13.7050      -0.0157     116.3347      91.4142      58.4832       1.1722       1.1194       1.1264       1.1641       4.6453       2.3475
   2288.7432      13.7021      -0.0214     115.8368      92.0221      56.5184       1.1775       1.1277       1.1325       1.1723       4.7066       2.3494
   2288.8955      13.6804      -0.0199     115.0429      90.4738      56.4418       1.1912       1.1379       1.1396       1.1801       4.8256       2.3597
   2289.0479      13.6755      -0.0204     115.1160      87.6426      54.3232       1.1809       1.1332       1.1462       1.1859       5.0044       2.3648
   2289.2004      13.6688      -0.0206     115.2470      88.1383      52.5846       1.1526       1.1052       1.1344       1.1815       4.6527       2.3682
   2289.3528      13.6602      -0.0205     115.1041      88.9768      48.2596       1.1444       1.0893       1.1193       1.1703       4.6706       2.3694
   2289.5051      13.6413      -0.0203     115.4080      89.0132      46.8997       1.1651       1.1065       1.1241       1.1651       4.9125       2.3673
   2289.6575      13.9473      -0.0220     115.4967      88.5285      50.0947       1.1858       1.1326       1.1408       1.1704       4.9893       2.3550
   2289.8098      13.6646      -0.0202     116.0988      87.9441      55.4942       1.1844       1.1446       1.1562       1.1890       4.8220       2.3538
   2289.9624      13.6444      -0.0203     117.0284      88.2321      56.1562       1.1848       1.1650       1.1777       1.2149       4.3936       2.3501
   2290.1147      13.6747      -0.0207     117.2391      89.2301      54.1887       1.1870       1.1794       1.1877       1.2260       4.8168       2.3528
   2290.2671      13.6507      -0.0186     118.5417      93.8237      55.6143       1.1533       1.1500       1.1674       1.2109       4.7816       2.3516
   2290.4194      13.6674      -0.0179     119.5038      96.1477      61.0430       1.1263       1.1219       1.1439       1.1883       4.8821       2.3498
   2290.5720      13.6573      -0.0228     119.7290      98.4717      66.0799       1.0993       1.0938       1.1205       1.1657       4.6840       2.3313
   2290.7244      13.6616      -0.0237     120.1708     105.7725      69.4717       1.0558       1.0174       1.0189       1.0531       4.6153       2.3193
   2290.8767      13.6544      -0.0219     120.3180     110.1276      70.8207       1.0418       1.0006       1.0031       1.0339       4.6745       2.3196
   2291.0291      13.6674      -0.0196     120.8295     112.0108      68.8106       1.0202       0.9796       0.9855       1.0210       4.4267       2.3319
   2291.1816      13.6678      -0.0197     120.2573     110.5618      67.9848       1.0060       0.9625       0.9684       1.0050       4.5328       2.3369
   2291.3340      13.6602      -0.0145     118.8882     109.3234      67.4546       0.9909       0.9492       0.9596       0.9967       4.6019       2.3472
   2291.4863      13.6631      -0.0084     114.5707     108.0851      68.7474       0.9759       0.9359       0.9508       0.9885       4.8088       2.3659
