#------------------------------------------------------------------------------
#
#   Created by  : [OpenWorks] Log Export Utility (LEXP)
#   Created on  : 2016-05-13 12:21:08
#   Project     : CANT971
#   User        : R5K
#   Interpreter : PEP
#
#------------------------------------------------------------------------------
~VERSION INFORMATION
VERS. 2.0 : CWLS Log ASCII Standard - version 2.0
WRAP.  NO : One line per depth step
~WELL INFORMATION
#MNEMONIC   .UNIT                                           VALUE :DESCRIPTION
#------------------------------------------------------------------------------
STRT        .M                                          1966.7219 :START DEPTH
STOP        .M                                          3141.8784 :STOP DEPTH
STEP        .M                                             0.1524 :STEP
NULL        .                                           -999.2500 :NULL VALUE
COMP        .                                             UNKNOWN :COMPANY
WELL        .                                                3034 :WELL
FLD         .                                             UNKNOWN :FIELD
LOC         .                                             UNKNOWN :LOCATION
CNTY        .                                             UNKNOWN :COUNTY
STAT        .                                             UNKNOWN :STATE
CTRY        .                                             UNKNOWN :COUNTRY
SRVC        .                                             UNKNOWN :SERVICE COMPANY
DATE        .                                             UNKNOWN :LOG DATE
UWI         .                                                3034 :UNIQUE WELL ID
XCOORD      .                                            0.000000 :SURFACE X
YCOORD      .                                            0.000000 :SURFACE Y
LAT         .                                            0.000000 :LATITUDE
LON         .                                            0.000000 :LONGITUDE
ELEV        .M                                             0.0000 :SURFACE ELEV
ELEV_TYPE   .                                                  KB :ELEV TYPE
~CURVE INFORMATION
#MNEMONIC.UNIT        API CODE       : CURVE DESCRIPTION
#------------------------------------------------------------------------------
DEPTH    .M                          : Measured Depth
CALI     .inches      UNKNOWN        : CALI:LDL-GR:r1:0001:v2 
DRHO     .g/cm3       UNKNOWN        : DRHO:LDL-GR:r1:0001:v2 
DT       .us/ft       UNKNOWN        : DT:sonico:r1:0001:v2 
GR-LWD   .API         UNKNOWN        : GR-LWD:PETROWORKS:rC:NONE:v5 
GR       .API         UNKNOWN        : GR:LDL-GR:r1:0001:v2 
LLD-LWD  .ohm.m       UNKNOWN        : LLD-LWD:PETROWORKS:rC:NONE:v5 
LLM-LWD  .UNKNOWN     UNKNOWN        : LLM-LWD:PETROWORKS:rC:NONE:v5 
LLS-LWD  .ohm.m       UNKNOWN        : LLS-LWD:PETROWORKS:rC:NONE:v5 
MSFL-LWD .ohm.m       UNKNOWN        : MSFL-LWD:PETROWORKS:rC:NONE:v5 
PEF      .b/elec      UNKNOWN        : PEF:LDL-GR:r1:0001:v2 
RHOB     .g/cm3       UNKNOWN        : RHOB:LDL-GR:r1:0001:v2 
~A     DEPTH         CALI         DRHO           DT       GR-LWD           GR      LLD-LWD      LLM-LWD      LLS-LWD     MSFL-LWD          PEF         RHOB
# ...
   2014.2708      16.0315      -0.0213     106.5726    -999.2500      28.7109    -999.2500    -999.2500    -999.2500    -999.2500       6.7534       2.4610
   2014.4231      16.0344      -0.0184     105.3015    -999.2500      31.7020    -999.2500    -999.2500    -999.2500    -999.2500       6.4967       2.4680
   2014.5756      16.0130      -0.0198     103.0543    -999.2500      32.6278    -999.2500    -999.2500    -999.2500    -999.2500       5.9735       2.4614
   2014.7279      16.0130      -0.0161     100.9322    -999.2500      36.4542    -999.2500    -999.2500    -999.2500    -999.2500       6.5111       2.4779
   2014.8804      16.0170      -0.0177     101.9347    -999.2500      35.7239    -999.2500    -999.2500    -999.2500    -999.2500       6.3173       2.4764
   2015.0327      15.9714      -0.0187     101.4125    -999.2500      34.9395    -999.2500    -999.2500    -999.2500    -999.2500       6.7834       2.4740
   2015.1852      15.9968      -0.0233     103.5361    -999.2500      34.6750    -999.2500    -999.2500    -999.2500    -999.2500       6.2592       2.4527
   2015.3375      15.9644      -0.0225     103.0187    -999.2500      36.1032    -999.2500    -999.2500    -999.2500    -999.2500       5.7184       2.4498
   2015.4899      15.9485      -0.0234     105.1850    -999.2500      36.2384    -999.2500    -999.2500    -999.2500    -999.2500       5.8621       2.4545
   2015.6423      15.9668      -0.0232     105.9594    -999.2500      36.8997    -999.2500    -999.2500    -999.2500    -999.2500       5.5731       2.4525
   2015.7947      15.9633      -0.0221     106.5305    -999.2500      36.3444    -999.2500    -999.2500    -999.2500    -999.2500       6.2710       2.4535
   2015.9471      15.9640      -0.0204     106.6875    -999.2500      38.7130    -999.2500    -999.2500    -999.2500    -999.2500       5.8660       2.4407
   2016.0995      15.9582      -0.0227     108.9524    -999.2500      34.2845    -999.2500    -999.2500    -999.2500    -999.2500       5.8082       2.4393
   2016.2520      15.9312      -0.0221     108.8534    -999.2500      34.7220    -999.2500    -999.2500    -999.2500    -999.2500       5.6540       2.4473
   2016.4043      15.9564      -0.0164     108.1327    -999.2500      34.7220    -999.2500    -999.2500    -999.2500    -999.2500       5.8603       2.4636
   2016.5568      15.9260      -0.0126     107.3613    -999.2500      40.8448    -999.2500    -999.2500    -999.2500    -999.2500       6.4750       2.4788
   2016.7091      15.9351      -0.0160     105.5708    -999.2500      39.3899    -999.2500    -999.2500    -999.2500    -999.2500       6.0240       2.4670
   2016.8616      15.9524      -0.0161     104.4348    -999.2500      38.4641    -999.2500    -999.2500    -999.2500    -999.2500       5.6959       2.4707
   2017.0139      15.9668      -0.0154     102.7778    -999.2500      34.4893    -999.2500    -999.2500    -999.2500    -999.2500       5.4807       2.4649
   2017.1664      15.9570      -0.0188     100.7813    -999.2500      35.9579    -999.2500    -999.2500    -999.2500    -999.2500       5.5470       2.4622
   2017.3187      15.9611      -0.0199     102.5471    -999.2500      34.8998    -999.2500    -999.2500    -999.2500    -999.2500       5.4031       2.4619
   2017.4711      15.9708      -0.0203     103.0028    -999.2500      36.1691    -999.2500    -999.2500    -999.2500    -999.2500       5.3911       2.4688
   2017.6235      15.9456      -0.0146     103.1133    -999.2500      34.8327    -999.2500    -999.2500    -999.2500    -999.2500       5.5736       2.4819
   2017.7759      15.9795      -0.0130     102.0962    -999.2500      33.7746    -999.2500    -999.2500    -999.2500    -999.2500       5.6631       2.4860
   2017.9283      15.9404      -0.0151     100.9489    -999.2500      33.7277    -999.2500    -999.2500    -999.2500    -999.2500       5.4656       2.4864
   2018.0807      15.9766      -0.0115      99.6961    -999.2500      33.0323    -999.2500    -999.2500    -999.2500    -999.2500       5.6377       2.4965
   2018.2332      15.9485      -0.0044     100.5826    -999.2500      35.9421    -999.2500    -999.2500    -999.2500    -999.2500       5.4148       2.4951
   2018.3855      15.9398      -0.0062     100.7213    -999.2500      35.9891    -999.2500    -999.2500    -999.2500    -999.2500       5.8977       2.4961
   2018.5380      15.9570      -0.0085     100.3864    -999.2500      39.5943    -999.2500    -999.2500    -999.2500    -999.2500       6.1174       2.4783
   2018.6903      15.9524      -0.0005     100.8844    -999.2500      38.6684    -999.2500    -999.2500    -999.2500    -999.2500       7.0839       2.4928
   2018.8428      15.9283      -0.0014     100.9745    -999.2500      37.6956    -999.2500    -999.2500    -999.2500    -999.2500       7.2983       2.4806
   2018.9951      15.9005      -0.0051     100.7732    -999.2500      34.2454    -999.2500    -999.2500    -999.2500    -999.2500       6.7113       2.4832
   2019.1476      15.8721      -0.0046     100.1606    -999.2500      33.0550    -999.2500    -999.2500    -999.2500    -999.2500       6.3654       2.4818
   2019.2999      15.8803      -0.0036      99.8194    -999.2500      34.4692    -999.2500    -999.2500    -999.2500    -999.2500       5.9534       2.4819
   2019.4523      15.8620      -0.0059      99.6604    -999.2500      35.9355    -999.2500    -999.2500    -999.2500    -999.2500       6.1021       2.4819
   2019.6047      15.8476      -0.0079      98.1161    -999.2500      35.0209    -999.2500    -999.2500    -999.2500    -999.2500       6.0769       2.4860
   2019.7571      15.8349      -0.0086      97.7677    -999.2500      32.5974    -999.2500    -999.2500    -999.2500    -999.2500       6.6228       2.4917
   2019.9095      15.8072      -0.0103      98.3974    -999.2500      32.9942    -999.2500    -999.2500    -999.2500    -999.2500       7.1879       2.4851
   2020.0619      15.7438      -0.0109      98.7781    -999.2500      35.8928    -999.2500    -999.2500    -999.2500    -999.2500       8.3240       2.4907
   2020.2144      15.7101      -0.0084      99.2234    -999.2500      36.3204    -999.2500    -999.2500    -999.2500    -999.2500       9.1573       2.4831
   2020.3667      15.7086      -0.0062      99.5985    -999.2500      36.2017    -999.2500    -999.2500    -999.2500    -999.2500       9.6796       2.4824
   2020.5192      15.6920      -0.0067     100.4278    -999.2500      32.8951    -999.2500    -999.2500    -999.2500    -999.2500       8.1637       2.4636
   2020.6715      15.6776      -0.0032     100.9921    -999.2500      34.4495    -999.2500    -999.2500    -999.2500    -999.2500       7.2795       2.4752
   2020.8240      15.6928      -0.0007     100.8982    -999.2500      33.3902    -999.2500    -999.2500    -999.2500    -999.2500       6.4695       2.4793
   2020.9763      15.6868      -0.0039     100.8644    -999.2500      34.7129    -999.2500    -999.2500    -999.2500    -999.2500       6.3016       2.4896
   2021.1288      15.6833      -0.0027     100.2958    -999.2500      34.7982    -999.2500    -999.2500    -999.2500    -999.2500       6.1832       2.4995
   2021.2811      15.6767      -0.0041     100.4236    -999.2500      34.5408    -999.2500    -999.2500    -999.2500    -999.2500       6.0363       2.4947
   2021.4335      15.6833      -0.0041      99.8662    -999.2500      32.2923    -999.2500    -999.2500    -999.2500    -999.2500       6.4862       2.4910
   2021.5859      15.6956      -0.0044      99.6134    -999.2500      30.1760    -999.2500    -999.2500    -999.2500    -999.2500       6.5091       2.4871
   2021.7383      15.6961      -0.0012      99.6874    -999.2500      30.9501    -999.2500    -999.2500    -999.2500    -999.2500       6.2124       2.5007
   2021.8907      15.6833      -0.0057      99.0063    -999.2500      31.8651    -999.2500    -999.2500    -999.2500    -999.2500       5.9222       2.4947
   2022.0431      15.6767      -0.0066      99.6306    -999.2500      32.7569    -999.2500    -999.2500    -999.2500    -999.2500       5.5836       2.4893
