#------------------------------------------------------------------------------
#
#   Created by  : [OpenWorks] Log Export Utility (LEXP)
#   Created on  : 2016-05-13 12:21:08
#   Project     : CANT971
#   User        : R5K
#   Interpreter : PEP
#
#------------------------------------------------------------------------------
~VERSION INFORMATION
VERS. 2.0 : CWLS Log ASCII Standard - version 2.0
WRAP.  NO : One line per depth step
~WELL INFORMATION
#MNEMONIC   .UNIT                                           VALUE :DESCRIPTION
#------------------------------------------------------------------------------
STRT        .M                                          1966.7219 :START DEPTH
STOP        .M                                          3141.8784 :STOP DEPTH
STEP        .M                                             0.1524 :STEP
NULL        .                                           -999.2500 :NULL VALUE
COMP        .                                             UNKNOWN :COMPANY
WELL        .                                                3034 :WELL
FLD         .                                             UNKNOWN :FIELD
LOC         .                                             UNKNOWN :LOCATION
CNTY        .                                             UNKNOWN :COUNTY
STAT        .                                             UNKNOWN :STATE
CTRY        .                                             UNKNOWN :COUNTRY
SRVC        .                                             UNKNOWN :SERVICE COMPANY
DATE        .                                             UNKNOWN :LOG DATE
UWI         .                                                3034 :UNIQUE WELL ID
XCOORD      .                                            0.000000 :SURFACE X
YCOORD      .                                            0.000000 :SURFACE Y
LAT         .                                            0.000000 :LATITUDE
LON         .                                            0.000000 :LONGITUDE
ELEV        .M                                             0.0000 :SURFACE ELEV
ELEV_TYPE   .                                                  KB :ELEV TYPE
~CURVE INFORMATION
#MNEMONIC.UNIT        API CODE       : CURVE DESCRIPTION
#------------------------------------------------------------------------------
DEPTH    .M                          : Measured Depth
CALI     .inches      UNKNOWN        : CALI:LDL-GR:r1:0001:v2 
DRHO     .g/cm3       UNKNOWN        : DRHO:LDL-GR:r1:0001:v2 
DT       .us/ft       UNKNOWN        : DT:sonico:r1:0001:v2 
GR-LWD   .API         UNKNOWN        : GR-LWD:PETROWORKS:rC:NONE:v5 
GR       .API         UNKNOWN        : GR:LDL-GR:r1:0001:v2 
LLD-LWD  .ohm.m       UNKNOWN        : LLD-LWD:PETROWORKS:rC:NONE:v5 
LLM-LWD  .UNKNOWN     UNKNOWN        : LLM-LWD:PETROWORKS:rC:NONE:v5 
LLS-LWD  .ohm.m       UNKNOWN        : LLS-LWD:PETROWORKS:rC:NONE:v5 
MSFL-LWD .ohm.m       UNKNOWN        : MSFL-LWD:PETROWORKS:rC:NONE:v5 
PEF      .b/elec      UNKNOWN        : PEF:LDL-GR:r1:0001:v2 
RHOB     .g/cm3       UNKNOWN        : RHOB:LDL-GR:r1:0001:v2 
~A     DEPTH         CALI         DRHO           DT       GR-LWD           GR      LLD-LWD      LLM-LWD      LLS-LWD     MSFL-LWD          PEF         RHOB
# ...
   2885.9988       8.7773      -0.0084      98.1774      64.4704      59.5291       0.4926       0.5207       0.7279       0.7896       4.3404       2.3856
   2886.1511       8.7797      -0.0053      95.4114      56.4089      58.5408       0.5497       0.5992       0.7745       0.8324       4.9195       2.4434
   2886.3035       8.7761      -0.0044      92.5201      48.3474      56.3181       0.6069       0.6778       0.8211       0.8751       5.2183       2.4929
   2886.4558       8.7788      -0.0090      90.6020      54.9955      54.0954       1.4838       1.5836       1.3552       1.4048       5.3643       2.5010
   2886.6084       8.7752      -0.0103      91.2068      58.6918      51.7480       1.6348       1.6705       1.4393       1.4257       5.1204       2.4922
   2886.7607       8.7779      -0.0110      91.9924      57.0762      49.7723       1.7790       1.6512       1.4548       1.3481       5.0489       2.4697
   2886.9131       8.7788      -0.0131      98.5508      57.2271      52.2510       1.7770       1.6281       1.4197       1.3158       5.3324       2.4253
   2887.0654       8.7754      -0.0155      98.8113      57.3779      55.0826       1.7750       1.6051       1.3846       1.2834       5.9776       2.4079
   2887.2180       8.7734      -0.0137      98.2778      65.5942      54.8442       1.5764       1.2285       1.2169       1.1857       6.1116       2.4173
   2887.3704       8.7788      -0.0095      97.9248      61.6943      51.9950       1.3372       1.1164       1.0504       1.1196       5.7981       2.4645
   2887.5227       8.7771      -0.0126      93.4570      61.1114      48.7928       1.4313       1.2074       1.1351       1.1574       5.2369       2.4723
   2887.6750       8.7644      -0.0115      94.1825      60.5285      47.4338       1.5255       1.2985       1.2199       1.1951       5.2101       2.4760
   2887.8276       8.7573      -0.0125      96.2242      64.8628      48.8004       1.7682       1.4845       1.2952       1.2361       5.1314       2.4542
   2887.9800       8.7510      -0.0114     102.9218      64.8572      50.4065       1.8933       1.5958       1.4068       1.2841       5.0148       2.4301
   2888.1323       8.7510      -0.0135     104.3648      68.1197      53.4951       1.8177       1.6147       1.4097       1.3070       5.0374       2.3939
   2888.2847       8.7510      -0.0160     108.3749      71.3822      57.7061       1.7421       1.6335       1.4126       1.3299       4.8113       2.3480
   2888.4370       8.7510      -0.0191     110.4917      80.8795      60.5583       1.6399       1.6172       1.4184       1.3072       5.0545       2.3207
   2888.5896       8.7532      -0.0216     112.2300      72.9694      62.9163       1.1568       1.1050       1.1139       1.0637       4.8679       2.3107
   2888.7419       8.7532      -0.0228     111.1318      69.7513      64.0287       1.0666       1.0141       1.0215       1.0073       5.2365       2.3119
   2888.8943       8.7501      -0.0271     109.9949      68.1422      62.1650       1.0215       0.9687       0.9753       0.9792       5.9695       2.3251
   2889.0466       8.7877      -0.0204     109.8471      66.5331      58.3419       0.9764       0.9232       0.9291       0.9510       6.5229       2.3757
   2889.1992       8.7967      -0.0178     108.6904      67.7005      54.1303       1.1140       1.0251       0.9668       0.9660       6.8399       2.4198
   2889.3516       8.7797      -0.0174     101.7866      63.9868      55.1288       1.2086       1.1007       1.0127       1.0109       6.7004       2.4189
   2889.5039       8.7770      -0.0236     101.4523      64.4875      56.4704       1.1720       1.0823       1.0113       1.0132       7.4937       2.3712
   2889.6562       8.7806      -0.0194     102.4512      64.9882      59.4563       1.1354       1.0639       1.0098       1.0155       7.3863       2.3655
   2889.8088       8.7907      -0.0163     102.5965      68.0430      55.8716       1.1311       1.0971       1.0631       1.0662       6.2546       2.3792
   2889.9612       8.8469      -0.0139     100.5214      57.3361      56.1282       1.1046       1.0101       1.0712       1.0932       6.0618       2.4103
   2890.1135       8.7797      -0.0111     100.5086      56.2016      52.0388       1.1201       1.0229       1.0846       1.0895       5.8766       2.4339
   2890.2659       8.7528      -0.0111      98.9256      55.0672      54.0072       1.1357       1.0356       1.0979       1.0858       5.2627       2.4486
   2890.4182       8.7420      -0.0103      98.3307      57.6278      50.6698       1.2602       1.2249       1.1634       1.0942       4.3938       2.4529
   2890.5708       8.7285      -0.0167      97.4716      54.6938      50.1753       1.4155       1.4520       1.3045       1.1862       4.2868       2.4441
   2890.7231       8.7034      -0.0166      95.9583      54.1314      48.8250       1.4664       1.4909       1.2987       1.2120       4.4721       2.4533
   2890.8755       8.7034      -0.0172      94.6548      53.8501      49.2038       1.4919       1.5104       1.2957       1.2249       5.3525       2.4710
   2891.0278       8.7070      -0.0212      93.8729      53.5689      51.1816       1.5173       1.5299       1.2928       1.2378       5.6294       2.4819
   2891.1804       8.6994      -0.0251      93.6699      62.1980      49.4588       1.6460       1.6181       1.3222       1.3057       5.7672       2.4783
   2891.3328       8.7061      -0.0202      99.5983      55.9355      50.3245       1.7615       1.7314       1.4516       1.3746       5.3322       2.4738
   2891.4851       8.7061      -0.0231      98.8067      56.6530      48.4704       1.7717       1.7337       1.4499       1.3714       4.8343       2.4513
   2891.6375       8.7019      -0.0220     102.0614      57.3705      50.8201       1.7819       1.7360       1.4481       1.3682       4.6945       2.4374
   2891.7900       8.7052      -0.0158     105.2130      63.4358      53.5981       1.7693       1.7076       1.4086       1.3697       4.6026       2.4187
   2891.9424       8.7043      -0.0150     106.1245      68.8545      57.5637       1.3662       1.2430       1.1169       1.1178       4.5642       2.3982
   2892.0947       8.7016      -0.0166     105.0135      71.5520      58.6767       1.3744       1.2248       1.0961       1.0936       4.4332       2.3798
   2892.2471       8.7043      -0.0111     108.0794      74.2496      62.2511       1.3827       1.2067       1.0752       1.0694       4.2486       2.3822
   2892.3994       8.7052      -0.0088     111.5708      72.2513      62.8694       1.5331       1.2897       1.1085       1.0725       4.1885       2.3854
   2892.5520       8.7042      -0.0124     112.2084      79.1921      67.2447       1.4605       1.2744       1.0375       0.9972       4.1021       2.3503
   2892.7043       8.7043      -0.0130     110.7551      72.2546      64.2213       1.1446       1.0880       0.9481       0.9317       3.9533       2.3246
   2892.8567       8.7052      -0.0137     107.1871      72.5943      67.1774       0.9207       0.9072       0.8310       0.8377       4.0307       2.3226
   2893.0090       8.7019      -0.0089     107.8014      72.9340      66.5009       0.6967       0.7263       0.7140       0.7437       4.1483       2.3594
   2893.1616       8.7109      -0.0082     106.4467      76.0885      67.1189       0.7056       0.7091       0.6786       0.7245       4.5381       2.3954
   2893.3140       8.7016      -0.0112     106.2458      68.3362      64.5232       1.1160       1.0805       0.9856       0.9682       4.5193       2.4005
   2893.4663       8.7079      -0.0192     106.3206      67.7578      66.0064       1.0990       1.0740       1.0101       0.9761       4.5242       2.3869
   2893.6187       8.7052      -0.0221     106.6458      67.1793      67.6246       1.0819       1.0676       1.0347       0.9839       4.7463       2.3801
   2893.7712       8.7079      -0.0252     105.0340      61.7910      65.0289       0.9942       1.0243       1.0061       0.9523       4.8275       2.3941
