#------------------------------------------------------------------------------
#
#   Created by  : [OpenWorks] Log Export Utility (LEXP)
#   Created on  : 2016-05-13 12:21:08
#   Project     : CANT971
#   User        : R5K
#   Interpreter : PEP
#
#------------------------------------------------------------------------------
~VERSION INFORMATION
VERS. 2.0 : CWLS Log ASCII Standard - version 2.0
WRAP.  NO : One line per depth step
~WELL INFORMATION
#MNEMONIC   .UNIT                                           VALUE :DESCRIPTION
#------------------------------------------------------------------------------
STRT        .M                                          1966.7219 :START DEPTH
STOP        .M                                          3141.8784 :STOP DEPTH
STEP        .M                                             0.1524 :STEP
NULL        .                                           -999.2500 :NULL VALUE
COMP        .                                             UNKNOWN :COMPANY
WELL        .                                                3034 :WELL
FLD         .                                             UNKNOWN :FIELD
LOC         .                                             UNKNOWN :LOCATION
CNTY        .                                             UNKNOWN :COUNTY
STAT        .                                             UNKNOWN :STATE
CTRY        .                                             UNKNOWN :COUNTRY
SRVC        .                                             UNKNOWN :SERVICE COMPANY
DATE        .                                             UNKNOWN :LOG DATE
UWI         .                                                3034 :UNIQUE WELL ID
XCOORD      .                                            0.000000 :SURFACE X
YCOORD      .                                            0.000000 :SURFACE Y
LAT         .                                            0.000000 :LATITUDE
LON         .                                            0.000000 :LONGITUDE
ELEV        .M                                             0.0000 :SURFACE ELEV
ELEV_TYPE   .                                                  KB :ELEV TYPE
~CURVE INFORMATION
#MNEMONIC.UNIT        API CODE       : CURVE DESCRIPTION
#------------------------------------------------------------------------------
DEPTH    .M                          : Measured Depth
CALI     .inches      UNKNOWN        : CALI:LDL-GR:r1:0001:v2 
DRHO     .g/cm3       UNKNOWN        : DRHO:LDL-GR:r1:0001:v2 
DT       .us/ft       UNKNOWN        : DT:sonico:r1:0001:v2 
GR-LWD   .API         UNKNOWN        : GR-LWD:PETROWORKS:rC:NONE:v5 
GR       .API         UNKNOWN        : GR:LDL-GR:r1:0001:v2 
LLD-LWD  .ohm.m       UNKNOWN        : LLD-LWD:PETROWORKS:rC:NONE:v5 
LLM-LWD  .UNKNOWN     UNKNOWN        : LLM-LWD:PETROWORKS:rC:NONE:v5 
LLS-LWD  .ohm.m       UNKNOWN        : LLS-LWD:PETROWORKS:rC:NONE:v5 
MSFL-LWD .ohm.m       UNKNOWN        : MSFL-LWD:PETROWORKS:rC:NONE:v5 
PEF      .b/elec      UNKNOWN        : PEF:LDL-GR:r1:0001:v2 
RHOB     .g/cm3       UNKNOWN        : RHOB:LDL-GR:r1:0001:v2 
~A     DEPTH         CALI         DRHO           DT       GR-LWD           GR      LLD-LWD      LLM-LWD      LLS-LWD     MSFL-LWD          PEF         RHOB
# ...
   2148.9924      13.7969      -0.0104     122.8674      85.9194      53.3209       0.9116       0.8760       0.8937       0.9445       6.1788       2.3426
   2149.1448      13.7907      -0.0086     122.2464      87.3545      52.9116       0.9152       0.8804       0.8991       0.9489       6.0393       2.3454
   2149.2971      13.7938      -0.0081     122.0323      87.1405      51.1012       0.9230       0.8885       0.9052       0.9536       6.2197       2.3549
   2149.4495      13.7827      -0.0116     122.9915      86.2673      52.5267       0.9332       0.8946       0.9085       0.9564       6.2185       2.3548
   2149.6018      13.7886      -0.0109     122.3699      84.5977      55.5205       0.9393       0.8964       0.9113       0.9589       6.5610       2.3511
   2149.7544      13.8000      -0.0129     122.3010      84.5053      53.7443       0.9481       0.9041       0.9168       0.9648       6.6475       2.3419
   2149.9067      13.7889      -0.0149     122.6747      88.0774      52.0541       0.9668       0.9219       0.9294       0.9786       6.8187       2.3432
   2150.0591      13.8044      -0.0128     122.2418      87.1876      49.4697       0.9770       0.9354       0.9431       0.9922       6.3266       2.3499
   2150.2114      13.8093      -0.0127     121.9265      84.3503      51.3591       0.9718       0.9369       0.9515       1.0011       6.3466       2.3498
   2150.3640      13.8155      -0.0176     121.0921      81.6487      52.0300       0.9653       0.9352       0.9518       1.0049       6.4432       2.3407
   2150.5164      13.8133      -0.0161     121.1039      84.9941      55.3050       0.9643       0.9364       0.9538       1.0100       6.3015       2.3367
   2150.6687      13.8124      -0.0166     120.3382      86.5297      53.1305       0.9713       0.9379       0.9606       1.0179       5.9837       2.3360
   2150.8210      13.8155      -0.0197     120.0004      83.7059      51.7263       0.9819       0.9425       0.9698       1.0262       6.1805       2.3333
   2150.9736      13.8342      -0.0196     119.6122      83.4711      49.4434       0.9840       0.9482       0.9760       1.0345       6.3861       2.3345
   2151.1260      13.8435      -0.0124     118.9855      87.5139      49.9948       0.9847       0.9526       0.9826       1.0403       6.6649       2.3482
   2151.2783      13.8466      -0.0146     118.8251      86.0840      49.8522       0.9961       0.9647       0.9926       1.0487       6.6580       2.3466
   2151.4307      13.8435      -0.0120     119.9185      82.9501      48.5933       1.0078       0.9799       1.0049       1.0576       7.0798       2.3510
   2151.5830      13.8622      -0.0135     120.1592      80.1063      48.3085       1.0217       0.9918       1.0095       1.0557       7.4633       2.3396
   2151.7356      13.8636      -0.0096     121.5780      83.7522      48.7162       1.0176       0.9833       0.9930       1.0329       7.0524       2.3387
   2151.8879      13.8746      -0.0101     114.5358      83.8364      49.5715       1.0099       0.9824       0.9886       1.0187       6.7018       2.3397
   2152.0403      13.8604      -0.0093     113.9352      86.1573      50.7042       1.0136       0.9853       0.9930       1.0198       5.8639       2.3546
   2152.1926      13.8777      -0.0093     111.1342      84.5631      48.9955       1.0069       0.9623       0.9685       1.0118       5.7606       2.3798
   2152.3452      13.8715      -0.0051     110.9486      84.6287      52.0118       1.0117       0.9469       0.9546       1.0086       5.7451       2.4159
   2152.4976      13.8871      -0.0045     111.5662      81.3859      50.8791       1.0295       0.9598       0.9763       1.0336       6.1971       2.4530
   2152.6499      13.8945      -0.0068     111.5901      77.7398      53.2141       1.1247       1.0514       1.0565       1.1125       7.3913       2.4732
   2152.8022      13.9433      -0.0100     114.2769      74.1027      48.9149       1.2332       1.1776       1.1742       1.2400       8.2283       2.4547
   2152.9548      13.9722      -0.0122     117.1927      71.2576      51.0718       1.2614       1.2360       1.2576       1.3397       9.1034       2.4131
   2153.1072      14.0083      -0.0165     120.2827      74.8661      50.7302       1.2169       1.2081       1.2554       1.3367       8.1509       2.3708
   2153.2595      14.0363      -0.0175     121.1348      84.7028      52.8486       1.1553       1.1468       1.1892       1.2536       7.5583       2.3462
   2153.4119      14.0363      -0.0145     121.1337      83.9455      54.0114       1.0851       1.0813       1.1111       1.1583       6.6527       2.3435
   2153.5642      14.0405      -0.0130     121.8703      84.1617      54.4386       1.0425       1.0204       1.0365       1.0778       6.4909       2.3400
   2153.7168      14.0714      -0.0136     121.0837      86.1682      54.8004       1.0289       0.9860       0.9953       1.0400       6.9803       2.3470
   2153.8691      14.0705      -0.0130     120.8247      87.6052      52.3741       1.0090       0.9536       0.9734       1.0227       7.0159       2.3528
   2154.0215      14.0737      -0.0106     120.6617      86.4211      53.6556       0.9880       0.9308       0.9612       1.0135       6.4521       2.3606
   2154.1738      14.0705      -0.0108     120.6505      83.8093      54.6184       0.9774       0.9306       0.9614       1.0124       5.5973       2.3569
   2154.3264      14.0747      -0.0091     120.6689      84.4882      55.4337       0.9755       0.9379       0.9656       1.0183       5.8700       2.3581
   2154.4788      14.0923      -0.0113     122.5257      86.2836      51.3215       0.9664       0.9381       0.9673       1.0242       6.1915       2.3495
   2154.6311      14.0995      -0.0126     121.5176      85.9730      50.5872       0.9677       0.9399       0.9710       1.0301       7.1213       2.3467
   2154.7834      14.1089      -0.0149     122.0517      86.4199      53.0312       0.9725       0.9444       0.9741       1.0309       7.0069       2.3381
   2154.9360      14.1089      -0.0122     121.5049      82.9307      54.7617       0.9745       0.9446       0.9641       1.0175       6.5934       2.3444
   2155.0884      14.1089      -0.0116     120.6068      79.0569      56.4951       0.9717       0.9406       0.9543       1.0096       5.7252       2.3477
   2155.2407      14.1057      -0.0069     121.6783      82.3868      57.0894       0.9669       0.9347       0.9502       1.0089       5.4980       2.3560
   2155.3931      14.1234      -0.0093     122.8118      82.1078      57.3471       0.9623       0.9269       0.9467       1.0075       6.0053       2.3498
   2155.5454      14.0912      -0.0092     121.5695      85.3515      56.8967       0.9646       0.9212       0.9399       0.9982       7.4144       2.3476
   2155.6980      14.1195      -0.0060     119.8261      87.7168      52.4534       0.9706       0.9202       0.9353       0.9888       8.1309       2.3481
   2155.8503      14.0654      -0.0073     120.2268      87.6375      54.4793       0.9691       0.9190       0.9355       0.9878       7.4948       2.3537
   2156.0027      14.0094      -0.0090     120.6516      86.3563      51.4152       0.9774       0.9315       0.9514       1.0001       6.6439       2.3582
   2156.1550      13.9578      -0.0073     120.5111      84.6397      54.2663       1.0046       0.9660       0.9824       1.0247       6.5078       2.3590
   2156.3076      13.9082      -0.0093     119.9746      83.8712      55.8123       1.0067       0.9752       0.9968       1.0424       6.5549       2.3524
   2156.4600      13.8771      -0.0172     119.4853      83.3166      57.7568       1.0027       0.9766       1.0054       1.0573       6.5063       2.3462
   2156.6123      13.8541      -0.0159     119.4732      82.7298      54.0682       1.0078       0.9863       1.0169       1.0721       6.5432       2.3592
   2156.7646      13.8446      -0.0146     118.8699      82.5514      50.2387       1.0095       0.9898       1.0251       1.0855       6.6046       2.3712
