#------------------------------------------------------------------------------
#
#   Created by  : [OpenWorks] Log Export Utility (LEXP)
#   Created on  : 2016-05-23 17:43:58
#   Project     : CANT971
#   User        : R5K
#   Interpreter : PEP
#
#------------------------------------------------------------------------------
~VERSION INFORMATION
VERS. 2.0 : CWLS Log ASCII Standard - version 2.0
WRAP. YES : Mulitple lines per depth step
~WELL INFORMATION
#MNEMONIC   .UNIT                                           VALUE :DESCRIPTION
#------------------------------------------------------------------------------
STRT        .M                                          1112.1945 :START DEPTH
STOP        .M                                          3447.5720 :STOP DEPTH
STEP        .M                                             0.1524 :STEP
NULL        .                                           -999.2500 :NULL VALUE
COMP        .                                             UNKNOWN :COMPANY
WELL        .                                              3041-V :WELL
FLD         .                                             UNKNOWN :FIELD
LOC         .                                             UNKNOWN :LOCATION
CNTY        .                                             UNKNOWN :COUNTY
STAT        .                                             UNKNOWN :STATE
CTRY        .                                             UNKNOWN :COUNTRY
SRVC        .                                             UNKNOWN :SERVICE COMPANY
DATE        .                                             UNKNOWN :LOG DATE
UWI         .                                              3041-V :UNIQUE WELL ID
XCOORD      .                                       599714.550000 :SURFACE X
YCOORD      .                                      2152046.310000 :SURFACE Y
LAT         .                                           19.461560 :LATITUDE
LON         .                                          -92.049991 :LONGITUDE
ELEV        .M                                             0.0000 :SURFACE ELEV
ELEV_TYPE   .                                                  KB :ELEV TYPE
~CURVE INFORMATION
#MNEMONIC.UNIT        API CODE       : CURVE DESCRIPTION
#------------------------------------------------------------------------------
DEPTH    .M                          : Measured Depth
CGR      .API         UNKNOWN        : CGR:PETROWORKS:rC:NONE:v1 
CGR-ENT  .API         UNKNOWN        : CGR-ENT:Entubado:rC:NONE:v0 (auto-composite)
DT       .us/ft       UNKNOWN        : DT:Sonico:rC:NONE:v0 (auto-composite)
GR       .API         UNKNOWN        : GR:PETROWORKS:rC:NONE:v2 
GR-ENT   .API         UNKNOWN        : GR-ENT:Entubado:rC:NONE:v0 (auto-composite)
GR-LWD   .API         UNKNOWN        : GR-LWD:PETROWORKS:rC:NONE:v6 
LLD      .ohm.m       UNKNOWN        : LLD:FINAL:rC:NONE:v0 (auto-composite)
LLD-LWD  .ohm.m       UNKNOWN        : LLD-LWD:PETROWORKS:rC:NONE:v6 
LLM-LWD  .UNKNOWN     UNKNOWN        : LLM-LWD:PETROWORKS:rC:NONE:v6 
LLS      .ohm.m       UNKNOWN        : LLS:FINAL:rC:NONE:v0 (auto-composite)
LLS-LWD  .ohm.m       UNKNOWN        : LLS-LWD:PETROWORKS:rC:NONE:v6 
MSFL-LWD .ohm.m       UNKNOWN        : MSFL-LWD:PETROWORKS:rC:NONE:v6 
NPHI     .v/v_decimal UNKNOWN        : NPHI:porosidad-entubado:rC:NONE:v0 (auto-composite)
POTA     .wtpercent   UNKNOWN        : POTA:PETROWORKS:rC:NONE:v1 
POTA-ENT .UNKNOWN     UNKNOWN        : POTA-ENT:Entubado:rC:NONE:v0 (auto-composite)
THOR     .ppm         UNKNOWN        : THOR:PETROWORKS:rC:NONE:v1 
THOR-ENT .ppm         UNKNOWN        : THOR-ENT:Entubado:rC:NONE:v0 (auto-composite)
URAN     .ppm         UNKNOWN        : URAN:PETROWORKS:rC:NONE:v1 
URAN-ENT .ppm         UNKNOWN        : URAN-ENT:Entubado:rC:NONE:v0 (auto-composite)
~A
# ...
   2420.8533
      11.2896       3.2487    -999.2500      14.1462      13.6465      39.4618
       4.9686       2.0260       1.7807       5.0580       1.9731       2.0675
       0.0145       0.0045       0.0016       0.9959       0.0940       0.3508
       1.1662
   2421.0056
      15.1251      11.8010    -999.2500      19.0355      18.7284      44.1150
      13.4989       1.9889       1.7823      13.5489       1.9008       1.9577
      -0.0011       0.0060       0.0048       1.3642       0.7816       0.4869
       0.7770
   2421.1580
      19.7864      15.0123    -999.2500      24.8530      21.5883      49.3449
       8.9342       1.9131       1.9112       8.7902       1.9112       1.9101
      -0.0148       0.0079       0.0062       1.7337       0.9248       0.6397
       0.7375
   2421.3105
      23.7098      16.7596    -999.2500      29.5875      23.6685      49.6014
       4.1688       1.8945       1.9315       3.9100       1.9235       1.9145
      -0.0220       0.0095       0.0068       2.0009       1.0841       0.7445
       0.7749
   2421.4629
      26.2017      23.6679    -999.2500      32.3349      28.8771      47.3408
       2.6269       2.1325       2.2604       2.4058       2.2451       2.2997
      -0.0241       0.0105       0.0073       2.2217       2.4851       0.7837
       0.5843
   2421.6152
      28.0143      25.6905    -999.2500      33.3059      30.8142      41.5412
       2.1280       2.6408       2.9028       1.9263       2.8529       3.0197
      -0.0245       0.0110       0.0080       2.5588       2.6610       0.7261
       0.5746
   2421.7676
      28.2058      25.1091    -999.2500      32.0529      29.6691      37.5940
       1.9678       2.4613       2.5790       1.7864       2.4874       2.5678
      -0.0234       0.0106       0.0081       2.8050       2.4853       0.5995
       0.5115
   2421.9202
      26.1025      23.5510    -999.2500      29.0804      27.1211      33.9211
       1.8675       2.0803       1.9138       1.6858       1.8523       1.8587
      -0.0183       0.0096       0.0078       2.7197       2.2819       0.4908
       0.4004
   2422.0725
      23.5792      17.8720    -999.2500      26.0581      21.4375      33.7604
       2.3671       2.0037       1.7933       2.1728       1.7435       1.7509
       0.0122       0.0086       0.0078       2.4658       0.9624       0.3952
       0.3999
   2422.2249
      22.8798      11.4196    -999.2500      25.1357      15.5446      40.3410
       3.3384       1.7812       1.5787       3.1044       1.5225       1.5354
       0.1601       0.0084       0.0049       2.4077       0.6568       0.3373
       0.4626
   2422.3772
      24.0330       7.5258    -999.2500      26.6884      12.2545      50.5639
       2.9344       1.5027       1.3548       2.7430       1.2886       1.3030
       1.3837       0.0087       0.0022       2.6134       0.8221       0.3581
       0.5303
   2422.5295
      25.8525       6.7580    -999.2500      29.1018      11.5246      52.2218
       2.6665       1.4423       1.3250       2.4778       1.3070       1.3251
       1.9954       0.0094       0.0014       2.7680       1.0103       0.3975
       0.5346
   2422.6821
      27.8420       6.8512    -999.2500      31.2243      11.1021      52.8202
       2.5026       1.4216       1.3326       2.2476       1.3626       1.3969
       2.1260       0.0104       0.0018       2.8106       0.8369       0.3863
       0.4767
   2422.8345
      28.8953       7.2590    -999.2500      32.5893      10.7092      52.7178
       1.9905       1.4333       1.3491       1.7781       1.3853       1.4255
       2.6091       0.0110       0.0023       2.8282       0.7162       0.4097
       0.3869
   2422.9868
      28.9764       7.4040    -999.2500      33.3319      10.7999      50.8836
       1.7119       1.4412       1.3451       1.5357       1.3638       1.4121
       3.1114       0.0109       0.0027       2.8962       0.5970       0.4961
       0.3809
   2423.1392
      29.6795       7.2909    -999.2500      34.0467      10.9454      48.9699
       1.5824       1.4267       1.3094       1.4358       1.3015       1.3536
       3.4844       0.0109       0.0027       3.0982       0.5933       0.5173
       0.4099
   2423.2917
      29.8707       5.9468    -999.2500      34.6944       9.7842      49.9463
       1.5100       1.4014       1.3027       1.3820       1.2582       1.2959
       3.5872       0.0111       0.0020       3.0448       0.5474       0.5433
       0.4304
   2423.4441
      28.7906       6.8327    -999.2500      34.7606      11.0991      51.0089
       1.5029       1.3881       1.3193       1.4066       1.2454       1.2666
       3.7997       0.0111       0.0023       2.6979       0.6376       0.6377
       0.4785
   2423.5964
      27.8774       7.5369    -999.2500      34.3924      11.7270      51.1962
       1.9027       1.3792       1.3250       1.8394       1.2480       1.2602
       3.9293       0.0110       0.0022       2.5069       0.8362       0.6987
       0.4700
   2423.7488
      27.1725       7.1218    -999.2500      33.8982       9.9175      52.4303
       2.1853       1.3137       1.2893       2.1182       1.3002       1.3238
       3.8487       0.0104       0.0018       2.5914       0.9121       0.7293
       0.3136
   2423.9014
      27.4490      12.7003    -999.2500      33.5162      13.6294      53.8843
       2.4778       1.2785       1.2768       2.4062       1.3772       1.4229
       3.5944       0.0101       0.0033       2.8547       1.5859       0.6603
       0.1042
   2424.0537
      27.3101      14.2488    -999.2500      32.2101      15.1573      56.9397
       2.0575       1.4150       1.4373       1.9752       1.5669       1.6879
       4.0779       0.0100       0.0038       2.9067       1.7476       0.5560
       0.1019
   2424.2061
      26.5298      14.5269    -999.2500      30.8188      15.3784      58.7916
       1.7586       1.5185       1.5569       1.6501       1.6959       1.8751
       3.9230       0.0095       0.0040       2.9396       1.7215       0.5223
       0.0955
   2424.3584
      26.0105      15.8662    -999.2500      29.9013      16.9201      59.0349
       1.6522       1.5510       1.5943       1.5561       1.7353       1.9379
       3.4570       0.0091       0.0044       3.0221       1.8521       0.4995
       0.1182
   2424.5107
      27.1086      16.9961    -999.2500      30.3151      18.0789      52.6548
       1.6211       1.7503       1.8126       1.5280       1.8864       2.0544
       3.2703       0.0093       0.0048       3.2134       1.9438       0.4375
       0.1215
   2424.6633
      28.2591      17.4769    -999.2500      30.8305      18.6817      48.1330
       2.3575       1.8988       1.9705       2.2065       1.9686       2.0861
       3.0134       0.0096       0.0052       3.4260       1.9110       0.3613
       0.1351
   2424.8157
      27.5840      15.8737    -999.2500      30.4416      16.4613      46.3603
       2.5259       1.8056       1.7963       2.4210       1.7625       1.8091
       2.7314       0.0096       0.0044       3.2248       1.8451       0.3789
       0.0659
   2424.9680
      26.8281      16.6739    -999.2500      29.8208      18.3938      45.8211
       2.4478       1.7204       1.6642       2.3529       1.6323       1.6521
       2.6565       0.0094       0.0042       3.0688       2.1464       0.3972
       0.1929
   2425.1204
      26.7294      15.8797    -999.2500      29.5291      17.2719      45.8429
       2.4275       1.6744       1.6039       2.3334       1.5829       1.6013
       2.7566       0.0095       0.0041       2.9663       2.0032       0.3489
       0.1561
   2425.2729
      28.5571      17.0681    -999.2500      30.9065      19.6476      48.4200
       2.4851       1.5916       1.5470       2.3909       1.5737       1.6004
       2.6728       0.0102       0.0039       3.1259       2.3331       0.2674
       0.2893
   2425.4253
      29.3262      17.2372    -999.2500      31.9469      20.0652      50.0424
       2.7778       1.5665       1.5325       2.6674       1.5813       1.6182
       2.3914       0.0108       0.0037       3.0394       2.4556       0.3247
       0.3172
