#------------------------------------------------------------------------------
#
#   Created by  : [OpenWorks] Log Export Utility (LEXP)
#   Created on  : 2016-05-23 17:43:58
#   Project     : CANT971
#   User        : R5K
#   Interpreter : PEP
#
#------------------------------------------------------------------------------
~VERSION INFORMATION
VERS. 2.0 : CWLS Log ASCII Standard - version 2.0
WRAP. YES : Mulitple lines per depth step
~WELL INFORMATION
#MNEMONIC   .UNIT                                           VALUE :DESCRIPTION
#------------------------------------------------------------------------------
STRT        .M                                          1112.1945 :START DEPTH
STOP        .M                                          3447.5720 :STOP DEPTH
STEP        .M                                             0.1524 :STEP
NULL        .                                           -999.2500 :NULL VALUE
COMP        .                                             UNKNOWN :COMPANY
WELL        .                                              3041-V :WELL
FLD         .                                             UNKNOWN :FIELD
LOC         .                                             UNKNOWN :LOCATION
CNTY        .                                             UNKNOWN :COUNTY
STAT        .                                             UNKNOWN :STATE
CTRY        .                                             UNKNOWN :COUNTRY
SRVC        .                                             UNKNOWN :SERVICE COMPANY
DATE        .                                             UNKNOWN :LOG DATE
UWI         .                                              3041-V :UNIQUE WELL ID
XCOORD      .                                       599714.550000 :SURFACE X
YCOORD      .                                      2152046.310000 :SURFACE Y
LAT         .                                           19.461560 :LATITUDE
LON         .                                          -92.049991 :LONGITUDE
ELEV        .M                                             0.0000 :SURFACE ELEV
ELEV_TYPE   .                                                  KB :ELEV TYPE
~CURVE INFORMATION
#MNEMONIC.UNIT        API CODE       : CURVE DESCRIPTION
#------------------------------------------------------------------------------
DEPTH    .M                          : Measured Depth
CGR      .API         UNKNOWN        : CGR:PETROWORKS:rC:NONE:v1 
CGR-ENT  .API         UNKNOWN        : CGR-ENT:Entubado:rC:NONE:v0 (auto-composite)
DT       .us/ft       UNKNOWN        : DT:Sonico:rC:NONE:v0 (auto-composite)
GR       .API         UNKNOWN        : GR:PETROWORKS:rC:NONE:v2 
GR-ENT   .API         UNKNOWN        : GR-ENT:Entubado:rC:NONE:v0 (auto-composite)
GR-LWD   .API         UNKNOWN        : GR-LWD:PETROWORKS:rC:NONE:v6 
LLD      .ohm.m       UNKNOWN        : LLD:FINAL:rC:NONE:v0 (auto-composite)
LLD-LWD  .ohm.m       UNKNOWN        : LLD-LWD:PETROWORKS:rC:NONE:v6 
LLM-LWD  .UNKNOWN     UNKNOWN        : LLM-LWD:PETROWORKS:rC:NONE:v6 
LLS      .ohm.m       UNKNOWN        : LLS:FINAL:rC:NONE:v0 (auto-composite)
LLS-LWD  .ohm.m       UNKNOWN        : LLS-LWD:PETROWORKS:rC:NONE:v6 
MSFL-LWD .ohm.m       UNKNOWN        : MSFL-LWD:PETROWORKS:rC:NONE:v6 
NPHI     .v/v_decimal UNKNOWN        : NPHI:porosidad-entubado:rC:NONE:v0 (auto-composite)
POTA     .wtpercent   UNKNOWN        : POTA:PETROWORKS:rC:NONE:v1 
POTA-ENT .UNKNOWN     UNKNOWN        : POTA-ENT:Entubado:rC:NONE:v0 (auto-composite)
THOR     .ppm         UNKNOWN        : THOR:PETROWORKS:rC:NONE:v1 
THOR-ENT .ppm         UNKNOWN        : THOR-ENT:Entubado:rC:NONE:v0 (auto-composite)
URAN     .ppm         UNKNOWN        : URAN:PETROWORKS:rC:NONE:v1 
URAN-ENT .ppm         UNKNOWN        : URAN-ENT:Entubado:rC:NONE:v0 (auto-composite)
~A
# ...
   2893.2932
      19.4441      19.4326    -999.2500      31.1514      31.1365      46.5402
    -999.2500      80.2146      72.9844    -999.2500     113.4347      88.8875
       0.0786       0.0056       0.0056       1.8030       1.8021       1.1941
       1.1935
   2893.4456
      18.9631      18.9640    -999.2500      30.2222      30.2238      48.6583
    -999.2500      82.0749      70.7948    -999.2500     108.5021      85.5162
       0.0748       0.0058       0.0058       1.6566       1.6569       1.1481
       1.1482
   2893.5981
      18.6436      18.6426    -999.2500      29.7331      29.7309      50.5053
    -999.2500      90.3161      76.2189    -999.2500     117.6586     101.2464
       0.0774       0.0056       0.0056       1.6393       1.6388       1.1308
       1.1307
   2893.7505
      19.3593      19.3546    -999.2500      31.0246      31.0186      57.1199
    -999.2500      92.7805      82.2862    -999.2500     117.9421     110.6578
       0.0833       0.0058       0.0058       1.7527       1.7521       1.1898
       1.1894
   2893.9028
      18.1486      18.1580    -999.2500      30.1825      30.1930      59.4794
    -999.2500      96.8257      94.7942    -999.2500     123.3862     127.6552
       0.0899       0.0055       0.0055       1.6020       1.6032       1.2271
       1.2272
   2894.0552
      18.3566      18.3494    -999.2500      38.1161      38.0839      61.4298
    -999.2500      95.9482      96.6780    -999.2500     116.6215     108.3329
       0.0927       0.0062       0.0062       1.3625       1.3629       2.0162
       2.0124
   2894.2078
      20.0717      20.0674    -999.2500      42.2140      42.2306      70.2946
    -999.2500      91.6787      85.1173    -999.2500     103.4965      80.3554
       0.0924       0.0068       0.0068       1.4586       1.4574       2.2578
       2.2599
   2894.3601
      21.4384      21.4385    -999.2500      44.7164      44.7163      76.6592
    -999.2500      78.9416      65.0009    -999.2500      77.9240      54.5902
       0.0913       0.0073       0.0073       1.5538       1.5538       2.3737
       2.3736
   2894.5125
      21.4962      21.4962    -999.2500      45.1905      45.1906      73.5302
    -999.2500      80.2060      55.5742    -999.2500      60.5348      46.9441
       0.0866       0.0071       0.0071       1.6402       1.6402       2.4161
       2.4161
   2894.6648
      22.8118      22.8399    -999.2500      47.6640      47.7096      70.9996
    -999.2500     173.6024      74.7480    -999.2500      47.3476      39.2177
       0.0861       0.0073       0.0073       1.8787       1.8819       2.5342
       2.5360
   2894.8171
      22.6580      22.6314    -999.2500      47.7290      47.6924      68.5418
    -999.2500     261.3767     130.2025    -999.2500      43.4479      34.4428
       0.0893       0.0070       0.0070       1.9437       1.9416       2.5566
       2.5555
   2894.9697
      22.9576      23.0022    -999.2500      48.3512      48.4298      68.2522
    -999.2500     144.5487     104.5949    -999.2500      40.9360      31.3050
       0.0952       0.0070       0.0070       2.0277       2.0336       2.5894
       2.5928
   2895.1221
      22.5299      22.5110    -999.2500      47.3400      47.6037      68.5208
    -999.2500      69.6647      57.8539    -999.2500      37.5176      29.3817
       0.0939       0.0069       0.0068       1.9716       2.0023       2.5298
       2.5587
   2895.2744
      22.1032      22.1903    -999.2500      42.3041      42.0440      65.0990
    -999.2500      57.3180      39.9535    -999.2500      31.9042      27.3170
       0.0883       0.0079       0.0080       1.4670       1.4314       2.0594
       2.0245
   2895.4268
      20.6309      20.7264    -999.2500      39.2105      39.4105      61.7516
    -999.2500      62.1363      35.4660    -999.2500      26.3735      22.6723
       0.0830       0.0076       0.0076       1.2776       1.2807       1.8945
       1.9052
   2895.5793
      18.0456      17.9524    -999.2500      35.1217      34.9809      57.9395
    -999.2500      75.0717      34.4473    -999.2500      23.9344      18.9099
       0.0799       0.0065       0.0065       1.1690       1.1722       1.7407
       1.7364
   2895.7317
      16.3070      15.9937    -999.2500      32.1852      31.6298      51.2862
    -999.2500      54.9566      25.8669    -999.2500      20.6079      16.9050
       0.0802       0.0059       0.0058       1.0593       1.0261       1.6191
       1.5944
   2895.8840
      16.7939      17.1109    -999.2500      33.1761      33.6843      51.2219
    -999.2500      27.9061      17.6017    -999.2500      16.6782      17.1653
       0.0822       0.0059       0.0060       1.1509       1.1843       1.6704
       1.6900
   2896.0364
      15.4765      16.0060    -999.2500      31.8304      32.2515      50.8899
    -999.2500      23.0687      17.4354    -999.2500      16.7786      18.7881
       0.0824       0.0054       0.0056       1.0577       1.1089       1.6669
       1.6566
   2896.1890
      11.2172      10.3909    -999.2500      27.6686      26.8487      50.4454
    -999.2500      26.7596      19.7634    -999.2500      19.0528      19.7563
       0.0786       0.0042       0.0039       0.6696       0.5936       1.6775
       1.6782
   2896.3413
      11.1877      10.1400    -999.2500      28.0389      26.8846      52.9435
    -999.2500      29.8139      21.5250    -999.2500      21.7048      20.7112
       0.0755       0.0043       0.0039       0.6311       0.5690       1.7192
       1.7074
   2896.4937
      17.1804      17.9372    -999.2500      35.1126      35.7450      64.4758
    -999.2500      35.3089      24.4643    -999.2500      24.5812      22.6569
       0.0802       0.0065       0.0068       0.9917       1.0517       1.8285
       1.8158
   2896.6460
      21.0912      21.9714    -999.2500      40.2188      41.7664      62.2740
    -999.2500      47.1726      29.4734    -999.2500      29.0980      24.7087
       0.0876       0.0081       0.0084       1.1639       1.2140       1.9504
       2.0185
   2896.7983
      20.4084      19.8370    -999.2500      38.5855      37.6492      61.6252
    -999.2500      58.4994      33.4468    -999.2500      32.4456      26.9822
       0.0957       0.0080       0.0078       1.0610       1.0083       1.8533
       1.8163
   2896.9509
      20.1672      20.2158    -999.2500      37.4764      37.5406      62.8928
    -999.2500      45.2920      26.3059    -999.2500      24.6567      21.9646
       0.0980       0.0078       0.0079       1.0686       1.0644       1.7650
       1.7666
   2897.1033
      21.0217      20.8435    -999.2500      38.2849      37.9295      62.6971
    -999.2500      30.4029      15.6714    -999.2500      15.4608      15.8592
       0.0977       0.0079       0.0079       1.2263       1.1922       1.7606
       1.7423
   2897.2556
      21.9481      22.3966    -999.2500      39.5492      40.2083      59.1966
    -999.2500      28.0444      13.1737    -999.2500      12.7433      13.2685
       0.0943       0.0078       0.0079       1.4469       1.5092       1.7948
       1.8162
   2897.4080
      22.2014      21.7216    -999.2500      39.9253      39.2953      57.3561
    -999.2500      33.8481      17.9558    -999.2500      15.0352      12.3987
       0.0941       0.0077       0.0076       1.5609       1.5246       1.8073
       1.7920
   2897.5605
      22.2967      23.1514    -999.2500      39.9906      41.0896      56.5911
    -999.2500      51.1565      25.5818    -999.2500      20.2924      11.7759
       0.0975       0.0076       0.0079       1.6184       1.6756       1.8041
       1.8292
   2897.7129
      21.7683      20.6513    -999.2500      39.5539      37.8357      58.6917
    -999.2500      63.1570      25.9658    -999.2500      20.3845       9.7700
       0.1084       0.0073       0.0069       1.6344       1.5668       1.8137
       1.7523
   2897.8652
      22.3404      23.0254    -999.2500      41.1761      42.2494      64.1894
    -999.2500      39.1418      15.7236    -999.2500      11.6879       6.5804
       0.1225       0.0074       0.0077       1.7001       1.7483       1.9210
       1.9603
