#------------------------------------------------------------------------------
#
#   Created by  : [OpenWorks] Log Export Utility (LEXP)
#   Created on  : 2016-05-23 17:43:58
#   Project     : CANT971
#   User        : R5K
#   Interpreter : PEP
#
#------------------------------------------------------------------------------
~VERSION INFORMATION
VERS. 2.0 : CWLS Log ASCII Standard - version 2.0
WRAP. YES : Mulitple lines per depth step
~WELL INFORMATION
#MNEMONIC   .UNIT                                           VALUE :DESCRIPTION
#------------------------------------------------------------------------------
STRT        .M                                          1112.1945 :START DEPTH
STOP        .M                                          3447.5720 :STOP DEPTH
STEP        .M                                             0.1524 :STEP
NULL        .                                           -999.2500 :NULL VALUE
COMP        .                                             UNKNOWN :COMPANY
WELL        .                                              3041-V :WELL
FLD         .                                             UNKNOWN :FIELD
LOC         .                                             UNKNOWN :LOCATION
CNTY        .                                             UNKNOWN :COUNTY
STAT        .                                             UNKNOWN :STATE
CTRY        .                                             UNKNOWN :COUNTRY
SRVC        .                                             UNKNOWN :SERVICE COMPANY
DATE        .                                             UNKNOWN :LOG DATE
UWI         .                                              3041-V :UNIQUE WELL ID
XCOORD      .                                       599714.550000 :SURFACE X
YCOORD      .                                      2152046.310000 :SURFACE Y
LAT         .                                           19.461560 :LATITUDE
LON         .                                          -92.049991 :LONGITUDE
ELEV        .M                                             0.0000 :SURFACE ELEV
ELEV_TYPE   .                                                  KB :ELEV TYPE
~CURVE INFORMATION
#MNEMONIC.UNIT        API CODE       : CURVE DESCRIPTION
#------------------------------------------------------------------------------
DEPTH    .M                          : Measured Depth
CGR      .API         UNKNOWN        : CGR:PETROWORKS:rC:NONE:v1 
CGR-ENT  .API         UNKNOWN        : CGR-ENT:Entubado:rC:NONE:v0 (auto-composite)
DT       .us/ft       UNKNOWN        : DT:Sonico:rC:NONE:v0 (auto-composite)
GR       .API         UNKNOWN        : GR:PETROWORKS:rC:NONE:v2 
GR-ENT   .API         UNKNOWN        : GR-ENT:Entubado:rC:NONE:v0 (auto-composite)
GR-LWD   .API         UNKNOWN        : GR-LWD:PETROWORKS:rC:NONE:v6 
LLD      .ohm.m       UNKNOWN        : LLD:FINAL:rC:NONE:v0 (auto-composite)
LLD-LWD  .ohm.m       UNKNOWN        : LLD-LWD:PETROWORKS:rC:NONE:v6 
LLM-LWD  .UNKNOWN     UNKNOWN        : LLM-LWD:PETROWORKS:rC:NONE:v6 
LLS      .ohm.m       UNKNOWN        : LLS:FINAL:rC:NONE:v0 (auto-composite)
LLS-LWD  .ohm.m       UNKNOWN        : LLS-LWD:PETROWORKS:rC:NONE:v6 
MSFL-LWD .ohm.m       UNKNOWN        : MSFL-LWD:PETROWORKS:rC:NONE:v6 
NPHI     .v/v_decimal UNKNOWN        : NPHI:porosidad-entubado:rC:NONE:v0 (auto-composite)
POTA     .wtpercent   UNKNOWN        : POTA:PETROWORKS:rC:NONE:v1 
POTA-ENT .UNKNOWN     UNKNOWN        : POTA-ENT:Entubado:rC:NONE:v0 (auto-composite)
THOR     .ppm         UNKNOWN        : THOR:PETROWORKS:rC:NONE:v1 
THOR-ENT .ppm         UNKNOWN        : THOR-ENT:Entubado:rC:NONE:v0 (auto-composite)
URAN     .ppm         UNKNOWN        : URAN:PETROWORKS:rC:NONE:v1 
URAN-ENT .ppm         UNKNOWN        : URAN-ENT:Entubado:rC:NONE:v0 (auto-composite)
~A
# ...
   2345.2629
    -999.2500      28.1225     111.6390      52.9365      35.5101      68.2126
    -999.2500       0.9691       0.9508    -999.2500       0.9680       1.0051
       0.1410    -999.2500       0.0078    -999.2500       3.7415    -999.2500
       0.8877
   2345.4153
    -999.2500      26.4172     111.3810      52.2816      32.6968      68.5405
    -999.2500       0.9880       0.9750    -999.2500       0.9908       1.0241
       0.1410    -999.2500       0.0076    -999.2500       3.3779    -999.2500
       0.7546
   2345.5676
    -999.2500      27.3132     110.2345      50.8729      33.7018      67.3514
    -999.2500       1.0046       0.9959    -999.2500       1.0067       1.0415
       0.1376    -999.2500       0.0083    -999.2500       3.3231    -999.2500
       0.7676
   2345.7200
    -999.2500      29.1744     109.4880      49.6810      36.1926      65.7777
    -999.2500       0.9951       0.9793    -999.2500       0.9963       1.0315
       0.1415    -999.2500       0.0089    -999.2500       3.5212    -999.2500
       0.8433
   2345.8726
    -999.2500      30.5781     109.9175      49.9280      38.2103      65.8942
    -999.2500       1.0016       0.9787    -999.2500       0.9964       1.0251
       0.1437    -999.2500       0.0093    -999.2500       3.7103    -999.2500
       0.9171
   2346.0249
    -999.2500      29.9557     109.7216      50.8245      37.0885      67.9405
    -999.2500       1.0391       1.0227    -999.2500       1.0265       1.0534
       0.1486    -999.2500       0.0095    -999.2500       3.4862    -999.2500
       0.8571
   2346.1772
    -999.2500      30.2326     108.7620      50.4945      37.4860      69.7091
    -999.2500       1.0541       1.0450    -999.2500       1.0431       1.0760
       0.1473    -999.2500       0.0097    -999.2500       3.4985    -999.2500
       0.8716
   2346.3296
    -999.2500      29.3029     108.3693      49.6371      36.2688      70.4028
    -999.2500       1.0396       1.0301    -999.2500       1.0353       1.0727
       0.1479    -999.2500       0.0093    -999.2500       3.4260    -999.2500
       0.8370
   2346.4822
    -999.2500      30.2200     108.8791      50.1504      37.4877      70.1778
    -999.2500       1.0115       0.9988    -999.2500       1.0145       1.0510
       0.1471    -999.2500       0.0096    -999.2500       3.5046    -999.2500
       0.8733
   2346.6345
    -999.2500      29.6150     108.6305      52.2413      37.1072      69.4626
    -999.2500       0.9848       0.9685    -999.2500       0.9880       1.0168
       0.1497    -999.2500       0.0093    -999.2500       3.4891    -999.2500
       0.9003
   2346.7869
    -999.2500      30.5755     108.6182      53.4601      38.6915      70.0609
    -999.2500       0.9904       0.9733    -999.2500       0.9833       1.0090
       0.1464    -999.2500       0.0095    -999.2500       3.6153    -999.2500
       0.9752
   2346.9392
    -999.2500      27.8138     108.8638      52.0190      33.9753      70.7356
    -999.2500       1.0115       0.9881    -999.2500       0.9947       1.0230
       0.1464    -999.2500       0.0084    -999.2500       3.4244    -999.2500
       0.7403
   2347.0916
    -999.2500      30.0361     109.2289      50.3393      36.5588      70.0179
    -999.2500       1.0339       1.0032    -999.2500       1.0146       1.0424
       0.1421    -999.2500       0.0089    -999.2500       3.7659    -999.2500
       0.7838
   2347.2441
    -999.2500      29.9961     108.2850      49.8321      35.6465      68.7606
    -999.2500       1.0653       1.0380    -999.2500       1.0492       1.0731
       0.1411    -999.2500       0.0087    -999.2500       3.8571    -999.2500
       0.6790
   2347.3965
    -999.2500      29.5383     107.4573      50.0982      34.0236      68.9184
    -999.2500       1.1090       1.0941    -999.2500       1.0994       1.1247
       0.1357    -999.2500       0.0089    -999.2500       3.6497    -999.2500
       0.5390
   2347.5488
    -999.2500      29.8474     106.0726      50.2421      33.8197      69.6104
    -999.2500       1.1318       1.1247    -999.2500       1.1285       1.1587
       0.1374    -999.2500       0.0093    -999.2500       3.5460    -999.2500
       0.4773
   2347.7012
    -999.2500      30.1869     107.3311      50.5561      34.0734      69.9436
    -999.2500       1.1361       1.1317    -999.2500       1.1380       1.1724
       0.1352    -999.2500       0.0095    -999.2500       3.5661    -999.2500
       0.4670
   2347.8538
    -999.2500      30.7357     107.5316      51.0058      33.9957      71.4846
    -999.2500       1.1197       1.1128    -999.2500       1.1258       1.1618
       0.1357    -999.2500       0.0098    -999.2500       3.5856    -999.2500
       0.3917
   2348.0061
    -999.2500      31.9286     106.7128      51.4662      35.4524      72.8516
    -999.2500       1.0977       1.0857    -999.2500       1.0993       1.1328
       0.1345    -999.2500       0.0097    -999.2500       3.9115    -999.2500
       0.4234
   2348.1584
    -999.2500      31.2187     106.7066      50.8292      34.2028      71.9637
    -999.2500       1.0924       1.0777    -999.2500       1.0831       1.1168
       0.1371    -999.2500       0.0091    -999.2500       3.9639    -999.2500
       0.3586
   2348.3108
    -999.2500      31.4162     107.9133      49.4532      34.0125      70.8892
    -999.2500       1.0856       1.0679    -999.2500       1.0713       1.1093
       0.1374    -999.2500       0.0089    -999.2500       4.0813    -999.2500
       0.3120
   2348.4634
    -999.2500      31.6200     107.1023      48.1426      34.0621      69.9680
    -999.2500       1.0664       1.0434    -999.2500       1.0514       1.0908
       0.1404    -999.2500       0.0086    -999.2500       4.2458    -999.2500
       0.2935
   2348.6157
    -999.2500      34.8873     107.1443      46.6920      38.3553      67.3629
    -999.2500       1.0478       1.0211    -999.2500       1.0268       1.0616
       0.1423    -999.2500       0.0099    -999.2500       4.5579    -999.2500
       0.4168
   2348.7681
    -999.2500      33.2335     107.3843      45.7726      35.3279      63.4720
    -999.2500       1.0316       1.0096    -999.2500       1.0106       1.0416
       0.1447    -999.2500       0.0103    -999.2500       3.9716    -999.2500
       0.2517
   2348.9204
    -999.2500      34.5916     106.3585      45.2725      37.2293      60.4963
    -999.2500       0.9994       0.9875    -999.2500       0.9916       1.0249
       0.1409    -999.2500       0.0112    -999.2500       3.9574    -999.2500
       0.3169
   2349.0728
    -999.2500      33.5824     106.8536      45.1621      35.4478      60.2797
    -999.2500       0.9571       0.9476    -999.2500       0.9599       0.9964
       0.1336    -999.2500       0.0112    -999.2500       3.6863    -999.2500
       0.2242
   2349.2253
    -999.2500      32.6829     108.4155      46.7395      34.0645      63.5902
    -999.2500       0.9184       0.9008    -999.2500       0.9196       0.9536
       0.1316    -999.2500       0.0109    -999.2500       3.5873    -999.2500
       0.1660
   2349.3777
    -999.2500      32.6061     110.3330      48.5150      34.3578      66.8382
    -999.2500       0.9144       0.8892    -999.2500       0.9029       0.9294
       0.1332    -999.2500       0.0106    -999.2500       3.6705    -999.2500
       0.2105
   2349.5300
    -999.2500      32.6362     109.7401      50.4431      34.2246      67.5931
    -999.2500       0.9581       0.9369    -999.2500       0.9376       0.9627
       0.1370    -999.2500       0.0105    -999.2500       3.7378    -999.2500
       0.1909
   2349.6824
    -999.2500      31.7867     109.3974      49.7394      33.5918      66.6908
    -999.2500       0.9851       0.9752    -999.2500       0.9764       1.0150
       0.1346    -999.2500       0.0097    -999.2500       3.8581    -999.2500
       0.2169
   2349.8350
    -999.2500      30.3692     110.5079      48.5812      32.0078      64.9595
    -999.2500       0.9394       0.9313    -999.2500       0.9570       1.0058
       0.1295    -999.2500       0.0085    -999.2500       4.0234    -999.2500
       0.1968
