#------------------------------------------------------------------------------
#
#   Created by  : [OpenWorks] Log Export Utility (LEXP)
#   Created on  : 2016-05-23 17:43:58
#   Project     : CANT971
#   User        : R5K
#   Interpreter : PEP
#
#------------------------------------------------------------------------------
~VERSION INFORMATION
VERS. 2.0 : CWLS Log ASCII Standard - version 2.0
WRAP. YES : Mulitple lines per depth step
~WELL INFORMATION
#MNEMONIC   .UNIT                                           VALUE :DESCRIPTION
#------------------------------------------------------------------------------
STRT        .M                                          1112.1945 :START DEPTH
STOP        .M                                          3447.5720 :STOP DEPTH
STEP        .M                                             0.1524 :STEP
NULL        .                                           -999.2500 :NULL VALUE
COMP        .                                             UNKNOWN :COMPANY
WELL        .                                              3041-V :WELL
FLD         .                                             UNKNOWN :FIELD
LOC         .                                             UNKNOWN :LOCATION
CNTY        .                                             UNKNOWN :COUNTY
STAT        .                                             UNKNOWN :STATE
CTRY        .                                             UNKNOWN :COUNTRY
SRVC        .                                             UNKNOWN :SERVICE COMPANY
DATE        .                                             UNKNOWN :LOG DATE
UWI         .                                              3041-V :UNIQUE WELL ID
XCOORD      .                                       599714.550000 :SURFACE X
YCOORD      .                                      2152046.310000 :SURFACE Y
LAT         .                                           19.461560 :LATITUDE
LON         .                                          -92.049991 :LONGITUDE
ELEV        .M                                             0.0000 :SURFACE ELEV
ELEV_TYPE   .                                                  KB :ELEV TYPE
~CURVE INFORMATION
#MNEMONIC.UNIT        API CODE       : CURVE DESCRIPTION
#------------------------------------------------------------------------------
DEPTH    .M                          : Measured Depth
CGR      .API         UNKNOWN        : CGR:PETROWORKS:rC:NONE:v1 
CGR-ENT  .API         UNKNOWN        : CGR-ENT:Entubado:rC:NONE:v0 (auto-composite)
DT       .us/ft       UNKNOWN        : DT:Sonico:rC:NONE:v0 (auto-composite)
GR       .API         UNKNOWN        : GR:PETROWORKS:rC:NONE:v2 
GR-ENT   .API         UNKNOWN        : GR-ENT:Entubado:rC:NONE:v0 (auto-composite)
GR-LWD   .API         UNKNOWN        : GR-LWD:PETROWORKS:rC:NONE:v6 
LLD      .ohm.m       UNKNOWN        : LLD:FINAL:rC:NONE:v0 (auto-composite)
LLD-LWD  .ohm.m       UNKNOWN        : LLD-LWD:PETROWORKS:rC:NONE:v6 
LLM-LWD  .UNKNOWN     UNKNOWN        : LLM-LWD:PETROWORKS:rC:NONE:v6 
LLS      .ohm.m       UNKNOWN        : LLS:FINAL:rC:NONE:v0 (auto-composite)
LLS-LWD  .ohm.m       UNKNOWN        : LLS-LWD:PETROWORKS:rC:NONE:v6 
MSFL-LWD .ohm.m       UNKNOWN        : MSFL-LWD:PETROWORKS:rC:NONE:v6 
NPHI     .v/v_decimal UNKNOWN        : NPHI:porosidad-entubado:rC:NONE:v0 (auto-composite)
POTA     .wtpercent   UNKNOWN        : POTA:PETROWORKS:rC:NONE:v1 
POTA-ENT .UNKNOWN     UNKNOWN        : POTA-ENT:Entubado:rC:NONE:v0 (auto-composite)
THOR     .ppm         UNKNOWN        : THOR:PETROWORKS:rC:NONE:v1 
THOR-ENT .ppm         UNKNOWN        : THOR-ENT:Entubado:rC:NONE:v0 (auto-composite)
URAN     .ppm         UNKNOWN        : URAN:PETROWORKS:rC:NONE:v1 
URAN-ENT .ppm         UNKNOWN        : URAN-ENT:Entubado:rC:NONE:v0 (auto-composite)
~A
# ...
   2486.9949
      11.2296      25.6014    -999.2500      44.8315      38.1648      71.4998
     679.8342    1016.0757     756.6039     524.8075     624.0671     397.4065
       0.0272       0.0052       0.0069       0.5523       2.2120       4.0888
       1.1876
   2487.1472
      11.9203      27.9765    -999.2500      48.8390      43.3060      63.9562
     792.4937    1051.3433     945.6585     569.3601     887.7063     376.1685
       0.0277       0.0055       0.0082       0.5835       2.1790       4.5375
       1.4491
   2487.2996
      11.3015      29.5018    -999.2500      49.1954      45.7523      62.9354
     786.7975     826.6045     733.2001     556.1611     688.2914     282.8919
       0.0270       0.0053       0.0088       0.5486       2.2147       4.7102
       1.5362
   2487.4521
       9.3756      31.8179    -999.2500      44.9084      49.0903      58.3811
     635.4606     573.5992     472.5173     414.8668     441.8529     198.5142
       0.0266       0.0043       0.0096       0.4890       2.3633       4.4906
       1.6327
   2487.6045
       7.2001      31.7381    -999.2500      39.0553      48.5913      47.6779
     410.0153     340.9800     189.3696     260.3511     174.6302     164.0161
       0.0268       0.0032       0.0098       0.4396       2.2657       4.0775
       1.5931
   2487.7568
       5.7860      23.7743    -999.2500      35.4692      36.9535      47.2454
     247.9735     361.6638     199.5797     150.9079     193.9892     180.2083
       0.0262       0.0025       0.0069       0.3854       1.8888       3.7878
       1.2459
   2487.9092
       5.5845      22.8009    -999.2500      34.1604      36.1485      47.0494
     227.3106     354.4171     192.4387     137.5892     189.3299     165.6947
       0.0235       0.0024       0.0065       0.3845       1.8684       3.5960
       1.2617
   2488.0618
       5.9594      18.6718    -999.2500      33.7168      32.1049      47.0771
     245.4379     347.3756     188.8979     148.8422     185.4257     159.2713
       0.0212       0.0025       0.0051       0.4582       1.5972       3.4394
       1.2698
   2488.2141
       6.0564      16.9134    -999.2500      34.0658      29.7776      45.7103
     368.9518     341.2546     185.9407     229.2053     174.8069     150.0483
       0.0209       0.0025       0.0047       0.4502       1.4215       3.4545
       1.2160
   2488.3665
       6.6240      21.2026    -999.2500      35.0721      34.0801      42.4856
     298.2516     339.0140     183.1558     175.6768     158.4472     140.0593
       0.0217       0.0028       0.0063       0.4733       1.6408       3.5200
       1.2173
   2488.5188
       7.5771      20.5054    -999.2500      36.3599      32.7752      39.6664
     251.5152     322.2817     174.4288     146.3406     153.3934     135.9872
       0.0221       0.0032       0.0058       0.5389       1.6739       3.5742
       1.1599
   2488.6711
       8.1915      19.6104    -999.2500      37.5955      31.4620      36.6399
     246.6918     288.7335     163.3642     142.9194     147.0155     130.4454
       0.0221       0.0035       0.0054       0.5576       1.6445       3.6824
       1.1203
   2488.8237
       8.6802      21.3104    -999.2500      37.9760      33.4124      36.4264
     277.6374     277.9851     159.9136     163.0316     144.1589     129.6972
       0.0227       0.0038       0.0059       0.5664       1.7783       3.7038
       1.1440
   2488.9761
       8.9201      21.5363    -999.2500      36.6884      33.3576      39.6667
     350.0087     282.4320     159.5352     171.2046     142.4243     124.5962
       0.0226       0.0039       0.0060       0.5460       1.7938       3.5070
       1.1175
   2489.1284
       8.8487      20.8526    -999.2500      35.0697      32.0720      44.4252
     230.4822     290.5787     157.4887     112.3848     140.3882     115.6153
       0.0185       0.0039       0.0060       0.5353       1.6766       3.2865
       1.0606
   2489.2808
       8.8169      21.5345    -999.2500      35.2478      32.4074      45.5987
     200.7281     254.8463     143.9419      97.1771     131.7925     113.2899
       0.0156       0.0039       0.0065       0.5412       1.5930       3.2982
       1.0278
   2489.4333
       8.9219      20.3856    -999.2500      36.8013      30.4244      46.7664
     180.6382     218.0549     133.0531      86.3121     123.7967     115.8615
       0.0180       0.0040       0.0063       0.5382       1.4726       3.4847
       0.9490
   2489.5857
       8.4481      19.9585    -999.2500      37.8885      29.9508      46.8965
     140.6239     209.7922     130.4890      72.8889     122.3274     118.7104
       0.0257       0.0038       0.0061       0.5011       1.4455       3.7361
       0.9445
   2489.7380
       7.3096      20.8867    -999.2500      37.3229      31.5843      46.2020
      97.0404     208.6984     127.8088      50.8759     125.0519     126.3204
       0.0293       0.0033       0.0062       0.3985       1.6166       3.8707
       1.0112
   2489.8904
       6.4534      20.9965    -999.2500      36.1825      31.2043      45.4103
      96.3434     212.6172     126.1715      49.9903     126.2814     130.5363
       0.0272       0.0030       0.0064       0.3349       1.5695       3.8478
       0.9649
   2490.0430
       5.6840      23.3131    -999.2500      35.8264      34.2873      44.4619
     140.6512     205.9106     122.8482      69.4380     117.9846     122.6408
       0.0244       0.0026       0.0068       0.2805       1.8359       3.9162
       1.0374
   2490.1953
       4.8411      23.8484    -999.2500      36.0259      34.8498      43.6043
     232.4227     197.3539     119.2235     101.1197     111.3847     114.7839
       0.0233       0.0022       0.0072       0.2389       1.7690       4.0905
       1.0399
   2490.3477
       4.6801      23.6966    -999.2500      35.7769      33.9457      43.4726
     508.5959     193.6255     117.4502     167.1355     109.2598     110.1728
       0.0244       0.0022       0.0075       0.2295       1.6298       4.0620
       0.9689
   2490.5000
       4.8286      23.2750    -999.2500      34.3073      32.7207      42.8420
     523.4181     209.4344     108.9783     153.9796      97.4295      93.0846
       0.0256       0.0023       0.0074       0.2194       1.5849       3.8007
       0.8929
   2490.6523
       4.6946      22.8088    -999.2500      32.6149      31.6848      42.6417
     405.3238     230.7695     102.8448     119.9433      89.1554      80.2399
       0.0267       0.0021       0.0075       0.2751       1.4673       3.6132
       0.8390
   2490.8049
       4.7026      21.6888    -999.2500      32.9646      29.4777      45.3458
     414.3681     309.6078     166.5916     126.4047      84.9594      72.7401
       0.0260       0.0020       0.0075       0.3285       1.2349       3.6772
       0.7363
   2490.9573
       5.3071      23.0649    -999.2500      35.9452      31.9619      47.1339
     308.8841     386.5468     230.8169      93.8360      81.9082      68.5675
       0.0259       0.0022       0.0078       0.4251       1.4147       3.9862
       0.8411
   2491.1096
       5.8371      21.9027    -999.2500      40.4548      30.1298      47.4360
     303.3914     437.1829     269.7310      88.7693      80.8812      67.9973
       0.0268       0.0023       0.0075       0.5241       1.2920       4.5190
       0.7777
   2491.2620
       6.1668      22.6666    -999.2500      43.2675      34.5625      49.0412
     344.3315    1202.9458     860.2354     105.9708      84.7316      39.5849
       0.0289       0.0024       0.0072       0.5830       1.5474       4.8112
       1.1245
   2491.4146
       6.1157      23.4885    -999.2500      43.2982      36.9284      49.7191
     395.8876    1387.7380     841.4281     158.9245      75.7297      21.8608
       0.0288       0.0024       0.0071       0.5700       1.7354       4.7812
       1.2705
   2491.5669
       5.4393      22.0738    -999.2500      40.7288      35.1855      47.9181
     293.0380     778.9454     335.4258     140.3266      49.9487      17.7107
       0.0274       0.0021       0.0066       0.4904       1.6646       4.5567
       1.2394
