#------------------------------------------------------------------------------
#
#   Created by  : [OpenWorks] Log Export Utility (LEXP)
#   Created on  : 2016-05-23 17:43:58
#   Project     : CANT971
#   User        : R5K
#   Interpreter : PEP
#
#------------------------------------------------------------------------------
~VERSION INFORMATION
VERS. 2.0 : CWLS Log ASCII Standard - version 2.0
WRAP. YES : Mulitple lines per depth step
~WELL INFORMATION
#MNEMONIC   .UNIT                                           VALUE :DESCRIPTION
#------------------------------------------------------------------------------
STRT        .M                                          1112.1945 :START DEPTH
STOP        .M                                          3447.5720 :STOP DEPTH
STEP        .M                                             0.1524 :STEP
NULL        .                                           -999.2500 :NULL VALUE
COMP        .                                             UNKNOWN :COMPANY
WELL        .                                              3041-V :WELL
FLD         .                                             UNKNOWN :FIELD
LOC         .                                             UNKNOWN :LOCATION
CNTY        .                                             UNKNOWN :COUNTY
STAT        .                                             UNKNOWN :STATE
CTRY        .                                             UNKNOWN :COUNTRY
SRVC        .                                             UNKNOWN :SERVICE COMPANY
DATE        .                                             UNKNOWN :LOG DATE
UWI         .                                              3041-V :UNIQUE WELL ID
XCOORD      .                                       599714.550000 :SURFACE X
YCOORD      .                                      2152046.310000 :SURFACE Y
LAT         .                                           19.461560 :LATITUDE
LON         .                                          -92.049991 :LONGITUDE
ELEV        .M                                             0.0000 :SURFACE ELEV
ELEV_TYPE   .                                                  KB :ELEV TYPE
~CURVE INFORMATION
#MNEMONIC.UNIT        API CODE       : CURVE DESCRIPTION
#------------------------------------------------------------------------------
DEPTH    .M                          : Measured Depth
CGR      .API         UNKNOWN        : CGR:PETROWORKS:rC:NONE:v1 
CGR-ENT  .API         UNKNOWN        : CGR-ENT:Entubado:rC:NONE:v0 (auto-composite)
DT       .us/ft       UNKNOWN        : DT:Sonico:rC:NONE:v0 (auto-composite)
GR       .API         UNKNOWN        : GR:PETROWORKS:rC:NONE:v2 
GR-ENT   .API         UNKNOWN        : GR-ENT:Entubado:rC:NONE:v0 (auto-composite)
GR-LWD   .API         UNKNOWN        : GR-LWD:PETROWORKS:rC:NONE:v6 
LLD      .ohm.m       UNKNOWN        : LLD:FINAL:rC:NONE:v0 (auto-composite)
LLD-LWD  .ohm.m       UNKNOWN        : LLD-LWD:PETROWORKS:rC:NONE:v6 
LLM-LWD  .UNKNOWN     UNKNOWN        : LLM-LWD:PETROWORKS:rC:NONE:v6 
LLS      .ohm.m       UNKNOWN        : LLS:FINAL:rC:NONE:v0 (auto-composite)
LLS-LWD  .ohm.m       UNKNOWN        : LLS-LWD:PETROWORKS:rC:NONE:v6 
MSFL-LWD .ohm.m       UNKNOWN        : MSFL-LWD:PETROWORKS:rC:NONE:v6 
NPHI     .v/v_decimal UNKNOWN        : NPHI:porosidad-entubado:rC:NONE:v0 (auto-composite)
POTA     .wtpercent   UNKNOWN        : POTA:PETROWORKS:rC:NONE:v1 
POTA-ENT .UNKNOWN     UNKNOWN        : POTA-ENT:Entubado:rC:NONE:v0 (auto-composite)
THOR     .ppm         UNKNOWN        : THOR:PETROWORKS:rC:NONE:v1 
THOR-ENT .ppm         UNKNOWN        : THOR-ENT:Entubado:rC:NONE:v0 (auto-composite)
URAN     .ppm         UNKNOWN        : URAN:PETROWORKS:rC:NONE:v1 
URAN-ENT .ppm         UNKNOWN        : URAN-ENT:Entubado:rC:NONE:v0 (auto-composite)
~A
# ...
   3233.4500
      16.8476      16.5400    -999.2500      27.8211      27.3667      40.8495
    -999.2500     889.6371     396.7068    -999.2500    1240.6675     650.2704
       0.0352       0.0057       0.0056       1.2262       1.1903       1.1189
       1.1040
   3233.6025
      16.9836      17.2421    -999.2500      27.2752      27.6273      41.6369
    -999.2500     853.4518     398.6632    -999.2500     990.8559     577.9728
       0.0332       0.0058       0.0059       1.2572       1.2777       1.0494
       1.0590
   3233.7549
      16.6320      16.7608    -999.2500      25.8282      26.3071      40.1686
    -999.2500     407.9297     207.5750    -999.2500     696.1295     292.8257
       0.0339       0.0053       0.0056       1.3713       1.2811       0.9377
       0.9734
   3233.9072
      15.5930      15.3108    -999.2500      22.7908      21.9141      37.7371
    -999.2500     323.3206     150.3481    -999.2500    1221.5590     360.2812
       0.0351       0.0039       0.0036       1.7182       1.7883       0.7336
       0.6734
   3234.0596
      15.5292      15.4609    -999.2500      22.5405      22.3991      35.1742
    -999.2500     241.9610     112.8930    -999.2500     834.6954     247.3778
       0.0353       0.0033       0.0032       1.9452       1.9491       0.7150
       0.7075
   3234.2122
      15.9353      16.3118    -999.2500      24.0002      24.6153      34.2364
    -999.2500     156.9006      80.8612    -999.2500     331.0457     108.8961
       0.0343       0.0034       0.0035       1.9791       2.0172       0.8225
       0.8467
   3234.3645
      15.0469      14.7139    -999.2500      23.3120      22.8666      34.1571
    -999.2500     116.7352      66.3165    -999.2500     118.7688      50.5127
       0.0323       0.0033       0.0032       1.8271       1.8267       0.8427
       0.8313
   3234.5168
      14.9843      15.0845    -999.2500      23.5112      23.6289      35.2142
    -999.2500     108.3519      67.5962    -999.2500      59.2721      37.3831
       0.0316       0.0038       0.0039       1.6020       1.6000       0.8695
       0.8713
   3234.6692
      15.0400      15.0564    -999.2500      23.9464      23.9809      32.4451
    -999.2500     144.1062     102.9054    -999.2500     114.3358      72.9540
       0.0318       0.0044       0.0044       1.3911       1.3904       0.9082
       0.9100
   3234.8218
      14.6852      14.7736    -999.2500      23.8038      23.9063      31.0235
    -999.2500     210.3067     164.8473    -999.2500     372.8466     211.0656
       0.0316       0.0047       0.0048       1.1921       1.1915       0.9298
       0.9313
   3234.9741
      13.8826      13.6753    -999.2500      23.1615      22.8641      30.8623
    -999.2500     281.0225     203.4274    -999.2500    1108.2217     340.8019
       0.0307       0.0047       0.0046       1.0224       1.0004       0.9461
       0.9370
   3235.1265
      14.4673      14.5301    -999.2500      24.5214      24.6457      33.2445
    -999.2500     250.3741     202.7767    -999.2500    1578.4263     424.6726
       0.0303       0.0050       0.0050       1.0286       1.0314       1.0253
       1.0315
   3235.2788
      14.8628      14.9886    -999.2500      25.2877      25.4732      32.2651
    -999.2500     178.3525     150.9078    -999.2500     903.6318     275.4014
       0.0300       0.0051       0.0052       1.0554       1.0646       1.0630
       1.0691
   3235.4312
      13.7140      13.6649    -999.2500      23.6963      23.6160      28.8622
    -999.2500     161.0087     128.0737    -999.2500     339.3531     179.7646
       0.0310       0.0047       0.0047       0.9699       0.9703       1.0176
       1.0147
   3235.5837
      12.8707      12.8877    -999.2500      22.6435      22.6439      27.4480
    -999.2500     151.5350     128.5121    -999.2500     233.8017     200.4316
       0.0305       0.0046       0.0046       0.8580       0.8533       0.9965
       0.9949
   3235.7361
      11.9454      11.9021    -999.2500      21.9205      21.8648      26.6256
    -999.2500     140.1133     141.2757    -999.2500     304.1969     285.9761
       0.0300       0.0042       0.0042       0.8352       0.8326       1.0170
       1.0159
   3235.8884
      12.0314      12.0893    -999.2500      22.5362      22.6205      23.4693
    -999.2500     148.5430     153.2047    -999.2500     336.1302     257.3653
       0.0288       0.0041       0.0041       0.8984       0.8996       1.0712
       1.0738
   3236.0408
       9.6147       9.6025    -999.2500      19.4707      19.4549      22.0996
    -999.2500     340.8358     202.3825    -999.2500     326.9856     195.7801
       0.0295       0.0027       0.0027       0.9186       0.9187       1.0050
       1.0046
   3236.1934
       9.4571       9.4544    -999.2500      19.0020      19.0014      21.7038
    -999.2500    1061.6550     325.9841    -999.2500     293.0048     172.1373
       0.0308       0.0024       0.0024       1.0188       1.0177       0.9733
       0.9735
   3236.3457
       9.2010       9.2015    -999.2500      18.6254      18.6260      22.3490
    -999.2500    1698.9000     649.5908    -999.2500     313.8608     195.2048
       0.0312       0.0024       0.0024       0.9845       0.9846       0.9610
       0.9610
   3236.4980
       8.4239       8.4259    -999.2500      16.3591      16.3627      23.1307
    -999.2500    1586.0403     894.7997    -999.2500     261.1765     138.2616
       0.0297       0.0027       0.0027       0.6765       0.6775       0.8088
       0.8093
   3236.6504
      10.5219      10.5105    -999.2500      18.1033      18.0869      23.7282
    -999.2500    1107.3503     987.8378    -999.2500     303.1671     110.9169
       0.0290       0.0038       0.0038       0.6939       0.6925       0.7731
       0.7726
   3236.8030
      12.9887      12.9876    -999.2500      20.8789      20.8757      24.2349
    -999.2500    1478.4216    1366.7598    -999.2500     914.2220     164.9365
       0.0301       0.0042       0.0042       1.0199       1.0187       0.8045
       0.8043
   3236.9553
      14.8625      14.8626    -999.2500      23.6362      23.6375      26.7439
    -999.2500    1249.1681     915.2381    -999.2500     728.5161     128.1778
       0.0324       0.0045       0.0045       1.3122       1.3121       0.8951
       0.8948
   3237.1077
      12.8365      12.8493    -999.2500      20.9780      20.9960      28.6919
    -999.2500     407.1145     254.3713    -999.2500     225.0355      72.4220
       0.0335       0.0038       0.0038       1.1642       1.1656       0.8301
       0.8307
   3237.2600
      13.2034      13.1975    -999.2500      22.1980      22.1902      30.6057
    -999.2500     151.6531      90.4084    -999.2500      94.5034      57.2562
       0.0323       0.0038       0.0038       1.2388       1.2382       0.9174
       0.9170
   3237.4124
      14.0946      14.0953    -999.2500      23.2449      23.2456      26.5395
    -999.2500     107.8115      72.6600    -999.2500      81.0046      42.7912
       0.0301       0.0041       0.0041       1.2997       1.2998       0.9331
       0.9331
   3237.5649
      12.4879      12.4541    -999.2500      19.6076      19.5375      24.1969
    -999.2500     100.5445      76.0210    -999.2500      87.1856      51.8979
       0.0281       0.0039       0.0039       1.0276       1.0229       0.7260
       0.7223
   3237.7173
      12.4845      12.5132    -999.2500      19.4348      19.4647      24.0621
    -999.2500     109.4249      80.5001    -999.2500      99.0365      66.3438
       0.0263       0.0041       0.0041       0.9880       0.9891       0.7087
       0.7089
   3237.8696
      11.9745      11.9917    -999.2500      19.0080      19.1036      22.8516
    -999.2500     118.2783      84.2108    -999.2500     113.9417      84.4958
       0.0261       0.0038       0.0038       0.9693       0.9692       0.7172
       0.7252
   3238.0220
      11.1217      10.9545    -999.2500      16.7390      16.4866      21.5882
    -999.2500     134.9532      94.3546    -999.2500     124.5950      97.6956
       0.0266       0.0034       0.0034       0.9589       0.9468       0.5730
       0.5641
