#------------------------------------------------------------------------------
#
#   Created by  : [OpenWorks] Log Export Utility (LEXP)
#   Created on  : 2016-05-23 17:43:58
#   Project     : CANT971
#   User        : R5K
#   Interpreter : PEP
#
#------------------------------------------------------------------------------
~VERSION INFORMATION
VERS. 2.0 : CWLS Log ASCII Standard - version 2.0
WRAP. YES : Mulitple lines per depth step
~WELL INFORMATION
#MNEMONIC   .UNIT                                           VALUE :DESCRIPTION
#------------------------------------------------------------------------------
STRT        .M                                          1112.1945 :START DEPTH
STOP        .M                                          3447.5720 :STOP DEPTH
STEP        .M                                             0.1524 :STEP
NULL        .                                           -999.2500 :NULL VALUE
COMP        .                                             UNKNOWN :COMPANY
WELL        .                                              3041-V :WELL
FLD         .                                             UNKNOWN :FIELD
LOC         .                                             UNKNOWN :LOCATION
CNTY        .                                             UNKNOWN :COUNTY
STAT        .                                             UNKNOWN :STATE
CTRY        .                                             UNKNOWN :COUNTRY
SRVC        .                                             UNKNOWN :SERVICE COMPANY
DATE        .                                             UNKNOWN :LOG DATE
UWI         .                                              3041-V :UNIQUE WELL ID
XCOORD      .                                       599714.550000 :SURFACE X
YCOORD      .                                      2152046.310000 :SURFACE Y
LAT         .                                           19.461560 :LATITUDE
LON         .                                          -92.049991 :LONGITUDE
ELEV        .M                                             0.0000 :SURFACE ELEV
ELEV_TYPE   .                                                  KB :ELEV TYPE
~CURVE INFORMATION
#MNEMONIC.UNIT        API CODE       : CURVE DESCRIPTION
#------------------------------------------------------------------------------
DEPTH    .M                          : Measured Depth
CGR      .API         UNKNOWN        : CGR:PETROWORKS:rC:NONE:v1 
CGR-ENT  .API         UNKNOWN        : CGR-ENT:Entubado:rC:NONE:v0 (auto-composite)
DT       .us/ft       UNKNOWN        : DT:Sonico:rC:NONE:v0 (auto-composite)
GR       .API         UNKNOWN        : GR:PETROWORKS:rC:NONE:v2 
GR-ENT   .API         UNKNOWN        : GR-ENT:Entubado:rC:NONE:v0 (auto-composite)
GR-LWD   .API         UNKNOWN        : GR-LWD:PETROWORKS:rC:NONE:v6 
LLD      .ohm.m       UNKNOWN        : LLD:FINAL:rC:NONE:v0 (auto-composite)
LLD-LWD  .ohm.m       UNKNOWN        : LLD-LWD:PETROWORKS:rC:NONE:v6 
LLM-LWD  .UNKNOWN     UNKNOWN        : LLM-LWD:PETROWORKS:rC:NONE:v6 
LLS      .ohm.m       UNKNOWN        : LLS:FINAL:rC:NONE:v0 (auto-composite)
LLS-LWD  .ohm.m       UNKNOWN        : LLS-LWD:PETROWORKS:rC:NONE:v6 
MSFL-LWD .ohm.m       UNKNOWN        : MSFL-LWD:PETROWORKS:rC:NONE:v6 
NPHI     .v/v_decimal UNKNOWN        : NPHI:porosidad-entubado:rC:NONE:v0 (auto-composite)
POTA     .wtpercent   UNKNOWN        : POTA:PETROWORKS:rC:NONE:v1 
POTA-ENT .UNKNOWN     UNKNOWN        : POTA-ENT:Entubado:rC:NONE:v0 (auto-composite)
THOR     .ppm         UNKNOWN        : THOR:PETROWORKS:rC:NONE:v1 
THOR-ENT .ppm         UNKNOWN        : THOR-ENT:Entubado:rC:NONE:v0 (auto-composite)
URAN     .ppm         UNKNOWN        : URAN:PETROWORKS:rC:NONE:v1 
URAN-ENT .ppm         UNKNOWN        : URAN-ENT:Entubado:rC:NONE:v0 (auto-composite)
~A
# ...
   2690.1440
       6.0383      20.5292    -999.2500      29.2133      30.4797      35.7395
     783.9473     491.3025     248.7337     584.7408     235.2346      87.8352
       0.0200       0.0027       0.0072       0.3568       1.4412       2.8743
       1.0146
   2690.2964
       5.4871      17.9965    -999.2500      27.7840      27.5906      35.5947
     704.3331     431.9654     226.0716     572.5594     206.0398      79.4824
       0.0206       0.0024       0.0063       0.3249       1.2248       2.7791
       0.9783
   2690.4490
       5.1839      16.9065    -999.2500      27.3189      26.4977      35.7487
     352.6850     380.2142     213.5964     281.1072     186.2009      87.4146
       0.0206       0.0023       0.0059       0.3293       1.1788       2.7645
       0.9780
   2690.6013
       4.7783      15.0629    -999.2500      27.7392      24.4698      35.8261
     295.6756     389.6707     225.1790     232.8613     196.4738     102.0512
       0.0207       0.0023       0.0050       0.2119       1.1473       2.8686
       0.9592
   2690.7537
       4.7818      17.2071    -999.2500      29.6252      28.3815      35.6092
     302.9699     456.5228     250.8874     239.1890     217.7268     110.8489
       0.0204       0.0023       0.0058       0.1557       1.3136       3.0916
       1.1395
   2690.9060
       5.3374      17.4813    -999.2500      31.9501      28.7994      35.4782
     327.6249     473.3611     255.6378     255.4387     214.7473     110.8354
       0.0209       0.0024       0.0060       0.2698       1.2529       3.3061
       1.1541
   2691.0583
       5.4232      17.6623    -999.2500      32.8106      29.3763      35.4334
     442.1886     451.2957     246.1769     340.4513     198.8357     106.0243
       0.0215       0.0024       0.0057       0.3130       1.4257       3.4053
       1.1945
   2691.2109
       4.9205      16.5716    -999.2500      32.2107      28.5226      35.9083
     286.1284     421.3704     222.9116     222.3396     174.5199      85.0203
       0.0225       0.0023       0.0054       0.2202       1.3131       3.3720
       1.2186
   2691.3633
       4.2480      14.6824    -999.2500      31.1037      26.7289      35.7773
     266.8034     432.0979     213.8189     216.1880     173.2896      74.5837
       0.0237       0.0020       0.0047       0.2074       1.2042       3.3108
       1.2284
   2691.5156
       4.3987      13.5814    -999.2500      30.5143      25.8957      35.7962
     266.2490     958.9894     481.4559     217.3570     618.1652     176.9568
       0.0258       0.0018       0.0043       0.3299       1.1240       3.1839
       1.2557
   2691.6680
       5.1938      12.9150    -999.2500      30.0933      26.5152      35.9259
     265.0909    1341.7716     708.3795     216.7336     978.1556     265.7657
       0.0268       0.0020       0.0039       0.5201       1.1641       3.0039
       1.3869
   2691.8206
       5.0654      11.2428    -999.2500      28.8112      25.0686      35.9771
     239.5775    1556.5994     861.2190     193.9008    1209.3834     326.8598
       0.0274       0.0017       0.0033       0.6218       1.0391       2.8355
       1.4098
   2691.9729
       4.6246       9.1210    -999.2500      27.3302      22.8752      33.0208
     197.1293     972.7195     591.6946     159.6223     740.8942     242.9781
       0.0291       0.0014       0.0029       0.6542       0.7780       2.7459
       1.4025
   2692.1252
       3.9672       8.0776    -999.2500      25.7835      21.6628      32.1579
     154.4499     602.2862     340.2409     123.7519     356.6524     133.4822
       0.0316       0.0012       0.0028       0.6041       0.5657       2.6449
       1.3852
   2692.2776
       3.7880       8.8944    -999.2500      25.6771      23.2033      32.9501
     149.8055     639.5756     283.5459     119.4169     246.8127     100.7068
       0.0319       0.0010       0.0031       0.6203       0.6264       2.6498
       1.4591
   2692.4302
       3.1548       8.3883    -999.2500      26.4456      22.3103      33.2931
     149.8289     693.0618     281.0678     119.7791     227.9792      98.3803
       0.0316       0.0008       0.0030       0.5015       0.5626       2.8783
       1.4197
   2692.5825
       2.3930      10.1579    -999.2500      26.3587      24.8290      33.4534
     154.4036     729.7330     282.0434     121.5752     221.6370      98.7421
       0.0309       0.0006       0.0033       0.3736       0.8135       3.0158
       1.4960
   2692.7349
       2.1586       9.8308    -999.2500      26.2305      22.6419      33.5883
     133.5545     685.3934     274.4627     109.2960     196.7916      94.0166
       0.0305       0.0005       0.0033       0.3724       0.7372       3.0167
       1.3063
   2692.8872
       1.9904      12.2070    -999.2500      25.3214      25.2267      33.9705
     229.0296     608.5098     288.4843     170.4489     202.4771      95.9964
       0.0300       0.0003       0.0041       0.4248       0.9124       2.9499
       1.3276
   2693.0396
       2.3565      12.2660    -999.2500      26.4365      25.2078      35.0329
     244.4734     800.0405     407.9429     180.7675     578.8748     131.2587
       0.0300       0.0005       0.0038       0.4751       1.0570       3.0534
       1.3197
   2693.1921
       2.3897      13.2653    -999.2500      27.0068      26.3540      35.3787
     242.4210     947.5934     433.7568     179.7990     782.6517     142.2210
       0.0303       0.0006       0.0037       0.4249       1.2999       3.1848
       1.3346
   2693.3445
       2.3399      12.8780    -999.2500      26.6803      25.8528      35.5766
     311.0812    1077.9655     439.5779     232.6083     943.3794     147.8034
       0.0319       0.0007       0.0034       0.3347       1.3410       3.1151
       1.3231
   2693.4968
       2.1218      12.8814    -999.2500      26.4347      25.3921      32.4832
     352.6064     947.7867     740.2581     259.0597    1256.2737     983.3420
       0.0335       0.0008       0.0037       0.2320       1.2097       3.1630
       1.2757
   2693.6492
       1.0822      12.2084    -999.2500      25.5697      23.4541      32.0590
     289.4821    1216.1172    1089.0559     212.4055    1387.3738    1322.7631
       0.0345       0.0006       0.0039      -0.0021       1.0059       3.1244
       1.1467
   2693.8018
       1.8105      12.4958    -999.2500      25.6975      20.3074      33.0334
     278.9174     796.6207     571.1097     204.2204     538.8056     478.9866
       0.0341       0.0009       0.0047       0.0611       0.7499       3.0429
       0.7965
   2693.9541
       2.1191      15.5033    -999.2500      26.6812      24.0036      33.2760
     167.4973     645.2737     424.4553     121.9482     359.0004     295.6182
       0.0339       0.0009       0.0062       0.1438       0.7511       3.1254
       0.8668
   2694.1064
       3.1427      16.9965    -999.2500      29.3156      27.6053      33.4551
     391.0270     519.7721     312.4862     273.2434     237.3039     170.8524
       0.0342       0.0012       0.0062       0.3406       1.0517       3.2875
       1.0818
   2694.2588
       3.3494      16.7483    -999.2500      32.9123      27.5700      47.1234
     435.3598     818.5118     413.1449     333.7946     429.5026      84.0930
       0.0332       0.0013       0.0062       0.3264       1.0214       3.6781
       1.1034
   2694.4114
       3.5517      17.3173    -999.2500      33.9030      28.8136      48.8317
     342.7968    1207.8533     573.0917     277.3037     692.9397      97.9062
       0.0305       0.0016       0.0065       0.2348       1.0288       3.7724
       1.1723
   2694.5637
       3.1511      19.9758    -999.2500      33.3444      32.8151      50.5300
     320.2428    1622.5043    1278.4353     261.0401    1243.0092     402.4502
       0.0282       0.0014       0.0079       0.1673       1.0114       3.7462
       1.3092
   2694.7161
       2.9080      18.8022    -999.2500      36.2695      31.3848      50.8200
     276.9641    1536.7355    1289.9114     238.4991    1089.6281     400.4081
       0.0265       0.0013       0.0075       0.1345       0.9248       4.1479
       1.2831
