#------------------------------------------------------------------------------
#
#   Created by  : [OpenWorks] Log Export Utility (LEXP)
#   Created on  : 2016-05-23 17:43:58
#   Project     : CANT971
#   User        : R5K
#   Interpreter : PEP
#
#------------------------------------------------------------------------------
~VERSION INFORMATION
VERS. 2.0 : CWLS Log ASCII Standard - version 2.0
WRAP. YES : Mulitple lines per depth step
~WELL INFORMATION
#MNEMONIC   .UNIT                                           VALUE :DESCRIPTION
#------------------------------------------------------------------------------
STRT        .M                                          1112.1945 :START DEPTH
STOP        .M                                          3447.5720 :STOP DEPTH
STEP        .M                                             0.1524 :STEP
NULL        .                                           -999.2500 :NULL VALUE
COMP        .                                             UNKNOWN :COMPANY
WELL        .                                              3041-V :WELL
FLD         .                                             UNKNOWN :FIELD
LOC         .                                             UNKNOWN :LOCATION
CNTY        .                                             UNKNOWN :COUNTY
STAT        .                                             UNKNOWN :STATE
CTRY        .                                             UNKNOWN :COUNTRY
SRVC        .                                             UNKNOWN :SERVICE COMPANY
DATE        .                                             UNKNOWN :LOG DATE
UWI         .                                              3041-V :UNIQUE WELL ID
XCOORD      .                                       599714.550000 :SURFACE X
YCOORD      .                                      2152046.310000 :SURFACE Y
LAT         .                                           19.461560 :LATITUDE
LON         .                                          -92.049991 :LONGITUDE
ELEV        .M                                             0.0000 :SURFACE ELEV
ELEV_TYPE   .                                                  KB :ELEV TYPE
~CURVE INFORMATION
#MNEMONIC.UNIT        API CODE       : CURVE DESCRIPTION
#------------------------------------------------------------------------------
DEPTH    .M                          : Measured Depth
CGR      .API         UNKNOWN        : CGR:PETROWORKS:rC:NONE:v1 
CGR-ENT  .API         UNKNOWN        : CGR-ENT:Entubado:rC:NONE:v0 (auto-composite)
DT       .us/ft       UNKNOWN        : DT:Sonico:rC:NONE:v0 (auto-composite)
GR       .API         UNKNOWN        : GR:PETROWORKS:rC:NONE:v2 
GR-ENT   .API         UNKNOWN        : GR-ENT:Entubado:rC:NONE:v0 (auto-composite)
GR-LWD   .API         UNKNOWN        : GR-LWD:PETROWORKS:rC:NONE:v6 
LLD      .ohm.m       UNKNOWN        : LLD:FINAL:rC:NONE:v0 (auto-composite)
LLD-LWD  .ohm.m       UNKNOWN        : LLD-LWD:PETROWORKS:rC:NONE:v6 
LLM-LWD  .UNKNOWN     UNKNOWN        : LLM-LWD:PETROWORKS:rC:NONE:v6 
LLS      .ohm.m       UNKNOWN        : LLS:FINAL:rC:NONE:v0 (auto-composite)
LLS-LWD  .ohm.m       UNKNOWN        : LLS-LWD:PETROWORKS:rC:NONE:v6 
MSFL-LWD .ohm.m       UNKNOWN        : MSFL-LWD:PETROWORKS:rC:NONE:v6 
NPHI     .v/v_decimal UNKNOWN        : NPHI:porosidad-entubado:rC:NONE:v0 (auto-composite)
POTA     .wtpercent   UNKNOWN        : POTA:PETROWORKS:rC:NONE:v1 
POTA-ENT .UNKNOWN     UNKNOWN        : POTA-ENT:Entubado:rC:NONE:v0 (auto-composite)
THOR     .ppm         UNKNOWN        : THOR:PETROWORKS:rC:NONE:v1 
THOR-ENT .ppm         UNKNOWN        : THOR-ENT:Entubado:rC:NONE:v0 (auto-composite)
URAN     .ppm         UNKNOWN        : URAN:PETROWORKS:rC:NONE:v1 
URAN-ENT .ppm         UNKNOWN        : URAN-ENT:Entubado:rC:NONE:v0 (auto-composite)
~A
# ...
   3096.4424
      20.3507      20.1650    -999.2500      34.1300      33.9088      57.4619
    -999.2500      26.7781      21.9764    -999.2500      20.7013      13.0205
       0.0820       0.0061       0.0060       1.8152       1.8074       1.4051
       1.4015
   3096.5950
      20.3688      19.6441    -999.2500      33.8763      33.0275      57.2682
    -999.2500      23.3420      19.3073    -999.2500      18.0341      12.8248
       0.0786       0.0062       0.0059       1.7802       1.7670       1.3775
       1.3647
   3096.7473
      23.0873      23.8497    -999.2500      36.7839      37.6952      55.3738
    -999.2500      27.6321      25.0179    -999.2500      25.6052      17.9102
       0.0739       0.0076       0.0080       1.7993       1.8172       1.3968
       1.4118
   3096.8997
      24.1721      24.1826    -999.2500      37.7281      37.7318      48.8155
    -999.2500      32.6821      30.5030    -999.2500      32.6870      23.3987
       0.0712       0.0082       0.0082       1.7691       1.7734       1.3823
       1.3816
   3097.0520
      23.2384      23.7420    -999.2500      36.0665      36.8955      41.4948
    -999.2500      37.4975      34.6318    -999.2500      37.8818      29.1894
       0.0691       0.0080       0.0082       1.6669       1.6884       1.3076
       1.3413
   3097.2043
      21.0117      20.5058    -999.2500      32.2587      31.4434      37.9164
    -999.2500      37.8370      34.3262    -999.2500      35.4300      27.1973
       0.0672       0.0072       0.0070       1.4940       1.4808       1.1468
       1.1153
   3097.3569
      18.6766      19.5571    -999.2500      28.5943      29.6593      34.5554
    -999.2500      36.1968      32.8975    -999.2500      31.8483      23.4426
       0.0600       0.0065       0.0069       1.3142       1.3256       1.0111
       1.0301
   3097.5093
      15.6228      14.4452    -999.2500      24.6154      23.0018      33.2339
    -999.2500      35.7747      33.3834    -999.2500      31.5126      24.1156
       0.0529       0.0052       0.0047       1.1910       1.1226       0.9167
       0.8725
   3097.6616
      14.2384      14.6506    -999.2500      23.3076      23.7282      34.7665
    -999.2500      36.1263      33.3148    -999.2500      33.1598      26.8115
       0.0461       0.0043       0.0045       1.2544       1.2600       0.9248
       0.9256
   3097.8140
      13.8675      13.7436    -999.2500      23.6854      23.6489      37.3574
    -999.2500      37.7084      35.6317    -999.2500      38.8268      33.5835
       0.0443       0.0037       0.0036       1.4051       1.4241       1.0011
       1.0100
   3097.9666
      13.3033      13.1255    -999.2500      23.5537      23.4170      38.3883
    -999.2500      38.4768      37.6379    -999.2500      43.6201      38.1903
       0.0458       0.0032       0.0032       1.5096       1.4900       1.0452
       1.0494
   3098.1189
      14.0512      13.4669    -999.2500      24.4040      23.8764      37.9129
    -999.2500      38.2035      37.1747    -999.2500      42.5659      36.1750
       0.0478       0.0033       0.0030       1.6232       1.6360       1.0558
       1.0615
   3098.2712
      16.5333      16.7412    -999.2500      26.8668      26.9709      37.5466
    -999.2500      38.8630      38.1923    -999.2500      42.9104      36.8735
       0.0472       0.0043       0.0045       1.7458       1.7344       1.0540
       1.0431
   3098.4236
      18.6724      19.4512    -999.2500      28.8420      29.9684      35.7249
    -999.2500      39.9477      40.0932    -999.2500      44.9281      37.7566
       0.0465       0.0053       0.0055       1.7877       1.8766       1.0370
       1.0724
   3098.5762
      18.3235      18.3103    -999.2500      27.6769      27.5503      33.4577
    -999.2500      36.7814      37.2167    -999.2500      38.8993      29.3574
       0.0463       0.0055       0.0056       1.6228       1.6063       0.9535
       0.9422
   3098.7285
      17.1745      16.6576    -999.2500      25.6405      24.8894      31.8711
    -999.2500      31.7141      31.3861    -999.2500      29.4862      20.6538
       0.0474       0.0055       0.0053       1.4090       1.3488       0.8633
       0.8394
   3098.8809
      15.9814      17.4579    -999.2500      24.4801      25.8710      31.7424
    -999.2500      29.9940      26.8782    -999.2500      23.6128      17.5717
       0.0491       0.0051       0.0056       1.3038       1.3881       0.8665
       0.8579
   3099.0332
      13.4692      11.6433    -999.2500      22.9780      20.8083      32.4691
    -999.2500      29.1184      24.5835    -999.2500      21.7869      16.7625
       0.0508       0.0040       0.0035       1.2098       1.0721       0.9695
       0.9345
   3099.1855
      12.5217      13.4501    -999.2500      23.5402      25.0570      32.4160
    -999.2500      27.1362      23.5831    -999.2500      20.8735      15.5428
       0.0494       0.0035       0.0037       1.2573       1.3505       1.1238
       1.1835
   3099.3381
      12.4499      12.1580    -999.2500      23.9303      23.6375      32.0490
    -999.2500      26.3621      23.2717    -999.2500      19.9358      14.5620
       0.0488       0.0034       0.0032       1.2751       1.2832       1.1705
       1.1706
   3099.4905
      11.7648      11.5892    -999.2500      22.7287      22.4972      30.3908
    -999.2500      26.8403      23.9157    -999.2500      19.6689      13.5798
       0.0484       0.0034       0.0033       1.1196       1.1067       1.1180
       1.1123
   3099.6428
      11.8895      12.1106    -999.2500      22.3680      22.7249      28.6628
    -999.2500      28.0350      25.4208    -999.2500      20.6621      12.8822
       0.0533       0.0038       0.0039       0.9746       0.9882       1.0685
       1.0824
   3099.7952
      11.9998      11.6557    -999.2500      21.8089      21.3389      28.2620
    -999.2500      28.4549      26.0475    -999.2500      21.2280      12.4144
       0.0608       0.0042       0.0041       0.8542       0.8119       1.0002
       0.9874
   3099.9478
      12.8437      12.7914    -999.2500      22.2253      22.0836      28.4947
    -999.2500      26.8015      24.6922    -999.2500      20.2674      12.0405
       0.0695       0.0046       0.0046       0.8523       0.8422       0.9567
       0.9475
   3100.1001
      14.2181      14.4722    -999.2500      23.6518      23.9520      28.0090
    -999.2500      23.6556      22.7712    -999.2500      18.6195      11.2719
       0.0707       0.0050       0.0051       0.9513       0.9592       0.9620
       0.9666
   3100.2524
      14.3896      14.8136    -999.2500      23.7694      24.3102      27.6532
    -999.2500      22.2266      20.5924    -999.2500      17.5277      10.3880
       0.0703       0.0049       0.0051       1.0284       1.0414       0.9565
       0.9684
   3100.4048
      13.1260      12.5660    -999.2500      22.1466      21.3878      29.8274
    -999.2500      21.2691      18.5571    -999.2500      16.4893       9.6969
       0.0660       0.0042       0.0040       1.0841       1.0440       0.9196
       0.8996
   3100.5574
      13.0861      13.2045    -999.2500      22.1701      22.3921      31.5061
    -999.2500      20.4260      17.6168    -999.2500      15.8527       9.8304
       0.0631       0.0037       0.0037       1.2691       1.2673       0.9264
       0.9369
   3100.7097
      13.4912      13.6349    -999.2500      22.5033      22.7448      31.7410
    -999.2500      20.4802      18.1659    -999.2500      15.6227      10.7387
       0.0613       0.0033       0.0033       1.5115       1.5362       0.9189
       0.9289
   3100.8621
      13.2905      13.0433    -999.2500      21.7513      21.3601      34.7745
    -999.2500      20.1926      20.6201    -999.2500      15.4475      11.3523
       0.0603       0.0028       0.0027       1.6700       1.6490       0.8627
       0.8481
   3101.0144
      14.0622      13.9677    -999.2500      22.4980      22.3581      39.2653
    -999.2500      20.1074      21.1528    -999.2500      16.4667      12.4709
       0.0616       0.0027       0.0026       1.8632       1.8776       0.8602
       0.8556
