#------------------------------------------------------------------------------
#
#   Created by  : [OpenWorks] Log Export Utility (LEXP)
#   Created on  : 2016-05-23 17:43:58
#   Project     : CANT971
#   User        : R5K
#   Interpreter : PEP
#
#------------------------------------------------------------------------------
~VERSION INFORMATION
VERS. 2.0 : CWLS Log ASCII Standard - version 2.0
WRAP. YES : Mulitple lines per depth step
~WELL INFORMATION
#MNEMONIC   .UNIT                                           VALUE :DESCRIPTION
#------------------------------------------------------------------------------
STRT        .M                                          1112.1945 :START DEPTH
STOP        .M                                          3447.5720 :STOP DEPTH
STEP        .M                                             0.1524 :STEP
NULL        .                                           -999.2500 :NULL VALUE
COMP        .                                             UNKNOWN :COMPANY
WELL        .                                              3041-V :WELL
FLD         .                                             UNKNOWN :FIELD
LOC         .                                             UNKNOWN :LOCATION
CNTY        .                                             UNKNOWN :COUNTY
STAT        .                                             UNKNOWN :STATE
CTRY        .                                             UNKNOWN :COUNTRY
SRVC        .                                             UNKNOWN :SERVICE COMPANY
DATE        .                                             UNKNOWN :LOG DATE
UWI         .                                              3041-V :UNIQUE WELL ID
XCOORD      .                                       599714.550000 :SURFACE X
YCOORD      .                                      2152046.310000 :SURFACE Y
LAT         .                                           19.461560 :LATITUDE
LON         .                                          -92.049991 :LONGITUDE
ELEV        .M                                             0.0000 :SURFACE ELEV
ELEV_TYPE   .                                                  KB :ELEV TYPE
~CURVE INFORMATION
#MNEMONIC.UNIT        API CODE       : CURVE DESCRIPTION
#------------------------------------------------------------------------------
DEPTH    .M                          : Measured Depth
CGR      .API         UNKNOWN        : CGR:PETROWORKS:rC:NONE:v1 
CGR-ENT  .API         UNKNOWN        : CGR-ENT:Entubado:rC:NONE:v0 (auto-composite)
DT       .us/ft       UNKNOWN        : DT:Sonico:rC:NONE:v0 (auto-composite)
GR       .API         UNKNOWN        : GR:PETROWORKS:rC:NONE:v2 
GR-ENT   .API         UNKNOWN        : GR-ENT:Entubado:rC:NONE:v0 (auto-composite)
GR-LWD   .API         UNKNOWN        : GR-LWD:PETROWORKS:rC:NONE:v6 
LLD      .ohm.m       UNKNOWN        : LLD:FINAL:rC:NONE:v0 (auto-composite)
LLD-LWD  .ohm.m       UNKNOWN        : LLD-LWD:PETROWORKS:rC:NONE:v6 
LLM-LWD  .UNKNOWN     UNKNOWN        : LLM-LWD:PETROWORKS:rC:NONE:v6 
LLS      .ohm.m       UNKNOWN        : LLS:FINAL:rC:NONE:v0 (auto-composite)
LLS-LWD  .ohm.m       UNKNOWN        : LLS-LWD:PETROWORKS:rC:NONE:v6 
MSFL-LWD .ohm.m       UNKNOWN        : MSFL-LWD:PETROWORKS:rC:NONE:v6 
NPHI     .v/v_decimal UNKNOWN        : NPHI:porosidad-entubado:rC:NONE:v0 (auto-composite)
POTA     .wtpercent   UNKNOWN        : POTA:PETROWORKS:rC:NONE:v1 
POTA-ENT .UNKNOWN     UNKNOWN        : POTA-ENT:Entubado:rC:NONE:v0 (auto-composite)
THOR     .ppm         UNKNOWN        : THOR:PETROWORKS:rC:NONE:v1 
THOR-ENT .ppm         UNKNOWN        : THOR-ENT:Entubado:rC:NONE:v0 (auto-composite)
URAN     .ppm         UNKNOWN        : URAN:PETROWORKS:rC:NONE:v1 
URAN-ENT .ppm         UNKNOWN        : URAN-ENT:Entubado:rC:NONE:v0 (auto-composite)
~A
# ...
   2553.1365
       4.4253      17.3033    -999.2500      27.6623      25.0892      27.6948
     608.2521     495.4858     380.2598     561.6548     440.2605     364.5087
       0.0224       0.0017       0.0047       0.4175       1.4796       3.1570
       0.7360
   2553.2888
       3.6851      14.3342    -999.2500      23.9590      20.9858      27.2397
     805.3010     423.5690     377.6313     641.8981     499.3617     415.5560
       0.0221       0.0016       0.0041       0.2591       1.1735       2.7430
       0.6287
   2553.4412
       3.3318      13.5004    -999.2500      21.4681      19.6429      25.6664
     762.1525     407.7280     377.9380     513.9069     544.9000     462.4707
       0.0210       0.0015       0.0041       0.1716       1.0031       2.4745
       0.5806
   2553.5938
       2.8452      13.5489    -999.2500      20.0662      19.0457      24.7983
     784.1434     386.9712     361.3047     452.3572     484.9079     453.1758
       0.0205       0.0015       0.0045       0.0641       0.8185       2.3956
       0.5196
   2553.7461
       2.6934      10.5990    -999.2500      19.7572      16.0885      24.9407
     799.9974     348.0098     337.6313     441.1911     410.6365     413.6952
       0.0211       0.0014       0.0040       0.0497       0.4513       2.3854
       0.5189
   2553.8984
       3.1020      10.7474    -999.2500      19.2343      18.2073      27.6989
     855.3749     258.3289     291.9788     477.4443     306.8697     291.1742
       0.0222       0.0014       0.0037       0.1715       0.5985       2.2427
       0.7052
   2554.0508
       3.3603      11.5525    -999.2500      19.2317      19.7057      27.1924
    1381.7603     214.4290     254.3603     637.1446     271.0597     249.6770
       0.0224       0.0014       0.0039       0.2381       0.6928       2.1965
       0.7707
   2554.2034
       3.5268      10.3305    -999.2500      19.2034      17.5985      26.3132
     558.5655     181.9248     221.5876     244.8012     247.5027     232.3766
       0.0226       0.0015       0.0037       0.2619       0.5196       2.1417
       0.6871
   2554.3557
       3.6502      12.7561    -999.2500      19.0766      20.6404      25.8058
     359.6381     162.1786     210.0817     157.5905     248.4859     240.1646
       0.0219       0.0014       0.0040       0.3186       0.8564       2.0684
       0.7453
   2554.5081
       3.5837      12.1562    -999.2500      18.9394      18.1027      26.7474
     350.8394     134.2323     196.4188     154.2392     250.2725     266.9104
       0.0219       0.0014       0.0041       0.3359       0.7418       2.0316
       0.5621
   2554.6604
       3.6078      11.5521    -999.2500      19.1008      16.2173      28.2149
     359.1229      98.6799     178.2672     158.6514     250.2849     318.3249
       0.0232       0.0014       0.0038       0.3313       0.7242       2.0331
       0.4410
   2554.8127
       3.8018      13.5230    -999.2500      19.9476      18.3942      24.7790
    1111.6263      86.6038     156.1514     393.8212     232.2402     304.7052
       0.0253       0.0015       0.0041       0.3467       0.9737       2.1203
       0.4605
   2554.9653
       3.8162      15.0448    -999.2500      20.7910      20.8706      24.1825
     798.3013      74.3575     129.5395     213.2381     198.6460     255.3257
       0.0265       0.0015       0.0041       0.3580       1.2855       2.2368
       0.5507
   2555.1177
       3.7201      13.6006    -999.2500      21.0373      19.6084      23.8218
     687.3014      68.0000     113.8882     171.2232     174.2148     223.2032
       0.0254       0.0014       0.0038       0.3589       1.1358       2.2669
       0.5679
   2555.2700
       3.6105      13.6196    -999.2500      20.6608      19.6572      23.1030
     680.6608      52.8631      89.5634     170.3981     124.8780     163.4240
       0.0227       0.0013       0.0043       0.3560       0.9334       2.2034
       0.5707
   2555.4224
       3.2598      13.3726    -999.2500      20.1390      19.7965      25.0812
     793.4752      31.7908      64.6895     199.6874      64.5479      91.3688
       0.0213       0.0012       0.0042       0.3109       0.9361       2.1468
       0.6072
   2555.5750
       2.7215      12.8625    -999.2500      19.7374      19.0066      30.4128
     972.2210      25.0532      49.4649     361.7139      46.7386      63.6635
       0.0228       0.0011       0.0042       0.2126       0.8403       2.1359
       0.5808
   2555.7273
       2.6065      10.0632    -999.2500      19.8210      16.3008      32.6586
    1113.6628      21.9005      28.4961     755.9246      31.7032      39.1728
       0.0245       0.0011       0.0028       0.1750       0.8235       2.1513
       0.5896
   2555.8796
       3.0675      12.4051    -999.2500      21.2664      19.3634      34.0846
    1233.3774      21.1676      22.0693     940.2131      27.4565      32.1860
       0.0253       0.0013       0.0035       0.2417       1.0465       2.2727
       0.6577
   2556.0320
       4.1109      13.4528    -999.2500      24.6065      20.4874      38.3716
    1257.9938      13.8031      12.1020     969.4813      16.2739      18.6889
       0.0242       0.0016       0.0039       0.3779       1.1023       2.5310
       0.6650
   2556.1846
       5.1769      15.7363    -999.2500      28.4949      28.8992      42.1555
    1529.3181       5.8557       4.7425    1312.6919       6.2282       7.5844
       0.0244       0.0020       0.0052       0.4997       0.9984       2.8299
       1.2443
   2556.3369
       5.3155      14.8770    -999.2500      30.6256      28.9138      42.4705
     779.6496       6.1082       5.0441     573.0259       6.7443       7.8418
       0.0248       0.0019       0.0049       0.5728       0.9541       3.0599
       1.3269
   2556.4893
       4.8235      14.9200    -999.2500      30.8466      29.2920      43.4082
      99.7491       6.4267       5.4275      71.5491       7.3955       8.1679
       0.0250       0.0017       0.0045       0.5885       1.1011       3.1613
       1.3586
   2556.6416
       4.5323      14.7388    -999.2500      31.3062      29.0434      44.0351
      12.2291       6.7741       5.8480      12.1665       8.1056       8.5249
       0.0247       0.0014       0.0042       0.6093       1.1882       3.2592
       1.3522
   2556.7939
       4.8314      14.5455    -999.2500      33.4937      28.3027      48.0188
      12.7253      11.5867      11.2047      12.7673      12.1038      12.4376
       0.0249       0.0013       0.0041       0.7567       1.1824       3.4909
       1.3004
   2556.9465
       5.6413      18.7721    -999.2500      36.0384      31.6181      56.0429
      18.4707      17.2469      17.7678      18.7994      17.6493      18.2004
       0.0268       0.0015       0.0049       0.9475       1.7222       3.7256
       1.2143
   2557.0989
       7.2569      20.3496    -999.2500      38.1164      32.2365      60.7504
      85.1953      20.4758      22.3770      86.2284      22.8640      24.6006
       0.0284       0.0019       0.0053       1.2262       1.8460       3.8415
       1.1237
   2557.2512
       8.3560      22.7227    -999.2500      39.6541      34.7354      61.7898
     216.0466      23.4041      26.6346     213.4403      27.8643      30.4611
       0.0304       0.0022       0.0058       1.3864       2.1090       3.9346
       1.1356
   2557.4036
       9.0697      24.9908    -999.2500      42.7293      36.8525      62.5236
     196.3338      26.1017      30.3436     187.2694      32.3172      35.0448
       0.0321       0.0025       0.0063       1.4461       2.3442       4.2530
       1.1212
   2557.5562
      10.7748      36.4727    -999.2500      49.7399      43.7993      81.5200
     225.5744      39.7696      48.4953     200.5747      52.8012      55.8029
       0.0350       0.0031       0.0088       1.6358       3.6102       4.9428
       0.6926
   2557.7085
      12.4937      44.3361    -999.2500      58.4302      49.9146      83.7468
     303.7204      57.7978      73.3365     251.3245      81.5173      84.4942
       0.0361       0.0038       0.0118       1.7492       3.9340       5.8815
       0.5274
