#------------------------------------------------------------------------------
#
#   Created by  : [OpenWorks] Log Export Utility (LEXP)
#   Created on  : 2016-05-23 17:43:58
#   Project     : CANT971
#   User        : R5K
#   Interpreter : PEP
#
#------------------------------------------------------------------------------
~VERSION INFORMATION
VERS. 2.0 : CWLS Log ASCII Standard - version 2.0
WRAP. YES : Mulitple lines per depth step
~WELL INFORMATION
#MNEMONIC   .UNIT                                           VALUE :DESCRIPTION
#------------------------------------------------------------------------------
STRT        .M                                          1112.1945 :START DEPTH
STOP        .M                                          3447.5720 :STOP DEPTH
STEP        .M                                             0.1524 :STEP
NULL        .                                           -999.2500 :NULL VALUE
COMP        .                                             UNKNOWN :COMPANY
WELL        .                                              3041-V :WELL
FLD         .                                             UNKNOWN :FIELD
LOC         .                                             UNKNOWN :LOCATION
CNTY        .                                             UNKNOWN :COUNTY
STAT        .                                             UNKNOWN :STATE
CTRY        .                                             UNKNOWN :COUNTRY
SRVC        .                                             UNKNOWN :SERVICE COMPANY
DATE        .                                             UNKNOWN :LOG DATE
UWI         .                                              3041-V :UNIQUE WELL ID
XCOORD      .                                       599714.550000 :SURFACE X
YCOORD      .                                      2152046.310000 :SURFACE Y
LAT         .                                           19.461560 :LATITUDE
LON         .                                          -92.049991 :LONGITUDE
ELEV        .M                                             0.0000 :SURFACE ELEV
ELEV_TYPE   .                                                  KB :ELEV TYPE
~CURVE INFORMATION
#MNEMONIC.UNIT        API CODE       : CURVE DESCRIPTION
#------------------------------------------------------------------------------
DEPTH    .M                          : Measured Depth
CGR      .API         UNKNOWN        : CGR:PETROWORKS:rC:NONE:v1 
CGR-ENT  .API         UNKNOWN        : CGR-ENT:Entubado:rC:NONE:v0 (auto-composite)
DT       .us/ft       UNKNOWN        : DT:Sonico:rC:NONE:v0 (auto-composite)
GR       .API         UNKNOWN        : GR:PETROWORKS:rC:NONE:v2 
GR-ENT   .API         UNKNOWN        : GR-ENT:Entubado:rC:NONE:v0 (auto-composite)
GR-LWD   .API         UNKNOWN        : GR-LWD:PETROWORKS:rC:NONE:v6 
LLD      .ohm.m       UNKNOWN        : LLD:FINAL:rC:NONE:v0 (auto-composite)
LLD-LWD  .ohm.m       UNKNOWN        : LLD-LWD:PETROWORKS:rC:NONE:v6 
LLM-LWD  .UNKNOWN     UNKNOWN        : LLM-LWD:PETROWORKS:rC:NONE:v6 
LLS      .ohm.m       UNKNOWN        : LLS:FINAL:rC:NONE:v0 (auto-composite)
LLS-LWD  .ohm.m       UNKNOWN        : LLS-LWD:PETROWORKS:rC:NONE:v6 
MSFL-LWD .ohm.m       UNKNOWN        : MSFL-LWD:PETROWORKS:rC:NONE:v6 
NPHI     .v/v_decimal UNKNOWN        : NPHI:porosidad-entubado:rC:NONE:v0 (auto-composite)
POTA     .wtpercent   UNKNOWN        : POTA:PETROWORKS:rC:NONE:v1 
POTA-ENT .UNKNOWN     UNKNOWN        : POTA-ENT:Entubado:rC:NONE:v0 (auto-composite)
THOR     .ppm         UNKNOWN        : THOR:PETROWORKS:rC:NONE:v1 
THOR-ENT .ppm         UNKNOWN        : THOR-ENT:Entubado:rC:NONE:v0 (auto-composite)
URAN     .ppm         UNKNOWN        : URAN:PETROWORKS:rC:NONE:v1 
URAN-ENT .ppm         UNKNOWN        : URAN-ENT:Entubado:rC:NONE:v0 (auto-composite)
~A
# ...
   2279.1213
    -999.2500    -999.2500     108.0617      53.4742    -999.2500      70.0057
    -999.2500       1.1956       1.1462    -999.2500       1.1451       1.1834
    -999.2500    -999.2500    -999.2500    -999.2500    -999.2500    -999.2500
    -999.2500
   2279.2737
    -999.2500    -999.2500     107.9544      53.6733    -999.2500      71.8365
    -999.2500       1.1795       1.1386    -999.2500       1.1495       1.1932
    -999.2500    -999.2500    -999.2500    -999.2500    -999.2500    -999.2500
    -999.2500
   2279.4260
    -999.2500    -999.2500     107.6054      52.7195    -999.2500      70.1117
    -999.2500       1.1387       1.1132    -999.2500       1.1350       1.1760
    -999.2500    -999.2500    -999.2500    -999.2500    -999.2500    -999.2500
    -999.2500
   2279.5784
    -999.2500    -999.2500     107.5805      51.3978    -999.2500      68.5545
    -999.2500       1.0998       1.0881    -999.2500       1.1068       1.1447
    -999.2500    -999.2500    -999.2500    -999.2500    -999.2500    -999.2500
    -999.2500
   2279.7310
    -999.2500    -999.2500     109.1449      50.8238    -999.2500      69.2684
    -999.2500       1.0635       1.0569    -999.2500       1.0681       1.1041
    -999.2500    -999.2500    -999.2500    -999.2500    -999.2500    -999.2500
    -999.2500
   2279.8833
    -999.2500    -999.2500     110.0380      51.8966    -999.2500      70.8837
    -999.2500       1.0372       1.0301    -999.2500       1.0349       1.0658
    -999.2500    -999.2500    -999.2500    -999.2500    -999.2500    -999.2500
    -999.2500
   2280.0356
    -999.2500    -999.2500     110.7132      53.3895    -999.2500      72.3549
    -999.2500       1.0097       1.0021    -999.2500       1.0057       1.0337
    -999.2500    -999.2500    -999.2500    -999.2500    -999.2500    -999.2500
    -999.2500
   2280.1880
    -999.2500    -999.2500     114.1500      54.1396    -999.2500      73.3117
    -999.2500       0.9598       0.9520    -999.2500       0.9638       0.9933
       0.3335    -999.2500    -999.2500    -999.2500    -999.2500    -999.2500
    -999.2500
   2280.3406
    -999.2500    -999.2500     114.6965      54.9246    -999.2500      73.1695
    -999.2500       0.9173       0.9080    -999.2500       0.9238       0.9527
       0.3290    -999.2500    -999.2500    -999.2500    -999.2500    -999.2500
    -999.2500
   2280.4929
    -999.2500    -999.2500     112.6414      55.8942    -999.2500      71.8538
    -999.2500       0.9024       0.8943    -999.2500       0.9054       0.9318
       0.3251    -999.2500    -999.2500    -999.2500    -999.2500    -999.2500
    -999.2500
   2280.6453
    -999.2500    -999.2500     114.2555      55.7228    -999.2500      70.9283
    -999.2500       0.8880       0.8852    -999.2500       0.8949       0.9225
       0.3183    -999.2500    -999.2500    -999.2500    -999.2500    -999.2500
    -999.2500
   2280.7976
    -999.2500    -999.2500     113.1865      53.6066    -999.2500      70.6602
    -999.2500       0.8612       0.8601    -999.2500       0.8746       0.9062
       0.3268    -999.2500    -999.2500    -999.2500    -999.2500    -999.2500
    -999.2500
   2280.9500
    -999.2500    -999.2500     113.4686      51.7224    -999.2500      69.7249
    -999.2500       0.8422       0.8325    -999.2500       0.8523       0.8862
       0.3337    -999.2500    -999.2500    -999.2500    -999.2500    -999.2500
    -999.2500
   2281.1025
    -999.2500    -999.2500     111.6749      50.9456    -999.2500      68.4693
    -999.2500       0.8704       0.8481    -999.2500       0.8647       0.8964
       0.3512    -999.2500    -999.2500    -999.2500    -999.2500    -999.2500
    -999.2500
   2281.2549
    -999.2500      40.7365     109.8305      49.8153      46.9347      67.1514
    -999.2500       0.9615       0.9373    -999.2500       0.9396       0.9682
       0.3497    -999.2500       0.0126    -999.2500       4.8629    -999.2500
       0.7448
   2281.4072
    -999.2500      40.7365     108.1278      48.6501      46.9347      66.5483
    -999.2500       1.0729       1.0641    -999.2500       1.0532       1.0841
       0.3581    -999.2500       0.0126    -999.2500       4.8629    -999.2500
       0.7448
   2281.5596
    -999.2500      40.7365     107.6640      49.9121      46.9347      68.9419
    -999.2500       1.1244       1.1408    -999.2500       1.1340       1.1737
       0.3531    -999.2500       0.0126    -999.2500       4.8629    -999.2500
       0.7448
   2281.7122
    -999.2500      40.7365     109.0829      52.7618      46.9347      73.5530
    -999.2500       1.0758       1.1154    -999.2500       1.1286       1.1737
       0.3842    -999.2500       0.0126    -999.2500       4.8629    -999.2500
       0.7448
   2281.8645
    -999.2500      40.7365     110.5888      55.8565      46.9347      76.0680
    -999.2500       0.9707       1.0158    -999.2500       1.0428       1.0823
       0.3940    -999.2500       0.0126    -999.2500       4.8629    -999.2500
       0.7448
   2282.0168
    -999.2500      40.7365     112.7511      55.6044      46.9347      75.6528
    -999.2500       0.8706       0.8926    -999.2500       0.9199       0.9501
       0.3968    -999.2500       0.0126    -999.2500       4.8629    -999.2500
       0.7448
   2282.1692
    -999.2500      40.7365     113.1602      55.1732      46.9347      74.1042
    -999.2500       0.8249       0.7995    -999.2500       0.8196       0.8435
       0.3828    -999.2500       0.0126    -999.2500       4.8629    -999.2500
       0.7448
   2282.3218
    -999.2500      40.7365     111.6290      53.9099      46.9347      71.9043
    -999.2500       0.8938       0.8286    -999.2500       0.8251       0.8453
       0.3859    -999.2500       0.0126    -999.2500       4.8629    -999.2500
       0.7448
   2282.4741
    -999.2500      40.7365     110.6292      55.2629      46.9347      67.7901
    -999.2500       1.0632       1.0015    -999.2500       0.9602       0.9910
       0.3999    -999.2500       0.0126    -999.2500       4.8629    -999.2500
       0.7448
   2282.6265
    -999.2500      40.7365     110.3610      54.6253      46.9347      65.6463
    -999.2500       1.1546       1.1246    -999.2500       1.0938       1.1476
       0.3861    -999.2500       0.0126    -999.2500       4.8629    -999.2500
       0.7448
   2282.7788
    -999.2500      40.7365     109.7369      54.6872      46.9347      69.6146
    -999.2500       1.0962       1.0981    -999.2500       1.1244       1.1800
       0.3621    -999.2500       0.0126    -999.2500       4.8629    -999.2500
       0.7448
   2282.9312
    -999.2500      40.7365     110.1233      52.7447      46.9347      74.2880
    -999.2500       0.9998       1.0264    -999.2500       1.0734       1.1118
       0.3278    -999.2500       0.0126    -999.2500       4.8629    -999.2500
       0.7448
   2283.0837
    -999.2500      40.7365     111.4881      52.4020      46.9347      73.2241
    -999.2500       0.9357       0.9731    -999.2500       0.9958       1.0195
       0.3344    -999.2500       0.0126    -999.2500       4.8629    -999.2500
       0.7448
   2283.2361
    -999.2500      40.7365     112.0681      54.6317      46.9347      72.9799
    -999.2500       0.9416       0.9612    -999.2500       0.9511       0.9710
       0.3574    -999.2500       0.0126    -999.2500       4.8629    -999.2500
       0.7448
   2283.3884
    -999.2500      40.7365     111.6741      57.0284      46.9347      73.4400
    -999.2500       0.9890       0.9764    -999.2500       0.9537       0.9774
       0.3915    -999.2500       0.0126    -999.2500       4.8629    -999.2500
       0.7448
   2283.5408
    -999.2500      41.1661     112.0436      58.6686      48.0841      73.4800
    -999.2500       1.0078       0.9765    -999.2500       0.9639       0.9965
       0.4044    -999.2500       0.0128    -999.2500       4.9247    -999.2500
       0.8313
   2283.6934
    -999.2500      39.2588     112.7622      58.4297      45.5388      74.4544
    -999.2500       0.9974       0.9649    -999.2500       0.9717       1.0035
       0.3857    -999.2500       0.0121    -999.2500       4.7387    -999.2500
       0.7546
