#------------------------------------------------------------------------------
#
#   Created by  : [OpenWorks] Log Export Utility (LEXP)
#   Created on  : 2016-05-23 17:43:58
#   Project     : CANT971
#   User        : R5K
#   Interpreter : PEP
#
#------------------------------------------------------------------------------
~VERSION INFORMATION
VERS. 2.0 : CWLS Log ASCII Standard - version 2.0
WRAP. YES : Mulitple lines per depth step
~WELL INFORMATION
#MNEMONIC   .UNIT                                           VALUE :DESCRIPTION
#------------------------------------------------------------------------------
STRT        .M                                          1112.1945 :START DEPTH
STOP        .M                                          3447.5720 :STOP DEPTH
STEP        .M                                             0.1524 :STEP
NULL        .                                           -999.2500 :NULL VALUE
COMP        .                                             UNKNOWN :COMPANY
WELL        .                                              3041-V :WELL
FLD         .                                             UNKNOWN :FIELD
LOC         .                                             UNKNOWN :LOCATION
CNTY        .                                             UNKNOWN :COUNTY
STAT        .                                             UNKNOWN :STATE
CTRY        .                                             UNKNOWN :COUNTRY
SRVC        .                                             UNKNOWN :SERVICE COMPANY
DATE        .                                             UNKNOWN :LOG DATE
UWI         .                                              3041-V :UNIQUE WELL ID
XCOORD      .                                       599714.550000 :SURFACE X
YCOORD      .                                      2152046.310000 :SURFACE Y
LAT         .                                           19.461560 :LATITUDE
LON         .                                          -92.049991 :LONGITUDE
ELEV        .M                                             0.0000 :SURFACE ELEV
ELEV_TYPE   .                                                  KB :ELEV TYPE
~CURVE INFORMATION
#MNEMONIC.UNIT        API CODE       : CURVE DESCRIPTION
#------------------------------------------------------------------------------
DEPTH    .M                          : Measured Depth
CGR      .API         UNKNOWN        : CGR:PETROWORKS:rC:NONE:v1 
CGR-ENT  .API         UNKNOWN        : CGR-ENT:Entubado:rC:NONE:v0 (auto-composite)
DT       .us/ft       UNKNOWN        : DT:Sonico:rC:NONE:v0 (auto-composite)
GR       .API         UNKNOWN        : GR:PETROWORKS:rC:NONE:v2 
GR-ENT   .API         UNKNOWN        : GR-ENT:Entubado:rC:NONE:v0 (auto-composite)
GR-LWD   .API         UNKNOWN        : GR-LWD:PETROWORKS:rC:NONE:v6 
LLD      .ohm.m       UNKNOWN        : LLD:FINAL:rC:NONE:v0 (auto-composite)
LLD-LWD  .ohm.m       UNKNOWN        : LLD-LWD:PETROWORKS:rC:NONE:v6 
LLM-LWD  .UNKNOWN     UNKNOWN        : LLM-LWD:PETROWORKS:rC:NONE:v6 
LLS      .ohm.m       UNKNOWN        : LLS:FINAL:rC:NONE:v0 (auto-composite)
LLS-LWD  .ohm.m       UNKNOWN        : LLS-LWD:PETROWORKS:rC:NONE:v6 
MSFL-LWD .ohm.m       UNKNOWN        : MSFL-LWD:PETROWORKS:rC:NONE:v6 
NPHI     .v/v_decimal UNKNOWN        : NPHI:porosidad-entubado:rC:NONE:v0 (auto-composite)
POTA     .wtpercent   UNKNOWN        : POTA:PETROWORKS:rC:NONE:v1 
POTA-ENT .UNKNOWN     UNKNOWN        : POTA-ENT:Entubado:rC:NONE:v0 (auto-composite)
THOR     .ppm         UNKNOWN        : THOR:PETROWORKS:rC:NONE:v1 
THOR-ENT .ppm         UNKNOWN        : THOR-ENT:Entubado:rC:NONE:v0 (auto-composite)
URAN     .ppm         UNKNOWN        : URAN:PETROWORKS:rC:NONE:v1 
URAN-ENT .ppm         UNKNOWN        : URAN-ENT:Entubado:rC:NONE:v0 (auto-composite)
~A
# ...
   2959.4348
      25.6236      25.6752    -999.2500      44.9915      45.0787      61.7987
    -999.2500      58.9028      54.9368    -999.2500      63.8789      52.8872
       0.0794       0.0093       0.0093       1.6551       1.6623       1.9750
       1.9786
   2959.5872
      25.2659      25.2601    -999.2500      44.6361      44.6212      59.4564
    -999.2500      59.5956      55.6099    -999.2500      63.5062      49.1011
       0.0782       0.0091       0.0091       1.6251       1.6234       1.9751
       1.9742
   2959.7397
      24.8442      24.8691    -999.2500      44.3312      44.3791      60.4897
    -999.2500      58.4997      54.8992    -999.2500      62.7989      50.1237
       0.0783       0.0089       0.0089       1.6166       1.6200       1.9871
       1.9894
   2959.8921
      22.7357      22.7428    -999.2500      40.7414      40.7528      60.9393
    -999.2500      59.0188      53.6607    -999.2500      63.3117      50.9441
       0.0813       0.0085       0.0085       1.3761       1.3770       1.8359
       1.8365
   2960.0444
      23.3301      23.3288    -999.2500      40.9431      40.9433      61.2167
    -999.2500      57.8958      51.1523    -999.2500      57.6085      49.9643
       0.0861       0.0087       0.0087       1.4019       1.4018       1.7962
       1.7962
   2960.1968
      24.9603      24.9589    -999.2500      43.2220      43.2192      68.0224
    -999.2500      57.5820      50.1338    -999.2500      54.9114      53.2695
       0.0901       0.0091       0.0091       1.5570       1.5568       1.8622
       1.8620
   2960.3494
      23.5475      23.5592    -999.2500      40.0514      40.0728      70.2134
    -999.2500      57.1236      46.7049    -999.2500      51.6164      45.8688
       0.0948       0.0096       0.0096       1.0710       1.0735       1.6829
       1.6839
   2960.5017
      24.6786      24.6647    -999.2500      41.5196      41.4979      74.4475
    -999.2500      52.3282      42.4290    -999.2500      46.0447      38.0380
       0.1013       0.0103       0.0103       1.0291       1.0269       1.7176
       1.7165
   2960.6541
      26.7254      26.7226    -999.2500      44.4546      44.4510      73.5206
    -999.2500      48.3602      40.3712    -999.2500      42.7519      34.7671
       0.1124       0.0111       0.0111       1.1338       1.1335       1.8079
       1.8078
   2960.8064
      26.7621      26.7699    -999.2500      44.5663      44.5772      72.1812
    -999.2500      50.8021      41.8121    -999.2500      44.3741      35.3608
       0.1182       0.0111       0.0111       1.1343       1.1347       1.8155
       1.8158
   2960.9587
      27.9592      27.9553    -999.2500      46.7988      46.7922      78.2898
    -999.2500      50.9207      40.3370    -999.2500      39.0096      31.0050
       0.1242       0.0112       0.0112       1.3765       1.3758       1.9211
       1.9208
   2961.1113
      29.1255      29.1171    -999.2500      48.6627      48.6497      78.5470
    -999.2500      46.1566      35.8558    -999.2500      31.8897      25.3907
       0.1255       0.0114       0.0114       1.5232       1.5223       1.9922
       1.9917
   2961.2637
      30.9777      30.9942    -999.2500      51.1810      51.2031      77.3083
    -999.2500      44.7994      35.3256    -999.2500      31.2316      23.9124
       0.1288       0.0118       0.0118       1.7286       1.7305       2.0601
       2.0607
   2961.4160
      31.5592      31.5344    -999.2500      51.4957      51.4435      80.0734
    -999.2500      45.3065      36.9598    -999.2500      32.8313      23.7572
       0.1296       0.0123       0.0123       1.6593       1.6523       2.0329
       2.0301
   2961.5684
      32.7738      32.8929    -999.2500      53.3462      53.5221      82.8916
    -999.2500      49.3672      40.5042    -999.2500      38.0698      26.8162
       0.1338       0.0126       0.0127       1.8104       1.8224       2.0975
       2.1036
   2961.7209
      31.5020      31.3011    -999.2500      51.5493      51.2635      87.0723
    -999.2500      54.4439      44.7614    -999.2500      44.7055      31.4800
       0.1347       0.0121       0.0120       1.7448       1.7245       2.0442
       2.0356
   2961.8733
      33.0374      33.1018    -999.2500      53.6694      53.7917      84.5151
    -999.2500      53.7014      44.2611    -999.2500      45.4366      32.1932
       0.1314       0.0123       0.0123       1.9568       1.9694       2.1038
       2.1097
   2962.0256
      34.3345      34.5040    -999.2500      55.0758      55.2891      83.5418
    -999.2500      48.3547      41.0288    -999.2500      39.2158      29.9547
       0.1283       0.0128       0.0128       2.0731       2.0796       2.1148
       2.1194
   2962.1780
      33.6434      33.5814    -999.2500      53.8526      53.7435      82.5294
    -999.2500      53.0396      46.0894    -999.2500      42.7453      35.0505
       0.1206       0.0124       0.0124       2.0788       2.0755       2.0607
       2.0559
   2962.3306
      33.2923      33.0089    -999.2500      53.3514      52.9792      83.3286
    -999.2500      60.6253      54.6411    -999.2500      52.4398      38.7908
       0.1107       0.0121       0.0120       2.1192       2.0942       2.0457
       2.0363
   2962.4829
      35.9154      35.3157    -999.2500      56.6713      56.0798      97.0871
    -999.2500      63.0096      59.1649    -999.2500      58.0799      39.8526
       0.1045       0.0128       0.0126       2.3931       2.3622       2.1165
       2.1173
   2962.6353
      42.4238      43.3731    -999.2500      63.9793      64.9997     106.4055
    -999.2500      64.3684      58.6279    -999.2500      56.5904      38.1081
       0.1054       0.0150       0.0153       2.8811       2.9425       2.1981
       2.2053
   2962.7876
      44.1788      44.5481    -999.2500      65.7761      66.4520     104.4732
    -999.2500      60.6327      50.4366    -999.2500      47.9286      34.7584
       0.1105       0.0155       0.0156       3.0518       3.0666       2.2017
       2.2335
   2962.9399
      41.8443      41.7482    -999.2500      61.7510      61.5086      99.3135
    -999.2500      59.7044      50.1765    -999.2500      48.3075      39.4190
       0.1168       0.0144       0.0143       2.9985       3.0007       2.0297
       2.0149
   2963.0925
      39.6630      39.1979    -999.2500      58.2521      57.4728      93.6163
    -999.2500      64.3834      57.6623    -999.2500      59.1563      48.1323
       0.1180       0.0134       0.0132       2.9425       2.9020       1.8955
       1.8634
   2963.2449
      39.3806      39.8338    -999.2500      58.1435      58.8641      88.0341
    -999.2500      67.8965      63.3092    -999.2500      75.5327      50.8573
       0.1183       0.0131       0.0132       3.0090       3.0689       1.9132
       1.9405
   2963.3972
      38.6531      38.1025    -999.2500      58.6417      56.5322      91.1146
    -999.2500      71.2108      64.9687    -999.2500      74.2603      44.9982
       0.1178       0.0127       0.0127       3.0239       2.9012       2.0385
       1.8793
   2963.5496
      39.2256      39.2250    -999.2500      64.8021      66.1300      94.8886
    -999.2500      70.3312      60.5503    -999.2500      66.5747      43.4224
       0.1230       0.0121       0.0120       3.3551       3.4093       2.6088
       2.7435
   2963.7021
      41.5120      40.8611    -999.2500      70.7719      70.0748      98.7157
    -999.2500      65.8323      55.0261    -999.2500      57.8815      41.4430
       0.1235       0.0123       0.0121       3.7498       3.7189       2.9838
       2.9789
   2963.8545
      45.5697      46.1012    -999.2500      76.0684      76.6922     105.2768
    -999.2500      67.1907      56.0374    -999.2500      60.6352      43.0656
       0.1218       0.0135       0.0137       4.1182       4.1501       3.1105
       3.1194
   2964.0068
      49.1051      49.0284    -999.2500      80.6399      80.5680     117.3074
    -999.2500      78.7470      68.5317    -999.2500      85.3482      62.4436
       0.1171       0.0146       0.0146       4.4352       4.4347       3.2156
       3.2161
