#------------------------------------------------------------------------------
#
#   Created by  : [OpenWorks] Log Export Utility (LEXP)
#   Created on  : 2016-05-23 17:43:58
#   Project     : CANT971
#   User        : R5K
#   Interpreter : PEP
#
#------------------------------------------------------------------------------
~VERSION INFORMATION
VERS. 2.0 : CWLS Log ASCII Standard - version 2.0
WRAP. YES : Mulitple lines per depth step
~WELL INFORMATION
#MNEMONIC   .UNIT                                           VALUE :DESCRIPTION
#------------------------------------------------------------------------------
STRT        .M                                          1112.1945 :START DEPTH
STOP        .M                                          3447.5720 :STOP DEPTH
STEP        .M                                             0.1524 :STEP
NULL        .                                           -999.2500 :NULL VALUE
COMP        .                                             UNKNOWN :COMPANY
WELL        .                                              3041-V :WELL
FLD         .                                             UNKNOWN :FIELD
LOC         .                                             UNKNOWN :LOCATION
CNTY        .                                             UNKNOWN :COUNTY
STAT        .                                             UNKNOWN :STATE
CTRY        .                                             UNKNOWN :COUNTRY
SRVC        .                                             UNKNOWN :SERVICE COMPANY
DATE        .                                             UNKNOWN :LOG DATE
UWI         .                                              3041-V :UNIQUE WELL ID
XCOORD      .                                       599714.550000 :SURFACE X
YCOORD      .                                      2152046.310000 :SURFACE Y
LAT         .                                           19.461560 :LATITUDE
LON         .                                          -92.049991 :LONGITUDE
ELEV        .M                                             0.0000 :SURFACE ELEV
ELEV_TYPE   .                                                  KB :ELEV TYPE
~CURVE INFORMATION
#MNEMONIC.UNIT        API CODE       : CURVE DESCRIPTION
#------------------------------------------------------------------------------
DEPTH    .M                          : Measured Depth
CGR      .API         UNKNOWN        : CGR:PETROWORKS:rC:NONE:v1 
CGR-ENT  .API         UNKNOWN        : CGR-ENT:Entubado:rC:NONE:v0 (auto-composite)
DT       .us/ft       UNKNOWN        : DT:Sonico:rC:NONE:v0 (auto-composite)
GR       .API         UNKNOWN        : GR:PETROWORKS:rC:NONE:v2 
GR-ENT   .API         UNKNOWN        : GR-ENT:Entubado:rC:NONE:v0 (auto-composite)
GR-LWD   .API         UNKNOWN        : GR-LWD:PETROWORKS:rC:NONE:v6 
LLD      .ohm.m       UNKNOWN        : LLD:FINAL:rC:NONE:v0 (auto-composite)
LLD-LWD  .ohm.m       UNKNOWN        : LLD-LWD:PETROWORKS:rC:NONE:v6 
LLM-LWD  .UNKNOWN     UNKNOWN        : LLM-LWD:PETROWORKS:rC:NONE:v6 
LLS      .ohm.m       UNKNOWN        : LLS:FINAL:rC:NONE:v0 (auto-composite)
LLS-LWD  .ohm.m       UNKNOWN        : LLS-LWD:PETROWORKS:rC:NONE:v6 
MSFL-LWD .ohm.m       UNKNOWN        : MSFL-LWD:PETROWORKS:rC:NONE:v6 
NPHI     .v/v_decimal UNKNOWN        : NPHI:porosidad-entubado:rC:NONE:v0 (auto-composite)
POTA     .wtpercent   UNKNOWN        : POTA:PETROWORKS:rC:NONE:v1 
POTA-ENT .UNKNOWN     UNKNOWN        : POTA-ENT:Entubado:rC:NONE:v0 (auto-composite)
THOR     .ppm         UNKNOWN        : THOR:PETROWORKS:rC:NONE:v1 
THOR-ENT .ppm         UNKNOWN        : THOR-ENT:Entubado:rC:NONE:v0 (auto-composite)
URAN     .ppm         UNKNOWN        : URAN:PETROWORKS:rC:NONE:v1 
URAN-ENT .ppm         UNKNOWN        : URAN-ENT:Entubado:rC:NONE:v0 (auto-composite)
~A
# ...
   2827.1516
       9.2672       9.2635    -999.2500      15.3662      15.3610      25.6850
    -999.2500      50.1793      36.4120    -999.2500      27.5819      17.1878
       0.0486       0.0027       0.0027       0.8697       0.8692       0.6220
       0.6218
   2827.3040
      10.0135      10.0128    -999.2500      16.2951      16.2949      30.0568
    -999.2500      42.8216      29.2674    -999.2500      23.9655      16.7938
       0.0512       0.0026       0.0026       1.0402       1.0398       0.6407
       0.6406
   2827.4565
       9.2690       9.2746    -999.2500      15.2975      15.3048      34.5909
    -999.2500      34.3377      23.6541    -999.2500      19.8100      14.3620
       0.0534       0.0023       0.0023       0.9981       0.9989       0.6147
       0.6149
   2827.6089
       9.3489       9.3461    -999.2500      16.2458      16.2390      63.8822
    -999.2500      26.7180      19.3400    -999.2500      16.9924      12.3338
       0.0567       0.0020       0.0020       1.1512       1.1504       0.7033
       0.7029
   2827.7612
      11.5828      11.5634    -999.2500      19.5917      19.5638      78.0411
    -999.2500      25.4143      18.3400    -999.2500      16.3263      12.4304
       0.0658       0.0027       0.0027       1.3513       1.3497       0.8167
       0.8158
   2827.9136
      16.6563      16.7013    -999.2500      27.2632      27.3313      96.5669
    -999.2500      23.7726      18.4451    -999.2500      18.5485      16.7442
       0.0791       0.0060       0.0060       1.1115       1.1090       1.0816
       1.0839
   2828.0662
      24.6116      24.5251    -999.2500      40.7042      40.6367      99.5297
    -999.2500      30.6372      24.0333    -999.2500      23.0992      20.2718
       0.0945       0.0093       0.0093       1.4220       1.4069       1.6437
       1.6429
   2828.2185
      35.4878      35.9187    -999.2500      57.3382      57.9915     101.9637
    -999.2500      42.0304      35.1448    -999.2500      31.8576      25.4000
       0.1130       0.0126       0.0127       2.3723       2.4093       2.2281
       2.2508
   2828.3708
      36.4670      36.3642    -999.2500      58.6656      58.5006      92.4499
    -999.2500      41.7506      34.3536    -999.2500      34.7505      27.1475
       0.1324       0.0127       0.0127       2.5320       2.5234       2.2636
       2.2573
   2828.5232
      36.9198      36.9844    -999.2500      59.3464      59.4515      89.4338
    -999.2500      39.9918      32.2730    -999.2500      35.6660      29.5079
       0.1507       0.0127       0.0127       2.6331       2.6464       2.2869
       2.2910
   2828.6755
      36.8779      36.9230    -999.2500      59.2519      59.2860      96.7864
    -999.2500      39.9961      29.1232    -999.2500      31.6347      28.5253
       0.1497       0.0128       0.0128       2.5915       2.5918       2.2814
       2.2803
   2828.8281
      36.6153      36.1300    -999.2500      59.6416      58.4311     101.1125
    -999.2500      37.0394      23.9432    -999.2500      25.8449      22.8170
       0.1507       0.0127       0.0126       2.5700       2.5017       2.3496
       2.2740
   2828.9805
      40.3545      40.6007    -999.2500      70.0370      71.0195     102.8815
    -999.2500      34.3183      23.0305    -999.2500      23.1212      19.2500
       0.1631       0.0133       0.0133       3.1115       3.1640       3.0267
       3.1018
   2829.1328
      42.3525      43.4873    -999.2500      74.0662      76.0585      84.1630
    -999.2500      34.2356      24.1675    -999.2500      23.0899      18.4843
       0.1883       0.0138       0.0142       3.3200       3.4272       3.2336
       3.3212
   2829.2852
      36.2105      35.9582    -999.2500      62.1970      61.9428      57.6883
    -999.2500      33.7588      24.2452    -999.2500      22.6612      17.5591
       0.1894       0.0123       0.0121       2.6443       2.6614       2.6477
       2.6496
   2829.4377
      29.0755      28.9777    -999.2500      46.9270      47.1110      40.9879
    -999.2500      30.1828      23.0284    -999.2500      20.8276      16.6799
       0.1516       0.0108       0.0111       1.7545       1.6178       1.8199
       1.8490
   2829.5901
      23.4196      23.0919    -999.2500      32.2545      31.2513      36.0000
    -999.2500      26.8408      21.5277    -999.2500      18.9625      15.6736
       0.1143       0.0083       0.0082       1.6018       1.5840       0.8995
       0.8320
   2829.7424
      19.9819      19.6572    -999.2500      23.2373      22.2049      33.2165
    -999.2500      24.3509      19.3971    -999.2500      17.4985      14.6006
       0.0850       0.0060       0.0057       1.8070       1.8371       0.3319
       0.2597
   2829.8948
      18.9698      18.7450    -999.2500      21.3477      21.1146      37.6925
    -999.2500      25.3296      19.1774    -999.2500      19.3029      17.3117
       0.0733       0.0052       0.0051       1.9103       1.9099       0.2425
       0.2416
   2830.0474
      19.5679      19.5825    -999.2500      22.4692      22.5635      35.8613
    -999.2500      28.3523      21.3333    -999.2500      24.4967      23.2537
       0.0685       0.0054       0.0053       1.9475       1.9534       0.2960
       0.3040
   2830.1997
      20.4097      20.5468    -999.2500      23.4313      23.6759      36.5594
    -999.2500      28.1796      21.7742    -999.2500      27.9648      25.8733
       0.0679       0.0058       0.0058       1.9301       1.9615       0.3081
       0.3191
   2830.3521
      20.4883      20.7047    -999.2500      23.1036      23.2895      44.0276
    -999.2500      26.1385      20.4791    -999.2500      25.7756      22.7585
       0.0683       0.0062       0.0064       1.8044       1.7833       0.2665
       0.2636
   2830.5044
      20.9329      19.5382    -999.2500      23.9019      21.6438      52.8535
    -999.2500      25.5722      20.6463    -999.2500      22.0526      19.0862
       0.0689       0.0066       0.0060       1.7475       1.6947       0.3028
       0.2147
   2830.6567
      24.5233      25.6871    -999.2500      30.0026      31.9847      60.0488
    -999.2500      23.0485      19.3874    -999.2500      18.1917      15.5065
       0.0729       0.0082       0.0087       1.8538       1.9090       0.5590
       0.6422
   2830.8093
      27.0888      26.9030    -999.2500      34.2337      33.8395      53.5951
    -999.2500      21.8125      18.6817    -999.2500      16.6502      13.2488
       0.0801       0.0094       0.0094       1.9153       1.8785       0.7287
       0.7073
   2830.9617
      26.3543      28.1079    -999.2500      34.0543      36.0841      45.9752
    -999.2500      27.8328      24.4114    -999.2500      23.3135      16.4194
       0.0831       0.0091       0.0097       1.8727       1.9910       0.7850
       0.8133
   2831.1140
      21.8989      20.6850    -999.2500      29.6297      28.4752      41.2785
    -999.2500      36.2393      33.1715    -999.2500      34.5309      22.8826
       0.0787       0.0074       0.0069       1.6311       1.5409       0.7877
       0.7943
   2831.2664
      17.8235      17.8772    -999.2500      24.9046      24.9413      42.1995
    -999.2500      36.3009      33.1044    -999.2500      34.2300      22.9231
       0.0739       0.0058       0.0057       1.4111       1.4427       0.7220
       0.7203
   2831.4189
      16.6303      15.7555    -999.2500      24.6870      22.1270      50.2606
    -999.2500      30.5274      27.0340    -999.2500      26.6123      19.3036
       0.0721       0.0053       0.0051       1.3540       1.2614       0.8218
       0.6497
   2831.5713
      17.6928      17.7986    -999.2500      30.0256      31.5866      48.4321
    -999.2500      29.8983      27.0871    -999.2500      27.5346      21.5130
       0.0782       0.0056       0.0056       1.4558       1.5010       1.2583
       1.4059
   2831.7236
      18.7413      19.9915    -999.2500      33.8870      35.5502      41.7696
    -999.2500      37.5612      34.9343    -999.2500      38.9638      30.1163
       0.0899       0.0059       0.0065       1.5606       1.5948       1.5443
       1.5865
