#------------------------------------------------------------------------------
#
#   Created by  : [OpenWorks] Log Export Utility (LEXP)
#   Created on  : 2016-05-23 17:43:58
#   Project     : CANT971
#   User        : R5K
#   Interpreter : PEP
#
#------------------------------------------------------------------------------
~VERSION INFORMATION
VERS. 2.0 : CWLS Log ASCII Standard - version 2.0
WRAP. YES : Mulitple lines per depth step
~WELL INFORMATION
#MNEMONIC   .UNIT                                           VALUE :DESCRIPTION
#------------------------------------------------------------------------------
STRT        .M                                          1112.1945 :START DEPTH
STOP        .M                                          3447.5720 :STOP DEPTH
STEP        .M                                             0.1524 :STEP
NULL        .                                           -999.2500 :NULL VALUE
COMP        .                                             UNKNOWN :COMPANY
WELL        .                                              3041-V :WELL
FLD         .                                             UNKNOWN :FIELD
LOC         .                                             UNKNOWN :LOCATION
CNTY        .                                             UNKNOWN :COUNTY
STAT        .                                             UNKNOWN :STATE
CTRY        .                                             UNKNOWN :COUNTRY
SRVC        .                                             UNKNOWN :SERVICE COMPANY
DATE        .                                             UNKNOWN :LOG DATE
UWI         .                                              3041-V :UNIQUE WELL ID
XCOORD      .                                       599714.550000 :SURFACE X
YCOORD      .                                      2152046.310000 :SURFACE Y
LAT         .                                           19.461560 :LATITUDE
LON         .                                          -92.049991 :LONGITUDE
ELEV        .M                                             0.0000 :SURFACE ELEV
ELEV_TYPE   .                                                  KB :ELEV TYPE
~CURVE INFORMATION
#MNEMONIC.UNIT        API CODE       : CURVE DESCRIPTION
#------------------------------------------------------------------------------
DEPTH    .M                          : Measured Depth
CGR      .API         UNKNOWN        : CGR:PETROWORKS:rC:NONE:v1 
CGR-ENT  .API         UNKNOWN        : CGR-ENT:Entubado:rC:NONE:v0 (auto-composite)
DT       .us/ft       UNKNOWN        : DT:Sonico:rC:NONE:v0 (auto-composite)
GR       .API         UNKNOWN        : GR:PETROWORKS:rC:NONE:v2 
GR-ENT   .API         UNKNOWN        : GR-ENT:Entubado:rC:NONE:v0 (auto-composite)
GR-LWD   .API         UNKNOWN        : GR-LWD:PETROWORKS:rC:NONE:v6 
LLD      .ohm.m       UNKNOWN        : LLD:FINAL:rC:NONE:v0 (auto-composite)
LLD-LWD  .ohm.m       UNKNOWN        : LLD-LWD:PETROWORKS:rC:NONE:v6 
LLM-LWD  .UNKNOWN     UNKNOWN        : LLM-LWD:PETROWORKS:rC:NONE:v6 
LLS      .ohm.m       UNKNOWN        : LLS:FINAL:rC:NONE:v0 (auto-composite)
LLS-LWD  .ohm.m       UNKNOWN        : LLS-LWD:PETROWORKS:rC:NONE:v6 
MSFL-LWD .ohm.m       UNKNOWN        : MSFL-LWD:PETROWORKS:rC:NONE:v6 
NPHI     .v/v_decimal UNKNOWN        : NPHI:porosidad-entubado:rC:NONE:v0 (auto-composite)
POTA     .wtpercent   UNKNOWN        : POTA:PETROWORKS:rC:NONE:v1 
POTA-ENT .UNKNOWN     UNKNOWN        : POTA-ENT:Entubado:rC:NONE:v0 (auto-composite)
THOR     .ppm         UNKNOWN        : THOR:PETROWORKS:rC:NONE:v1 
THOR-ENT .ppm         UNKNOWN        : THOR-ENT:Entubado:rC:NONE:v0 (auto-composite)
URAN     .ppm         UNKNOWN        : URAN:PETROWORKS:rC:NONE:v1 
URAN-ENT .ppm         UNKNOWN        : URAN-ENT:Entubado:rC:NONE:v0 (auto-composite)
~A
# ...
   3162.5840
      13.4892      13.3793    -999.2500      19.5521      19.2997      32.0176
    -999.2500     100.4305      92.2090    -999.2500     184.9453     169.8785
       0.0298       0.0043       0.0043       1.1087       1.0677       0.6182
       0.6037
   3162.7366
      13.9676      13.8495    -999.2500      19.5311      19.3732      33.1139
    -999.2500      97.1456      89.6116    -999.2500     166.8873     129.3631
       0.0297       0.0040       0.0039       1.3297       1.3395       0.5675
       0.5633
   3162.8889
      15.1234      15.3731    -999.2500      20.6694      21.0140      33.7602
    -999.2500      92.9778      85.4972    -999.2500     145.9983      90.4665
       0.0299       0.0040       0.0041       1.5629       1.5867       0.5655
       0.5752
   3163.0413
      15.3411      15.2272    -999.2500      20.5924      20.3494      32.4542
    -999.2500      86.5378      76.8975    -999.2500     122.5144      67.2122
       0.0303       0.0039       0.0038       1.6702       1.6484       0.5355
       0.5223
   3163.1936
      15.4751      15.5737    -999.2500      20.8761      20.9506      31.3776
    -999.2500      84.4844      74.2301    -999.2500     129.5058      68.4819
       0.0314       0.0036       0.0036       1.8104       1.8310       0.5507
       0.5483
   3163.3459
      15.4450      15.4070    -999.2500      21.3305      21.3324      28.9659
    -999.2500      70.2106      54.0920    -999.2500      83.5382      42.7005
       0.0327       0.0033       0.0033       1.9147       1.9043       0.6001
       0.6042
   3163.4985
      15.1727      15.3741    -999.2500      21.2222      21.6262      29.7107
    -999.2500      63.5763      48.6496    -999.2500      61.4778      37.8970
       0.0330       0.0031       0.0030       1.9689       2.0197       0.6167
       0.6375
   3163.6509
      14.6787      14.2011    -999.2500      20.7151      19.5460      30.6267
    -999.2500      58.9284      45.5525    -999.2500      44.6476      34.5016
       0.0346       0.0031       0.0028       1.8348       1.8472       0.6156
       0.5450
   3163.8032
      15.1529      15.5422    -999.2500      22.8290      23.7026      31.7923
    -999.2500      59.8131      48.9006    -999.2500      44.2644      34.7821
       0.0355       0.0040       0.0043       1.5988       1.5587       0.7830
       0.8321
   3163.9556
      14.9599      15.1805    -999.2500      23.6234      24.1325      32.9234
    -999.2500     106.1391     206.5640    -999.2500     289.5464     219.7325
       0.0350       0.0042       0.0042       1.4478       1.4791       0.8834
       0.9128
   3164.1082
      13.7161      13.3153    -999.2500      22.5198      21.1144      35.1395
    -999.2500     202.4425     535.7001    -999.2500     802.5701     613.2556
       0.0339       0.0041       0.0038       1.2304       1.2685       0.8978
       0.7953
   3164.2605
      12.8448      13.3416    -999.2500      23.6732      24.9347      36.0271
    -999.2500     142.8614     351.0117    -999.2500     512.9598     401.3187
       0.0363       0.0044       0.0049       0.9210       0.8368       1.1043
       1.1822
   3164.4128
      11.5715      11.1874    -999.2500      23.9866      23.5142      37.5522
    -999.2500      81.4738     161.6198    -999.2500     222.8620     180.1668
       0.0423       0.0040       0.0039       0.8196       0.8010       1.2659
       1.2570
   3164.5652
      10.9538      10.5539    -999.2500      23.9308      23.4457      39.7114
    -999.2500      39.4779      30.6773    -999.2500      31.3715      21.8012
       0.0493       0.0033       0.0032       0.9778       0.9237       1.3234
       1.3145
   3164.7178
      13.0789      12.1729    -999.2500      26.4817      26.1206      40.2304
    -999.2500      41.3459      29.5749    -999.2500      27.0827      18.4486
       0.0510       0.0032       0.0031       1.4576       1.3243       1.3666
       1.4222
   3164.8701
      17.3014      18.4636    -999.2500      29.9940      30.9049      40.3779
    -999.2500      70.2749      58.9569    -999.2500      55.2073      38.1030
       0.0465       0.0037       0.0037       2.1845       2.4082       1.2944
       1.2686
   3165.0225
      19.7312      19.8670    -999.2500      31.3793      31.6047      41.1196
    -999.2500     141.5847     131.0474    -999.2500     134.6942      88.3094
       0.0452       0.0042       0.0041       2.4834       2.5210       1.1877
       1.1968
   3165.1748
      19.7831      19.7552    -999.2500      30.6249      30.5539      41.9903
    -999.2500     308.3065     302.1581    -999.2500     313.0527     209.6573
       0.0435       0.0047       0.0046       2.2691       2.2888       1.1054
       1.1011
   3165.3271
      19.5631      19.6741    -999.2500      29.5736      29.6702      42.7464
    -999.2500     408.1068     407.4528    -999.2500     417.2561     284.2297
       0.0453       0.0054       0.0055       1.9623       1.9363       1.0206
       1.0193
   3165.4797
      19.4322      19.0902    -999.2500      28.9702      28.3813      41.8963
    -999.2500     188.2223     182.8127    -999.2500     183.0342     126.1882
       0.0458       0.0059       0.0058       1.7270       1.6927       0.9725
       0.9474
   3165.6321
      20.1148      20.0420    -999.2500      29.9199      29.8060      40.3900
    -999.2500      38.7718      27.8477    -999.2500      24.8908      19.7949
       0.0468       0.0064       0.0064       1.6464       1.6310       1.0000
       0.9956
   3165.7844
      20.9871      21.5865    -999.2500      31.3187      32.2052      39.9057
    -999.2500      38.7098      28.4662    -999.2500      26.2011      21.4641
       0.0479       0.0069       0.0071       1.6087       1.6682       1.0536
       1.0828
   3165.9368
      20.6773      20.3113    -999.2500      30.9843      30.4423      39.0438
    -999.2500      42.6520      34.8200    -999.2500      37.9738      27.7059
       0.0495       0.0071       0.0070       1.4860       1.4323       1.0509
       1.0330
   3166.0894
      20.6169      20.3575    -999.2500      30.9728      30.6319      38.2097
    -999.2500      49.0351      44.1087    -999.2500      54.9112      35.2442
       0.0481       0.0072       0.0071       1.4353       1.4122       1.0561
       1.0477
   3166.2417
      21.3527      21.9498    -999.2500      31.7642      32.9035      32.7521
    -999.2500      47.3839      41.2144    -999.2500      46.0502      30.7884
       0.0444       0.0074       0.0076       1.4860       1.5458       1.0617
       1.1170
   3166.3940
      20.6335      20.7696    -999.2500      28.9830      29.7699      27.3403
    -999.2500      44.1383      36.5213    -999.2500      34.6936      25.0346
       0.0405       0.0072       0.0074       1.4498       1.3998       0.8509
       0.9177
   3166.5464
      18.8471      18.4446    -999.2500      23.1614      21.7589      25.9749
    -999.2500      44.5457      37.5778    -999.2500      37.1987      24.9793
       0.0371       0.0063       0.0060       1.4397       1.4623       0.4395
       0.3380
   3166.6990
      18.1846      18.1106    -999.2500      20.6600      20.4080      25.9378
    -999.2500      54.8225      50.3063    -999.2500     111.5876      38.8008
       0.0355       0.0058       0.0059       1.4855       1.4475       0.2525
       0.2343
   3166.8513
      18.1749      18.5000    -999.2500      20.7268      21.5446      28.3016
    -999.2500      59.9057      54.6091    -999.2500     110.3206      41.1120
       0.0346       0.0054       0.0056       1.6475       1.6165       0.2602
       0.3105
   3167.0037
      17.6317      17.1670    -999.2500      19.1871      18.4031      31.5327
    -999.2500      63.9246      57.4771    -999.2500      72.0418      42.8785
       0.0351       0.0044       0.0040       1.9521       1.9863       0.1586
       0.1261
   3167.1560
      18.2730      18.2066    -999.2500      19.1880      19.0364      34.5831
    -999.2500      71.0988      66.6046    -999.2500      86.8183      54.4614
       0.0355       0.0041       0.0041       2.1727       2.1867       0.0935
       0.0846
