#------------------------------------------------------------------------------
#
#   Created by  : [OpenWorks] Log Export Utility (LEXP)
#   Created on  : 2016-05-23 17:43:58
#   Project     : CANT971
#   User        : R5K
#   Interpreter : PEP
#
#------------------------------------------------------------------------------
~VERSION INFORMATION
VERS. 2.0 : CWLS Log ASCII Standard - version 2.0
WRAP. YES : Mulitple lines per depth step
~WELL INFORMATION
#MNEMONIC   .UNIT                                           VALUE :DESCRIPTION
#------------------------------------------------------------------------------
STRT        .M                                          1112.1945 :START DEPTH
STOP        .M                                          3447.5720 :STOP DEPTH
STEP        .M                                             0.1524 :STEP
NULL        .                                           -999.2500 :NULL VALUE
COMP        .                                             UNKNOWN :COMPANY
WELL        .                                              3041-V :WELL
FLD         .                                             UNKNOWN :FIELD
LOC         .                                             UNKNOWN :LOCATION
CNTY        .                                             UNKNOWN :COUNTY
STAT        .                                             UNKNOWN :STATE
CTRY        .                                             UNKNOWN :COUNTRY
SRVC        .                                             UNKNOWN :SERVICE COMPANY
DATE        .                                             UNKNOWN :LOG DATE
UWI         .                                              3041-V :UNIQUE WELL ID
XCOORD      .                                       599714.550000 :SURFACE X
YCOORD      .                                      2152046.310000 :SURFACE Y
LAT         .                                           19.461560 :LATITUDE
LON         .                                          -92.049991 :LONGITUDE
ELEV        .M                                             0.0000 :SURFACE ELEV
ELEV_TYPE   .                                                  KB :ELEV TYPE
~CURVE INFORMATION
#MNEMONIC.UNIT        API CODE       : CURVE DESCRIPTION
#------------------------------------------------------------------------------
DEPTH    .M                          : Measured Depth
CGR      .API         UNKNOWN        : CGR:PETROWORKS:rC:NONE:v1 
CGR-ENT  .API         UNKNOWN        : CGR-ENT:Entubado:rC:NONE:v0 (auto-composite)
DT       .us/ft       UNKNOWN        : DT:Sonico:rC:NONE:v0 (auto-composite)
GR       .API         UNKNOWN        : GR:PETROWORKS:rC:NONE:v2 
GR-ENT   .API         UNKNOWN        : GR-ENT:Entubado:rC:NONE:v0 (auto-composite)
GR-LWD   .API         UNKNOWN        : GR-LWD:PETROWORKS:rC:NONE:v6 
LLD      .ohm.m       UNKNOWN        : LLD:FINAL:rC:NONE:v0 (auto-composite)
LLD-LWD  .ohm.m       UNKNOWN        : LLD-LWD:PETROWORKS:rC:NONE:v6 
LLM-LWD  .UNKNOWN     UNKNOWN        : LLM-LWD:PETROWORKS:rC:NONE:v6 
LLS      .ohm.m       UNKNOWN        : LLS:FINAL:rC:NONE:v0 (auto-composite)
LLS-LWD  .ohm.m       UNKNOWN        : LLS-LWD:PETROWORKS:rC:NONE:v6 
MSFL-LWD .ohm.m       UNKNOWN        : MSFL-LWD:PETROWORKS:rC:NONE:v6 
NPHI     .v/v_decimal UNKNOWN        : NPHI:porosidad-entubado:rC:NONE:v0 (auto-composite)
POTA     .wtpercent   UNKNOWN        : POTA:PETROWORKS:rC:NONE:v1 
POTA-ENT .UNKNOWN     UNKNOWN        : POTA-ENT:Entubado:rC:NONE:v0 (auto-composite)
THOR     .ppm         UNKNOWN        : THOR:PETROWORKS:rC:NONE:v1 
THOR-ENT .ppm         UNKNOWN        : THOR-ENT:Entubado:rC:NONE:v0 (auto-composite)
URAN     .ppm         UNKNOWN        : URAN:PETROWORKS:rC:NONE:v1 
URAN-ENT .ppm         UNKNOWN        : URAN-ENT:Entubado:rC:NONE:v0 (auto-composite)
~A
# ...
   2624.0024
       4.6291      17.3236    -999.2500      31.9672      29.5580      40.3277
     125.0973     272.2202     175.8870      94.5049     191.6518     195.3369
       0.0200       0.0019       0.0053       0.3620       1.2627       3.4213
       1.1565
   2624.1548
       4.6902      17.0898    -999.2500      33.1292      29.8755      40.4935
     151.6017     243.8020     162.9099     112.5425     174.3346     172.1943
       0.0175       0.0020       0.0051       0.3202       1.2991       3.4901
       1.2086
   2624.3074
       4.2964      15.3804    -999.2500      32.2753      27.9024      32.5713
     156.0195     234.0927     146.4194     115.7606     130.3954     120.1335
       0.0166       0.0019       0.0042       0.2857       1.3010       3.3818
       1.1837
   2624.4597
       3.7911      13.2773    -999.2500      29.6118      25.3440      27.7467
     137.6256     216.1966     137.2124      99.9547     105.5205      89.0956
       0.0182       0.0017       0.0034       0.2546       1.2457       3.0967
       1.1407
   2624.6121
       3.3430      12.0066    -999.2500      25.7993      24.2931      29.4054
      60.1406     191.4570     135.8435      40.4795     108.8177      92.3688
       0.0236       0.0014       0.0026       0.2751       1.3089       2.6845
       1.1615
   2624.7644
       2.5563      12.2758    -999.2500      21.9805      19.4588      31.1859
      35.3934     183.5121     135.1301      21.5961     118.2433     109.0646
       0.0311       0.0011       0.0038       0.2047       0.8766       2.3614
       0.6790
   2624.9167
       2.2588      12.5708    -999.2500      19.4069      18.2054      32.5250
      33.3123     182.7201     134.0910      20.0238     128.5778     129.1684
       0.0375       0.0009       0.0045       0.1563       0.6392       2.1256
       0.5327
   2625.0693
       2.6535      13.2764    -999.2500      19.7603      19.0040      32.0756
      33.3316     207.1305     149.4325      20.0234     152.2141     159.3540
       0.0400       0.0011       0.0046       0.1708       0.7660       2.1444
       0.5415
   2625.2217
       3.9405      14.4312    -999.2500      22.9132      20.4357      30.8211
      31.2522     244.7632     161.6243      18.7557     162.6672     160.9933
       0.0401       0.0017       0.0045       0.3056       1.0177       2.4183
       0.5676
   2625.3740
       4.8094      13.7413    -999.2500      25.5726      19.8947      31.9976
      54.5698     254.1548     165.0727      32.4305     167.6569     164.2058
       0.0384       0.0019       0.0041       0.4377       1.0640       2.6775
       0.5817
   2625.5264
       4.3547      15.5728    -999.2500      25.0690      22.3073      33.2922
      79.2925     244.7941     164.2861      40.4348     168.0149     166.7076
       0.0380       0.0017       0.0054       0.4214       0.8848       2.6704
       0.6366
   2625.6790
       3.9769      16.1433    -999.2500      23.7287      22.0163      34.3275
      79.3021     232.7101     162.6557      38.8306     166.5693     167.1803
       0.0393       0.0016       0.0061       0.3520       0.6941       2.5637
       0.5552
   2625.8313
       4.5110      15.7689    -999.2500      25.8861      20.8652      61.4229
      78.7570     283.1820     170.5141      38.4003     165.9375     166.4799
       0.0417       0.0017       0.0059       0.4233       0.6839       2.7924
       0.4818
   2625.9836
       5.8792      16.4479    -999.2500      30.9699      24.4381      58.3165
      78.7865     315.7849     176.4185      38.3239     168.7486     158.8398
       0.0441       0.0023       0.0062       0.5371       0.7198       3.2906
       0.7553
   2626.1360
       7.5143      18.9876    -999.2500      38.9447      31.2443      49.6058
      76.2251     325.4552     179.0696      34.1025     172.2614     148.5711
       0.0458       0.0030       0.0065       0.6335       1.1059       4.0900
       1.1586
   2626.2886
      10.0580      32.6747    -999.2500      51.7193      51.6682      45.0641
     194.1953     323.9189     180.0698      83.2989     172.8135     146.2779
       0.0474       0.0044       0.0119       0.6617       1.5892       5.4186
       1.7954
   2626.4409
      11.0899      41.9705    -999.2500      59.4052      68.4299      41.1872
     201.5858     320.7094     180.8266      86.3075     172.7544     145.6916
       0.0487       0.0048       0.0146       0.7543       2.3413       6.2494
       2.5012
   2626.5933
      10.4372      32.3575    -999.2500      53.1759      56.7497      37.8698
     193.9196     342.4310     187.5784      83.8971     169.9860     157.2104
       0.0493       0.0044       0.0114       0.7633       1.7742       5.4482
       2.3057
   2626.7456
       7.3267      19.0517    -999.2500      37.7044      36.1077      52.5804
     208.6635     340.9452     189.0595      95.6810     177.6281     163.7603
       0.0480       0.0031       0.0064       0.5399       1.1634       3.8577
       1.6123
   2626.8979
       4.4318      12.6298    -999.2500      24.8200      24.0304      57.4042
     158.0950     316.6510     181.0795      85.6402     174.4890     162.5088
       0.0449       0.0020       0.0037       0.2897       0.9872       2.5674
       1.0776
   2627.0505
       3.7616      11.1110    -999.2500      23.4509      21.8848      59.1942
      61.1768     318.6288     185.6013      33.8715     181.2028     162.6907
       0.0406       0.0016       0.0031       0.2274       0.9008       2.4648
       1.0184
   2627.2029
       4.4979      16.3295    -999.2500      26.5772      27.6445      60.8327
      40.6944     323.5751     191.5357      22.3247     189.1066     163.1086
       0.0378       0.0020       0.0042       0.2624       1.5129       2.7787
       1.0696
   2627.3552
       6.5204      22.0974    -999.2500      33.6579      35.5884      45.7120
      35.8146     369.0746     218.0313      19.6005     213.8367     165.2688
       0.0383       0.0029       0.0060       0.3915       1.9363       3.3685
       1.2753
   2627.5076
       8.1603      24.0112    -999.2500      39.9179      38.7394      40.7873
      29.6299     417.2757     245.6927      16.6421     245.6116     200.2799
       0.0398       0.0036       0.0061       0.4863       2.2475       3.9055
       1.3922
   2627.6602
       7.9436      23.8212    -999.2500      43.1049      38.8492      37.7277
      30.8353     452.0242     261.4187      18.3793     266.8771     225.0647
       0.0422       0.0035       0.0059       0.4953       2.2949       4.3739
       1.4205
   2627.8125
       7.3569      21.3553    -999.2500      40.4971      32.6637      36.1982
      40.2309     453.9363     263.7108      24.8617     292.3655     243.8892
       0.0443       0.0032       0.0058       0.4566       1.8509       4.1358
       1.0689
   2627.9648
       6.3414      18.8913    -999.2500      35.6234      27.5506      34.6100
      47.2269     455.7772     266.2470      29.7402     318.8793     263.3860
       0.0470       0.0027       0.0053       0.4341       1.5682       3.6502
       0.8185
   2628.1172
       5.3133      13.9462    -999.2500      28.0823      22.8403      28.1698
      50.9856     483.3446     294.8889      32.6377     399.4828     325.7245
       0.0473       0.0023       0.0042       0.3312       1.0465       2.7979
       0.8407
   2628.2698
       3.9109      13.7207    -999.2500      22.5114      23.0406      22.8906
      78.1791     503.6943     296.7399      48.7231     400.2943     322.6812
       0.0396       0.0018       0.0040       0.2137       1.0878       2.3108
       0.8810
   2628.4221
       2.8822      13.7107    -999.2500      18.9808      19.5326      22.4079
      80.6167     438.6383     294.2257      50.2286     424.6368     383.5798
       0.0291       0.0013       0.0037       0.1665       1.1948       2.0137
       0.5503
   2628.5745
       2.5903      13.7467    -999.2500      17.2381      19.4050      22.1589
      91.5016     476.0905     287.8617      53.2702     430.3686     406.4089
       0.0194       0.0011       0.0034       0.1588       1.3008       1.8223
       0.5349
