#------------------------------------------------------------------------------
#
#   Created by  : [OpenWorks] Log Export Utility (LEXP)
#   Created on  : 2016-05-23 17:43:58
#   Project     : CANT971
#   User        : R5K
#   Interpreter : PEP
#
#------------------------------------------------------------------------------
~VERSION INFORMATION
VERS. 2.0 : CWLS Log ASCII Standard - version 2.0
WRAP. YES : Mulitple lines per depth step
~WELL INFORMATION
#MNEMONIC   .UNIT                                           VALUE :DESCRIPTION
#------------------------------------------------------------------------------
STRT        .M                                          1112.1945 :START DEPTH
STOP        .M                                          3447.5720 :STOP DEPTH
STEP        .M                                             0.1524 :STEP
NULL        .                                           -999.2500 :NULL VALUE
COMP        .                                             UNKNOWN :COMPANY
WELL        .                                              3041-V :WELL
FLD         .                                             UNKNOWN :FIELD
LOC         .                                             UNKNOWN :LOCATION
CNTY        .                                             UNKNOWN :COUNTY
STAT        .                                             UNKNOWN :STATE
CTRY        .                                             UNKNOWN :COUNTRY
SRVC        .                                             UNKNOWN :SERVICE COMPANY
DATE        .                                             UNKNOWN :LOG DATE
UWI         .                                              3041-V :UNIQUE WELL ID
XCOORD      .                                       599714.550000 :SURFACE X
YCOORD      .                                      2152046.310000 :SURFACE Y
LAT         .                                           19.461560 :LATITUDE
LON         .                                          -92.049991 :LONGITUDE
ELEV        .M                                             0.0000 :SURFACE ELEV
ELEV_TYPE   .                                                  KB :ELEV TYPE
~CURVE INFORMATION
#MNEMONIC.UNIT        API CODE       : CURVE DESCRIPTION
#------------------------------------------------------------------------------
DEPTH    .M                          : Measured Depth
CGR      .API         UNKNOWN        : CGR:PETROWORKS:rC:NONE:v1 
CGR-ENT  .API         UNKNOWN        : CGR-ENT:Entubado:rC:NONE:v0 (auto-composite)
DT       .us/ft       UNKNOWN        : DT:Sonico:rC:NONE:v0 (auto-composite)
GR       .API         UNKNOWN        : GR:PETROWORKS:rC:NONE:v2 
GR-ENT   .API         UNKNOWN        : GR-ENT:Entubado:rC:NONE:v0 (auto-composite)
GR-LWD   .API         UNKNOWN        : GR-LWD:PETROWORKS:rC:NONE:v6 
LLD      .ohm.m       UNKNOWN        : LLD:FINAL:rC:NONE:v0 (auto-composite)
LLD-LWD  .ohm.m       UNKNOWN        : LLD-LWD:PETROWORKS:rC:NONE:v6 
LLM-LWD  .UNKNOWN     UNKNOWN        : LLM-LWD:PETROWORKS:rC:NONE:v6 
LLS      .ohm.m       UNKNOWN        : LLS:FINAL:rC:NONE:v0 (auto-composite)
LLS-LWD  .ohm.m       UNKNOWN        : LLS-LWD:PETROWORKS:rC:NONE:v6 
MSFL-LWD .ohm.m       UNKNOWN        : MSFL-LWD:PETROWORKS:rC:NONE:v6 
NPHI     .v/v_decimal UNKNOWN        : NPHI:porosidad-entubado:rC:NONE:v0 (auto-composite)
POTA     .wtpercent   UNKNOWN        : POTA:PETROWORKS:rC:NONE:v1 
POTA-ENT .UNKNOWN     UNKNOWN        : POTA-ENT:Entubado:rC:NONE:v0 (auto-composite)
THOR     .ppm         UNKNOWN        : THOR:PETROWORKS:rC:NONE:v1 
THOR-ENT .ppm         UNKNOWN        : THOR-ENT:Entubado:rC:NONE:v0 (auto-composite)
URAN     .ppm         UNKNOWN        : URAN:PETROWORKS:rC:NONE:v1 
URAN-ENT .ppm         UNKNOWN        : URAN-ENT:Entubado:rC:NONE:v0 (auto-composite)
~A
# ...
   2756.2856
       7.9191       8.4053    -999.2500      15.8530      16.2208      27.6920
    -999.2500     142.9563      90.5934    -999.2500      68.6073      39.0238
       0.0349       0.0027       0.0031       0.5638       0.5254       0.8092
       0.7969
   2756.4380
      10.1014       9.9187    -999.2500      18.4427      17.9869      29.6395
    -999.2500     177.9322     109.6397    -999.2500      83.5795      46.7743
       0.0345       0.0038       0.0039       0.5950       0.5188       0.8508
       0.8227
   2756.5906
      11.8350      11.9486    -999.2500      21.3225      21.6971      30.3169
    -999.2500     199.6516     122.2944    -999.2500      89.8044      49.9552
       0.0345       0.0040       0.0040       0.8696       0.9115       0.9674
       0.9940
   2756.7429
      13.1412      13.5549    -999.2500      22.7723      23.9044      28.4215
    -999.2500     277.2465     135.6463    -999.2500     108.8466      58.4962
       0.0361       0.0044       0.0042       0.9998       1.1550       0.9821
       1.0553
   2756.8953
      12.9700      12.9874    -999.2500      20.7496      20.1241      27.6319
    -999.2500     372.6147     155.8307    -999.2500     130.7805      68.0128
       0.0371       0.0050       0.0053       0.7174       0.5852       0.7930
       0.7278
   2757.0476
      12.1022      12.0039    -999.2500      18.7693      18.6537      27.3912
    -999.2500     408.0271     162.3004    -999.2500     133.3979      68.4906
       0.0380       0.0049       0.0048       0.5705       0.5721       0.6798
       0.6781
   2757.2000
      11.5382      11.5264    -999.2500      18.0790      18.2964      27.2058
    -999.2500     470.3693     159.4250    -999.2500      94.4816      53.7479
       0.0377       0.0045       0.0044       0.6137       0.6573       0.6669
       0.6903
   2757.3525
      11.2750      11.1951    -999.2500      17.0751      16.8584      27.5136
    -999.2500     554.9088     159.9421    -999.2500      63.9445      42.1853
       0.0376       0.0045       0.0046       0.5483       0.5054       0.5914
       0.5774
   2757.5049
      11.6743      11.3218    -999.2500      17.0413      16.4517      28.4350
    -999.2500     410.8164     119.3586    -999.2500      49.5721      31.1421
       0.0349       0.0047       0.0045       0.5510       0.5572       0.5473
       0.5231
   2757.6572
      13.0367      13.5617    -999.2500      18.9162      19.6604      28.9727
    -999.2500     252.4925      81.6820    -999.2500      38.2850      22.9708
       0.0329       0.0053       0.0055       0.5990       0.6106       0.5997
       0.6219
   2757.8096
      12.9641      12.9440    -999.2500      18.9330      18.9106      29.1589
    -999.2500     176.2070      64.7678    -999.2500      33.1497      20.2717
       0.0319       0.0053       0.0053       0.5745       0.5877       0.6085
       0.6084
   2757.9622
      12.1736      11.9577    -999.2500      17.9417      17.5916      31.0534
    -999.2500     150.8478      73.2190    -999.2500      62.6119      31.0769
       0.0343       0.0051       0.0050       0.5047       0.4706       0.5882
       0.5745
   2758.1145
      12.5389      12.4412    -999.2500      18.7748      18.6413      31.8433
    -999.2500     148.1037      82.3721    -999.2500      82.3174      35.8123
       0.0359       0.0051       0.0051       0.5808       0.5690       0.6359
       0.6322
   2758.2668
      13.5878      13.8480    -999.2500      20.7129      21.0093      31.2117
    -999.2500     151.1157      94.2780    -999.2500      86.0090      40.3549
       0.0375       0.0052       0.0053       0.7691       0.7869       0.7268
       0.7302
   2758.4192
      13.3396      13.3742    -999.2500      21.1441      21.2716      30.8666
    -999.2500     158.4550     100.7163    -999.2500      90.1998      43.5635
       0.0368       0.0048       0.0048       0.8713       0.8813       0.7958
       0.8053
   2758.5718
      12.1951      12.3060    -999.2500      20.0287      20.1301      30.7282
    -999.2500     166.1041     103.0497    -999.2500      95.0299      44.9622
       0.0364       0.0042       0.0043       0.8533       0.8714       0.7986
       0.7978
   2758.7241
      10.3412      10.2053    -999.2500      18.1291      17.9076      25.0844
    -999.2500     280.8084     191.4518    -999.2500     220.7806     100.4281
       0.0357       0.0036       0.0036       0.7032       0.6865       0.7941
       0.7854
   2758.8765
       9.1850       9.3213    -999.2500      17.5616      17.7666      23.3280
    -999.2500     286.4010     217.9689    -999.2500     242.1472     122.3215
       0.0355       0.0032       0.0032       0.6386       0.6449       0.8542
       0.8612
   2759.0288
       7.2824       7.1067    -999.2500      15.8639      15.6451      23.1809
    -999.2500     332.8572     168.8087    -999.2500     194.5187      94.4571
       0.0363       0.0024       0.0023       0.5681       0.5578       0.8748
       0.8706
   2759.1812
       6.9335       6.9936    -999.2500      15.7875      16.0331      23.0888
    -999.2500     351.3419     144.6699    -999.2500     168.4944      80.6234
       0.0377       0.0022       0.0022       0.5992       0.5962       0.9028
       0.9217
   2759.3337
       6.4352       6.2998    -999.2500      13.3336      12.9952      23.0450
    -999.2500     353.9846     131.4852    -999.2500     150.2512      73.5425
       0.0393       0.0016       0.0015       0.6937       0.7038       0.7030
       0.6828
   2759.4861
       8.1613       8.2431    -999.2500      16.1067      16.2479      22.9146
    -999.2500    1627.1710     879.3991    -999.2500      93.1761      46.0178
       0.0403       0.0027       0.0028       0.6126       0.6103       0.8103
       0.8162
   2759.6384
       8.3013       8.2897    -999.2500      16.6081      16.5924      23.6368
    -999.2500    1932.8667    1186.9845    -999.2500      75.4403      35.5019
       0.0404       0.0030       0.0030       0.5498       0.5488       0.8470
       0.8466
   2759.7908
       8.5324       8.5337    -999.2500      17.0618      17.0650      23.3084
    -999.2500     640.7073     352.5396    -999.2500      39.3867      19.5748
       0.0398       0.0031       0.0031       0.5501       0.5501       0.8698
       0.8699
   2759.9434
       8.0104       8.0164    -999.2500      15.9341      15.9466      23.1493
    -999.2500     301.6052     139.7994    -999.2500      30.5936      15.7845
       0.0410       0.0030       0.0030       0.4866       0.4873       0.8080
       0.8087
   2760.0957
       7.4727       7.4738    -999.2500      14.9313      14.9319      23.0562
    -999.2500     161.2896      61.1327    -999.2500      27.1878      14.3096
       0.0447       0.0033       0.0033       0.2623       0.2628       0.7604
       0.7605
   2760.2480
       7.4480       7.4465    -999.2500      14.7304      14.7282      25.1214
    -999.2500     145.2269      72.8051    -999.2500      28.5955      16.2560
       0.0485       0.0036       0.0036       0.1228       0.1225       0.7426
       0.7425
   2760.4004
       4.9950       5.0059    -999.2500      11.7574      11.7701      26.0425
    -999.2500     150.9256      76.6959    -999.2500      28.7890      17.1617
       0.0553       0.0026       0.0026      -0.0240      -0.0238       0.6896
       0.6898
   2760.5530
       5.1754       5.1623    -999.2500      13.7512      13.7294      25.0597
    -999.2500     132.7277      82.3737    -999.2500      36.8176      24.7146
       0.0614       0.0019       0.0019       0.3264       0.3239       0.8748
       0.8736
   2760.7053
       4.2618       4.2682    -999.2500      12.0457      12.0640      24.8112
    -999.2500     122.2626      78.6731    -999.2500      38.1534      25.5624
       0.0606       0.0015       0.0015       0.2668       0.2687       0.7937
       0.7950
   2760.8577
       5.8233       5.8131    -999.2500      16.2487      16.2303      24.6223
    -999.2500     112.4603      74.3177    -999.2500      38.9913      25.9184
       0.0539       0.0022       0.0022       0.3415       0.3407       1.0638
       1.0622
