#------------------------------------------------------------------------------
#
#   Created by  : [OpenWorks] Log Export Utility (LEXP)
#   Created on  : 2016-05-23 17:43:58
#   Project     : CANT971
#   User        : R5K
#   Interpreter : PEP
#
#------------------------------------------------------------------------------
~VERSION INFORMATION
VERS. 2.0 : CWLS Log ASCII Standard - version 2.0
WRAP. YES : Mulitple lines per depth step
~WELL INFORMATION
#MNEMONIC   .UNIT                                           VALUE :DESCRIPTION
#------------------------------------------------------------------------------
STRT        .M                                          1112.1945 :START DEPTH
STOP        .M                                          3447.5720 :STOP DEPTH
STEP        .M                                             0.1524 :STEP
NULL        .                                           -999.2500 :NULL VALUE
COMP        .                                             UNKNOWN :COMPANY
WELL        .                                              3041-V :WELL
FLD         .                                             UNKNOWN :FIELD
LOC         .                                             UNKNOWN :LOCATION
CNTY        .                                             UNKNOWN :COUNTY
STAT        .                                             UNKNOWN :STATE
CTRY        .                                             UNKNOWN :COUNTRY
SRVC        .                                             UNKNOWN :SERVICE COMPANY
DATE        .                                             UNKNOWN :LOG DATE
UWI         .                                              3041-V :UNIQUE WELL ID
XCOORD      .                                       599714.550000 :SURFACE X
YCOORD      .                                      2152046.310000 :SURFACE Y
LAT         .                                           19.461560 :LATITUDE
LON         .                                          -92.049991 :LONGITUDE
ELEV        .M                                             0.0000 :SURFACE ELEV
ELEV_TYPE   .                                                  KB :ELEV TYPE
~CURVE INFORMATION
#MNEMONIC.UNIT        API CODE       : CURVE DESCRIPTION
#------------------------------------------------------------------------------
DEPTH    .M                          : Measured Depth
CGR      .API         UNKNOWN        : CGR:PETROWORKS:rC:NONE:v1 
CGR-ENT  .API         UNKNOWN        : CGR-ENT:Entubado:rC:NONE:v0 (auto-composite)
DT       .us/ft       UNKNOWN        : DT:Sonico:rC:NONE:v0 (auto-composite)
GR       .API         UNKNOWN        : GR:PETROWORKS:rC:NONE:v2 
GR-ENT   .API         UNKNOWN        : GR-ENT:Entubado:rC:NONE:v0 (auto-composite)
GR-LWD   .API         UNKNOWN        : GR-LWD:PETROWORKS:rC:NONE:v6 
LLD      .ohm.m       UNKNOWN        : LLD:FINAL:rC:NONE:v0 (auto-composite)
LLD-LWD  .ohm.m       UNKNOWN        : LLD-LWD:PETROWORKS:rC:NONE:v6 
LLM-LWD  .UNKNOWN     UNKNOWN        : LLM-LWD:PETROWORKS:rC:NONE:v6 
LLS      .ohm.m       UNKNOWN        : LLS:FINAL:rC:NONE:v0 (auto-composite)
LLS-LWD  .ohm.m       UNKNOWN        : LLS-LWD:PETROWORKS:rC:NONE:v6 
MSFL-LWD .ohm.m       UNKNOWN        : MSFL-LWD:PETROWORKS:rC:NONE:v6 
NPHI     .v/v_decimal UNKNOWN        : NPHI:porosidad-entubado:rC:NONE:v0 (auto-composite)
POTA     .wtpercent   UNKNOWN        : POTA:PETROWORKS:rC:NONE:v1 
POTA-ENT .UNKNOWN     UNKNOWN        : POTA-ENT:Entubado:rC:NONE:v0 (auto-composite)
THOR     .ppm         UNKNOWN        : THOR:PETROWORKS:rC:NONE:v1 
THOR-ENT .ppm         UNKNOWN        : THOR-ENT:Entubado:rC:NONE:v0 (auto-composite)
URAN     .ppm         UNKNOWN        : URAN:PETROWORKS:rC:NONE:v1 
URAN-ENT .ppm         UNKNOWN        : URAN-ENT:Entubado:rC:NONE:v0 (auto-composite)
~A
# ...
   3030.3008
      19.8815      20.1541    -999.2500      29.4722      29.8854      45.3752
    -999.2500      71.1987      55.3655    -999.2500      58.2062      38.4349
       0.0352       0.0067       0.0067       1.4824       1.5106       0.9780
       0.9923
   3030.4534
      19.5911      19.7919    -999.2500      28.8583      29.1110      41.8777
    -999.2500      77.5621      60.1038    -999.2500      66.8082      44.3649
       0.0366       0.0067       0.0068       1.4250       1.4341       0.9449
       0.9502
   3030.6057
      18.1851      18.0934    -999.2500      26.5818      26.5889      38.3949
    -999.2500      83.9093      66.1144    -999.2500      76.3949      49.4907
       0.0357       0.0064       0.0063       1.2553       1.2829       0.8559
       0.8662
   3030.7581
      16.9586      16.7148    -999.2500      24.2799      23.8045      36.0519
    -999.2500      87.5146      72.6485    -999.2500      79.7193      50.1801
       0.0323       0.0063       0.0063       1.0107       0.9784       0.7466
       0.7230
   3030.9104
      15.5555      16.6743    -999.2500      22.5840      23.4726      33.8856
    -999.2500      91.5590      75.7556    -999.2500      70.3837      49.3173
       0.0289       0.0059       0.0066       0.8956       0.8185       0.7166
       0.6932
   3031.0627
      12.5810      11.1850    -999.2500      20.3618      19.0363      29.9238
    -999.2500     109.4595      86.1214    -999.2500      82.0639      58.7265
       0.0272       0.0040       0.0032       1.0390       1.0744       0.7933
       0.8006
   3031.2153
      11.8408      11.7466    -999.2500      20.6094      20.4727      32.8574
    -999.2500     125.8082      98.8188    -999.2500     102.2627      70.9668
       0.0262       0.0031       0.0031       1.2481       1.2149       0.8943
       0.8898
   3031.3677
      14.5772      13.8512    -999.2500      24.2515      23.6090      35.1916
    -999.2500     131.7970     103.7829    -999.2500     116.0775      77.1787
       0.0271       0.0039       0.0035       1.4937       1.4898       0.9870
       0.9950
   3031.5200
      18.7850      19.5238    -999.2500      29.2305      29.9654      36.6210
    -999.2500     128.5228      99.6637    -999.2500     113.2671      70.8941
       0.0283       0.0054       0.0057       1.7657       1.8081       1.0651
       1.0648
   3031.6724
      21.7344      22.2120    -999.2500      32.6893      33.2955      42.3908
    -999.2500     138.6582     112.2231    -999.2500     105.0610      63.3408
       0.0305       0.0066       0.0068       1.9172       1.9266       1.1172
       1.1302
   3031.8250
      21.8840      22.0722    -999.2500      32.8272      33.1926      48.7215
    -999.2500     141.5128     125.5471    -999.2500     104.8040      61.7589
       0.0321       0.0066       0.0066       1.9430       1.9685       1.1157
       1.1339
   3031.9773
      21.1652      20.6898    -999.2500      31.6662      30.9093      46.7877
    -999.2500     136.4653     119.2837    -999.2500     108.1435      64.5358
       0.0334       0.0063       0.0062       1.9249       1.8829       1.0707
       1.0421
   3032.1296
      20.8975      21.4185    -999.2500      31.3043      31.9349      45.5502
    -999.2500     121.6510      97.7715    -999.2500      87.7014      49.4614
       0.0351       0.0061       0.0063       1.9468       1.9770       1.0612
       1.0724
   3032.2820
      20.6365      20.0355    -999.2500      31.3677      30.5400      46.0047
    -999.2500     109.4366      81.1692    -999.2500      60.4887      30.5701
       0.0362       0.0058       0.0056       2.0006       1.9590       1.0942
       1.0711
   3032.4346
      21.0594      21.1217    -999.2500      32.3580      32.6101      50.3878
    -999.2500     119.0901      98.2086    -999.2500      64.0825      32.0700
       0.0371       0.0058       0.0058       2.0974       2.1162       1.1523
       1.1715
   3032.5869
      22.1364      22.3530    -999.2500      33.7666      34.0907      55.2371
    -999.2500     123.2101     104.7704    -999.2500      66.2479      31.4519
       0.0369       0.0061       0.0061       2.1685       2.2139       1.1860
       1.1969
   3032.7393
      22.4914      22.4881    -999.2500      33.8270      33.8168      57.1229
    -999.2500     116.6940      94.5595    -999.2500      63.1580      30.7304
       0.0354       0.0065       0.0065       2.0791       2.0779       1.1559
       1.1552
   3032.8916
      22.7714      22.4759    -999.2500      33.7828      33.3483      58.0313
    -999.2500     102.3325      81.3333    -999.2500      70.1836      34.9938
       0.0338       0.0070       0.0069       1.9546       1.9138       1.1229
       1.1086
   3033.0439
      23.7409      23.9371    -999.2500      34.7408      35.0528      58.4577
    -999.2500      92.7701      74.0263    -999.2500      80.2492      43.5755
       0.0320       0.0076       0.0076       1.9292       1.9541       1.1216
       1.1334
   3033.1965
      24.5726      24.6323    -999.2500      35.4706      35.5124      56.4658
    -999.2500      96.5875      74.7284    -999.2500      85.8433      47.2816
       0.0328       0.0081       0.0081       1.8896       1.9002       1.1112
       1.1094
   3033.3489
      24.8562      24.8598    -999.2500      35.4291      35.5068      53.8037
    -999.2500     102.5855      77.1999    -999.2500      90.6657      49.9743
       0.0332       0.0086       0.0085       1.7698       1.7720       1.0781
       1.0856
   3033.5012
      24.7241      25.0189    -999.2500      34.6186      35.0523      52.3511
    -999.2500     108.4073      80.7260    -999.2500      94.3093      54.7711
       0.0343       0.0089       0.0090       1.6121       1.6241       1.0088
       1.0231
   3033.6536
      23.6336      23.5545    -999.2500      32.4509      32.1446      48.4461
    -999.2500     101.6317      71.6652    -999.2500      81.8808      48.7855
       0.0340       0.0087       0.0088       1.4685       1.4087       0.8989
       0.8759
   3033.8062
      22.2160      22.2877    -999.2500      30.4532      30.5978      45.3752
    -999.2500      88.1604      60.5005    -999.2500      66.3484      39.8212
       0.0339       0.0078       0.0078       1.5070       1.5231       0.8400
       0.8474
   3033.9585
      20.6881      20.6706    -999.2500      28.5592      28.4719      40.2743
    -999.2500      81.0386      56.1530    -999.2500      62.4053      39.5503
       0.0342       0.0068       0.0068       1.6091       1.5956       0.8024
       0.7955
   3034.1108
      18.0296      19.1056    -999.2500      26.2578      26.7532      36.2116
    -999.2500      78.6302      56.7645    -999.2500      74.0311      47.5603
       0.0353       0.0054       0.0057       1.6114       1.7368       0.8389
       0.7798
   3034.2632
      11.9062      10.5624    -999.2500      22.7024      21.8931      33.8675
    -999.2500      77.1145      59.1765    -999.2500      92.0138      58.1725
       0.0353       0.0033       0.0028       1.1672       1.0744       1.1005
       1.1554
   3034.4158
      10.1464      10.2030    -999.2500      21.9393      22.0848      30.9123
    -999.2500      74.9778      58.5544    -999.2500      74.7042      51.9874
       0.0355       0.0030       0.0030       0.9178       0.9249       1.2026
       1.2116
   3034.5681
      11.0846      10.8851    -999.2500      22.4018      22.0845      29.1888
    -999.2500      72.9109      52.1490    -999.2500      49.5808      36.4711
       0.0367       0.0036       0.0036       0.8595       0.8240       1.1540
       1.1420
   3034.7205
      12.6736      13.0704    -999.2500      23.6732      24.4157      30.6715
    -999.2500      69.7805      48.3182    -999.2500      39.9124      30.0574
       0.0372       0.0042       0.0044       0.9905       0.9948       1.1218
       1.1569
   3034.8728
      12.2998      12.0604    -999.2500      21.2677      20.7316      31.4917
    -999.2500      73.8498      49.0150    -999.2500      40.9371      30.0774
       0.0370       0.0035       0.0034       1.1621       1.1705       0.9143
       0.8842
