#------------------------------------------------------------------------------
#
#   Created by  : [OpenWorks] Log Export Utility (LEXP)
#   Created on  : 2016-05-23 17:43:58
#   Project     : CANT971
#   User        : R5K
#   Interpreter : PEP
#
#------------------------------------------------------------------------------
~VERSION INFORMATION
VERS. 2.0 : CWLS Log ASCII Standard - version 2.0
WRAP. YES : Mulitple lines per depth step
~WELL INFORMATION
#MNEMONIC   .UNIT                                           VALUE :DESCRIPTION
#------------------------------------------------------------------------------
STRT        .M                                          1112.1945 :START DEPTH
STOP        .M                                          3447.5720 :STOP DEPTH
STEP        .M                                             0.1524 :STEP
NULL        .                                           -999.2500 :NULL VALUE
COMP        .                                             UNKNOWN :COMPANY
WELL        .                                              3041-V :WELL
FLD         .                                             UNKNOWN :FIELD
LOC         .                                             UNKNOWN :LOCATION
CNTY        .                                             UNKNOWN :COUNTY
STAT        .                                             UNKNOWN :STATE
CTRY        .                                             UNKNOWN :COUNTRY
SRVC        .                                             UNKNOWN :SERVICE COMPANY
DATE        .                                             UNKNOWN :LOG DATE
UWI         .                                              3041-V :UNIQUE WELL ID
XCOORD      .                                       599714.550000 :SURFACE X
YCOORD      .                                      2152046.310000 :SURFACE Y
LAT         .                                           19.461560 :LATITUDE
LON         .                                          -92.049991 :LONGITUDE
ELEV        .M                                             0.0000 :SURFACE ELEV
ELEV_TYPE   .                                                  KB :ELEV TYPE
~CURVE INFORMATION
#MNEMONIC.UNIT        API CODE       : CURVE DESCRIPTION
#------------------------------------------------------------------------------
DEPTH    .M                          : Measured Depth
CGR      .API         UNKNOWN        : CGR:PETROWORKS:rC:NONE:v1 
CGR-ENT  .API         UNKNOWN        : CGR-ENT:Entubado:rC:NONE:v0 (auto-composite)
DT       .us/ft       UNKNOWN        : DT:Sonico:rC:NONE:v0 (auto-composite)
GR       .API         UNKNOWN        : GR:PETROWORKS:rC:NONE:v2 
GR-ENT   .API         UNKNOWN        : GR-ENT:Entubado:rC:NONE:v0 (auto-composite)
GR-LWD   .API         UNKNOWN        : GR-LWD:PETROWORKS:rC:NONE:v6 
LLD      .ohm.m       UNKNOWN        : LLD:FINAL:rC:NONE:v0 (auto-composite)
LLD-LWD  .ohm.m       UNKNOWN        : LLD-LWD:PETROWORKS:rC:NONE:v6 
LLM-LWD  .UNKNOWN     UNKNOWN        : LLM-LWD:PETROWORKS:rC:NONE:v6 
LLS      .ohm.m       UNKNOWN        : LLS:FINAL:rC:NONE:v0 (auto-composite)
LLS-LWD  .ohm.m       UNKNOWN        : LLS-LWD:PETROWORKS:rC:NONE:v6 
MSFL-LWD .ohm.m       UNKNOWN        : MSFL-LWD:PETROWORKS:rC:NONE:v6 
NPHI     .v/v_decimal UNKNOWN        : NPHI:porosidad-entubado:rC:NONE:v0 (auto-composite)
POTA     .wtpercent   UNKNOWN        : POTA:PETROWORKS:rC:NONE:v1 
POTA-ENT .UNKNOWN     UNKNOWN        : POTA-ENT:Entubado:rC:NONE:v0 (auto-composite)
THOR     .ppm         UNKNOWN        : THOR:PETROWORKS:rC:NONE:v1 
THOR-ENT .ppm         UNKNOWN        : THOR-ENT:Entubado:rC:NONE:v0 (auto-composite)
URAN     .ppm         UNKNOWN        : URAN:PETROWORKS:rC:NONE:v1 
URAN-ENT .ppm         UNKNOWN        : URAN-ENT:Entubado:rC:NONE:v0 (auto-composite)
~A
# ...
   3299.5916
     -25.0494     -25.0505    -999.2500      42.7487      42.7487      89.7869
    -999.2500     571.7734     681.4639    -999.2500     934.1124     740.4006
       0.0561      -0.0071      -0.0071      -2.4319      -2.4318       6.9134
       6.9135
   3299.7441
     -25.5616     -25.5671    -999.2500      42.7487      42.7487      93.0319
    -999.2500     163.5909     187.4054    -999.2500     286.4054     194.0196
       0.0543      -0.0071      -0.0071      -2.5079      -2.5088       6.9656
       6.9661
   3299.8965
     -26.0534     -26.0540    -999.2500      42.7487      42.7487      80.6023
    -999.2500      87.8855      70.2926    -999.2500     105.8623      59.8754
       0.0547      -0.0072      -0.0072      -2.5814      -2.5814       7.0157
       7.0158
   3300.0488
     -26.4540     -26.5308    -999.2500      42.7487      42.7487      69.5563
    -999.2500     224.3093     132.5735    -999.2500     248.1714      84.3692
       0.0570      -0.0073      -0.0073      -2.6412      -2.6527       7.0566
       7.0644
   3300.2012
     -26.5955     -26.5955    -999.2500      42.7487      42.7487      69.0435
    -999.2500     286.6427     199.6235    -999.2500     740.0372     136.7941
       0.0578      -0.0073      -0.0073      -2.6624      -2.6624       7.0710
       7.0710
   3300.3538
     -26.5955     -26.5955    -999.2500      42.7487      42.7487      70.7120
    -999.2500     237.6278     197.3296    -999.2500     773.1153     142.6144
       0.0576      -0.0073      -0.0073      -2.6624      -2.6624       7.0710
       7.0710
   3300.5061
     -26.5955     -26.5955    -999.2500      42.7487      42.7487      73.9361
    -999.2500     205.9425     161.4072    -999.2500     376.4908      98.7666
       0.0565      -0.0073      -0.0073      -2.6624      -2.6624       7.0710
       7.0710
   3300.6584
     -26.5955     -26.5955    -999.2500      42.7487      42.7487      81.6860
    -999.2500     147.0276     117.0817    -999.2500     147.8894      60.9869
       0.0564      -0.0073      -0.0073      -2.6624      -2.6624       7.0710
       7.0710
   3300.8108
     -26.5954     -26.5954    -999.2500      42.7487      42.7487      81.3987
    -999.2500      91.3887      84.2077    -999.2500      91.1675      45.5655
       0.0570      -0.0073      -0.0073      -2.6624      -2.6624       7.0710
       7.0710
   3300.9634
     -26.5954     -26.5954    -999.2500      42.7487      42.7487      71.7359
    -999.2500      86.0980      91.8056    -999.2500     157.2274      58.8507
       0.0577      -0.0073      -0.0073      -2.6624      -2.6624       7.0710
       7.0710
   3301.1157
     -26.5954     -26.5954    -999.2500      42.7487      42.7487      64.3771
    -999.2500      99.5563     110.7260    -999.2500     208.0763      66.6890
       0.0607      -0.0073      -0.0073      -2.6624      -2.6624       7.0710
       7.0710
   3301.2681
     -26.5954     -26.5954    -999.2500      42.7487      42.7487      58.9521
    -999.2500      95.9974     104.7224    -999.2500     173.0383      55.7461
       0.0640      -0.0073      -0.0073      -2.6624      -2.6624       7.0710
       7.0710
   3301.4204
     -26.5954     -26.5954    -999.2500      42.7487      42.7487      44.4836
    -999.2500      83.6563      87.0082    -999.2500     120.9450      43.7138
       0.0670      -0.0073      -0.0073      -2.6624      -2.6624       7.0710
       7.0710
   3301.5728
     -26.5954     -26.5954    -999.2500      42.7487      42.7487      38.6152
    -999.2500      72.3395      69.8093    -999.2500      83.0327      35.7645
       0.0669      -0.0073      -0.0073      -2.6624      -2.6624       7.0710
       7.0710
   3301.7253
     -26.5953     -26.5953    -999.2500      42.7487      42.7487      40.6525
    -999.2500      59.1192      54.3977    -999.2500      60.8260      36.6359
       0.0664      -0.0073      -0.0073      -2.6624      -2.6624       7.0710
       7.0710
   3301.8777
     -26.5951     -26.5951    -999.2500      42.7487      42.7487      44.1932
    -999.2500      53.1507      47.2343    -999.2500      69.8347      43.5945
       0.0663      -0.0073      -0.0073      -2.6624      -2.6624       7.0710
       7.0710
   3302.0300
     -26.5950     -26.5950    -999.2500      42.7487      42.7487      47.8576
    -999.2500      52.5830      44.8149    -999.2500      75.1503      43.9536
       0.0663      -0.0073      -0.0073      -2.6624      -2.6624       7.0710
       7.0710
   3302.1824
     -26.5949     -26.5949    -999.2500      42.7487      42.7487      46.3515
    -999.2500      50.9253      45.3368    -999.2500      64.3673      44.2708
       0.0663      -0.0073      -0.0073      -2.6623      -2.6623       7.0709
       7.0709
   3302.3350
     -26.5947     -26.5947    -999.2500      42.7487      42.7487      42.2695
    -999.2500      46.4764      43.2696    -999.2500      55.1211      45.0157
       0.0663      -0.0073      -0.0073      -2.6623      -2.6623       7.0709
       7.0709
   3302.4873
     -26.5946     -26.5946    -999.2500      42.7487      42.7487      42.1455
    -999.2500      42.7152      40.4453    -999.2500      50.5908      42.8737
       0.0663      -0.0073      -0.0073      -2.6623      -2.6623       7.0709
       7.0709
   3302.6396
     -26.5944     -26.5944    -999.2500      42.7487      42.7487      46.2879
    -999.2500      43.0466      41.9558    -999.2500      54.9501      52.2149
       0.0663      -0.0073      -0.0073      -2.6623      -2.6623       7.0709
       7.0709
   3302.7920
     -26.5942     -26.5942    -999.2500      42.7487      42.7487      51.0894
    -999.2500      43.8752      42.2873    -999.2500      62.8058      58.5574
       0.0663      -0.0073      -0.0073      -2.6623      -2.6623       7.0709
       7.0709
   3302.9443
     -26.5940     -26.5940    -999.2500      42.7487      42.7487      50.5321
    -999.2500      40.5074      37.6223    -999.2500      54.3550      51.1144
       0.0663      -0.0073      -0.0073      -2.6622      -2.6622       7.0709
       7.0709
   3303.0969
    -999.2500    -999.2500    -999.2500    -999.2500    -999.2500      49.0066
    -999.2500      39.9356      36.4790    -999.2500      50.7385      46.5585
    -999.2500    -999.2500    -999.2500    -999.2500    -999.2500    -999.2500
    -999.2500
   3303.2493
    -999.2500    -999.2500    -999.2500    -999.2500    -999.2500      54.7497
    -999.2500      41.0678      38.2163    -999.2500      49.3340      44.1582
    -999.2500    -999.2500    -999.2500    -999.2500    -999.2500    -999.2500
    -999.2500
   3303.4016
    -999.2500    -999.2500    -999.2500    -999.2500    -999.2500      51.9807
    -999.2500      41.2615      38.5890    -999.2500      47.3974      42.0105
    -999.2500    -999.2500    -999.2500    -999.2500    -999.2500    -999.2500
    -999.2500
   3303.5540
    -999.2500    -999.2500    -999.2500    -999.2500    -999.2500      48.3394
    -999.2500      39.9429      37.2924    -999.2500      45.2544      35.0418
    -999.2500    -999.2500    -999.2500    -999.2500    -999.2500    -999.2500
    -999.2500
   3303.7065
    -999.2500    -999.2500    -999.2500    -999.2500    -999.2500      26.8540
    -999.2500      37.2221      35.8695    -999.2500      41.8181      29.5060
    -999.2500    -999.2500    -999.2500    -999.2500    -999.2500    -999.2500
    -999.2500
   3303.8589
    -999.2500    -999.2500    -999.2500    -999.2500    -999.2500      21.0897
    -999.2500      37.2555      35.1383    -999.2500      42.9846      31.5603
    -999.2500    -999.2500    -999.2500    -999.2500    -999.2500    -999.2500
    -999.2500
   3304.0112
    -999.2500    -999.2500    -999.2500    -999.2500    -999.2500      21.6609
    -999.2500      35.9097      32.7185    -999.2500      39.5845      31.4842
    -999.2500    -999.2500    -999.2500    -999.2500    -999.2500    -999.2500
    -999.2500
   3304.1636
    -999.2500    -999.2500    -999.2500    -999.2500    -999.2500      22.4867
    -999.2500      32.9501      29.7066    -999.2500      34.9052      29.6128
    -999.2500    -999.2500    -999.2500    -999.2500    -999.2500    -999.2500
    -999.2500
