#------------------------------------------------------------------------------
#
#   Created by  : [OpenWorks] Log Export Utility (LEXP)
#   Created on  : 2016-05-11 12:25:27
#   Project     : CANT971
#   User        : R5K
#   Interpreter : PEP
#
#------------------------------------------------------------------------------
~VERSION INFORMATION
VERS. 2.0 : CWLS Log ASCII Standard - version 2.0
WRAP.  NO : One line per depth step
~WELL INFORMATION
#MNEMONIC   .UNIT                                           VALUE :DESCRIPTION
#------------------------------------------------------------------------------
STRT        .M                                           761.3999 :START DEPTH
STOP        .M                                          3020.1204 :STOP DEPTH
STEP        .M                                             0.1524 :STEP
NULL        .                                           -999.2500 :NULL VALUE
COMP        .                                             UNKNOWN :COMPANY
WELL        .                                               3048D :WELL
FLD         .                                             UNKNOWN :FIELD
LOC         .                                             UNKNOWN :LOCATION
CNTY        .                                             UNKNOWN :COUNTY
STAT        .                                             UNKNOWN :STATE
CTRY        .                                             UNKNOWN :COUNTRY
SRVC        .                                             UNKNOWN :SERVICE COMPANY
DATE        .                                             UNKNOWN :LOG DATE
UWI         .                                               3048D :UNIQUE WELL ID
XCOORD      .                                       599714.170000 :SURFACE X
YCOORD      .                                      2149960.100000 :SURFACE Y
LAT         .                                           19.442708 :LATITUDE
LON         .                                          -92.050104 :LONGITUDE
ELEV        .M                                             0.0000 :SURFACE ELEV
ELEV_TYPE   .                                                  KB :ELEV TYPE
~CURVE INFORMATION
#MNEMONIC.UNIT        API CODE       : CURVE DESCRIPTION
#------------------------------------------------------------------------------
DEPTH    .M                          : Measured Depth
CGR      .API         UNKNOWN        : CGR:Espectrometria-entubado-final:rC:NONE:v0 (auto-composite)
DT       .us/ft       UNKNOWN        : DT:Sonico:rC:NONE:v0 (auto-composite)
GR       .API         UNKNOWN        : GR:PETROWORKS:rC:NONE:v1 
GR-LWD   .API         UNKNOWN        : GR-LWD:resistivos-LWD:rC:NONE:v0 (auto-composite)
LLD-LWD  .ohm.m       UNKNOWN        : LLD-LWD:resistivos-LWD:rC:NONE:v0 (auto-composite)
LLS-LWD  .ohm.m       UNKNOWN        : LLS-LWD:resistivos-LWD:rC:NONE:v0 (auto-composite)
MSFL-LWD .ohm.m       UNKNOWN        : MSFL-LWD:resistivos-LWD:rC:NONE:v0 (auto-composite)
NPHI     .UNKNOWN     UNKNOWN        : NPHI:porosidad-entubado:rC:NONE:v0 (auto-composite)
POTA     .wtpercent   UNKNOWN        : POTA:Espectrometria-entubado-final:rC:NONE:v0 (auto-composite)
THOR     .ppm         UNKNOWN        : THOR:Espectrometria-entubado-final:rC:NONE:v0 (auto-composite)
URAN     .ppm         UNKNOWN        : URAN:Espectrometria-entubado-final:rC:NONE:v0 (auto-composite)
~A     DEPTH          CGR           DT           GR       GR-LWD      LLD-LWD      LLS-LWD     MSFL-LWD         NPHI         POTA         THOR         URAN
# ...
   2687.1262      22.9565    -999.2500      50.0760      81.8480       8.0931       7.2861       7.1285       0.0927       0.0108       2.2290       3.0194
   2687.2788      23.4257    -999.2500      49.7504      79.2225       8.9299       7.8995       7.6204       0.0948       0.0107       2.4089       2.9308
   2687.4312      22.1955    -999.2500      47.6516      79.2225       9.1484       8.2193       7.4995       0.0937       0.0103       2.1946       2.8341
   2687.5835      21.1620    -999.2500      44.2344      79.2225       8.7802       7.8882       6.9046       0.0892       0.0102       1.9561       2.5688
   2687.7358      21.4824    -999.2500      41.3079      79.5513       8.7447       7.9995       7.0029       0.0846       0.0101       2.0885       2.2070
   2687.8882      21.1143    -999.2500      40.9804      74.8862       9.4123       9.1440       8.1680       0.0828       0.0097       2.1383       2.2117
   2688.0408      20.7379    -999.2500      43.5728      75.2489       8.7789       8.5691       7.6639       0.0844       0.0094       2.1360       2.5423
   2688.1931      19.7085    -999.2500      46.8496      65.7065       9.4577       9.2179       8.7392       0.0881       0.0097       1.7311       3.0222
   2688.3455      20.5234    -999.2500      48.0960      52.2249      10.6445      10.1064       9.9683       0.0922       0.0104       1.7042       3.0697
   2688.4978      22.9204    -999.2500      47.1167      48.5141      10.8799       9.4915       8.9625       0.0940       0.0112       2.0533       2.6939
   2688.6504      24.1249    -999.2500      43.7776      57.2024      10.7314       9.4214       8.9486       0.0914       0.0114       2.3195       2.1876
   2688.8027      21.1449    -999.2500      39.8545      72.3054      10.2797       9.2380       8.9486       0.0873       0.0101       1.9743       2.0830
   2688.9551      14.9139    -999.2500      37.5077      74.7497      10.2797       9.2380       8.9486       0.0830       0.0081       1.0310       2.5155
   2689.1074      11.8720    -999.2500      38.4950      64.8023      10.2797       9.2380       8.9486       0.0809       0.0075       0.3861       2.9641
   2689.2600      14.2032    -999.2500      42.9394      48.4761      10.2797       9.2380       8.9486       0.0849       0.0089       0.4946       3.1996
   2689.4124      18.2510    -999.2500      47.7750      44.3606      10.2797       9.2380       8.9486       0.0923       0.0109       0.8422       3.2870
   2689.5647      18.3523    -999.2500      50.2077      55.2367      10.1886       8.7245       8.0335       0.0968       0.0109       0.8986       3.5466
   2689.7170      16.9361    -999.2500      49.7212      77.4105       9.7911       7.5351       6.0616       0.0952       0.0095       1.0412       3.6499
   2689.8694      15.2183    -999.2500      48.5635      81.8395       7.9522       6.5215       5.5669       0.0910       0.0082       1.0729       3.7124
   2690.0220      17.3036    -999.2500      49.0329      73.3040       7.1183       6.3753       6.0270       0.0924       0.0083       1.6339       3.5326
   2690.1743      21.3453    -999.2500      51.0145      62.3997       6.9607       6.7786       6.7688       0.1019       0.0095       2.2885       3.3034
   2690.3267      24.7867    -999.2500      52.1803      70.6067       6.9868       6.0960       5.8761       0.1161       0.0101       3.0422       3.0499
   2690.4790      25.2827    -999.2500      50.8801      75.3306       6.9868       5.6000       5.2040       0.1287       0.0100       3.2000       2.8499
   2690.6316      23.9856    -999.2500      47.7290      74.2909       6.8152       5.2974       4.8036       0.1335       0.0089       3.2571       2.6433
   2690.7839      22.3619    -999.2500      44.3599      73.3171       5.9832       4.2803       3.7017       0.1315       0.0083       3.0399       2.4490
   2690.9363      21.5694    -999.2500      41.7159      58.5699       5.4199       3.9880       3.4213       0.1268       0.0078       3.0055       2.2430
   2691.0886      20.4265    -999.2500      39.9135      55.7529       5.4199       4.1598       3.5736       0.1204       0.0079       2.6588       2.1696
   2691.2412      18.8509    -999.2500      39.1863      54.8138       5.5333       4.3434       3.6563       0.1141       0.0081       2.1443       2.2640
   2691.3936      16.9457    -999.2500      39.7025      52.2380       5.3653       4.4717       3.7356       0.1100       0.0081       1.6085       2.5336
   2691.5459      16.1257    -999.2500      41.4243      52.0881       5.0870       4.5088       3.8434       0.1066       0.0074       1.6423       2.8166
   2691.6982      16.5242    -999.2500      43.7044      65.0494       5.5173       4.9601       4.5943       0.1048       0.0067       2.0317       3.0261
   2691.8506      18.6859    -999.2500      44.7324      70.0918       6.1006       5.5460       5.1381       0.1077       0.0071       2.4764       2.8999
   2692.0032      18.5268    -999.2500      44.5503      70.9108       6.2223       5.6474       5.0133       0.1137       0.0078       2.1418       2.8973
   2692.1555      16.5459    -999.2500      43.8955      67.2642       5.9691       4.9902       4.1547       0.1206       0.0082       1.4480       3.0449
   2692.3079      14.2695    -999.2500      44.3434      65.4815       5.5560       4.5259       3.7318       0.1255       0.0077       0.9742       3.3482
   2692.4602      15.6348    -999.2500      46.2345      64.2618       5.3588       4.3664       3.4646       0.1284       0.0076       1.4123       3.4067
   2692.6128      17.2480    -999.2500      48.4198      74.4183       4.8754       4.0336       3.2810       0.1316       0.0079       1.7728       3.4705
   2692.7651      18.8451    -999.2500      49.9555      79.5543       4.5372       3.7372       3.3925       0.1338       0.0088       1.8369       3.4637
   2692.9175      20.1762    -999.2500      51.5520      74.7133       4.8612       3.8776       3.8425       0.1310       0.0100       1.7655       3.4932
   2693.0698      23.3724    -999.2500      53.5581      87.3763       6.1496       5.1094       4.2834       0.1235       0.0108       2.3463       3.3606
   2693.2224      27.1407    -999.2500      57.0420      88.3423       7.2281       6.7858       4.3738       0.1137       0.0113       3.2049       3.3297
   2693.3748      33.3272    -999.2500      61.8424      95.6432       4.9651       3.6509       2.4415       0.1020       0.0119       4.7357       3.1747
   2693.5271      39.4515    -999.2500      66.7431     100.0179       9.9555      17.6073       4.5418       0.0920       0.0132       5.9625       3.0385
   2693.6794      42.5127    -999.2500      69.4058      93.2184       9.0642      16.4858       4.2112       0.0802       0.0143       6.3874       2.9943
   2693.8318      39.5926    -999.2500      67.6186      77.0749       3.2378       2.3064       2.0116       0.0633       0.0144       5.5147       3.1203
   2693.9844      31.0629    -999.2500      61.7337      60.8077       4.8157       3.9981       4.1501       0.0519       0.0128       3.7354       3.4147
   2694.1367      20.3664    -999.2500      53.4020      56.6979       9.0131      10.0302       9.8673       0.0553       0.0097       1.9445       3.6774
   2694.2891      13.0030    -999.2500      45.8583      56.6724      11.2961      13.0804      12.1177       0.0636       0.0070       0.9128       3.6578
   2694.4414      10.1045    -999.2500      40.7026      58.0328      11.8111      13.2015      11.3882       0.0693       0.0057       0.5950       3.4066
   2694.5940      11.1655    -999.2500      37.3703      57.9914      11.8111      12.1066      10.0653       0.0773       0.0065       0.5725       2.9174
   2694.7463      12.9395    -999.2500      34.8208      45.0156      11.3690      11.1920       9.6115       0.0878       0.0071       0.8421       2.4359
   2694.8987      15.6040    -999.2500      31.9743      37.2164      10.8907      10.3061       9.6038       0.0934       0.0074       1.4984       1.8226
