#------------------------------------------------------------------------------
#
#   Created by  : [OpenWorks] Log Export Utility (LEXP)
#   Created on  : 2016-05-11 12:25:27
#   Project     : CANT971
#   User        : R5K
#   Interpreter : PEP
#
#------------------------------------------------------------------------------
~VERSION INFORMATION
VERS. 2.0 : CWLS Log ASCII Standard - version 2.0
WRAP.  NO : One line per depth step
~WELL INFORMATION
#MNEMONIC   .UNIT                                           VALUE :DESCRIPTION
#------------------------------------------------------------------------------
STRT        .M                                           761.3999 :START DEPTH
STOP        .M                                          3020.1204 :STOP DEPTH
STEP        .M                                             0.1524 :STEP
NULL        .                                           -999.2500 :NULL VALUE
COMP        .                                             UNKNOWN :COMPANY
WELL        .                                               3048D :WELL
FLD         .                                             UNKNOWN :FIELD
LOC         .                                             UNKNOWN :LOCATION
CNTY        .                                             UNKNOWN :COUNTY
STAT        .                                             UNKNOWN :STATE
CTRY        .                                             UNKNOWN :COUNTRY
SRVC        .                                             UNKNOWN :SERVICE COMPANY
DATE        .                                             UNKNOWN :LOG DATE
UWI         .                                               3048D :UNIQUE WELL ID
XCOORD      .                                       599714.170000 :SURFACE X
YCOORD      .                                      2149960.100000 :SURFACE Y
LAT         .                                           19.442708 :LATITUDE
LON         .                                          -92.050104 :LONGITUDE
ELEV        .M                                             0.0000 :SURFACE ELEV
ELEV_TYPE   .                                                  KB :ELEV TYPE
~CURVE INFORMATION
#MNEMONIC.UNIT        API CODE       : CURVE DESCRIPTION
#------------------------------------------------------------------------------
DEPTH    .M                          : Measured Depth
CGR      .API         UNKNOWN        : CGR:Espectrometria-entubado-final:rC:NONE:v0 (auto-composite)
DT       .us/ft       UNKNOWN        : DT:Sonico:rC:NONE:v0 (auto-composite)
GR       .API         UNKNOWN        : GR:PETROWORKS:rC:NONE:v1 
GR-LWD   .API         UNKNOWN        : GR-LWD:resistivos-LWD:rC:NONE:v0 (auto-composite)
LLD-LWD  .ohm.m       UNKNOWN        : LLD-LWD:resistivos-LWD:rC:NONE:v0 (auto-composite)
LLS-LWD  .ohm.m       UNKNOWN        : LLS-LWD:resistivos-LWD:rC:NONE:v0 (auto-composite)
MSFL-LWD .ohm.m       UNKNOWN        : MSFL-LWD:resistivos-LWD:rC:NONE:v0 (auto-composite)
NPHI     .UNKNOWN     UNKNOWN        : NPHI:porosidad-entubado:rC:NONE:v0 (auto-composite)
POTA     .wtpercent   UNKNOWN        : POTA:Espectrometria-entubado-final:rC:NONE:v0 (auto-composite)
THOR     .ppm         UNKNOWN        : THOR:Espectrometria-entubado-final:rC:NONE:v0 (auto-composite)
URAN     .ppm         UNKNOWN        : URAN:Espectrometria-entubado-final:rC:NONE:v0 (auto-composite)
~A     DEPTH          CGR           DT           GR       GR-LWD      LLD-LWD      LLS-LWD     MSFL-LWD         NPHI         POTA         THOR         URAN
# ...
   2631.6526       3.4017    -999.2500      15.6250      24.9612     603.5911      28.4229      14.6426       0.0551       0.0024       0.0320       1.3609
   2631.8052       3.1805    -999.2500      14.2754      24.4879     133.0271      19.4717      11.8938       0.0567       0.0020       0.1083       1.2352
   2631.9575       3.4842    -999.2500      12.9622      19.6780     457.7419      25.3252      12.5275       0.0541       0.0018       0.2575       1.0552
   2632.1099       3.9539    -999.2500      12.0379      11.9315    1348.9700      45.6471      15.4165       0.0481       0.0019       0.3747       0.9000
   2632.2622       4.9786    -999.2500      11.9340      11.0173    1348.9700      48.5626      17.5874       0.0426       0.0023       0.5032       0.7744
   2632.4148       5.2019    -999.2500      11.9298      14.2259     616.4136      35.6225      15.5958       0.0410       0.0024       0.5127       0.7490
   2632.5671       4.6155    -999.2500      11.8275      17.1887      74.1859      27.7311      15.0432       0.0423       0.0023       0.4078       0.8029
   2632.7195       3.4191    -999.2500      11.6879      18.4544     160.1362      48.5280      22.6324       0.0415       0.0018       0.2396       0.9206
   2632.8718       2.7079    -999.2500      11.6583      22.1058     769.9290     175.3044      61.2117       0.0375       0.0016       0.1282       0.9965
   2633.0244       2.6963    -999.2500      11.6523      17.5617    1576.7214     215.6544      88.2033       0.0343       0.0017       0.0917       0.9971
   2633.1768       2.8776    -999.2500      11.2738      13.9282    2000.0000     326.8381     100.3050       0.0337       0.0018       0.1060       0.9348
   2633.3291       2.7087    -999.2500      10.6013      13.1894    2000.0000     447.0168      93.5664       0.0342       0.0014       0.2083       0.8787
   2633.4814       2.4036    -999.2500      10.0843      13.1894    2000.0000     225.7267      58.1725       0.0349       0.0009       0.3064       0.8551
   2633.6338       1.8052    -999.2500       9.8309      16.7865    1811.2236     126.1714      42.9268       0.0359       0.0005       0.3243       0.8935
   2633.7864       1.1696    -999.2500       9.5920      13.6829     959.9228      79.6192      37.5122       0.0362       0.0002       0.2632       0.9377
   2633.9387       1.2973    -999.2500       9.1060      15.6841    1656.8469     144.2157      69.6521       0.0352       0.0002       0.2947       0.8694
   2634.0911       1.3640    -999.2500       8.9024      15.1485    1491.9991     154.0183      68.3054       0.0338       0.0002       0.2934       0.8393
   2634.2434       1.2141    -999.2500       9.1819      12.1461    1126.0851     297.0312      65.7500       0.0324       0.0003       0.2403       0.8871
   2634.3960       0.5147    -999.2500      10.1095       8.4950    1976.3218     878.5354     122.2437       0.0312       0.0002       0.0851       1.0682
   2634.5483       1.2840    -999.2500      10.4435      13.7271    2000.0000     343.3917      66.7477       0.0310       0.0003       0.2560       1.0198
   2634.7007       2.5470    -999.2500      10.5505      14.9874    2000.0000     841.2464      73.5174       0.0312       0.0006       0.4956       0.8911
   2634.8530       3.6749    -999.2500      10.4877      13.7521    2000.0000    1216.3885      97.0984       0.0317       0.0013       0.5464       0.7585
   2635.0056       3.1015    -999.2500      10.7782      12.1883    1982.1155     329.3477      86.8506       0.0328       0.0017       0.2022       0.8547
   2635.1580       3.4286    -999.2500      12.9703      17.6710    1486.1147     173.8528      49.6236       0.0348       0.0023       0.0507       1.0623
   2635.3103       4.0578    -999.2500      13.5769      18.5237    1707.8253     328.3517      72.9403       0.0373       0.0028       0.0429       1.0598
   2635.4626       4.1076    -999.2500      12.6075      15.7310    1796.2245     383.2332      82.7742       0.0403       0.0028       0.0498       0.9463
   2635.6150       4.0206    -999.2500      10.5575      10.9717    1397.8119     158.4863      48.4989       0.0434       0.0026       0.0923       0.7278
   2635.7676       4.1947    -999.2500      10.1819      12.7999    1894.0033     236.9040      91.1861       0.0465       0.0023       0.2662       0.6665
   2635.9199       3.6013    -999.2500      10.2722      13.1894    2000.0000    1019.8395     100.3050       0.0488       0.0024       0.0516       0.7427
   2636.0723       3.7776    -999.2500      11.2331      13.6228    2000.0000    1533.7708     100.3050       0.0490       0.0026       0.0389       0.8301
   2636.2246       3.5797    -999.2500      11.4831      14.3885    2000.0000    1591.4124     132.0798       0.0480       0.0025       0.0310       0.8799
   2636.3772       2.8709    -999.2500      11.6847      14.3885    2000.0000    1946.3325     327.7288       0.0469       0.0020       0.0314       0.9813
   2636.5295       2.7132    -999.2500      12.1606      15.1649    2000.0000    2000.0000     310.0019       0.0459       0.0018       0.0454       1.0518
   2636.6819       2.6670    -999.2500      12.0572      18.0456    2000.0000    2000.0000     314.1052       0.0437       0.0018       0.0530       1.0455
   2636.8342       2.6433    -999.2500      11.3854      20.7609    2000.0000    2000.0000     336.5221       0.0403       0.0018       0.0461       0.9733
   2636.9868       2.5064    -999.2500      10.6792      17.1055    2000.0000    2000.0000     243.7876       0.0370       0.0017       0.0265       0.9099
   2637.1392       3.3589    -999.2500      11.0184      17.6205    2000.0000    2000.0000     235.6806       0.0348       0.0023       0.0221       0.8528
   2637.2915       3.6266    -999.2500      11.9792      16.8889    2000.0000    1309.0812     216.8818       0.0337       0.0025       0.0222       0.9299
   2637.4438       4.0226    -999.2500      12.9972      17.4274    2000.0000     577.9449     203.5728       0.0331       0.0028       0.0229       0.9992
   2637.5962       4.3189    -999.2500      13.2335      23.8218    2000.0000     887.0349     234.9007       0.0321       0.0029       0.0877       0.9925
   2637.7488       5.5601    -999.2500      12.8631      23.9808     832.5772     273.6984      90.7361       0.0302       0.0032       0.3140       0.8131
   2637.9011       6.6239    -999.2500      12.1122      21.5793    1213.7574      61.3630      39.3698       0.0275       0.0033       0.5770       0.6110
   2638.0535       5.3940    -999.2500      11.5253      18.8640    2000.0000      59.4820      33.0131       0.0255       0.0026       0.4872       0.6826
   2638.2058       3.2743    -999.2500      11.0273      17.8074    1951.3904      47.9848      19.1816       0.0278       0.0016       0.3013       0.8632
   2638.3584       0.9582    -999.2500      10.7606      13.2435     706.5663      49.0042      22.3869       0.0352       0.0005       0.0782       1.0914
   2638.5107       0.3740    -999.2500      10.8808      13.9820     284.8397      50.8876      28.2313       0.0419       0.0002       0.0242       1.1698
   2638.6631       1.5893    -999.2500      11.2260      16.7235     220.2614      52.1831      32.2419       0.0433       0.0011       0.0226       1.0729
   2638.8154       2.2043    -999.2500      11.2801      18.9993     357.5078      78.8468      39.3038       0.0419       0.0015       0.0261       1.0104
   2638.9680       2.5280    -999.2500      11.3530      17.1715    1713.6715     342.3169     109.0842       0.0416       0.0016       0.0733       0.9825
   2639.1204       2.5713    -999.2500      11.9352      17.8784    1328.7842     283.8318     103.8696       0.0435       0.0014       0.1755       1.0426
   2639.2727       2.4733    -999.2500      13.2354      26.1038     883.1182     246.1673     118.3652       0.0453       0.0011       0.2768       1.1982
   2639.4250       2.0674    -999.2500      14.7437      25.3292    1580.8169    1053.3236     224.0065       0.0444       0.0006       0.3450       1.4113
