#------------------------------------------------------------------------------
#
#   Created by  : [OpenWorks] Log Export Utility (LEXP)
#   Created on  : 2016-05-11 12:25:27
#   Project     : CANT971
#   User        : R5K
#   Interpreter : PEP
#
#------------------------------------------------------------------------------
~VERSION INFORMATION
VERS. 2.0 : CWLS Log ASCII Standard - version 2.0
WRAP.  NO : One line per depth step
~WELL INFORMATION
#MNEMONIC   .UNIT                                           VALUE :DESCRIPTION
#------------------------------------------------------------------------------
STRT        .M                                           761.3999 :START DEPTH
STOP        .M                                          3020.1204 :STOP DEPTH
STEP        .M                                             0.1524 :STEP
NULL        .                                           -999.2500 :NULL VALUE
COMP        .                                             UNKNOWN :COMPANY
WELL        .                                               3048D :WELL
FLD         .                                             UNKNOWN :FIELD
LOC         .                                             UNKNOWN :LOCATION
CNTY        .                                             UNKNOWN :COUNTY
STAT        .                                             UNKNOWN :STATE
CTRY        .                                             UNKNOWN :COUNTRY
SRVC        .                                             UNKNOWN :SERVICE COMPANY
DATE        .                                             UNKNOWN :LOG DATE
UWI         .                                               3048D :UNIQUE WELL ID
XCOORD      .                                       599714.170000 :SURFACE X
YCOORD      .                                      2149960.100000 :SURFACE Y
LAT         .                                           19.442708 :LATITUDE
LON         .                                          -92.050104 :LONGITUDE
ELEV        .M                                             0.0000 :SURFACE ELEV
ELEV_TYPE   .                                                  KB :ELEV TYPE
~CURVE INFORMATION
#MNEMONIC.UNIT        API CODE       : CURVE DESCRIPTION
#------------------------------------------------------------------------------
DEPTH    .M                          : Measured Depth
CGR      .API         UNKNOWN        : CGR:Espectrometria-entubado-final:rC:NONE:v0 (auto-composite)
DT       .us/ft       UNKNOWN        : DT:Sonico:rC:NONE:v0 (auto-composite)
GR       .API         UNKNOWN        : GR:PETROWORKS:rC:NONE:v1 
GR-LWD   .API         UNKNOWN        : GR-LWD:resistivos-LWD:rC:NONE:v0 (auto-composite)
LLD-LWD  .ohm.m       UNKNOWN        : LLD-LWD:resistivos-LWD:rC:NONE:v0 (auto-composite)
LLS-LWD  .ohm.m       UNKNOWN        : LLS-LWD:resistivos-LWD:rC:NONE:v0 (auto-composite)
MSFL-LWD .ohm.m       UNKNOWN        : MSFL-LWD:resistivos-LWD:rC:NONE:v0 (auto-composite)
NPHI     .UNKNOWN     UNKNOWN        : NPHI:porosidad-entubado:rC:NONE:v0 (auto-composite)
POTA     .wtpercent   UNKNOWN        : POTA:Espectrometria-entubado-final:rC:NONE:v0 (auto-composite)
THOR     .ppm         UNKNOWN        : THOR:Espectrometria-entubado-final:rC:NONE:v0 (auto-composite)
URAN     .ppm         UNKNOWN        : URAN:Espectrometria-entubado-final:rC:NONE:v0 (auto-composite)
~A     DEPTH          CGR           DT           GR       GR-LWD      LLD-LWD      LLS-LWD     MSFL-LWD         NPHI         POTA         THOR         URAN
# ...
   2354.2847       2.8538    -999.2500      35.0980      35.7301      11.8729      12.8111      13.1244       0.0013       0.0003       0.6886       3.5898
   2354.4370       5.4021    -999.2500      34.4167      35.7301      11.8729      12.8111      13.1244       0.0017       0.0015       0.9503       3.2302
   2354.5896       8.8503    -999.2500      34.0360      35.7301      11.8729      12.8111      13.1244       0.0020       0.0037       1.0263       2.8041
   2354.7419      10.9304    -999.2500      34.2323      35.7301      11.8729      12.8111      13.1244       0.0022       0.0056       0.8795       2.5943
   2354.8943      10.8139    -999.2500      34.8108      35.7301      11.8729      12.8111      13.1244       0.0025       0.0062       0.5921       2.6718
   2355.0466       8.8434    -999.2500      35.8553      35.7301      11.8729      12.8111      13.1244       0.0027       0.0057       0.2518       3.0073
   2355.1992       6.5056    -999.2500      36.6765      35.7301      11.8729      12.8111      13.1244       0.0028       0.0044       0.1187       3.3590
   2355.3516       4.7375    -999.2500      36.8264      35.7301      11.8729      12.8111      13.1244       0.0030       0.0028       0.2250       3.5726
   2355.5039       4.6264    -999.2500      36.2175      35.7301      11.8729      12.8111      13.1244       0.0034       0.0024       0.3772       3.5172
   2355.6562       4.9728    -999.2500      35.4331      35.7301      11.8729      12.8111      13.1244       0.0039       0.0028       0.3029       3.3912
   2355.8086       5.6333    -999.2500      35.1056      35.7301      11.8729      12.8111      13.1244       0.0042       0.0035       0.2021       3.2813
   2355.9612       6.3323    -999.2500      35.3013      35.7301      11.8729      12.8111      13.1244       0.0048       0.0039       0.2504       3.2252
   2356.1135       7.2540    -999.2500      35.7437      35.7301      11.8729      12.8111      13.1244       0.0050       0.0043       0.3700       3.1719
   2356.2659       7.7766    -999.2500      35.9440      35.7301      11.8729      12.8111      13.1244       0.0047       0.0043       0.5170       3.1360
   2356.4182       6.7253    -999.2500      35.8019      35.7301      11.8729      12.8111      13.1244       0.0045       0.0038       0.3875       3.2372
   2356.5708       5.9747    -999.2500      35.4089      35.7301      11.8729      12.8111      13.1244       0.0047       0.0032       0.4337       3.2770
   2356.7231       5.5170    -999.2500      34.7849      35.7301      11.8729      12.8111      13.1244       0.0048       0.0021       0.7293       3.2585
   2356.8755       5.7400    -999.2500      34.6668      35.7301      11.8729      12.8111      13.1244       0.0045       0.0015       1.0405       3.2205
   2357.0278       5.8065    -999.2500      35.1984      35.7301      11.8729      12.8111      13.1244       0.0038       0.0011       1.2243       3.2723
   2357.1804       5.5494    -999.2500      36.1256      35.7301      11.8729      12.8111      13.1244       0.0033       0.0009       1.2195       3.4042
   2357.3328       6.9319    -999.2500      36.6492      35.7301      11.8729      12.8111      13.1244       0.0028       0.0015       1.3846       3.3086
   2357.4851       8.3254    -999.2500      36.4656      35.7301      11.8729      12.8111      13.1244       0.0027       0.0027       1.2995       3.1330
   2357.6375      10.0637    -999.2500      35.9658      35.7301      11.8729      12.8111      13.1244       0.0029       0.0047       0.9908       2.8838
   2357.7898      10.0962    -999.2500      35.6976      35.7301      11.8729      12.8111      13.1244       0.0036       0.0057       0.5999       2.8503
   2357.9424      10.1536    -999.2500      35.6670      35.7301      11.8729      12.8111      13.1244       0.0042       0.0056       0.6732       2.8405
   2358.0947       9.6627    -999.2500      35.7487      35.7301      11.8729      12.8111      13.1244       0.0048       0.0044       0.9772       2.9043
   2358.2471       9.0206    -999.2500      35.6928      35.7301      11.8729      12.8111      13.1244       0.0048       0.0035       1.1532       2.9695
   2358.3994       8.1598    -999.2500      35.6722      35.7301      11.8729      12.8111      13.1244       0.0044       0.0031       1.0787       3.0631
   2358.5520       7.8790    -999.2500      35.8155      35.7301      11.8729      12.8111      13.1244       0.0036       0.0034       0.8831       3.1103
   2358.7043       7.9778    -999.2500      36.2004      35.7301      11.8729      12.8111      13.1244       0.0032       0.0040       0.6694       3.1421
   2358.8567       8.0969    -999.2500      36.5323      35.7301      11.8729      12.8111      13.1244       0.0030       0.0043       0.5896       3.1659
   2359.0090       7.2067    -999.2500      36.4617      35.7301      11.8729      12.8111      13.1244       0.0028       0.0040       0.4407       3.2571
   2359.1616       5.9936    -999.2500      36.7787      35.7301      11.8729      12.8111      13.1244       0.0028       0.0033       0.3897       3.4274
   2359.3140       6.3501    -999.2500      38.6201      35.7301      11.8729      12.8111      13.1244       0.0030       0.0037       0.3459       3.5928
   2359.4663       7.9147    -999.2500      42.2673      35.7301      11.8729      12.8111      13.1244       0.0030       0.0047       0.3818       3.8249
   2359.6187       8.8406    -999.2500      44.8810      35.7301      11.8729      12.8111      13.1244       0.0030       0.0053       0.3926       4.0125
   2359.7710       8.4598    -999.2500      43.9058      35.7301      11.8729      12.8111      13.1244       0.0033       0.0050       0.4175       3.9464
   2359.9236       7.7345    -999.2500      40.3194      35.7301      11.8729      12.8111      13.1244       0.0037       0.0044       0.4347       3.6272
   2360.0759       6.7958    -999.2500      36.4074      35.7301      11.8729      12.8111      13.1244       0.0041       0.0041       0.3038       3.2967
   2360.2283       5.9401    -999.2500      34.1559      35.7301      11.8729      12.8111      13.1244       0.0047       0.0040       0.1160       3.1414
   2360.3806       5.2814    -999.2500      33.0306      35.7301      11.8729      12.8111      13.1244       0.0052       0.0037       0.0347       3.0893
   2360.5332       4.3982    -999.2500      32.6532      35.7301      11.8729      12.8111      13.1244       0.0055       0.0031       0.0298       3.1458
   2360.6855       4.1786    -999.2500      32.5888      35.7301      11.8729      12.8111      13.1244       0.0058       0.0029       0.0283       3.1630
   2360.8379       4.5462    -999.2500      32.7196      35.7301      11.8729      12.8111      13.1244       0.0062       0.0032       0.0329       3.1367
   2360.9902       5.1011    -999.2500      32.6037      35.7301      11.8729      12.8111      13.1244       0.0066       0.0035       0.0435       3.0620
   2361.1428       5.6777    -999.2500      32.0662      35.7301      11.8729      12.8111      13.1244       0.0066       0.0039       0.0578       2.9380
   2361.2952       6.3891    -999.2500      31.1745      35.7301      11.8729      12.8111      13.1244       0.0065       0.0043       0.1154       2.7594
   2361.4475       6.7094    -999.2500      30.5280      35.7301      11.8729      12.8111      13.1244       0.0063       0.0037       0.4197       2.6518
   2361.5999       7.3523    -999.2500      30.3642      35.7301      11.8729      12.8111      13.1244       0.0058       0.0032       0.8008       2.5620
   2361.7522       7.6623    -999.2500      30.9568      35.7301      11.8729      12.8111      13.1244       0.0048       0.0030       0.9643       2.5935
   2361.9048       8.4149    -999.2500      31.8120      35.7301      11.8729      12.8111      13.1244       0.0039       0.0037       0.9222       2.6051
   2362.0571       8.3974    -999.2500      32.8592      35.7301      11.8729      12.8111      13.1244       0.0030       0.0044       0.6491       2.7235
