#------------------------------------------------------------------------------
#
#   Created by  : [OpenWorks] Log Export Utility (LEXP)
#   Created on  : 2016-05-11 12:25:27
#   Project     : CANT971
#   User        : R5K
#   Interpreter : PEP
#
#------------------------------------------------------------------------------
~VERSION INFORMATION
VERS. 2.0 : CWLS Log ASCII Standard - version 2.0
WRAP.  NO : One line per depth step
~WELL INFORMATION
#MNEMONIC   .UNIT                                           VALUE :DESCRIPTION
#------------------------------------------------------------------------------
STRT        .M                                           761.3999 :START DEPTH
STOP        .M                                          3020.1204 :STOP DEPTH
STEP        .M                                             0.1524 :STEP
NULL        .                                           -999.2500 :NULL VALUE
COMP        .                                             UNKNOWN :COMPANY
WELL        .                                               3048D :WELL
FLD         .                                             UNKNOWN :FIELD
LOC         .                                             UNKNOWN :LOCATION
CNTY        .                                             UNKNOWN :COUNTY
STAT        .                                             UNKNOWN :STATE
CTRY        .                                             UNKNOWN :COUNTRY
SRVC        .                                             UNKNOWN :SERVICE COMPANY
DATE        .                                             UNKNOWN :LOG DATE
UWI         .                                               3048D :UNIQUE WELL ID
XCOORD      .                                       599714.170000 :SURFACE X
YCOORD      .                                      2149960.100000 :SURFACE Y
LAT         .                                           19.442708 :LATITUDE
LON         .                                          -92.050104 :LONGITUDE
ELEV        .M                                             0.0000 :SURFACE ELEV
ELEV_TYPE   .                                                  KB :ELEV TYPE
~CURVE INFORMATION
#MNEMONIC.UNIT        API CODE       : CURVE DESCRIPTION
#------------------------------------------------------------------------------
DEPTH    .M                          : Measured Depth
CGR      .API         UNKNOWN        : CGR:Espectrometria-entubado-final:rC:NONE:v0 (auto-composite)
DT       .us/ft       UNKNOWN        : DT:Sonico:rC:NONE:v0 (auto-composite)
GR       .API         UNKNOWN        : GR:PETROWORKS:rC:NONE:v1 
GR-LWD   .API         UNKNOWN        : GR-LWD:resistivos-LWD:rC:NONE:v0 (auto-composite)
LLD-LWD  .ohm.m       UNKNOWN        : LLD-LWD:resistivos-LWD:rC:NONE:v0 (auto-composite)
LLS-LWD  .ohm.m       UNKNOWN        : LLS-LWD:resistivos-LWD:rC:NONE:v0 (auto-composite)
MSFL-LWD .ohm.m       UNKNOWN        : MSFL-LWD:resistivos-LWD:rC:NONE:v0 (auto-composite)
NPHI     .UNKNOWN     UNKNOWN        : NPHI:porosidad-entubado:rC:NONE:v0 (auto-composite)
POTA     .wtpercent   UNKNOWN        : POTA:Espectrometria-entubado-final:rC:NONE:v0 (auto-composite)
THOR     .ppm         UNKNOWN        : THOR:Espectrometria-entubado-final:rC:NONE:v0 (auto-composite)
URAN     .ppm         UNKNOWN        : URAN:Espectrometria-entubado-final:rC:NONE:v0 (auto-composite)
~A     DEPTH          CGR           DT           GR       GR-LWD      LLD-LWD      LLS-LWD     MSFL-LWD         NPHI         POTA         THOR         URAN
# ...
   2798.0735      12.9511    -999.2500      36.9208      51.8694      36.2024      11.2567       8.8421       0.1458       0.0073       0.7851       2.6687
   2798.2258      18.9121    -999.2500      47.1343      57.8975      31.7059      11.7052       9.8023       0.1479       0.0112       0.9032       3.1434
   2798.3784      23.1560    -999.2500      55.6849      57.8352      24.9928      13.2738      11.8038       0.1526       0.0143       0.9076       3.6215
   2798.5308      23.5994    -999.2500      58.2407      60.1191      33.2521      21.2930      16.9648       0.1543       0.0147       0.8448       3.8568
   2798.6831      20.4217    -999.2500      55.4080      67.3287      42.0760      29.1019      20.4956       0.1501       0.0125       0.8204       3.8945
   2798.8354      18.4660    -999.2500      49.7941      77.2349      49.2786      38.0250      23.5180       0.1441       0.0103       1.1569       3.4879
   2798.9878      18.0000    -999.2500      45.1350      83.5346      56.4167      54.1355      30.8133       0.1395       0.0089       1.5900       3.0210
   2799.1404      18.2728    -999.2500      42.8157      67.3811      54.3760      61.2129      42.1976       0.1370       0.0089       1.6329       2.7324
   2799.2927      15.6788    -999.2500      41.7546      59.2022      53.8129      62.4566      45.2844       0.1350       0.0085       1.0764       2.9031
   2799.4451      12.1271    -999.2500      40.9227      54.4886      54.8256      66.1460      50.9290       0.1312       0.0075       0.4647       3.2060
   2799.5974      10.2267    -999.2500      40.1407      42.7470      56.0955      83.4947      76.0637       0.1253       0.0058       0.5952       3.3304
   2799.7500      11.7024    -999.2500      41.4481      50.5126      56.1171      72.2912      74.8453       0.1208       0.0054       1.1906       3.3119
   2799.9023      13.6830    -999.2500      44.5200      56.8328      50.5335      60.1346      58.5771       0.1179       0.0058       1.5688       3.4332
   2800.0547      15.0172    -999.2500      47.7211      52.5339      42.1864      46.4943      39.7718       0.1111       0.0069       1.5246       3.6410
   2800.2070      15.8146    -999.2500      47.7052      31.8085      34.2451      31.3664      29.9002       0.0994       0.0076       1.4882       3.5500
   2800.3596      15.4165    -999.2500      44.1893      31.8085      34.8011      31.3664      31.7492       0.0858       0.0074       1.4313       3.2034
   2800.5120      16.0792    -999.2500      39.8079      31.8085      31.0877      27.6636      26.0780       0.0736       0.0079       1.4295       2.6418
   2800.6643      14.5297    -999.2500      37.0203      36.7689      26.0624      22.8042      19.7007       0.0656       0.0076       1.1112       2.5038
   2800.8167      14.0436    -999.2500      36.6474      47.2507      21.7829      18.9679      16.7926       0.0635       0.0074       1.0541       2.5166
   2800.9690      14.3074    -999.2500      38.3502      47.2507      21.1713      20.8858      18.9062       0.0667       0.0069       1.3042       2.6768
   2801.1216      16.6983    -999.2500      40.7204      50.0445      20.5398      21.5543      20.0806       0.0722       0.0076       1.7175       2.6746
   2801.2739      18.5410    -999.2500      43.4990      69.9573      18.4610      18.7240      20.0806       0.0782       0.0086       1.8654       2.7788
   2801.4263      18.7877    -999.2500      48.9663      88.2727      18.1039      19.8290      21.7986       0.0826       0.0096       1.5254       3.3599
   2801.5786      18.1628    -999.2500      59.7484     117.8938      17.7393      19.3720      19.8489       0.0882       0.0105       1.0006       4.6299
   2801.7312      17.8553    -999.2500      74.5790     147.3824      17.0436      17.0058      15.1496       0.0979       0.0113       0.5630       6.3171
   2801.8835      20.3950    -999.2500      87.7115     133.8964      16.3942      15.9303      14.5231       0.1084       0.0127       0.7541       7.4946
   2802.0359      25.2089    -999.2500      92.6374     113.9136      14.9261      13.4916      12.6156       0.1152       0.0144       1.4267       7.5071
   2802.1882      26.9876    -999.2500      88.4028     100.5377      14.2663      12.3954      11.7471       0.1181       0.0147       1.8217       6.8365
   2802.3408      26.1030    -999.2500      79.4228      94.6487      14.0338      17.2914      11.5012       0.1168       0.0144       1.7090       5.9363
   2802.4932      24.0679    -999.2500      71.4446      94.6901      13.1605      35.6860      10.5774       0.1139       0.0137       1.4096       5.2747
   2802.6455      24.9505    -999.2500      69.4726     108.3910      13.1209      36.5197      10.5355       0.1151       0.0144       1.3454       4.9569
   2802.7979      25.8371    -999.2500      72.9582     118.1286      13.8856      24.8977      11.2956       0.1221       0.0151       1.3427       5.2462
   2802.9502      28.2135    -999.2500      79.6132     122.3789      14.2925      12.3447      11.7001       0.1327       0.0164       1.4759       5.7225
   2803.1028      32.0609    -999.2500      84.1243     120.3409      13.1209      11.1501      10.5355       0.1442       0.0177       2.0781       5.7965
   2803.2551      35.1796    -999.2500      82.3536      93.9493      13.1209      11.1501      10.5355       0.1542       0.0184       2.6899       5.2517
   2803.4075      34.9231    -999.2500      76.4338      91.3537      12.9337      11.0010      10.2543       0.1585       0.0175       2.9557       4.6215
   2803.5598      31.1585    -999.2500      70.1668      97.9349      12.3042      10.3839       9.6939       0.1521       0.0161       2.4565       4.3429
   2803.7124      26.7521    -999.2500      67.0408     103.2160      11.2618       9.3017       9.0447       0.1386       0.0151       1.5997       4.4855
   2803.8647      24.6986    -999.2500      68.3325     107.8391      11.9565      10.1030      10.2543       0.1285       0.0146       1.2229       4.8579
   2804.0171      22.8192    -999.2500      72.3349     106.8564      10.2849       8.6234       8.4787       0.1259       0.0133       1.1975       5.5128
   2804.1694      20.8490    -999.2500      76.0930     107.8358       9.9656       8.3323       8.0581       0.1273       0.0120       1.1324       6.1509
   2804.3220      20.7349    -999.2500      77.8855     111.2508      11.7452       9.9239       9.9822       0.1303       0.0122       1.0286       6.3628
   2804.4744      21.3987    -999.2500      76.2923     103.1074      11.2844       9.3371       9.7777       0.1324       0.0127       1.0215       6.1115
   2804.6267      22.2832    -999.2500      71.4856      92.3468      12.2899      10.4843      11.2550       0.1336       0.0128       1.2582       5.4776
   2804.7791      21.0856    -999.2500      63.4373      86.0438      13.0204      11.3247      12.2746       0.1352       0.0110       1.6343       4.7148
   2804.9314      20.2952    -999.2500      56.7026      87.5542      16.7190      13.5114      13.5041       0.1320       0.0097       1.9164       4.0534
   2805.0840      19.4629    -999.2500      55.9958      96.6954      23.5838      15.6959      14.0735       0.1260       0.0088       2.0424       4.0673
   2805.2363      21.8834    -999.2500      62.4822     113.4192      28.5369      16.2331      13.3390       0.1247       0.0105       2.0354       4.5210
   2805.3887      26.8440    -999.2500      70.3520     137.8030      20.2815      12.0573      10.2437       0.1276       0.0139       2.1165       4.8439
   2805.5410      30.7486    -999.2500      73.5164     103.5920      20.4867      11.9683       9.0931       0.1286       0.0168       2.0676       4.7615
   2805.6936      30.8007    -999.2500      72.6768      93.0556      28.1282      17.2849       9.5601       0.1238       0.0178       1.6726       4.6620
   2805.8459      27.5016    -999.2500      70.1599      96.0349      34.0684      20.5636      10.1723       0.1197       0.0163       1.3382       4.7493
