#------------------------------------------------------------------------------
#
#   Created by  : [OpenWorks] Log Export Utility (LEXP)
#   Created on  : 2016-05-11 12:25:27
#   Project     : CANT971
#   User        : R5K
#   Interpreter : PEP
#
#------------------------------------------------------------------------------
~VERSION INFORMATION
VERS. 2.0 : CWLS Log ASCII Standard - version 2.0
WRAP.  NO : One line per depth step
~WELL INFORMATION
#MNEMONIC   .UNIT                                           VALUE :DESCRIPTION
#------------------------------------------------------------------------------
STRT        .M                                           761.3999 :START DEPTH
STOP        .M                                          3020.1204 :STOP DEPTH
STEP        .M                                             0.1524 :STEP
NULL        .                                           -999.2500 :NULL VALUE
COMP        .                                             UNKNOWN :COMPANY
WELL        .                                               3048D :WELL
FLD         .                                             UNKNOWN :FIELD
LOC         .                                             UNKNOWN :LOCATION
CNTY        .                                             UNKNOWN :COUNTY
STAT        .                                             UNKNOWN :STATE
CTRY        .                                             UNKNOWN :COUNTRY
SRVC        .                                             UNKNOWN :SERVICE COMPANY
DATE        .                                             UNKNOWN :LOG DATE
UWI         .                                               3048D :UNIQUE WELL ID
XCOORD      .                                       599714.170000 :SURFACE X
YCOORD      .                                      2149960.100000 :SURFACE Y
LAT         .                                           19.442708 :LATITUDE
LON         .                                          -92.050104 :LONGITUDE
ELEV        .M                                             0.0000 :SURFACE ELEV
ELEV_TYPE   .                                                  KB :ELEV TYPE
~CURVE INFORMATION
#MNEMONIC.UNIT        API CODE       : CURVE DESCRIPTION
#------------------------------------------------------------------------------
DEPTH    .M                          : Measured Depth
CGR      .API         UNKNOWN        : CGR:Espectrometria-entubado-final:rC:NONE:v0 (auto-composite)
DT       .us/ft       UNKNOWN        : DT:Sonico:rC:NONE:v0 (auto-composite)
GR       .API         UNKNOWN        : GR:PETROWORKS:rC:NONE:v1 
GR-LWD   .API         UNKNOWN        : GR-LWD:resistivos-LWD:rC:NONE:v0 (auto-composite)
LLD-LWD  .ohm.m       UNKNOWN        : LLD-LWD:resistivos-LWD:rC:NONE:v0 (auto-composite)
LLS-LWD  .ohm.m       UNKNOWN        : LLS-LWD:resistivos-LWD:rC:NONE:v0 (auto-composite)
MSFL-LWD .ohm.m       UNKNOWN        : MSFL-LWD:resistivos-LWD:rC:NONE:v0 (auto-composite)
NPHI     .UNKNOWN     UNKNOWN        : NPHI:porosidad-entubado:rC:NONE:v0 (auto-composite)
POTA     .wtpercent   UNKNOWN        : POTA:Espectrometria-entubado-final:rC:NONE:v0 (auto-composite)
THOR     .ppm         UNKNOWN        : THOR:Espectrometria-entubado-final:rC:NONE:v0 (auto-composite)
URAN     .ppm         UNKNOWN        : URAN:Espectrometria-entubado-final:rC:NONE:v0 (auto-composite)
~A     DEPTH          CGR           DT           GR       GR-LWD      LLD-LWD      LLS-LWD     MSFL-LWD         NPHI         POTA         THOR         URAN
# ...
   2909.0208      14.8021    -999.2500      27.6343      50.5844      36.8551      38.7204      34.8478       0.1023       0.0075       1.2347       1.4287
   2909.1731      16.3536    -999.2500      27.1861      53.0468      31.3760      34.2839      31.5135       0.1013       0.0077       1.5764       1.2060
   2909.3254      16.7509    -999.2500      26.9892      50.1863      28.8201      34.2839      32.5314       0.1098       0.0072       1.8908       1.1399
   2909.4778      17.8765    -999.2500      26.9132      46.6015      28.8201      34.2839      28.9089       0.1219       0.0072       2.2322       1.0061
   2909.6304      18.4181    -999.2500      26.3085      47.7113      23.6226      25.8631      20.6479       0.1276       0.0077       2.1777       0.8785
   2909.7827      16.8326    -999.2500      25.5534      49.0665      21.4703      20.2491      15.4945       0.1343       0.0078       1.6687       0.9709
   2909.9351      13.3981    -999.2500      25.3652      47.4483      23.3682      21.0736      16.2393       0.1433       0.0072       0.9594       1.3323
   2910.0874      11.5010    -999.2500      25.8916      37.4211      27.6831      31.4310      25.6793       0.1434       0.0065       0.6659       1.6021
   2910.2400      12.4154    -999.2500      26.1897      40.7555      21.1014      22.7971      18.3561       0.1372       0.0067       0.8489       1.5335
   2910.3923      13.6274    -999.2500      25.7851      42.5976      19.0837      18.6973      14.4955       0.1346       0.0069       1.1472       1.3535
   2910.5447      12.9613    -999.2500      25.4168      43.4225      22.5228      30.3811      22.0018       0.1379       0.0068       0.9664       1.3867
   2910.6970      13.4158    -999.2500      26.4920      46.0289      30.3372      70.2512      49.0568       0.1443       0.0073       0.8988       1.4558
   2910.8496      15.3823    -999.2500      29.0208      45.2488      18.6859      26.7534      19.4244       0.1514       0.0086       0.9619       1.5185
   2911.0020      17.7154    -999.2500      30.4327      40.2491      17.4563      14.9878      12.2354       0.1583       0.0096       1.2105       1.4159
   2911.1543      15.9991    -999.2500      28.6006      37.1244      20.0786      18.4919      14.6703       0.1705       0.0089       0.9975       1.4029
   2911.3066      13.1624    -999.2500      25.1241      41.1306      20.1455      20.9937      13.8459       0.1856       0.0076       0.7143       1.3317
   2911.4590      10.4076    -999.2500      23.0254      34.8314      31.2350      62.6689      32.4930       0.1890       0.0062       0.4739       1.4048
   2911.6116      10.1266    -999.2500      23.7280      33.7473      23.5907      39.4725      21.4792       0.1786       0.0060       0.4986       1.5143
   2911.7639      10.4348    -999.2500      26.6340      42.5795      20.3148      17.6752      12.0090       0.1647       0.0061       0.5457       1.8035
   2911.9163      10.5968    -999.2500      29.5221      59.3218      31.6857      29.4242      18.2598       0.1532       0.0063       0.5227       2.1070
   2912.0686      11.5728    -999.2500      30.9879      49.3325      34.3919      27.1795      10.7473       0.1427       0.0067       0.6385       2.1615
   2912.2212      13.0746    -999.2500      30.8332      43.6759      38.5527      22.7853       8.7657       0.1337       0.0073       0.8173       1.9771
   2912.3735      13.7180    -999.2500      29.5671      35.7112      30.2497      15.3808       7.0203       0.1268       0.0080       0.7215       1.7646
   2912.5259      13.0409    -999.2500      27.9700      28.1839      11.7730       7.3525       4.7500       0.1225       0.0074       0.7737       1.6621
   2912.6782      13.0928    -999.2500      26.7353      40.7458      11.5488       9.2152       6.2508       0.1212       0.0062       1.2453       1.5189
   2912.8308      14.2230    -999.2500      25.9657      47.9659      18.6096      15.8139      11.1969       0.1219       0.0056       1.7944       1.3074
   2912.9832      16.1418    -999.2500      26.2090      47.9026      19.5399      15.7311      11.8387       0.1240       0.0064       2.0441       1.1208
   2913.1355      17.6789    -999.2500      27.1236      43.5688      16.6562      12.5204      10.4879       0.1243       0.0074       2.0655       1.0515
   2913.2878      16.7672    -999.2500      27.8203      42.6985      21.4835      19.6388      16.0500       0.1205       0.0078       1.6674       1.2306
   2913.4402      13.3753    -999.2500      26.9538      41.7900      20.7226      17.4413      15.3459       0.1112       0.0071       0.9869       1.5117
   2913.5928       9.9689    -999.2500      25.1617      42.4542      19.9688      16.7060      13.8659       0.0986       0.0059       0.4885       1.6915
   2913.7451       9.5334    -999.2500      24.5165      41.8052      20.1584      17.3411      13.1077       0.0908       0.0053       0.6085       1.6681
   2913.8975      12.6669    -999.2500      25.5942      35.6134      21.8400      17.7381      14.4317       0.0911       0.0059       1.2472       1.4393
   2914.0498      15.7441    -999.2500      27.9547      38.9896      20.2162      16.2978      14.7548       0.0962       0.0072       1.6271       1.3595
   2914.2024      18.5689    -999.2500      29.5195      49.2668      18.1729      14.2492      12.6534       0.1007       0.0083       1.9613       1.2192
   2914.3547      18.6868    -999.2500      29.2848      51.2051      18.1388      14.4991      12.3729       0.1081       0.0086       1.8837       1.1799
   2914.5071      17.9952    -999.2500      28.1598      33.3333      21.9892      19.3481      17.3737       0.1188       0.0086       1.7011       1.1317
   2914.6594      16.0858    -999.2500      27.4422      36.8736      24.5652      23.0076      19.5097       0.1264       0.0081       1.3525       1.2643
   2914.8120      15.4882    -999.2500      27.6502      42.4879      26.3954      24.4078      22.7010       0.1294       0.0078       1.2897       1.3540
   2914.9644      15.1021    -999.2500      27.9364      44.6608      27.5344      24.7408      23.6266       0.1241       0.0077       1.2197       1.4289
   2915.1167      15.3274    -999.2500      27.8769      41.5708      28.3177      24.9044      21.3074       0.1110       0.0080       1.1875       1.3972
   2915.2690      13.8102    -999.2500      27.8368      41.1163      31.1480      26.4104      21.3954       0.0967       0.0077       0.8420       1.5616
   2915.4214      11.8310    -999.2500      29.0087      39.2208      31.9121      26.2766      19.8251       0.0873       0.0068       0.6739       1.9125
   2915.5740      11.3547    -999.2500      30.6008      41.0860      29.9710      23.1337      18.0030       0.0842       0.0057       0.9619       2.1427
   2915.7263      13.1216    -999.2500      30.7515      43.5673      24.0841      18.3175      14.5539       0.0829       0.0057       1.4595       1.9628
   2915.8787      14.8746    -999.2500      28.9228      38.8267      24.2878      20.3617      17.8804       0.0806       0.0063       1.7001       1.5640
   2916.0310      15.1059    -999.2500      26.4269      29.0196      30.4613      28.3104      26.3700       0.0786       0.0072       1.4390       1.2604
   2916.1836      14.5187    -999.2500      24.4932      26.4122      34.5056      32.7687      28.8143       0.0777       0.0073       1.2391       1.1105
   2916.3359      13.3647    -999.2500      23.1773      26.1268      30.2597      30.2814      26.1539       0.0789       0.0069       1.0429       1.0924
   2916.4883      12.1571    -999.2500      22.5322      26.1268      31.4212      36.1889      34.4900       0.0838       0.0062       0.9739       1.1551
   2916.6406      12.2438    -999.2500      23.3139      28.0255      34.8325      42.7883      43.3633       0.0904       0.0068       0.7662       1.2325
   2916.7932      13.0054    -999.2500      25.2345      35.1539      31.5486      32.7451      30.4076       0.0961       0.0078       0.6027       1.3615
