#------------------------------------------------------------------------------
#
#   Created by  : [OpenWorks] Log Export Utility (LEXP)
#   Created on  : 2016-05-11 12:25:27
#   Project     : CANT971
#   User        : R5K
#   Interpreter : PEP
#
#------------------------------------------------------------------------------
~VERSION INFORMATION
VERS. 2.0 : CWLS Log ASCII Standard - version 2.0
WRAP.  NO : One line per depth step
~WELL INFORMATION
#MNEMONIC   .UNIT                                           VALUE :DESCRIPTION
#------------------------------------------------------------------------------
STRT        .M                                           761.3999 :START DEPTH
STOP        .M                                          3020.1204 :STOP DEPTH
STEP        .M                                             0.1524 :STEP
NULL        .                                           -999.2500 :NULL VALUE
COMP        .                                             UNKNOWN :COMPANY
WELL        .                                               3048D :WELL
FLD         .                                             UNKNOWN :FIELD
LOC         .                                             UNKNOWN :LOCATION
CNTY        .                                             UNKNOWN :COUNTY
STAT        .                                             UNKNOWN :STATE
CTRY        .                                             UNKNOWN :COUNTRY
SRVC        .                                             UNKNOWN :SERVICE COMPANY
DATE        .                                             UNKNOWN :LOG DATE
UWI         .                                               3048D :UNIQUE WELL ID
XCOORD      .                                       599714.170000 :SURFACE X
YCOORD      .                                      2149960.100000 :SURFACE Y
LAT         .                                           19.442708 :LATITUDE
LON         .                                          -92.050104 :LONGITUDE
ELEV        .M                                             0.0000 :SURFACE ELEV
ELEV_TYPE   .                                                  KB :ELEV TYPE
~CURVE INFORMATION
#MNEMONIC.UNIT        API CODE       : CURVE DESCRIPTION
#------------------------------------------------------------------------------
DEPTH    .M                          : Measured Depth
CGR      .API         UNKNOWN        : CGR:Espectrometria-entubado-final:rC:NONE:v0 (auto-composite)
DT       .us/ft       UNKNOWN        : DT:Sonico:rC:NONE:v0 (auto-composite)
GR       .API         UNKNOWN        : GR:PETROWORKS:rC:NONE:v1 
GR-LWD   .API         UNKNOWN        : GR-LWD:resistivos-LWD:rC:NONE:v0 (auto-composite)
LLD-LWD  .ohm.m       UNKNOWN        : LLD-LWD:resistivos-LWD:rC:NONE:v0 (auto-composite)
LLS-LWD  .ohm.m       UNKNOWN        : LLS-LWD:resistivos-LWD:rC:NONE:v0 (auto-composite)
MSFL-LWD .ohm.m       UNKNOWN        : MSFL-LWD:resistivos-LWD:rC:NONE:v0 (auto-composite)
NPHI     .UNKNOWN     UNKNOWN        : NPHI:porosidad-entubado:rC:NONE:v0 (auto-composite)
POTA     .wtpercent   UNKNOWN        : POTA:Espectrometria-entubado-final:rC:NONE:v0 (auto-composite)
THOR     .ppm         UNKNOWN        : THOR:Espectrometria-entubado-final:rC:NONE:v0 (auto-composite)
URAN     .ppm         UNKNOWN        : URAN:Espectrometria-entubado-final:rC:NONE:v0 (auto-composite)
~A     DEPTH          CGR           DT           GR       GR-LWD      LLD-LWD      LLS-LWD     MSFL-LWD         NPHI         POTA         THOR         URAN
# ...
   2465.2319       6.6437    -999.2500      20.4848      32.8592     685.3879       7.6260       0.8117       0.4710       0.0031       0.6434       1.5410
   2465.3843       8.3808    -999.2500      22.5867      33.8249       6.7022       2.9160       0.7916       0.5061       0.0035       0.9943       1.5820
   2465.5366       9.8419    -999.2500      25.1647      41.2074       7.0726       3.4431       0.9138       0.4972       0.0043       1.0947       1.7059
   2465.6892      10.0829    -999.2500      26.0189      43.0353       9.0801       4.2367       1.2564       0.4690       0.0050       0.8903       1.7742
   2465.8416      10.5098    -999.2500      24.7121      33.8346       7.7833       4.3791       1.1598       0.4438       0.0061       0.5764       1.5810
   2465.9939      10.4722    -999.2500      22.3168      31.6657       6.5072       4.4147       1.1403       0.4208       0.0068       0.2842       1.3187
   2466.1462      10.7256    -999.2500      21.0169      32.4636       7.6195       4.4147       1.2356       0.3807       0.0073       0.1580       1.1458
   2466.2986      12.0820    -999.2500      20.8784      28.7770      13.8671       4.4147       1.4370       0.3291       0.0077       0.3719       0.9793
   2466.4512      13.8404    -999.2500      21.7661      32.3992      42.4736      14.4822       2.5079       0.2856       0.0082       0.6865       0.8825
   2466.6035      14.6068    -999.2500      22.5879      30.4709      28.4065      10.2544       2.2616       0.2448       0.0081       0.9293       0.8885
   2466.7559      11.9653    -999.2500      22.9269      30.5978       8.9726       3.7587       2.1753       0.1995       0.0066       0.7829       1.2204
   2466.9082       8.6044    -999.2500      23.2556      38.2713      17.3742       5.5422       3.7536       0.1456       0.0046       0.6264       1.6313
   2467.0608       6.7807    -999.2500      23.7015      36.4428      59.3892      14.4329      10.6368       0.0879       0.0030       0.7148       1.8839
   2467.2131       5.8762    -999.2500      24.8520      34.6148      56.0679      20.4296      15.6445       0.0489       0.0023       0.7643       2.1126
   2467.3655       4.9875    -999.2500      26.4262      32.7888      44.8100      23.9794      18.5928       0.0379       0.0021       0.5731       2.3870
   2467.5178       4.6888    -999.2500      27.4889      31.1751      44.7325      26.0491      20.3451       0.0383       0.0025       0.3340       2.5384
   2467.6704       5.4651    -999.2500      27.1807      31.1751      50.6011      31.2694      27.0715       0.0419       0.0034       0.2063       2.4177
   2467.8228       5.4240    -999.2500      26.3737      40.0047      39.2784      25.5802      22.0973       0.0444       0.0036       0.0986       2.3323
   2467.9751       5.0220    -999.2500      25.8135      43.7624      33.6146      24.1660      21.7210       0.0429       0.0030       0.2253       2.3148
   2468.1274       4.6731    -999.2500      26.2097      39.2868      35.4063      27.0806      26.0065       0.0367       0.0024       0.3706       2.3977
   2468.2798       5.8088    -999.2500      26.9707      31.0622      24.8517      17.1273      16.5284       0.0298       0.0029       0.5001       2.3560
   2468.4324       6.4014    -999.2500      27.3641      37.9032      22.0837      18.0375      18.1059       0.0275       0.0035       0.4127       2.3338
   2468.5847       5.8793    -999.2500      26.8389      38.9201      20.4233      19.8471      18.5910       0.0300       0.0037       0.1841       2.3336
   2468.7371       5.3167    -999.2500      25.8754      35.4406      18.7585      20.1050      16.8258       0.0357       0.0036       0.0630       2.2889
   2468.8894       4.9077    -999.2500      25.5220      38.1783      17.2788      17.4122      14.9841       0.0415       0.0034       0.0601       2.2951
   2469.0420       4.2819    -999.2500      26.8557      42.6227      16.0147      17.5935      16.2881       0.0442       0.0029       0.0550       2.5133
   2469.1943       3.5793    -999.2500      29.2489      44.9300      15.1361      17.0445      16.1217       0.0432       0.0024       0.0457       2.8579
   2469.3467       4.0576    -999.2500      31.3524      45.5635      15.1643      16.9400      16.1578       0.0400       0.0025       0.1553       3.0390
   2469.4990       4.6667    -999.2500      31.8873      45.5635      16.7403      19.1777      19.0564       0.0372       0.0031       0.0821       3.0306
   2469.6516       5.3825    -999.2500      30.8562      45.5635      17.0697      19.5585      19.8320       0.0349       0.0034       0.1696       2.8361
   2469.8040       5.6775    -999.2500      29.2373      45.5635      17.1753      19.6805      20.0806       0.0355       0.0033       0.2847       2.6230
   2469.9563       5.0517    -999.2500      28.4058      43.5394      19.4454      22.4854      20.0806       0.0445       0.0031       0.1930       2.6000
   2470.1086       4.8828    -999.2500      28.6263      38.7309      24.7804      28.8276      19.5715       0.0585       0.0034       0.0449       2.6434
   2470.2610       5.4813    -999.2500      29.4691      45.1295      16.4042      14.0588      10.5626       0.0739       0.0038       0.0406       2.6707
   2470.4136       6.8002    -999.2500      30.2539      48.8022      15.4327      11.4835       8.5160       0.0908       0.0048       0.0428       2.6112
   2470.5659       7.6421    -999.2500      30.7855      46.8044      15.9289      12.2857       8.9576       0.1071       0.0051       0.1304       2.5767
   2470.7183       8.6969    -999.2500      31.6437      40.0085      14.9746      11.9786       9.4173       0.1172       0.0054       0.3225       2.5548
   2470.8706       9.8428    -999.2500      32.7134      43.6600      13.7271      11.2844       9.0246       0.1170       0.0055       0.6288       2.5464
   2471.0232      10.2144    -999.2500      33.2062      43.6264      14.9850      12.5947      10.4697       0.1075       0.0055       0.7215       2.5597
   2471.1755       8.8920    -999.2500      32.0722      46.3341      20.2164      15.1016      12.5665       0.0925       0.0050       0.5542       2.5808
   2471.3279       5.7489    -999.2500      29.3612      50.2238      27.6216      17.9444      14.5691       0.0755       0.0035       0.2586       2.6287
   2471.4802       3.0845    -999.2500      26.1103      42.9122      29.4066      19.0364      15.1957       0.0597       0.0020       0.0682       2.5635
   2471.6328       1.7657    -999.2500      23.5689      36.3971      30.8054      19.8607      14.4788       0.0488       0.0011       0.0777       2.4275
   2471.7852       2.5813    -999.2500      22.0617      28.9771      30.3032      21.2214      15.2641       0.0423       0.0012       0.2728       2.1689
   2471.9375       4.4402    -999.2500      21.9805      24.1283      28.0368      21.4976      16.2841       0.0382       0.0017       0.5984       1.9529
   2472.0898       6.2970    -999.2500      23.0121      29.6098      24.8432      17.0284      13.8716       0.0354       0.0022       0.9196       1.8610
   2472.2422       6.6000    -999.2500      25.0464      29.8616      38.7950      26.6574      20.1974       0.0330       0.0022       1.0040       2.0537
   2472.3948       5.8423    -999.2500      27.2808      38.0759      49.9064      28.7960      20.6174       0.0309       0.0022       0.7802       2.3872
   2472.5471       4.4415    -999.2500      29.1131      44.5426      42.6960      22.1147      17.0214       0.0308       0.0025       0.2779       2.7468
   2472.6995       4.8383    -999.2500      29.9116      46.7626      34.8025      18.4536      15.9244       0.0335       0.0031       0.1510       2.7915
   2472.8518       5.2872    -999.2500      30.0819      45.2089      31.6226      18.9742      17.1516       0.0376       0.0029       0.3374       2.7605
   2473.0044       4.4994    -999.2500      30.6060      40.8447      37.3633      24.1640      20.1295       0.0406       0.0027       0.1922       2.9065
