#------------------------------------------------------------------------------
#
#   Created by  : [OpenWorks] Log Export Utility (LEXP)
#   Created on  : 2016-05-11 12:25:27
#   Project     : CANT971
#   User        : R5K
#   Interpreter : PEP
#
#------------------------------------------------------------------------------
~VERSION INFORMATION
VERS. 2.0 : CWLS Log ASCII Standard - version 2.0
WRAP.  NO : One line per depth step
~WELL INFORMATION
#MNEMONIC   .UNIT                                           VALUE :DESCRIPTION
#------------------------------------------------------------------------------
STRT        .M                                           761.3999 :START DEPTH
STOP        .M                                          3020.1204 :STOP DEPTH
STEP        .M                                             0.1524 :STEP
NULL        .                                           -999.2500 :NULL VALUE
COMP        .                                             UNKNOWN :COMPANY
WELL        .                                               3048D :WELL
FLD         .                                             UNKNOWN :FIELD
LOC         .                                             UNKNOWN :LOCATION
CNTY        .                                             UNKNOWN :COUNTY
STAT        .                                             UNKNOWN :STATE
CTRY        .                                             UNKNOWN :COUNTRY
SRVC        .                                             UNKNOWN :SERVICE COMPANY
DATE        .                                             UNKNOWN :LOG DATE
UWI         .                                               3048D :UNIQUE WELL ID
XCOORD      .                                       599714.170000 :SURFACE X
YCOORD      .                                      2149960.100000 :SURFACE Y
LAT         .                                           19.442708 :LATITUDE
LON         .                                          -92.050104 :LONGITUDE
ELEV        .M                                             0.0000 :SURFACE ELEV
ELEV_TYPE   .                                                  KB :ELEV TYPE
~CURVE INFORMATION
#MNEMONIC.UNIT        API CODE       : CURVE DESCRIPTION
#------------------------------------------------------------------------------
DEPTH    .M                          : Measured Depth
CGR      .API         UNKNOWN        : CGR:Espectrometria-entubado-final:rC:NONE:v0 (auto-composite)
DT       .us/ft       UNKNOWN        : DT:Sonico:rC:NONE:v0 (auto-composite)
GR       .API         UNKNOWN        : GR:PETROWORKS:rC:NONE:v1 
GR-LWD   .API         UNKNOWN        : GR-LWD:resistivos-LWD:rC:NONE:v0 (auto-composite)
LLD-LWD  .ohm.m       UNKNOWN        : LLD-LWD:resistivos-LWD:rC:NONE:v0 (auto-composite)
LLS-LWD  .ohm.m       UNKNOWN        : LLS-LWD:resistivos-LWD:rC:NONE:v0 (auto-composite)
MSFL-LWD .ohm.m       UNKNOWN        : MSFL-LWD:resistivos-LWD:rC:NONE:v0 (auto-composite)
NPHI     .UNKNOWN     UNKNOWN        : NPHI:porosidad-entubado:rC:NONE:v0 (auto-composite)
POTA     .wtpercent   UNKNOWN        : POTA:Espectrometria-entubado-final:rC:NONE:v0 (auto-composite)
THOR     .ppm         UNKNOWN        : THOR:Espectrometria-entubado-final:rC:NONE:v0 (auto-composite)
URAN     .ppm         UNKNOWN        : URAN:Espectrometria-entubado-final:rC:NONE:v0 (auto-composite)
~A     DEPTH          CGR           DT           GR       GR-LWD      LLD-LWD      LLS-LWD     MSFL-LWD         NPHI         POTA         THOR         URAN
# ...
   2853.5471      10.1317    -999.2500      27.2287      39.2876     498.0587     247.1329     172.4053       0.0931       0.0054       0.7333       1.9035
   2853.6995      10.3308    -999.2500      25.5504      43.7981     429.0663     225.9177     100.3050       0.0937       0.0055       0.7576       1.6945
   2853.8518       8.2460    -999.2500      24.0059      41.1146     773.5582     273.6640     118.1437       0.0912       0.0046       0.5141       1.7546
   2854.0044       5.8772    -999.2500      22.8222      36.5721     693.5129     270.5093     160.6886       0.0850       0.0033       0.3379       1.8866
   2854.1567       4.3197    -999.2500      22.8472      32.1797     622.1162     320.2202     183.6498       0.0796       0.0025       0.2337       2.0627
   2854.3091       4.5632    -999.2500      24.0597      29.4947     872.8093     489.1479     155.9296       0.0781       0.0027       0.2203       2.1706
   2854.4614       6.2018    -999.2500      26.1979      27.6093     699.1323     489.1479     155.9296       0.0830       0.0035       0.3548       2.2262
   2854.6140       8.2425    -999.2500      28.2804      29.2063     655.2055     437.2782     155.9296       0.0948       0.0045       0.5424       2.2309
   2854.7664       8.5287    -999.2500      29.0142      36.6410     730.5526     377.1197     182.2950       0.1103       0.0048       0.5055       2.2807
   2854.9187       7.9015    -999.2500      28.3048      48.5855     926.3688     340.8025     235.6806       0.1228       0.0045       0.4538       2.2716
   2855.0710       7.0482    -999.2500      26.6472      49.4974    1281.4448     388.8134     235.6806       0.1300       0.0040       0.3959       2.1821
   2855.2234       6.7447    -999.2500      24.8309      40.8462    1348.9700     397.9437     235.6806       0.1323       0.0043       0.2057       2.0136
   2855.3760       7.1053    -999.2500      22.8162      34.5046    1348.9700     397.9437     254.0683       0.1310       0.0049       0.0800       1.7491
   2855.5283       9.0655    -999.2500      20.8198      32.9172    1440.9583     389.0435     284.2011       0.1276       0.0053       0.4506       1.3086
   2855.6807       9.9547    -999.2500      18.9721      32.0066    1936.5747     341.0911     284.2011       0.1224       0.0055       0.6502       1.0039
   2855.8330      10.0739    -999.2500      18.1510      31.1665    2000.0000     533.0991     224.6271       0.1173       0.0054       0.7314       0.8993
   2855.9856      10.4266    -999.2500      18.3964      28.6878    2000.0000    1801.5352    1695.6456       0.1149       0.0047       1.0733       0.8873
   2856.1379       9.1448    -999.2500      19.2937      27.5606    2000.0000     726.3502     650.7302       0.1175       0.0044       0.8493       1.1299
   2856.2903       6.6019    -999.2500      20.4940      26.6742    2000.0000     123.2269      61.9438       0.1221       0.0038       0.3601       1.5466
   2856.4426       6.2450    -999.2500      21.5356      26.5164    2000.0000      98.4972      56.8902       0.1270       0.0037       0.2926       1.7024
   2856.5952       6.4998    -999.2500      22.1919      28.2976    2000.0000     129.8318      44.6965       0.1348       0.0035       0.4397       1.7471
   2856.7476       6.3100    -999.2500      22.0452      19.5975    2000.0000     145.5223      60.7216       0.1440       0.0030       0.5821       1.7518
   2856.8999       4.2522    -999.2500      21.7088      28.3482    1159.0532      99.3968      46.5437       0.1490       0.0018       0.5072       1.9435
   2857.0522       2.9779    -999.2500      21.6174      36.4498     756.3981      87.3545      31.1181       0.1446       0.0011       0.4229       2.0752
   2857.2046       3.5364    -999.2500      21.4582      26.0985    1959.1967     195.0563      43.6612       0.1348       0.0016       0.3852       1.9953
   2857.3572       6.0370    -999.2500      21.1040      32.5039     580.9307      67.3675      22.1840       0.1221       0.0026       0.6790       1.6775
   2857.5095       8.2312    -999.2500      20.4172      36.9160     162.7039      29.5899      16.7555       0.1106       0.0036       0.9186       1.3567
   2857.6619       8.7656    -999.2500      20.1254      34.3115     172.5428      31.8391      18.1395       0.1057       0.0038       0.9835       1.2648
   2857.8142       8.8573    -999.2500      20.0899      24.6085     240.0909      39.4931      19.8809       0.1062       0.0040       0.9247       1.2505
   2857.9668       8.1418    -999.2500      20.2980      34.5347     138.0546      32.1096      17.7425       0.1090       0.0042       0.6618       1.3534
   2858.1191       7.7019    -999.2500      20.4423      33.2065     177.8982      34.6784      17.5215       0.1112       0.0043       0.4627       1.4184
   2858.2715       8.9699    -999.2500      20.3968      31.2378     186.6095      36.3705      18.3564       0.1123       0.0043       0.8310       1.2722
   2858.4238      11.4977    -999.2500      20.6046      33.3698     122.8357      33.9370      19.8257       0.1126       0.0045       1.4646       1.0139
   2858.5764      12.9512    -999.2500      21.4374      42.3214     102.3470      31.7134      21.5542       0.1098       0.0048       1.7833       0.9448
   2858.7288      12.4924    -999.2500      22.6861      39.1702     104.0869      35.3250      24.0618       0.1044       0.0051       1.5288       1.1349
   2858.8811       9.5556    -999.2500      24.1002      37.1110     141.4258      48.5677      31.2411       0.1004       0.0048       0.7904       1.6193
   2859.0334       7.1822    -999.2500      25.6129      38.9874     183.2772      64.4430      40.4399       0.0987       0.0045       0.2624       2.0519
   2859.1858       7.7871    -999.2500      27.9999      44.4299     142.0525      62.7544      42.5617       0.0980       0.0046       0.3773       2.2504
   2859.3384      10.7393    -999.2500      31.5401      38.4198     194.9113      74.7793      55.8933       0.0988       0.0059       0.6989       2.3158
   2859.4907      14.4737    -999.2500      36.1439      45.7204     220.2614      81.0154      58.1861       0.1008       0.0076       1.0938       2.4126
   2859.6431      16.3523    -999.2500      40.0111      58.5139     214.2704      77.8139      50.3619       0.1026       0.0088       1.1545       2.6340
   2859.7954      17.3904    -999.2500      41.7904      60.2752     192.9731      63.0376      37.8851       0.1027       0.0096       1.1100       2.7165
   2859.9480      17.4900    -999.2500      38.9618      56.8091     152.3228      56.0627      39.8213       0.1019       0.0091       1.3428       2.3906
   2860.1003      17.1971    -999.2500      33.1350      43.7328     138.1852      53.7544      39.9839       0.1012       0.0078       1.7748       1.7744
   2860.2527      14.8853    -999.2500      25.9057      30.3373     159.7688      57.2860      40.4309       0.0999       0.0058       1.9114       1.2270
   2860.4050      11.1951    -999.2500      20.2697      25.6773     220.2614      67.0703      43.2581       0.0998       0.0040       1.5822       1.0103
   2860.5576       7.5642    -999.2500      17.2643      18.5667     220.2614      63.5727      35.3448       0.1028       0.0031       0.9187       1.0799
   2860.7100       4.9681    -999.2500      15.8237      21.7345     183.2545      47.0801      26.6011       0.1055       0.0028       0.2851       1.2086
   2860.8623       4.3388    -999.2500      14.8662      25.2436     158.2237      36.1167      21.8509       0.1046       0.0030       0.0535       1.1721
   2861.0146       5.8160    -999.2500      14.0158      23.3009     165.1700      39.1458      22.7698       0.1000       0.0034       0.2978       0.9129
   2861.1670       8.1499    -999.2500      13.5294      19.6578     110.9316      28.3975      17.6143       0.0935       0.0041       0.6929       0.5989
   2861.3196       8.2421    -999.2500      13.6676      19.5821     115.2051      27.2914      19.3123       0.0906       0.0045       0.5483       0.6040
