#------------------------------------------------------------------------------
#
#   Created by  : [OpenWorks] Log Export Utility (LEXP)
#   Created on  : 2016-05-11 12:25:27
#   Project     : CANT971
#   User        : R5K
#   Interpreter : PEP
#
#------------------------------------------------------------------------------
~VERSION INFORMATION
VERS. 2.0 : CWLS Log ASCII Standard - version 2.0
WRAP.  NO : One line per depth step
~WELL INFORMATION
#MNEMONIC   .UNIT                                           VALUE :DESCRIPTION
#------------------------------------------------------------------------------
STRT        .M                                           761.3999 :START DEPTH
STOP        .M                                          3020.1204 :STOP DEPTH
STEP        .M                                             0.1524 :STEP
NULL        .                                           -999.2500 :NULL VALUE
COMP        .                                             UNKNOWN :COMPANY
WELL        .                                               3048D :WELL
FLD         .                                             UNKNOWN :FIELD
LOC         .                                             UNKNOWN :LOCATION
CNTY        .                                             UNKNOWN :COUNTY
STAT        .                                             UNKNOWN :STATE
CTRY        .                                             UNKNOWN :COUNTRY
SRVC        .                                             UNKNOWN :SERVICE COMPANY
DATE        .                                             UNKNOWN :LOG DATE
UWI         .                                               3048D :UNIQUE WELL ID
XCOORD      .                                       599714.170000 :SURFACE X
YCOORD      .                                      2149960.100000 :SURFACE Y
LAT         .                                           19.442708 :LATITUDE
LON         .                                          -92.050104 :LONGITUDE
ELEV        .M                                             0.0000 :SURFACE ELEV
ELEV_TYPE   .                                                  KB :ELEV TYPE
~CURVE INFORMATION
#MNEMONIC.UNIT        API CODE       : CURVE DESCRIPTION
#------------------------------------------------------------------------------
DEPTH    .M                          : Measured Depth
CGR      .API         UNKNOWN        : CGR:Espectrometria-entubado-final:rC:NONE:v0 (auto-composite)
DT       .us/ft       UNKNOWN        : DT:Sonico:rC:NONE:v0 (auto-composite)
GR       .API         UNKNOWN        : GR:PETROWORKS:rC:NONE:v1 
GR-LWD   .API         UNKNOWN        : GR-LWD:resistivos-LWD:rC:NONE:v0 (auto-composite)
LLD-LWD  .ohm.m       UNKNOWN        : LLD-LWD:resistivos-LWD:rC:NONE:v0 (auto-composite)
LLS-LWD  .ohm.m       UNKNOWN        : LLS-LWD:resistivos-LWD:rC:NONE:v0 (auto-composite)
MSFL-LWD .ohm.m       UNKNOWN        : MSFL-LWD:resistivos-LWD:rC:NONE:v0 (auto-composite)
NPHI     .UNKNOWN     UNKNOWN        : NPHI:porosidad-entubado:rC:NONE:v0 (auto-composite)
POTA     .wtpercent   UNKNOWN        : POTA:Espectrometria-entubado-final:rC:NONE:v0 (auto-composite)
THOR     .ppm         UNKNOWN        : THOR:Espectrometria-entubado-final:rC:NONE:v0 (auto-composite)
URAN     .ppm         UNKNOWN        : URAN:Espectrometria-entubado-final:rC:NONE:v0 (auto-composite)
~A     DEPTH          CGR           DT           GR       GR-LWD      LLD-LWD      LLS-LWD     MSFL-LWD         NPHI         POTA         THOR         URAN
# ...
   2061.0671    -999.2500     111.3064      64.4381      72.0611       1.0931       1.1321       1.1861    -999.2500    -999.2500    -999.2500    -999.2500
   2061.2195    -999.2500     110.9136      63.6058      70.2164       1.0399       1.0675       1.1438    -999.2500    -999.2500    -999.2500    -999.2500
   2061.3718    -999.2500     110.5457      63.3624      72.6944       1.1113       1.0675       1.1696    -999.2500    -999.2500    -999.2500    -999.2500
   2061.5244    -999.2500     110.0636      60.8714      71.1116       1.1245       1.0871       1.1743    -999.2500    -999.2500    -999.2500    -999.2500
   2061.6768    -999.2500     110.5394      62.4363      74.4976       1.1123       1.0870       1.1613    -999.2500    -999.2500    -999.2500    -999.2500
   2061.8291    -999.2500     111.9386      63.1905      82.8698       1.0927       1.0587       1.1357    -999.2500    -999.2500    -999.2500    -999.2500
   2061.9814    -999.2500     113.5315      66.6325      87.8328       1.0927       1.0126       1.1107    -999.2500    -999.2500    -999.2500    -999.2500
   2062.1338    -999.2500     115.8985      66.7222      83.3180       1.0927       1.0269       1.1077    -999.2500    -999.2500    -999.2500    -999.2500
   2062.2864    -999.2500     116.6270      65.5834      76.0829       1.0792       1.0239       1.0939    -999.2500    -999.2500    -999.2500    -999.2500
   2062.4387    -999.2500     116.7695      62.5280      71.5697       1.0736       1.0128       1.0818    -999.2500    -999.2500    -999.2500    -999.2500
   2062.5911    -999.2500     115.2274      61.3965      78.2032       1.1217       1.0355       1.1063    -999.2500    -999.2500    -999.2500    -999.2500
   2062.7434    -999.2500     113.8540      61.8993      79.4090       1.1017       1.0588       1.1312    -999.2500    -999.2500    -999.2500    -999.2500
   2062.8960    -999.2500     112.0303      63.5772      77.6099       1.0927       1.0675       1.1405    -999.2500    -999.2500    -999.2500    -999.2500
   2063.0483    -999.2500     110.2579      64.7221      74.5398       1.1248       1.0909       1.1570    -999.2500    -999.2500    -999.2500    -999.2500
   2063.2007    -999.2500     110.3138      63.8047      72.1014       1.2260       1.1647       1.2091    -999.2500    -999.2500    -999.2500    -999.2500
   2063.3530    -999.2500     110.1284      60.9329      78.7592       1.2260       1.1913       1.2646    -999.2500    -999.2500    -999.2500    -999.2500
   2063.5056    -999.2500     109.9514      59.0260      75.0462       1.2449       1.1994       1.2816    -999.2500    -999.2500    -999.2500    -999.2500
   2063.6580    -999.2500     110.2709      59.0503      72.1033       1.2515       1.1893       1.2710    -999.2500    -999.2500    -999.2500    -999.2500
   2063.8103    -999.2500     111.8554      60.7255      77.0033       1.2192       1.1597       1.2379    -999.2500    -999.2500    -999.2500    -999.2500
   2063.9626    -999.2500     110.8076      62.1328      69.5162       1.1175       1.0856       1.1333    -999.2500    -999.2500    -999.2500    -999.2500
   2064.1150    -999.2500     110.0650      63.2838      73.9907       1.0571       1.0327       1.0892    -999.2500    -999.2500    -999.2500    -999.2500
   2064.2676    -999.2500     111.0870      63.5618      77.5290       1.0966       1.0274       1.1089    -999.2500    -999.2500    -999.2500    -999.2500
   2064.4199    -999.2500     109.8484      63.5338      75.1050       1.2296       1.0739       1.1778    -999.2500    -999.2500    -999.2500    -999.2500
   2064.5723    -999.2500     109.7738      64.8745      73.4355       1.2569       1.1225       1.2043    -999.2500    -999.2500    -999.2500    -999.2500
   2064.7246    -999.2500     109.9242      64.7853      67.7052       1.1762       1.1112       1.1874    -999.2500    -999.2500    -999.2500    -999.2500
   2064.8772    -999.2500     110.7783      63.4509      67.8134       1.1122       1.0869       1.1613    -999.2500    -999.2500    -999.2500    -999.2500
   2065.0295    -999.2500     110.4484      63.5307      71.4161       1.0836       1.0630       1.1405    -999.2500    -999.2500    -999.2500    -999.2500
   2065.1819    -999.2500     111.1203      62.7812      62.2437       1.0363       1.0396       1.1405    -999.2500    -999.2500    -999.2500    -999.2500
   2065.3342    -999.2500     110.5017      62.1634      72.1169       0.9546       0.9972       1.0969    -999.2500    -999.2500    -999.2500    -999.2500
   2065.4868    -999.2500     110.0646      61.1927      77.0199       0.9537       0.9905       1.1038    -999.2500    -999.2500    -999.2500    -999.2500
   2065.6392    -999.2500     109.9989      59.8416      75.1457       1.0254       1.0313       1.1539    -999.2500    -999.2500    -999.2500    -999.2500
   2065.7915    -999.2500     111.2296      59.8987      70.1771       1.1192       1.1261       1.2062    -999.2500    -999.2500    -999.2500    -999.2500
   2065.9438    -999.2500     112.2609      59.5853      70.6539       1.1016       1.1314       1.2091    -999.2500    -999.2500    -999.2500    -999.2500
   2066.0962    -999.2500     112.4646      62.0209      70.4251       1.0629       1.0859       1.1603    -999.2500    -999.2500    -999.2500    -999.2500
   2066.2488    -999.2500     111.8825      64.9150      71.7298       1.0307       1.0225       1.0999    -999.2500    -999.2500    -999.2500    -999.2500
   2066.4011    -999.2500     112.7969      65.8708      77.5362       1.0307       0.9779       1.0756    -999.2500    -999.2500    -999.2500    -999.2500
   2066.5535    -999.2500     113.0564      64.8460      90.0987       1.0307       0.9779       1.0517    -999.2500    -999.2500    -999.2500    -999.2500
   2066.7058    -999.2500     112.3050      63.3815      78.8535       1.0151       0.9779       1.0610    -999.2500    -999.2500    -999.2500    -999.2500
   2066.8584    -999.2500     112.3095      63.0923      66.1389       1.0280       0.9951       1.0850    -999.2500    -999.2500    -999.2500    -999.2500
   2067.0107    -999.2500     111.5125      62.8397      68.0119       1.0927       1.0401       1.1095    -999.2500    -999.2500    -999.2500    -999.2500
   2067.1631    -999.2500     111.6485      62.8000      73.0538       1.0927       1.0876       1.1344    -999.2500    -999.2500    -999.2500    -999.2500
   2067.3154    -999.2500     111.1182      62.2769      74.2589       1.0233       1.0459       1.1030    -999.2500    -999.2500    -999.2500    -999.2500
   2067.4680    -999.2500     111.7940      61.0838      71.2886       0.9725       0.9971       1.0756    -999.2500    -999.2500    -999.2500    -999.2500
   2067.6204    -999.2500     111.4834      59.2572      65.7627       0.9879       0.9870       1.0822    -999.2500    -999.2500    -999.2500    -999.2500
   2067.7727    -999.2500     110.6120      58.0359      67.4270       1.1038       1.0553       1.1316    -999.2500    -999.2500    -999.2500    -999.2500
   2067.9250    -999.2500     110.5689      58.0098      75.2271       1.1453       1.1075       1.1617    -999.2500    -999.2500    -999.2500    -999.2500
   2068.0774    -999.2500     110.8500      59.5191      72.5345       1.1325       1.1189       1.1612    -999.2500    -999.2500    -999.2500    -999.2500
   2068.2300    -999.2500     110.9395      60.8414      62.4617       1.0880       1.0944       1.1405    -999.2500    -999.2500    -999.2500    -999.2500
   2068.3823    -999.2500     108.8949      60.7976      69.0684       1.0642       1.0703       1.1405    -999.2500    -999.2500    -999.2500    -999.2500
   2068.5347    -999.2500     110.0032      58.0550      68.4066       1.1263       1.1105       1.1867    -999.2500    -999.2500    -999.2500    -999.2500
   2068.6870    -999.2500     110.8112      57.4479      64.3601       1.2361       1.1611       1.2407    -999.2500    -999.2500    -999.2500    -999.2500
   2068.8396    -999.2500     110.5785      57.7213      62.6153       1.3155       1.1860       1.2673    -999.2500    -999.2500    -999.2500    -999.2500
