#------------------------------------------------------------------------------
#
#   Created by  : [OpenWorks] Log Export Utility (LEXP)
#   Created on  : 2016-05-11 12:25:27
#   Project     : CANT971
#   User        : R5K
#   Interpreter : PEP
#
#------------------------------------------------------------------------------
~VERSION INFORMATION
VERS. 2.0 : CWLS Log ASCII Standard - version 2.0
WRAP.  NO : One line per depth step
~WELL INFORMATION
#MNEMONIC   .UNIT                                           VALUE :DESCRIPTION
#------------------------------------------------------------------------------
STRT        .M                                           761.3999 :START DEPTH
STOP        .M                                          3020.1204 :STOP DEPTH
STEP        .M                                             0.1524 :STEP
NULL        .                                           -999.2500 :NULL VALUE
COMP        .                                             UNKNOWN :COMPANY
WELL        .                                               3048D :WELL
FLD         .                                             UNKNOWN :FIELD
LOC         .                                             UNKNOWN :LOCATION
CNTY        .                                             UNKNOWN :COUNTY
STAT        .                                             UNKNOWN :STATE
CTRY        .                                             UNKNOWN :COUNTRY
SRVC        .                                             UNKNOWN :SERVICE COMPANY
DATE        .                                             UNKNOWN :LOG DATE
UWI         .                                               3048D :UNIQUE WELL ID
XCOORD      .                                       599714.170000 :SURFACE X
YCOORD      .                                      2149960.100000 :SURFACE Y
LAT         .                                           19.442708 :LATITUDE
LON         .                                          -92.050104 :LONGITUDE
ELEV        .M                                             0.0000 :SURFACE ELEV
ELEV_TYPE   .                                                  KB :ELEV TYPE
~CURVE INFORMATION
#MNEMONIC.UNIT        API CODE       : CURVE DESCRIPTION
#------------------------------------------------------------------------------
DEPTH    .M                          : Measured Depth
CGR      .API         UNKNOWN        : CGR:Espectrometria-entubado-final:rC:NONE:v0 (auto-composite)
DT       .us/ft       UNKNOWN        : DT:Sonico:rC:NONE:v0 (auto-composite)
GR       .API         UNKNOWN        : GR:PETROWORKS:rC:NONE:v1 
GR-LWD   .API         UNKNOWN        : GR-LWD:resistivos-LWD:rC:NONE:v0 (auto-composite)
LLD-LWD  .ohm.m       UNKNOWN        : LLD-LWD:resistivos-LWD:rC:NONE:v0 (auto-composite)
LLS-LWD  .ohm.m       UNKNOWN        : LLS-LWD:resistivos-LWD:rC:NONE:v0 (auto-composite)
MSFL-LWD .ohm.m       UNKNOWN        : MSFL-LWD:resistivos-LWD:rC:NONE:v0 (auto-composite)
NPHI     .UNKNOWN     UNKNOWN        : NPHI:porosidad-entubado:rC:NONE:v0 (auto-composite)
POTA     .wtpercent   UNKNOWN        : POTA:Espectrometria-entubado-final:rC:NONE:v0 (auto-composite)
THOR     .ppm         UNKNOWN        : THOR:Espectrometria-entubado-final:rC:NONE:v0 (auto-composite)
URAN     .ppm         UNKNOWN        : URAN:Espectrometria-entubado-final:rC:NONE:v0 (auto-composite)
~A     DEPTH          CGR           DT           GR       GR-LWD      LLD-LWD      LLS-LWD     MSFL-LWD         NPHI         POTA         THOR         URAN
# ...
   2576.1792       3.5590    -999.2500      28.6061      37.6222      22.9762      13.1873      11.4477       0.0323       0.0021       0.1574       2.7886
   2576.3315       4.4482    -999.2500      33.1626      40.7347      27.2484      16.1339      13.9301       0.0297       0.0027       0.2077       3.1969
   2576.4839       6.9623    -999.2500      36.5968      51.0201      42.3324      27.3088      22.5397       0.0292       0.0035       0.5690       3.2993
   2576.6362       9.9499    -999.2500      37.2121      56.7897      56.6353      36.1175      29.9718       0.0282       0.0048       0.9351       3.0352
   2576.7888      11.1312    -999.2500      35.6832      57.5540     248.5756      82.1191      41.3285       0.0261       0.0053       1.0525       2.7335
   2576.9412       9.1714    -999.2500      33.5719      56.4464     589.6217     158.4408      54.0094       0.0248       0.0044       0.8479       2.7166
   2577.0935       4.9777    -999.2500      32.1676      52.3313     632.5616     164.5846      58.7411       0.0250       0.0026       0.3763       3.0271
   2577.2458       2.1283    -999.2500      31.4924      48.2382     294.0256      87.4774      46.1619       0.0254       0.0012       0.1447       3.2692
   2577.3982       1.9905    -999.2500      31.0600      49.1607     249.6173      80.2238      41.3226       0.0258       0.0007       0.2892       3.2364
   2577.5508       3.7665    -999.2500      30.5091      44.9558    1213.2701     161.8472      93.0244       0.0271       0.0011       0.6364       2.9773
   2577.7031       5.9724    -999.2500      29.6377      47.9899    2000.0000     492.3413     124.0698       0.0285       0.0018       0.9668       2.6347
   2577.8555       6.3597    -999.2500      28.5193      49.3597    2000.0000     646.7825     136.2980       0.0288       0.0023       0.9020       2.4671
   2578.0078       5.3158    -999.2500      28.0469      49.2928    2000.0000     824.1698     155.9296       0.0271       0.0019       0.7474       2.5307
   2578.1604       4.6270    -999.2500      29.3064      43.0205    2000.0000     685.0272     155.9296       0.0237       0.0009       0.9684       2.7476
   2578.3127       3.8925    -999.2500      31.4388      38.4778    2000.0000     633.0607     155.9296       0.0200       0.0003       0.9873       3.0669
   2578.4651       4.1388    -999.2500      32.2285      43.6066    2000.0000    1072.4214     140.2653       0.0172       0.0009       0.8062       3.1274
   2578.6174       4.2643    -999.2500      31.1181      51.6137    2000.0000    1533.7708     129.4143       0.0157       0.0019       0.4714       2.9898
   2578.7700       4.2951    -999.2500      29.3020      53.9913    2000.0000    1335.2493     155.9296       0.0152       0.0024       0.2794       2.7841
   2578.9224       3.7029    -999.2500      29.0222      45.4302    2000.0000     844.7167     160.3521       0.0149       0.0025       0.0737       2.8189
   2579.0747       3.2371    -999.2500      30.6712      39.7900    2000.0000     437.7488     190.7361       0.0150       0.0021       0.0999       3.0544
   2579.2271       3.2464    -999.2500      32.5268      45.2102    2000.0000    1346.3478     190.4329       0.0152       0.0019       0.1843       3.2599
   2579.3794       3.1767    -999.2500      32.8562      46.5774    2000.0000    1922.0194     160.0458       0.0155       0.0017       0.2405       3.3043
   2579.5320       4.0165    -999.2500      31.4182      54.7222    2000.0000     551.2606     109.7843       0.0161       0.0020       0.3332       3.0507
   2579.6843       5.0672    -999.2500      29.3246      45.2325    2000.0000     573.6012     147.2122       0.0166       0.0024       0.4667       2.7007
   2579.8367       6.0315    -999.2500      27.6636      42.3461    2000.0000     940.8240     183.1797       0.0169       0.0030       0.5323       2.4084
   2579.9890       6.2657    -999.2500      26.4203      41.1655    2000.0000    1588.4463     213.5742       0.0176       0.0035       0.3935       2.2438
   2580.1416       7.4506    -999.2500      25.1372      40.3711    2000.0000    1518.6553     167.7572       0.0188       0.0044       0.3645       1.9691
   2580.2939       8.9884    -999.2500      23.8350      37.5598    2000.0000     777.2357     115.0804       0.0200       0.0054       0.3931       1.6529
   2580.4463       9.3206    -999.2500      22.7895      37.6343    2000.0000     750.4799     119.5852       0.0205       0.0055       0.4611       1.4995
   2580.5986       8.4730    -999.2500      22.2949      40.7674    2000.0000    1533.7708     155.9296       0.0205       0.0051       0.3637       1.5388
   2580.7512       7.1683    -999.2500      22.3407      27.1182    2000.0000    1593.3584     418.5732       0.0206       0.0045       0.2594       1.6892
   2580.9036       6.3046    -999.2500      22.3997      25.7585    2000.0000    1774.8158     358.6118       0.0211       0.0036       0.3633       1.7919
   2581.0559       5.7906    -999.2500      21.9608      25.8512    2000.0000    2000.0000     284.2011       0.0226       0.0027       0.5840       1.8003
   2581.2083       5.3297    -999.2500      20.8648      25.0250    2000.0000    2000.0000     466.6383       0.0247       0.0017       0.8432       1.7296
   2581.3606       5.4147    -999.2500      19.7155      22.2904    2000.0000    2000.0000     600.2246       0.0259       0.0015       0.9592       1.5922
   2581.5132       6.1181    -999.2500      18.5143      21.5827    2000.0000    2000.0000     543.9476       0.0258       0.0015       1.1331       1.3801
   2581.6655       7.1690    -999.2500      17.4698      21.5827    2000.0000    2000.0000     412.9940       0.0244       0.0019       1.2689       1.1468
   2581.8179       8.3402    -999.2500      16.3259      21.2293    1808.1311    1597.1412     321.4659       0.0219       0.0021       1.5469       0.8891
   2581.9702       7.8855    -999.2500      15.1469      20.7727    1560.0573     882.1935     246.5421       0.0182       0.0018       1.5258       0.8084
   2582.1228       6.7246    -999.2500      14.1589      20.3039    1748.0977     918.4573     210.4785       0.0146       0.0017       1.2267       0.8277
   2582.2751       5.0768    -999.2500      13.5290      16.6321    2000.0000    1654.4597     194.5727       0.0126       0.0020       0.6500       0.9410
   2582.4275       4.2008    -999.2500      13.3787      14.8813    2000.0000    2000.0000     194.5727       0.0134       0.0024       0.2587       1.0218
   2582.5798       3.9217    -999.2500      13.7747      16.6657    2000.0000    2000.0000     194.5727       0.0158       0.0021       0.2981       1.0970
   2582.7324       3.4970    -999.2500      15.3432      24.6953    2000.0000     602.3920     412.8458       0.0181       0.0015       0.4135       1.3189
   2582.8848       2.2483    -999.2500      18.4016      22.4124    2000.0000     457.9180     293.1073       0.0189       0.0012       0.1736       1.7984
   2583.0371       3.7317    -999.2500      25.3832      23.7084    2000.0000     281.5054     115.7627       0.0182       0.0025       0.0529       2.4105
   2583.1895       6.3173    -999.2500      30.8134      37.5976    1217.2028     248.3284     101.5355       0.0178       0.0044       0.0445       2.7272
   2583.3418       7.7810    -999.2500      35.1940      43.6476     504.5066     177.5886     100.3050       0.0193       0.0055       0.0248       3.0520
   2583.4944       8.2423    -999.2500      37.9113      46.4117     270.6807     118.0348      80.4425       0.0215       0.0058       0.0296       3.3032
   2583.6467       8.6158    -999.2500      38.1429      49.5607     279.4068     104.4745      72.2140       0.0232       0.0060       0.0762       3.2874
   2583.7991      10.2415    -999.2500      38.1005      56.6563     546.9122     107.2159      71.2533       0.0243       0.0066       0.2833       3.1017
   2583.9514      11.8311    -999.2500      37.5120      64.5616    1089.3442     105.7813      64.7758       0.0247       0.0072       0.4917       2.8592
