#------------------------------------------------------------------------------
#
#   Created by  : [OpenWorks] Log Export Utility (LEXP)
#   Created on  : 2016-05-11 12:25:27
#   Project     : CANT971
#   User        : R5K
#   Interpreter : PEP
#
#------------------------------------------------------------------------------
~VERSION INFORMATION
VERS. 2.0 : CWLS Log ASCII Standard - version 2.0
WRAP.  NO : One line per depth step
~WELL INFORMATION
#MNEMONIC   .UNIT                                           VALUE :DESCRIPTION
#------------------------------------------------------------------------------
STRT        .M                                           761.3999 :START DEPTH
STOP        .M                                          3020.1204 :STOP DEPTH
STEP        .M                                             0.1524 :STEP
NULL        .                                           -999.2500 :NULL VALUE
COMP        .                                             UNKNOWN :COMPANY
WELL        .                                               3048D :WELL
FLD         .                                             UNKNOWN :FIELD
LOC         .                                             UNKNOWN :LOCATION
CNTY        .                                             UNKNOWN :COUNTY
STAT        .                                             UNKNOWN :STATE
CTRY        .                                             UNKNOWN :COUNTRY
SRVC        .                                             UNKNOWN :SERVICE COMPANY
DATE        .                                             UNKNOWN :LOG DATE
UWI         .                                               3048D :UNIQUE WELL ID
XCOORD      .                                       599714.170000 :SURFACE X
YCOORD      .                                      2149960.100000 :SURFACE Y
LAT         .                                           19.442708 :LATITUDE
LON         .                                          -92.050104 :LONGITUDE
ELEV        .M                                             0.0000 :SURFACE ELEV
ELEV_TYPE   .                                                  KB :ELEV TYPE
~CURVE INFORMATION
#MNEMONIC.UNIT        API CODE       : CURVE DESCRIPTION
#------------------------------------------------------------------------------
DEPTH    .M                          : Measured Depth
CGR      .API         UNKNOWN        : CGR:Espectrometria-entubado-final:rC:NONE:v0 (auto-composite)
DT       .us/ft       UNKNOWN        : DT:Sonico:rC:NONE:v0 (auto-composite)
GR       .API         UNKNOWN        : GR:PETROWORKS:rC:NONE:v1 
GR-LWD   .API         UNKNOWN        : GR-LWD:resistivos-LWD:rC:NONE:v0 (auto-composite)
LLD-LWD  .ohm.m       UNKNOWN        : LLD-LWD:resistivos-LWD:rC:NONE:v0 (auto-composite)
LLS-LWD  .ohm.m       UNKNOWN        : LLS-LWD:resistivos-LWD:rC:NONE:v0 (auto-composite)
MSFL-LWD .ohm.m       UNKNOWN        : MSFL-LWD:resistivos-LWD:rC:NONE:v0 (auto-composite)
NPHI     .UNKNOWN     UNKNOWN        : NPHI:porosidad-entubado:rC:NONE:v0 (auto-composite)
POTA     .wtpercent   UNKNOWN        : POTA:Espectrometria-entubado-final:rC:NONE:v0 (auto-composite)
THOR     .ppm         UNKNOWN        : THOR:Espectrometria-entubado-final:rC:NONE:v0 (auto-composite)
URAN     .ppm         UNKNOWN        : URAN:Espectrometria-entubado-final:rC:NONE:v0 (auto-composite)
~A     DEPTH          CGR           DT           GR       GR-LWD      LLD-LWD      LLS-LWD     MSFL-LWD         NPHI         POTA         THOR         URAN
# ...
   2116.5408    -999.2500     102.6944      46.2238      50.2755       1.0433       1.0675       1.2020    -999.2500    -999.2500    -999.2500    -999.2500
   2116.6931    -999.2500     102.6784      46.3359      58.5614       1.0906       1.0675       1.1755    -999.2500    -999.2500    -999.2500    -999.2500
   2116.8455    -999.2500     105.8728      49.1923      71.6689       1.0053       1.0235       1.1497    -999.2500    -999.2500    -999.2500    -999.2500
   2116.9978    -999.2500     105.5582      52.0868      70.0155       0.9455       0.9790       1.0936    -999.2500    -999.2500    -999.2500    -999.2500
   2117.1504    -999.2500     105.4270      53.0995      64.9802       0.9241       0.9497       1.0523    -999.2500    -999.2500    -999.2500    -999.2500
   2117.3027    -999.2500     106.0001      51.2637      69.9418       0.9463       0.9513       1.0769    -999.2500    -999.2500    -999.2500    -999.2500
   2117.4551    -999.2500     105.5858      52.1359      72.4063       1.0594       1.0411       1.1522    -999.2500    -999.2500    -999.2500    -999.2500
   2117.6074    -999.2500     105.0445      53.1395      71.3740       1.1643       1.1384       1.2522    -999.2500    -999.2500    -999.2500    -999.2500
   2117.7600    -999.2500     105.0691      55.1054      72.8046       1.2480       1.2211       1.3432    -999.2500    -999.2500    -999.2500    -999.2500
   2117.9124    -999.2500     105.1068      55.1638      78.8728       1.2972       1.2695       1.3943    -999.2500    -999.2500    -999.2500    -999.2500
   2118.0647    -999.2500     105.4044      53.9072      68.9357       1.2686       1.2416       1.3334    -999.2500    -999.2500    -999.2500    -999.2500
   2118.2170    -999.2500     105.3358      53.0005      69.8104       1.2207       1.1744       1.2757    -999.2500    -999.2500    -999.2500    -999.2500
   2118.3694    -999.2500     106.0924      54.5610      68.2566       1.1797       1.1202       1.2324    -999.2500    -999.2500    -999.2500    -999.2500
   2118.5220    -999.2500     107.7598      56.6353      60.4036       1.1652       1.1063       1.2170    -999.2500    -999.2500    -999.2500    -999.2500
   2118.6743    -999.2500     106.5489      56.2794      55.4329       1.2172       1.1563       1.2723    -999.2500    -999.2500    -999.2500    -999.2500
   2118.8267    -999.2500     107.9210      56.1264      67.7460       1.2041       1.1647       1.2584    -999.2500    -999.2500    -999.2500    -999.2500
   2118.9790    -999.2500     107.0751      56.6080      70.5816       1.1401       1.1388       1.2170    -999.2500    -999.2500    -999.2500    -999.2500
   2119.1316    -999.2500     106.5045      57.4021      63.3074       1.0614       1.0941       1.1743    -999.2500    -999.2500    -999.2500    -999.2500
   2119.2839    -999.2500     107.7643      56.9619      63.2929       1.0614       1.0700       1.1743    -999.2500    -999.2500    -999.2500    -999.2500
   2119.4363    -999.2500     107.1031      56.3666      62.5568       1.1736       1.1111       1.2224    -999.2500    -999.2500    -999.2500    -999.2500
   2119.5886    -999.2500     106.8673      55.5047      67.5608       1.1810       1.1314       1.2290    -999.2500    -999.2500    -999.2500    -999.2500
   2119.7412    -999.2500     105.5501      55.4683      72.2508       1.0933       1.1058       1.1817    -999.2500    -999.2500    -999.2500    -999.2500
   2119.8936    -999.2500     105.8156      55.3886      64.7505       0.9774       1.0110       1.0799    -999.2500    -999.2500    -999.2500    -999.2500
   2120.0459    -999.2500     105.1058      56.7160      61.2018       1.0833       1.0511       1.1729    -999.2500    -999.2500    -999.2500    -999.2500
   2120.1982    -999.2500     104.3836      55.9666      62.1843       1.1580       1.1161       1.2453    -999.2500    -999.2500    -999.2500    -999.2500
   2120.3506    -999.2500     103.9364      55.0940      64.3857       1.2094       1.1826       1.3012    -999.2500    -999.2500    -999.2500    -999.2500
   2120.5032    -999.2500     103.0552      53.2325      64.3671       1.2603       1.2345       1.3575    -999.2500    -999.2500    -999.2500    -999.2500
   2120.6555    -999.2500     104.7322      54.6279      61.0030       1.1809       1.2073       1.2988    -999.2500    -999.2500    -999.2500    -999.2500
   2120.8079    -999.2500     106.3943      54.8476      58.8527       1.1759       1.1807       1.2618    -999.2500    -999.2500    -999.2500    -999.2500
   2120.9602    -999.2500     107.9217      56.9984      61.4850       1.1430       1.1354       1.2236    -999.2500    -999.2500    -999.2500    -999.2500
   2121.1128    -999.2500     107.3252      57.7434      70.6360       1.0326       1.0637       1.1701    -999.2500    -999.2500    -999.2500    -999.2500
   2121.2651    -999.2500     107.2565      59.3972      79.7719       1.0560       1.0176       1.1193    -999.2500    -999.2500    -999.2500    -999.2500
   2121.4175    -999.2500     107.4276      58.6052      78.6754       1.0261       0.9899       1.0888    -999.2500    -999.2500    -999.2500    -999.2500
   2121.5698    -999.2500     107.8654      58.6803      75.2806       1.0332       0.9985       1.0868    -999.2500    -999.2500    -999.2500    -999.2500
   2121.7224    -999.2500     108.0089      59.4672      72.7583       1.1116       1.0511       1.1190    -999.2500    -999.2500    -999.2500    -999.2500
   2121.8748    -999.2500     108.5308      63.1302      70.2802       1.2405       1.1486       1.1963    -999.2500    -999.2500    -999.2500    -999.2500
   2122.0271    -999.2500     110.3012      64.5654      85.1210       1.2619       1.1647       1.2091    -999.2500    -999.2500    -999.2500    -999.2500
   2122.1794    -999.2500     111.2533      64.4558      89.0948       1.1822       1.1139       1.1688    -999.2500    -999.2500    -999.2500    -999.2500
   2122.3318    -999.2500     112.8170      63.3066      80.4655       1.0343       1.0229       1.0928    -999.2500    -999.2500    -999.2500    -999.2500
   2122.4844    -999.2500     114.2516      62.5480      73.8240       0.9047       0.9565       1.0216    -999.2500    -999.2500    -999.2500    -999.2500
   2122.6367    -999.2500     116.1855      62.1616      78.3539       0.8408       0.8611       0.9375    -999.2500    -999.2500    -999.2500    -999.2500
   2122.7891    -999.2500     114.6192      62.0760      75.4260       0.8070       0.8200       0.8903    -999.2500    -999.2500    -999.2500    -999.2500
   2122.9414    -999.2500     113.3988      60.9577      71.4965       0.7636       0.8056       0.8654    -999.2500    -999.2500    -999.2500    -999.2500
   2123.0940    -999.2500     109.9381      59.7090      81.4326       0.6518       0.7529       0.8274    -999.2500    -999.2500    -999.2500    -999.2500
   2123.2463    -999.2500     108.9273      58.2849      67.4915       0.9277       0.9824       1.0560    -999.2500    -999.2500    -999.2500    -999.2500
   2123.3987    -999.2500     109.5438      58.0679      64.9409       1.0307       1.1161       1.2299    -999.2500    -999.2500    -999.2500    -999.2500
   2123.5510    -999.2500     114.0724      58.4937      69.3361       0.9951       1.1320       1.2736    -999.2500    -999.2500    -999.2500    -999.2500
   2123.7036    -999.2500     114.3475      57.9487      74.1901       0.8905       1.0343       1.1372    -999.2500    -999.2500    -999.2500    -999.2500
   2123.8560    -999.2500     115.7162      60.1649      72.5769       0.8523       0.9267       0.9970    -999.2500    -999.2500    -999.2500    -999.2500
   2124.0083    -999.2500     112.8560      60.9847      66.7612       0.8970       0.8815       0.9269    -999.2500    -999.2500    -999.2500    -999.2500
   2124.1606    -999.2500     111.9662      61.6274      67.8553       0.8542       0.8206       0.8716    -999.2500    -999.2500    -999.2500    -999.2500
   2124.3130    -999.2500     109.5684      59.6027      79.9134       0.6744       0.7187       0.8140    -999.2500    -999.2500    -999.2500    -999.2500
