#------------------------------------------------------------------------------
#
#   Created by  : [OpenWorks] Log Export Utility (LEXP)
#   Created on  : 2016-05-11 12:25:27
#   Project     : CANT971
#   User        : R5K
#   Interpreter : PEP
#
#------------------------------------------------------------------------------
~VERSION INFORMATION
VERS. 2.0 : CWLS Log ASCII Standard - version 2.0
WRAP.  NO : One line per depth step
~WELL INFORMATION
#MNEMONIC   .UNIT                                           VALUE :DESCRIPTION
#------------------------------------------------------------------------------
STRT        .M                                           761.3999 :START DEPTH
STOP        .M                                          3020.1204 :STOP DEPTH
STEP        .M                                             0.1524 :STEP
NULL        .                                           -999.2500 :NULL VALUE
COMP        .                                             UNKNOWN :COMPANY
WELL        .                                               3048D :WELL
FLD         .                                             UNKNOWN :FIELD
LOC         .                                             UNKNOWN :LOCATION
CNTY        .                                             UNKNOWN :COUNTY
STAT        .                                             UNKNOWN :STATE
CTRY        .                                             UNKNOWN :COUNTRY
SRVC        .                                             UNKNOWN :SERVICE COMPANY
DATE        .                                             UNKNOWN :LOG DATE
UWI         .                                               3048D :UNIQUE WELL ID
XCOORD      .                                       599714.170000 :SURFACE X
YCOORD      .                                      2149960.100000 :SURFACE Y
LAT         .                                           19.442708 :LATITUDE
LON         .                                          -92.050104 :LONGITUDE
ELEV        .M                                             0.0000 :SURFACE ELEV
ELEV_TYPE   .                                                  KB :ELEV TYPE
~CURVE INFORMATION
#MNEMONIC.UNIT        API CODE       : CURVE DESCRIPTION
#------------------------------------------------------------------------------
DEPTH    .M                          : Measured Depth
CGR      .API         UNKNOWN        : CGR:Espectrometria-entubado-final:rC:NONE:v0 (auto-composite)
DT       .us/ft       UNKNOWN        : DT:Sonico:rC:NONE:v0 (auto-composite)
GR       .API         UNKNOWN        : GR:PETROWORKS:rC:NONE:v1 
GR-LWD   .API         UNKNOWN        : GR-LWD:resistivos-LWD:rC:NONE:v0 (auto-composite)
LLD-LWD  .ohm.m       UNKNOWN        : LLD-LWD:resistivos-LWD:rC:NONE:v0 (auto-composite)
LLS-LWD  .ohm.m       UNKNOWN        : LLS-LWD:resistivos-LWD:rC:NONE:v0 (auto-composite)
MSFL-LWD .ohm.m       UNKNOWN        : MSFL-LWD:resistivos-LWD:rC:NONE:v0 (auto-composite)
NPHI     .UNKNOWN     UNKNOWN        : NPHI:porosidad-entubado:rC:NONE:v0 (auto-composite)
POTA     .wtpercent   UNKNOWN        : POTA:Espectrometria-entubado-final:rC:NONE:v0 (auto-composite)
THOR     .ppm         UNKNOWN        : THOR:Espectrometria-entubado-final:rC:NONE:v0 (auto-composite)
URAN     .ppm         UNKNOWN        : URAN:Espectrometria-entubado-final:rC:NONE:v0 (auto-composite)
~A     DEPTH          CGR           DT           GR       GR-LWD      LLD-LWD      LLS-LWD     MSFL-LWD         NPHI         POTA         THOR         URAN
# ...
   2964.4944      27.1241    -999.2500      45.3862      31.3092      23.3049      20.5316      16.4362       0.1224       0.0137       2.2457       2.0332
   2964.6467      27.9478    -999.2500      44.9554      34.1705      26.8133      21.1857      16.7738       0.1282       0.0138       2.4677       1.8935
   2964.7991      29.4059    -999.2500      44.9021      40.7871      30.1095      22.6618      18.2144       0.1287       0.0149       2.4327       1.7253
   2964.9514      30.2317    -999.2500      45.1181      47.6691      36.8404      28.1478      24.8029       0.1217       0.0159       2.2540       1.6574
   2965.1040      32.0183    -999.2500      45.3534      52.0429      50.1504      40.0357      39.7846       0.1152       0.0170       2.3330       1.4846
   2965.2563      34.2449    -999.2500      45.6385      53.4218      44.0244      34.1541      32.2075       0.1118       0.0176       2.7262       1.2685
   2965.4087      34.5056    -999.2500      45.3063      55.2714      34.8495      25.6795      20.8519       0.1074       0.0175       2.8633       1.2025
   2965.5610      30.4935    -999.2500      40.6038      48.9910      46.0621      42.3959      34.5867       0.1030       0.0157       2.4234       1.1256
   2965.7136      22.6100    -999.2500      31.3970      50.7935      50.5230      48.9486      45.7709       0.1029       0.0122       1.5635       0.9783
   2965.8660      13.5150    -999.2500      18.9197      50.2164      55.7000      56.1127      52.7705       0.1054       0.0075       0.8674       0.6017
   2966.0183       6.5814    -999.2500       9.6460      43.7462      63.1617      65.9572      53.2246       0.1034       0.0038       0.3516       0.3412
   2966.1707       3.4111    -999.2500       5.2974      43.7669      57.9864      55.7342      38.0143       0.0969       0.0020       0.1630       0.2100
   2966.3230       2.9387    -999.2500       4.6907      47.4023      55.9304      57.0077      39.7998       0.0909       0.0017       0.1451       0.1951
   2966.4756       2.9387    -999.2500       4.6907      47.0025      56.5968      59.7921      41.4675       0.0866       0.0017       0.1451       0.1951
   2966.6279       2.9387    -999.2500       4.6907      43.9169      58.5379      60.7538      40.0190       0.0856       0.0017       0.1451       0.1951
   2966.7803       2.9387    -999.2500       4.6907      51.1281      57.1628      59.2402      43.8051       0.0877       0.0017       0.1451       0.1951
   2966.9326       2.9387    -999.2500       4.6907      57.5281      53.5124      47.1835      32.8838       0.0898       0.0017       0.1451       0.1951
   2967.0852       2.9387    -999.2500       4.6907      70.8937      47.5682      35.6118      26.3231       0.0918       0.0017       0.1451       0.1951
   2967.2375       2.9387    -999.2500       4.6907      83.6412      40.9004      28.7263      25.8824       0.0938       0.0017       0.1451       0.1951
   2967.3899       2.9387    -999.2500       4.6907      77.3859      36.7688      31.2002      28.2251       0.0941       0.0017       0.1451       0.1951
   2967.5422       2.9387    -999.2500       4.6907      72.6725      37.6737      33.4408      27.9062       0.0925       0.0017       0.1451       0.1951
   2967.6948       2.9387    -999.2500       4.6907      71.5091      36.6422      32.4953      26.3232       0.0902       0.0017       0.1451       0.1951
   2967.8472       2.9387    -999.2500       4.6907      70.2026      34.7781      30.2977      25.3087       0.0887       0.0017       0.1451       0.1951
   2967.9995       2.9387    -999.2500       4.6907      63.8620      34.2199      29.6622      27.0727       0.0880       0.0017       0.1451       0.1951
   2968.1519       2.9387    -999.2500       4.6907      43.1806      39.2989      29.6622      28.0662       0.0878       0.0017       0.1451       0.1951
   2968.3042       2.9387    -999.2500       4.6907      43.4150      38.6096      27.0974      24.3435       0.0879       0.0017       0.1451       0.1951
   2968.4568       2.9387    -999.2500       4.6907      55.3499      35.8487      24.3250      20.1865       0.0881       0.0017       0.1451       0.1951
   2968.6091       2.9387    -999.2500       4.6907      69.6345      34.1285      23.3965      19.1272       0.0883       0.0017       0.1451       0.1951
   2968.7615       2.9387    -999.2500       4.6907      67.0240      32.5778      25.5231      20.3277       0.0891       0.0017       0.1451       0.1951
   2968.9138       2.9387    -999.2500       4.6907      64.9390      37.7138      30.7354      25.4352       0.0900       0.0017       0.1451       0.1951
   2969.0664       2.9387    -999.2500       4.6907      69.7790      44.6898      40.7279      34.3854       0.0910       0.0017       0.1451       0.1951
   2969.2188       2.9387    -999.2500       4.6907      81.6891      50.9222      53.6088      45.0307       0.0920       0.0017       0.1451       0.1951
   2969.3711       2.9387    -999.2500       4.6907      81.6268      56.0146      52.4111      44.4143       0.0923       0.0017       0.1451       0.1951
   2969.5234       2.9387    -999.2500       4.6907      74.4131      65.1651      62.2089      48.1932       0.0923       0.0017       0.1451       0.1951
   2969.6758       2.9387    -999.2500       4.6907      60.4738      64.9028      56.3680      41.4813       0.0923       0.0017       0.1451       0.1951
   2969.8284       2.9387    -999.2500       4.6907      49.4245      58.6559      42.2553      30.8002       0.0923       0.0017       0.1451       0.1951
   2969.9807       2.9387    -999.2500       4.6907      43.5015      58.7784      37.2680      29.1489       0.0923       0.0017       0.1451       0.1951
   2970.1331    -999.2500    -999.2500    -999.2500      44.8940      62.3895      40.1740      33.6706    -999.2500    -999.2500    -999.2500    -999.2500
   2970.2854    -999.2500    -999.2500    -999.2500      61.1179      60.8480      48.4891      36.1494    -999.2500    -999.2500    -999.2500    -999.2500
   2970.4380    -999.2500    -999.2500    -999.2500      58.5612      52.5908      41.1854      34.1461    -999.2500    -999.2500    -999.2500    -999.2500
   2970.5903    -999.2500    -999.2500    -999.2500      62.6490      50.1985      37.0745      34.0063    -999.2500    -999.2500    -999.2500    -999.2500
   2970.7427    -999.2500    -999.2500    -999.2500      63.7955      51.4385      37.9398      36.1109    -999.2500    -999.2500    -999.2500    -999.2500
   2970.8950    -999.2500    -999.2500    -999.2500      42.0692      50.3396      43.0340      39.8498    -999.2500    -999.2500    -999.2500    -999.2500
   2971.0476    -999.2500    -999.2500    -999.2500      32.7083      53.9643      43.2027      38.1596    -999.2500    -999.2500    -999.2500    -999.2500
   2971.2000    -999.2500    -999.2500    -999.2500      42.0391      51.4486      35.3079      30.3945    -999.2500    -999.2500    -999.2500    -999.2500
   2971.3523    -999.2500    -999.2500    -999.2500      54.4010      46.9846      27.9920      24.1001    -999.2500    -999.2500    -999.2500    -999.2500
   2971.5046    -999.2500    -999.2500    -999.2500      54.4010      45.0173      29.5467      26.3226    -999.2500    -999.2500    -999.2500    -999.2500
   2971.6570    -999.2500    -999.2500    -999.2500      54.4010      39.6684      25.8011      21.8878    -999.2500    -999.2500    -999.2500    -999.2500
   2971.8096    -999.2500    -999.2500    -999.2500      54.4010      39.6629      25.8208      21.2835    -999.2500    -999.2500    -999.2500    -999.2500
   2971.9619    -999.2500    -999.2500    -999.2500      52.5575      43.3907      28.1532      23.4451    -999.2500    -999.2500    -999.2500    -999.2500
   2972.1143    -999.2500    -999.2500    -999.2500      48.1166      48.8373      31.5733      27.1656    -999.2500    -999.2500    -999.2500    -999.2500
   2972.2666    -999.2500    -999.2500    -999.2500      44.5730      47.8397      33.7964      28.1636    -999.2500    -999.2500    -999.2500    -999.2500
