#------------------------------------------------------------------------------
#
#   Created by  : [OpenWorks] Log Export Utility (LEXP)
#   Created on  : 2016-05-11 12:25:27
#   Project     : CANT971
#   User        : R5K
#   Interpreter : PEP
#
#------------------------------------------------------------------------------
~VERSION INFORMATION
VERS. 2.0 : CWLS Log ASCII Standard - version 2.0
WRAP.  NO : One line per depth step
~WELL INFORMATION
#MNEMONIC   .UNIT                                           VALUE :DESCRIPTION
#------------------------------------------------------------------------------
STRT        .M                                           761.3999 :START DEPTH
STOP        .M                                          3020.1204 :STOP DEPTH
STEP        .M                                             0.1524 :STEP
NULL        .                                           -999.2500 :NULL VALUE
COMP        .                                             UNKNOWN :COMPANY
WELL        .                                               3048D :WELL
FLD         .                                             UNKNOWN :FIELD
LOC         .                                             UNKNOWN :LOCATION
CNTY        .                                             UNKNOWN :COUNTY
STAT        .                                             UNKNOWN :STATE
CTRY        .                                             UNKNOWN :COUNTRY
SRVC        .                                             UNKNOWN :SERVICE COMPANY
DATE        .                                             UNKNOWN :LOG DATE
UWI         .                                               3048D :UNIQUE WELL ID
XCOORD      .                                       599714.170000 :SURFACE X
YCOORD      .                                      2149960.100000 :SURFACE Y
LAT         .                                           19.442708 :LATITUDE
LON         .                                          -92.050104 :LONGITUDE
ELEV        .M                                             0.0000 :SURFACE ELEV
ELEV_TYPE   .                                                  KB :ELEV TYPE
~CURVE INFORMATION
#MNEMONIC.UNIT        API CODE       : CURVE DESCRIPTION
#------------------------------------------------------------------------------
DEPTH    .M                          : Measured Depth
CGR      .API         UNKNOWN        : CGR:Espectrometria-entubado-final:rC:NONE:v0 (auto-composite)
DT       .us/ft       UNKNOWN        : DT:Sonico:rC:NONE:v0 (auto-composite)
GR       .API         UNKNOWN        : GR:PETROWORKS:rC:NONE:v1 
GR-LWD   .API         UNKNOWN        : GR-LWD:resistivos-LWD:rC:NONE:v0 (auto-composite)
LLD-LWD  .ohm.m       UNKNOWN        : LLD-LWD:resistivos-LWD:rC:NONE:v0 (auto-composite)
LLS-LWD  .ohm.m       UNKNOWN        : LLS-LWD:resistivos-LWD:rC:NONE:v0 (auto-composite)
MSFL-LWD .ohm.m       UNKNOWN        : MSFL-LWD:resistivos-LWD:rC:NONE:v0 (auto-composite)
NPHI     .UNKNOWN     UNKNOWN        : NPHI:porosidad-entubado:rC:NONE:v0 (auto-composite)
POTA     .wtpercent   UNKNOWN        : POTA:Espectrometria-entubado-final:rC:NONE:v0 (auto-composite)
THOR     .ppm         UNKNOWN        : THOR:Espectrometria-entubado-final:rC:NONE:v0 (auto-composite)
URAN     .ppm         UNKNOWN        : URAN:Espectrometria-entubado-final:rC:NONE:v0 (auto-composite)
~A     DEPTH          CGR           DT           GR       GR-LWD      LLD-LWD      LLS-LWD     MSFL-LWD         NPHI         POTA         THOR         URAN
# ...
   2742.5999      17.2516    -999.2500      37.1993      50.9756       4.7144       4.6644       5.3173       0.0543       0.0105       0.7455       2.2209
   2742.7522      16.2220    -999.2500      29.4123      40.9965       5.8666       6.0563       5.9264       0.0485       0.0098       0.7303       1.4680
   2742.9048      18.1568    -999.2500      25.3278      44.6548       5.2339       5.2200       5.0192       0.0497       0.0104       1.0372       0.7984
   2743.0571      20.0627    -999.2500      24.5905      44.7534       4.5519       4.3847       4.3865       0.0589       0.0113       1.2246       0.5041
   2743.2095      21.5124    -999.2500      25.0090      31.4498       5.1785       5.3125       5.3781       0.0638       0.0120       1.3365       0.3894
   2743.3618      21.2882    -999.2500      25.3569      44.5780       5.5932       6.1147       6.0049       0.0628       0.0121       1.2319       0.4530
   2743.5144      19.7928    -999.2500      25.2836      34.7395       5.3112       5.7077       6.1172       0.0614       0.0115       1.0437       0.6113
   2743.6667      18.5232    -999.2500      24.9421      51.7907       5.7904       6.2082       6.1172       0.0574       0.0107       1.0232       0.7146
   2743.8191      19.0833    -999.2500      25.8960      53.4922       5.1149       4.9729       4.9341       0.0536       0.0104       1.2807       0.7585
   2743.9714      21.2104    -999.2500      29.5189      56.3475       4.8820       4.0574       4.2593       0.0557       0.0119       1.2933       0.9250
   2744.1240      24.8943    -999.2500      36.4670      70.0066       5.3359       3.9838       4.3302       0.0599       0.0146       1.2831       1.2888
   2744.2764      30.9254    -999.2500      45.4390     108.7141       4.7982       3.5127       3.2750       0.0635       0.0174       1.8833       1.6163
   2744.4287      36.6960    -999.2500      52.9037     102.4864       3.8406       3.0964       2.8936       0.0695       0.0193       2.7325       1.8045
   2744.5811      37.6118    -999.2500      54.6839      95.6977       5.3364       5.3764       5.0856       0.0759       0.0191       3.0739       1.9007
   2744.7334      31.2589    -999.2500      49.0241      95.6977      13.9147      16.4809      15.2205       0.0723       0.0159       2.5647       1.9768
   2744.8860      21.4092    -999.2500      39.1934     100.3430      21.5793      29.1741      25.2160       0.0583       0.0114       1.5648       1.9800
   2745.0383      12.9651    -999.2500      30.0946     104.9085      33.0883      48.6149      38.0852       0.0464       0.0075       0.7011       1.9071
   2745.1907       8.5783    -999.2500      24.4994      98.5059      53.2268      78.4124      54.0779       0.0424       0.0055       0.2584       1.7718
   2745.3430       6.8375    -999.2500      22.3296      60.0995      71.8266      60.1763      36.4847       0.0450       0.0042       0.2609       1.7248
   2745.4956       5.8582    -999.2500      21.2427      48.8877      92.1641      58.7709      29.8001       0.0500       0.0031       0.4360       1.7128
   2745.6479       4.4304    -999.2500      19.3407      48.3654      89.4651      54.4405      26.0788       0.0526       0.0018       0.5398       1.6598
   2745.8003       2.7536    -999.2500      16.7280      33.0864      34.2199      17.7450      11.7471       0.0507       0.0011       0.3402       1.5558
   2745.9526       1.9025    -999.2500      13.8697      36.7393      47.5886      24.5893      17.3229       0.0467       0.0010       0.1261       1.3324
   2746.1050       2.0439    -999.2500      12.1048      36.3785     171.6501      86.0335      54.4965       0.0446       0.0013       0.0761       1.1201
   2746.2576       2.4904    -999.2500      11.2377      27.3601     209.6606     154.3018      73.5146       0.0434       0.0014       0.1378       0.9738
   2746.4099       2.6554    -999.2500      10.9422      20.2974     220.2614     135.5409      69.4564       0.0421       0.0015       0.1559       0.9226
   2746.5623       2.7311    -999.2500      10.7806      15.8457     220.2614     104.4745      61.7621       0.0421       0.0018       0.0733       0.8962
   2746.7146       2.7307    -999.2500      10.5923      14.0045     215.2926     103.0922      61.2682       0.0440       0.0018       0.0547       0.8752
   2746.8672       2.3857    -999.2500      10.5330      11.2308     163.8956      88.7937      56.1595       0.0455       0.0016       0.0449       0.9070
   2747.0195       2.7938    -999.2500      10.8008      17.0524     228.3653     138.0224      64.1209       0.0449       0.0019       0.0573       0.8914
   2747.1719       3.9385    -999.2500      11.2306      21.3396     310.0881     202.2067      81.0472       0.0426       0.0027       0.0533       0.8120
   2747.3242       4.9682    -999.2500      11.6330      20.7142     383.4922     263.5058     111.7265       0.0394       0.0035       0.0316       0.7420
   2747.4768       5.2850    -999.2500      11.8206      17.1086     501.2486     325.4711     183.5765       0.0365       0.0036       0.0740       0.7276
   2747.6292       4.9690    -999.2500      12.0883      12.6221    1045.1068     253.6556      93.3597       0.0350       0.0031       0.1836       0.7926
   2747.7815       4.2169    -999.2500      12.5806      17.2217    1896.3876     253.6556     120.5122       0.0321       0.0028       0.0918       0.9312
   2747.9338       3.9637    -999.2500      13.1956      16.9611    2000.0000     171.5370      97.1275       0.0260       0.0024       0.1549       1.0278
   2748.0862       4.3732    -999.2500      13.6482      17.5655    2000.0000     936.3071      61.6432       0.0233       0.0025       0.2618       1.0326
   2748.2388       3.4195    -999.2500      13.2766      20.0421    2000.0000    2000.0000     403.6064       0.0294       0.0022       0.1085       1.0974
   2748.3911       2.8581    -999.2500      12.5882      24.5539    2000.0000    2000.0000    1863.9451       0.0382       0.0019       0.0537       1.0833
   2748.5435       2.7599    -999.2500      12.1140      18.8529     575.9941     569.4973     553.8372       0.0418       0.0019       0.0403       1.0414
   2748.6958       3.8185    -999.2500      11.6976      17.6513      46.7229      17.3203      13.1034       0.0410       0.0027       0.0252       0.8771
   2748.8484       4.7076    -999.2500      11.4929      18.3238     165.5922      54.6626      33.6514       0.0391       0.0033       0.0244       0.7555
   2749.0007       4.8267    -999.2500      11.4024      16.5568    1214.2211    1065.0579     173.7053       0.0374       0.0032       0.1077       0.7321
   2749.1531       5.9355    -999.2500      11.6258      17.8541    1703.5389    1521.9055     221.9311       0.0343       0.0029       0.5426       0.6335
   2749.3054       6.6364    -999.2500      11.4909      21.2386     883.1182     201.2870      50.3381       0.0299       0.0023       0.9885       0.5405
   2749.4580       6.2931    -999.2500      10.9357      17.5921     883.1182     269.8624      70.8208       0.0256       0.0016       1.1524       0.5169
   2749.6104       4.7346    -999.2500      10.2610      16.5690    1497.9412    1230.8063     120.2209       0.0234       0.0013       0.8100       0.6153
   2749.7627       3.1031    -999.2500       9.8144      17.6578    2000.0000    2000.0000     717.9714       0.0241       0.0017       0.2154       0.7472
   2749.9150       2.9356    -999.2500       9.8755      19.3589    1899.3296    1860.0774    1810.6665       0.0261       0.0020       0.0300       0.7727
   2750.0674       2.8295    -999.2500       9.1393      12.1876     874.2485     435.3080     385.7641       0.0290       0.0018       0.0792       0.7025
   2750.2200       3.1687    -999.2500       8.5930      14.2115    1071.2529     204.4993     106.7916       0.0336       0.0016       0.2547       0.6038
   2750.3723       3.5529    -999.2500       8.1743      16.5644    1818.9031    1514.2198     174.8906       0.0403       0.0015       0.4163       0.5145
