#------------------------------------------------------------------------------
#
#   Created by  : [OpenWorks] Log Export Utility (LEXP)
#   Created on  : 2016-05-11 12:25:27
#   Project     : CANT971
#   User        : R5K
#   Interpreter : PEP
#
#------------------------------------------------------------------------------
~VERSION INFORMATION
VERS. 2.0 : CWLS Log ASCII Standard - version 2.0
WRAP.  NO : One line per depth step
~WELL INFORMATION
#MNEMONIC   .UNIT                                           VALUE :DESCRIPTION
#------------------------------------------------------------------------------
STRT        .M                                           761.3999 :START DEPTH
STOP        .M                                          3020.1204 :STOP DEPTH
STEP        .M                                             0.1524 :STEP
NULL        .                                           -999.2500 :NULL VALUE
COMP        .                                             UNKNOWN :COMPANY
WELL        .                                               3048D :WELL
FLD         .                                             UNKNOWN :FIELD
LOC         .                                             UNKNOWN :LOCATION
CNTY        .                                             UNKNOWN :COUNTY
STAT        .                                             UNKNOWN :STATE
CTRY        .                                             UNKNOWN :COUNTRY
SRVC        .                                             UNKNOWN :SERVICE COMPANY
DATE        .                                             UNKNOWN :LOG DATE
UWI         .                                               3048D :UNIQUE WELL ID
XCOORD      .                                       599714.170000 :SURFACE X
YCOORD      .                                      2149960.100000 :SURFACE Y
LAT         .                                           19.442708 :LATITUDE
LON         .                                          -92.050104 :LONGITUDE
ELEV        .M                                             0.0000 :SURFACE ELEV
ELEV_TYPE   .                                                  KB :ELEV TYPE
~CURVE INFORMATION
#MNEMONIC.UNIT        API CODE       : CURVE DESCRIPTION
#------------------------------------------------------------------------------
DEPTH    .M                          : Measured Depth
CGR      .API         UNKNOWN        : CGR:Espectrometria-entubado-final:rC:NONE:v0 (auto-composite)
DT       .us/ft       UNKNOWN        : DT:Sonico:rC:NONE:v0 (auto-composite)
GR       .API         UNKNOWN        : GR:PETROWORKS:rC:NONE:v1 
GR-LWD   .API         UNKNOWN        : GR-LWD:resistivos-LWD:rC:NONE:v0 (auto-composite)
LLD-LWD  .ohm.m       UNKNOWN        : LLD-LWD:resistivos-LWD:rC:NONE:v0 (auto-composite)
LLS-LWD  .ohm.m       UNKNOWN        : LLS-LWD:resistivos-LWD:rC:NONE:v0 (auto-composite)
MSFL-LWD .ohm.m       UNKNOWN        : MSFL-LWD:resistivos-LWD:rC:NONE:v0 (auto-composite)
NPHI     .UNKNOWN     UNKNOWN        : NPHI:porosidad-entubado:rC:NONE:v0 (auto-composite)
POTA     .wtpercent   UNKNOWN        : POTA:Espectrometria-entubado-final:rC:NONE:v0 (auto-composite)
THOR     .ppm         UNKNOWN        : THOR:Espectrometria-entubado-final:rC:NONE:v0 (auto-composite)
URAN     .ppm         UNKNOWN        : URAN:Espectrometria-entubado-final:rC:NONE:v0 (auto-composite)
~A     DEPTH          CGR           DT           GR       GR-LWD      LLD-LWD      LLS-LWD     MSFL-LWD         NPHI         POTA         THOR         URAN
# ...
   2005.5935    -999.2500     108.1963      43.9766      59.9770       1.0614       1.0512       1.0906    -999.2500    -999.2500    -999.2500    -999.2500
   2005.7458    -999.2500     106.1215      40.6548      58.8436       1.0835       1.0898       1.1310    -999.2500    -999.2500    -999.2500    -999.2500
   2005.8983    -999.2500     108.8312      40.8891      51.2776       1.1577       1.1647       1.2091    -999.2500    -999.2500    -999.2500    -999.2500
   2006.0507    -999.2500     110.8426      41.4643      47.1891       1.2092       1.1909       1.2361    -999.2500    -999.2500    -999.2500    -999.2500
   2006.2031    -999.2500     119.2504      43.0044      53.6966       1.1883       1.1624       1.1895    -999.2500    -999.2500    -999.2500    -999.2500
   2006.3555    -999.2500     119.5566      43.4842      59.4594       1.0361       1.0347       1.0659    -999.2500    -999.2500    -999.2500    -999.2500
   2006.5079    -999.2500     121.5038      42.6126      60.1395       0.9858       0.9612       1.0124    -999.2500    -999.2500    -999.2500    -999.2500
   2006.6603    -999.2500     123.8905      43.4477      61.4550       0.9558       0.9063       0.9680    -999.2500    -999.2500    -999.2500    -999.2500
   2006.8127    -999.2500     119.0949      43.4618      62.9032       0.9125       0.8665       0.9270    -999.2500    -999.2500    -999.2500    -999.2500
   2006.9651    -999.2500     118.8689      44.6179      71.2025       0.8545       0.8287       0.9066    -999.2500    -999.2500    -999.2500    -999.2500
   2007.1176    -999.2500     117.7976      46.0467      72.4694       0.8412       0.8344       0.9019    -999.2500    -999.2500    -999.2500    -999.2500
   2007.2699    -999.2500     117.5185      46.5585      63.6404       0.8587       0.8533       0.9209    -999.2500    -999.2500    -999.2500    -999.2500
   2007.4224    -999.2500     118.6271      45.5872      49.9764       0.9004       0.8785       0.9629    -999.2500    -999.2500    -999.2500    -999.2500
   2007.5747    -999.2500     117.7910      43.5372      63.3119       0.9623       0.9396       1.0070    -999.2500    -999.2500    -999.2500    -999.2500
   2007.7271    -999.2500     118.1062      41.5842      60.6794       0.9546       0.9676       1.0143    -999.2500    -999.2500    -999.2500    -999.2500
   2007.8795    -999.2500     119.7362      39.7217      59.6209       0.9336       0.9452       0.9913    -999.2500    -999.2500    -999.2500    -999.2500
   2008.0319    -999.2500     117.2682      39.8825      61.5359       0.9173       0.8874       0.9477    -999.2500    -999.2500    -999.2500    -999.2500
   2008.1843    -999.2500     112.2092      40.1931      58.2511       0.9173       0.8485       0.9062    -999.2500    -999.2500    -999.2500    -999.2500
   2008.3367    -999.2500     110.8447      42.1565      58.6435       0.9948       0.8794       0.9391    -999.2500    -999.2500    -999.2500    -999.2500
   2008.4891    -999.2500     108.7327      42.5506      59.4704       1.0444       0.9323       0.9957    -999.2500    -999.2500    -999.2500    -999.2500
   2008.6415    -999.2500     112.8561      42.5612      56.8951       1.0614       0.9901       1.0576    -999.2500    -999.2500    -999.2500    -999.2500
   2008.7939    -999.2500     116.7987      43.9137      45.2262       1.0614       1.0350       1.1058    -999.2500    -999.2500    -999.2500    -999.2500
   2008.9463    -999.2500     115.8769      43.0039      53.5717       1.0174       1.0150       1.0615    -999.2500    -999.2500    -999.2500    -999.2500
   2009.0988    -999.2500     117.5858      42.4458      56.7840       1.0160       0.9924       1.0601    -999.2500    -999.2500    -999.2500    -999.2500
   2009.2511    -999.2500     117.8760      40.7988      58.1559       1.0307       0.9853       1.0677    -999.2500    -999.2500    -999.2500    -999.2500
   2009.4034    -999.2500     115.9541      42.4870      62.1097       1.0302       1.0060       1.0440    -999.2500    -999.2500    -999.2500    -999.2500
   2009.5559    -999.2500     116.3936      47.1072      57.1238       1.0078       0.9623       1.0210    -999.2500    -999.2500    -999.2500    -999.2500
   2009.7083    -999.2500     115.2118      51.8943      55.0989       0.9146       0.9204       0.9829    -999.2500    -999.2500    -999.2500    -999.2500
   2009.8607    -999.2500     113.7718      53.4654      57.2435       0.8643       0.8956       0.9564    -999.2500    -999.2500    -999.2500    -999.2500
   2010.0131    -999.2500     112.9154      53.4606      63.7320       0.9247       0.8991       0.9602    -999.2500    -999.2500    -999.2500    -999.2500
   2010.1655    -999.2500     112.9571      49.5484      68.7465       1.0112       0.9404       1.0043    -999.2500    -999.2500    -999.2500    -999.2500
   2010.3179    -999.2500     112.8384      46.6131      67.9472       1.0672       0.9835       1.0504    -999.2500    -999.2500    -999.2500    -999.2500
   2010.4703    -999.2500     111.6519      44.9302      62.3757       1.0606       0.9968       1.0647    -999.2500    -999.2500    -999.2500    -999.2500
   2010.6227    -999.2500     110.3417      45.3664      54.9569       1.0013       0.9779       1.0445    -999.2500    -999.2500    -999.2500    -999.2500
   2010.7751    -999.2500     110.4659      46.3885      57.4409       1.0013       0.9779       1.0445    -999.2500    -999.2500    -999.2500    -999.2500
   2010.9275    -999.2500     109.7959      46.3743      57.8774       1.0596       1.0154       1.0848    -999.2500    -999.2500    -999.2500    -999.2500
   2011.0800    -999.2500     109.9276      46.6467      56.5725       1.1054       1.0617       1.1343    -999.2500    -999.2500    -999.2500    -999.2500
   2011.2323    -999.2500     109.1062      45.7027      54.9359       1.1245       1.1043       1.1799    -999.2500    -999.2500    -999.2500    -999.2500
   2011.3846    -999.2500     108.8504      45.9087      56.5847       1.1245       1.1289       1.2064    -999.2500    -999.2500    -999.2500    -999.2500
   2011.5371    -999.2500     107.5770      45.6315      56.0315       1.1473       1.1542       1.2336    -999.2500    -999.2500    -999.2500    -999.2500
   2011.6895    -999.2500     107.0222      46.9567      53.2378       1.1728       1.1802       1.2449    -999.2500    -999.2500    -999.2500    -999.2500
   2011.8419    -999.2500     108.2832      46.5922      52.9468       1.1915       1.1994       1.2449    -999.2500    -999.2500    -999.2500    -999.2500
   2011.9943    -999.2500     108.0162      48.2375      62.9462       1.1915       1.1994       1.2449    -999.2500    -999.2500    -999.2500    -999.2500
   2012.1467    -999.2500     107.0036      48.5234      61.7040       1.2168       1.1994       1.2449    -999.2500    -999.2500    -999.2500    -999.2500
   2012.2991    -999.2500     107.8274      50.2555      58.4051       1.2088       1.1994       1.2632    -999.2500    -999.2500    -999.2500    -999.2500
   2012.4515    -999.2500     107.7605      49.9424      57.0944       1.2096       1.1905       1.2722    -999.2500    -999.2500    -999.2500    -999.2500
   2012.6039    -999.2500     109.0169      50.6910      60.9436       1.2605       1.1654       1.2449    -999.2500    -999.2500    -999.2500    -999.2500
   2012.7563    -999.2500     109.1234      51.2799      53.4612       1.2069       1.1918       1.2449    -999.2500    -999.2500    -999.2500    -999.2500
   2012.9087    -999.2500     109.1214      51.5264      54.2746       1.1551       1.1449       1.2065    -999.2500    -999.2500    -999.2500    -999.2500
   2013.0612    -999.2500     111.6453      49.5502      59.4379       1.1148       1.0801       1.1539    -999.2500    -999.2500    -999.2500    -999.2500
   2013.2135    -999.2500     111.7752      48.4004      65.5961       1.0927       1.0389       1.1077    -999.2500    -999.2500    -999.2500    -999.2500
   2013.3658    -999.2500     111.9915      47.8408      66.4240       1.0927       1.0623       1.1077    -999.2500    -999.2500    -999.2500    -999.2500
