#------------------------------------------------------------------------------
#
#   Created by  : [OpenWorks] Log Export Utility (LEXP)
#   Created on  : 2016-05-11 12:25:27
#   Project     : CANT971
#   User        : R5K
#   Interpreter : PEP
#
#------------------------------------------------------------------------------
~VERSION INFORMATION
VERS. 2.0 : CWLS Log ASCII Standard - version 2.0
WRAP.  NO : One line per depth step
~WELL INFORMATION
#MNEMONIC   .UNIT                                           VALUE :DESCRIPTION
#------------------------------------------------------------------------------
STRT        .M                                           761.3999 :START DEPTH
STOP        .M                                          3020.1204 :STOP DEPTH
STEP        .M                                             0.1524 :STEP
NULL        .                                           -999.2500 :NULL VALUE
COMP        .                                             UNKNOWN :COMPANY
WELL        .                                               3048D :WELL
FLD         .                                             UNKNOWN :FIELD
LOC         .                                             UNKNOWN :LOCATION
CNTY        .                                             UNKNOWN :COUNTY
STAT        .                                             UNKNOWN :STATE
CTRY        .                                             UNKNOWN :COUNTRY
SRVC        .                                             UNKNOWN :SERVICE COMPANY
DATE        .                                             UNKNOWN :LOG DATE
UWI         .                                               3048D :UNIQUE WELL ID
XCOORD      .                                       599714.170000 :SURFACE X
YCOORD      .                                      2149960.100000 :SURFACE Y
LAT         .                                           19.442708 :LATITUDE
LON         .                                          -92.050104 :LONGITUDE
ELEV        .M                                             0.0000 :SURFACE ELEV
ELEV_TYPE   .                                                  KB :ELEV TYPE
~CURVE INFORMATION
#MNEMONIC.UNIT        API CODE       : CURVE DESCRIPTION
#------------------------------------------------------------------------------
DEPTH    .M                          : Measured Depth
CGR      .API         UNKNOWN        : CGR:Espectrometria-entubado-final:rC:NONE:v0 (auto-composite)
DT       .us/ft       UNKNOWN        : DT:Sonico:rC:NONE:v0 (auto-composite)
GR       .API         UNKNOWN        : GR:PETROWORKS:rC:NONE:v1 
GR-LWD   .API         UNKNOWN        : GR-LWD:resistivos-LWD:rC:NONE:v0 (auto-composite)
LLD-LWD  .ohm.m       UNKNOWN        : LLD-LWD:resistivos-LWD:rC:NONE:v0 (auto-composite)
LLS-LWD  .ohm.m       UNKNOWN        : LLS-LWD:resistivos-LWD:rC:NONE:v0 (auto-composite)
MSFL-LWD .ohm.m       UNKNOWN        : MSFL-LWD:resistivos-LWD:rC:NONE:v0 (auto-composite)
NPHI     .UNKNOWN     UNKNOWN        : NPHI:porosidad-entubado:rC:NONE:v0 (auto-composite)
POTA     .wtpercent   UNKNOWN        : POTA:Espectrometria-entubado-final:rC:NONE:v0 (auto-composite)
THOR     .ppm         UNKNOWN        : THOR:Espectrometria-entubado-final:rC:NONE:v0 (auto-composite)
URAN     .ppm         UNKNOWN        : URAN:Espectrometria-entubado-final:rC:NONE:v0 (auto-composite)
~A     DEPTH          CGR           DT           GR       GR-LWD      LLD-LWD      LLS-LWD     MSFL-LWD         NPHI         POTA         THOR         URAN
# ...
   1950.1199    -999.2500     109.7559      61.2202      79.2368       1.0583       1.0929       1.1340    -999.2500    -999.2500    -999.2500    -999.2500
   1950.2723    -999.2500     110.5323      59.8611      84.2919       1.0350       1.0454       1.0846    -999.2500    -999.2500    -999.2500    -999.2500
   1950.4247    -999.2500     109.9866      60.1514      78.3706       1.0307       1.0182       1.0562    -999.2500    -999.2500    -999.2500    -999.2500
   1950.5771    -999.2500     109.6960      61.4616      72.1224       1.0307       1.0070       1.0445    -999.2500    -999.2500    -999.2500    -999.2500
   1950.7295    -999.2500     109.9973      62.3789      68.2790       1.0307       1.0070       1.0445    -999.2500    -999.2500    -999.2500    -999.2500
   1950.8820    -999.2500     110.2240      62.2123      65.8240       1.0307       1.0070       1.0445    -999.2500    -999.2500    -999.2500    -999.2500
   1951.0343    -999.2500     111.1657      61.3458      66.9856       1.0723       0.9875       1.0242    -999.2500    -999.2500    -999.2500    -999.2500
   1951.1866    -999.2500     111.6492      61.0634      69.5987       1.1209       1.0034       1.0409    -999.2500    -999.2500    -999.2500    -999.2500
   1951.3391    -999.2500     113.1501      61.0256      69.9504       1.1389       1.0368       1.0819    -999.2500    -999.2500    -999.2500    -999.2500
   1951.4915    -999.2500     113.8293      62.1896      61.6291       1.0655       1.0368       1.1063    -999.2500    -999.2500    -999.2500    -999.2500
   1951.6439    -999.2500     113.6341      62.8489      63.5122       1.0393       0.9944       1.0622    -999.2500    -999.2500    -999.2500    -999.2500
   1951.7963    -999.2500     112.4034      62.4250      70.7280       1.0455       0.9919       1.0445    -999.2500    -999.2500    -999.2500    -999.2500
   1951.9487    -999.2500     111.0174      61.9024      75.3861       1.1015       1.0294       1.0599    -999.2500    -999.2500    -999.2500    -999.2500
   1952.1011    -999.2500     111.1939      60.8869      68.7643       1.2260       1.0991       1.1077    -999.2500    -999.2500    -999.2500    -999.2500
   1952.2535    -999.2500     110.2979      58.8407      72.9574       1.1736       1.0991       1.1329    -999.2500    -999.2500    -999.2500    -999.2500
   1952.4059    -999.2500     106.5320      56.2325      77.1398       1.0447       1.0200       1.0582    -999.2500    -999.2500    -999.2500    -999.2500
   1952.5583    -999.2500     106.9010      55.2954      79.7292       0.9785       0.9579       0.9935    -999.2500    -999.2500    -999.2500    -999.2500
   1952.7107    -999.2500     107.5975      56.4039      79.4337       1.0648       0.9795       1.0159    -999.2500    -999.2500    -999.2500    -999.2500
   1952.8632    -999.2500     109.9745      59.2064      75.2434       1.1129       1.0016       1.0389    -999.2500    -999.2500    -999.2500    -999.2500
   1953.0155    -999.2500     110.2455      61.8127      66.0278       1.1245       1.0242       1.0625    -999.2500    -999.2500    -999.2500    -999.2500
   1953.1678    -999.2500     110.1832      62.9246      65.9806       1.1358       1.0472       1.0865    -999.2500    -999.2500    -999.2500    -999.2500
   1953.3203    -999.2500     110.6515      60.9806      77.5400       1.1683       1.0809       1.1144    -999.2500    -999.2500    -999.2500    -999.2500
   1953.4727    -999.2500     110.3341      57.2669      77.4964       1.2477       1.1814       1.1652    -999.2500    -999.2500    -999.2500    -999.2500
   1953.6251    -999.2500     110.1645      55.7256      68.6697       1.2619       1.2217       1.1961    -999.2500    -999.2500    -999.2500    -999.2500
   1953.7775    -999.2500     110.4878      55.9756      67.1498       1.1963       1.1949       1.1956    -999.2500    -999.2500    -999.2500    -999.2500
   1953.9299    -999.2500     111.1541      57.0098      72.1146       1.0747       1.1219       1.1643    -999.2500    -999.2500    -999.2500    -999.2500
   1954.0823    -999.2500     111.1872      56.7407      67.1729       0.9831       1.0731       1.1136    -999.2500    -999.2500    -999.2500    -999.2500
   1954.2347    -999.2500     111.3085      56.9003      65.8485       0.9353       0.9882       1.0448    -999.2500    -999.2500    -999.2500    -999.2500
   1954.3871    -999.2500     112.0474      57.7618      68.8422       0.9060       0.9377       1.0015    -999.2500    -999.2500    -999.2500    -999.2500
   1954.5396    -999.2500     113.0696      57.1659      73.1979       0.8914       0.9169       0.9739    -999.2500    -999.2500    -999.2500    -999.2500
   1954.6919    -999.2500     111.7173      57.0603      73.1979       0.8914       0.8967       0.9310    -999.2500    -999.2500    -999.2500    -999.2500
   1954.8444    -999.2500     112.8332      55.7649      66.8287       0.8552       0.8587       0.8905    -999.2500    -999.2500    -999.2500    -999.2500
   1954.9967    -999.2500     113.8191      57.6425      64.3826       0.8911       0.8566       0.8758    -999.2500    -999.2500    -999.2500    -999.2500
   1955.1490    -999.2500     114.7958      57.7613      65.4750       0.9512       0.8825       0.8888    -999.2500    -999.2500    -999.2500    -999.2500
   1955.3015    -999.2500     115.4706      57.8545      68.7834       0.9725       0.9222       0.9287    -999.2500    -999.2500    -999.2500    -999.2500
   1955.4539    -999.2500     114.7960      58.5140      71.2630       1.0650       0.9874       0.9946    -999.2500    -999.2500    -999.2500    -999.2500
   1955.6063    -999.2500     114.1105      59.3865      72.6146       1.1273       1.0228       1.0469    -999.2500    -999.2500    -999.2500    -999.2500
   1955.7587    -999.2500     113.2922      58.4930      70.9085       1.1480       1.0458       1.0850    -999.2500    -999.2500    -999.2500    -999.2500
   1955.9111    -999.2500     114.3439      56.1235      65.0898       1.1227       1.0675       1.1095    -999.2500    -999.2500    -999.2500    -999.2500
   1956.0635    -999.2500     115.3776      56.4927      59.2687       1.0985       1.0675       1.1345    -999.2500    -999.2500    -999.2500    -999.2500
   1956.2159    -999.2500     115.3649      57.4509      62.3028       1.0746       1.0675       1.1215    -999.2500    -999.2500    -999.2500    -999.2500
   1956.3683    -999.2500     115.3285      56.3528      71.8490       1.0829       1.0675       1.1077    -999.2500    -999.2500    -999.2500    -999.2500
   1956.5208    -999.2500     114.0908      55.1087      83.3986       1.1245       1.0675       1.1077    -999.2500    -999.2500    -999.2500    -999.2500
   1956.6731    -999.2500     111.2995      55.1227      78.4059       1.1245       1.0675       1.1077    -999.2500    -999.2500    -999.2500    -999.2500
   1956.8256    -999.2500     111.9714      55.8449      77.5267       1.1045       1.0873       1.1283    -999.2500    -999.2500    -999.2500    -999.2500
   1956.9779    -999.2500     110.5733      56.2236      74.9640       1.1051       1.0991       1.1405    -999.2500    -999.2500    -999.2500    -999.2500
   1957.1302    -999.2500     110.2941      55.3594      69.6231       1.1295       1.0991       1.1405    -999.2500    -999.2500    -999.2500    -999.2500
   1957.2827    -999.2500     111.9940      55.3882      62.9708       1.1548       1.0991       1.1405    -999.2500    -999.2500    -999.2500    -999.2500
   1957.4351    -999.2500     108.4291      55.0197      71.8090       1.1577       1.0991       1.1405    -999.2500    -999.2500    -999.2500    -999.2500
   1957.5875    -999.2500     107.9671      56.9210      76.9007       1.1725       1.1132       1.1553    -999.2500    -999.2500    -999.2500    -999.2500
   1957.7399    -999.2500     112.3241      57.4840      73.1627       1.1984       1.1380       1.1812    -999.2500    -999.2500    -999.2500    -999.2500
   1957.8923    -999.2500     112.1686      59.3195      56.5441       1.2247       1.1634       1.2078    -999.2500    -999.2500    -999.2500    -999.2500
