#------------------------------------------------------------------------------
#
#   Created by  : [OpenWorks] Log Export Utility (LEXP)
#   Created on  : 2016-05-11 12:25:27
#   Project     : CANT971
#   User        : R5K
#   Interpreter : PEP
#
#------------------------------------------------------------------------------
~VERSION INFORMATION
VERS. 2.0 : CWLS Log ASCII Standard - version 2.0
WRAP.  NO : One line per depth step
~WELL INFORMATION
#MNEMONIC   .UNIT                                           VALUE :DESCRIPTION
#------------------------------------------------------------------------------
STRT        .M                                           761.3999 :START DEPTH
STOP        .M                                          3020.1204 :STOP DEPTH
STEP        .M                                             0.1524 :STEP
NULL        .                                           -999.2500 :NULL VALUE
COMP        .                                             UNKNOWN :COMPANY
WELL        .                                               3048D :WELL
FLD         .                                             UNKNOWN :FIELD
LOC         .                                             UNKNOWN :LOCATION
CNTY        .                                             UNKNOWN :COUNTY
STAT        .                                             UNKNOWN :STATE
CTRY        .                                             UNKNOWN :COUNTRY
SRVC        .                                             UNKNOWN :SERVICE COMPANY
DATE        .                                             UNKNOWN :LOG DATE
UWI         .                                               3048D :UNIQUE WELL ID
XCOORD      .                                       599714.170000 :SURFACE X
YCOORD      .                                      2149960.100000 :SURFACE Y
LAT         .                                           19.442708 :LATITUDE
LON         .                                          -92.050104 :LONGITUDE
ELEV        .M                                             0.0000 :SURFACE ELEV
ELEV_TYPE   .                                                  KB :ELEV TYPE
~CURVE INFORMATION
#MNEMONIC.UNIT        API CODE       : CURVE DESCRIPTION
#------------------------------------------------------------------------------
DEPTH    .M                          : Measured Depth
CGR      .API         UNKNOWN        : CGR:Espectrometria-entubado-final:rC:NONE:v0 (auto-composite)
DT       .us/ft       UNKNOWN        : DT:Sonico:rC:NONE:v0 (auto-composite)
GR       .API         UNKNOWN        : GR:PETROWORKS:rC:NONE:v1 
GR-LWD   .API         UNKNOWN        : GR-LWD:resistivos-LWD:rC:NONE:v0 (auto-composite)
LLD-LWD  .ohm.m       UNKNOWN        : LLD-LWD:resistivos-LWD:rC:NONE:v0 (auto-composite)
LLS-LWD  .ohm.m       UNKNOWN        : LLS-LWD:resistivos-LWD:rC:NONE:v0 (auto-composite)
MSFL-LWD .ohm.m       UNKNOWN        : MSFL-LWD:resistivos-LWD:rC:NONE:v0 (auto-composite)
NPHI     .UNKNOWN     UNKNOWN        : NPHI:porosidad-entubado:rC:NONE:v0 (auto-composite)
POTA     .wtpercent   UNKNOWN        : POTA:Espectrometria-entubado-final:rC:NONE:v0 (auto-composite)
THOR     .ppm         UNKNOWN        : THOR:Espectrometria-entubado-final:rC:NONE:v0 (auto-composite)
URAN     .ppm         UNKNOWN        : URAN:Espectrometria-entubado-final:rC:NONE:v0 (auto-composite)
~A     DEPTH          CGR           DT           GR       GR-LWD      LLD-LWD      LLS-LWD     MSFL-LWD         NPHI         POTA         THOR         URAN
# ...
   2520.7056       3.3159    -999.2500      33.8966      56.3050    2000.0000     312.5818     137.9998       0.0328       0.0015       0.3463       3.4047
   2520.8579       4.5670    -999.2500      34.2758      54.9353    2000.0000     964.1365     527.3694       0.0338       0.0020       0.4823       3.3076
   2521.0103       5.4048    -999.2500      34.3635      53.0887    1549.2802    1490.2935     849.7788       0.0337       0.0027       0.4526       3.2241
   2521.1626       7.1417    -999.2500      34.6011      53.7334    1181.9362     528.0240     287.8136       0.0324       0.0039       0.4862       3.0572
   2521.3152       8.5578    -999.2500      35.2777      53.9568    1652.2935     231.7780     112.4252       0.0321       0.0048       0.5052       2.9748
   2521.4675       8.6670    -999.2500      35.9164      55.7770    2000.0000     445.5618     140.0598       0.0340       0.0049       0.5080       3.0338
   2521.6199       7.9759    -999.2500      35.6747      56.6027    2000.0000     573.9351     155.9296       0.0354       0.0045       0.4832       3.0838
   2521.7722       8.0268    -999.2500      34.7916      50.8071    2000.0000     334.9545     150.1246       0.0345       0.0045       0.4914       2.9799
   2521.9248       9.1374    -999.2500      33.8219      46.7715    2000.0000     353.2754     137.8938       0.0323       0.0051       0.5568       2.7482
   2522.0771      10.0117    -999.2500      33.6324      47.2775    2000.0000     466.8393     138.0239       0.0297       0.0055       0.6445       2.6297
   2522.2295      10.3191    -999.2500      33.1816      54.6455    2000.0000     550.5497     137.5181       0.0275       0.0052       0.8597       2.5454
   2522.3818      10.2901    -999.2500      32.0997      55.1013    2000.0000     495.7126     125.2818       0.0260       0.0046       1.0760       2.4281
   2522.5344      11.1269    -999.2500      30.1157      44.1325    2000.0000     489.1479     318.9199       0.0249       0.0046       1.3197       2.1141
   2522.6868      11.0704    -999.2500      28.3870      41.9664    2000.0000     613.9660     216.1655       0.0238       0.0047       1.2691       1.9279
   2522.8391       9.9765    -999.2500      27.3745      40.2990    1363.9062     434.1834     140.3827       0.0237       0.0042       1.1597       1.9370
   2522.9915       8.3423    -999.2500      27.2445      38.4722     666.5471     162.3934      64.7956       0.0256       0.0037       0.8916       2.1045
   2523.1438       8.7446    -999.2500      27.1715      41.4116    1486.3295     654.3721     500.1800       0.0292       0.0045       0.7045       2.0516
   2523.2964      10.2692    -999.2500      27.1940      44.6319    2000.0000    1584.0419    1476.2954       0.0319       0.0056       0.6796       1.8843
   2523.4487      11.2014    -999.2500      27.5984      45.5636    1762.6150    1363.2306    1271.5121       0.0311       0.0064       0.6541       1.8255
   2523.6011       8.9541    -999.2500      28.4695      45.5635    1348.9700     253.6556      88.1929       0.0277       0.0057       0.2954       2.1727
   2523.7534       6.6284    -999.2500      30.2006      38.6141    1801.8822    1752.5775    1703.0372       0.0242       0.0045       0.0810       2.6244
   2523.9060       5.8022    -999.2500      30.9644      42.9653    1228.6493    1032.4768     974.4478       0.0228       0.0040       0.0537       2.8015
   2524.0583       9.8051    -999.2500      29.4621      50.3354     847.3936     444.9839     173.0308       0.0235       0.0070       0.0228       2.1885
   2524.2107       8.8097    -999.2500      30.7958      52.6919    1348.9700     894.7297     284.2011       0.0251       0.0062       0.0348       2.4478
   2524.3630       5.9356    -999.2500      30.5248      51.7804    1348.9700     894.7297     284.2011       0.0267       0.0039       0.1378       2.7376
   2524.5154       6.7586    -999.2500      30.8302      51.5588    1348.9700     416.9376     183.0474       0.0273       0.0034       0.5764       2.6800
   2524.6680       7.3069    -999.2500      30.9098      40.9742     877.8751     522.5831     155.9296       0.0265       0.0030       0.8740       2.6278
   2524.8203       7.7900    -999.2500      30.7326      39.5767     723.7382     633.0607     155.9296       0.0253       0.0030       1.0045       2.5543
   2524.9727       7.5062    -999.2500      31.5038      46.7593     851.9769     570.5550     162.9468       0.0242       0.0031       0.9015       2.6717
   2525.1250       8.5531    -999.2500      33.0419      49.7623     826.3298     417.9031     171.2349       0.0241       0.0040       0.8260       2.7264
   2525.2776       9.4503    -999.2500      35.4118      52.0242     568.2990     288.8489     145.5139       0.0256       0.0048       0.7752       2.8904
   2525.4299       8.7992    -999.2500      37.1800      51.1496     429.0663     288.8489     123.8170       0.0284       0.0048       0.5866       3.1597
   2525.5823       7.7144    -999.2500      37.3986      45.8831     429.0663     288.8489     123.8170       0.0303       0.0039       0.6461       3.3049
   2525.7346       7.5481    -999.2500      34.6132      59.9520     349.8013     251.2472     153.1414       0.0291       0.0033       0.8266       3.0132
   2525.8872       8.3841    -999.2500      29.6426      59.9520     284.1423     240.6854     140.9138       0.0241       0.0035       0.9881       2.3668
   2526.0396       7.4153    -999.2500      24.5391      58.2783     235.7087     207.5929     115.6222       0.0183       0.0036       0.6780       1.9065
   2526.1919       5.2090    -999.2500      21.1146      43.2063     267.4405     212.3410     126.7956       0.0151       0.0028       0.3800       1.7709
   2526.3442       2.9017    -999.2500      19.7778      32.4512     233.7375     242.4416     148.1629       0.0147       0.0018       0.1176       1.8789
   2526.4966       1.9617    -999.2500      19.2906      36.6048     200.0135     233.5432     183.9492       0.0149       0.0013       0.0403       1.9293
   2526.6492       2.5664    -999.2500      19.0504      39.5683     192.3366     239.5305     175.6080       0.0145       0.0017       0.0364       1.8352
   2526.8015       3.6097    -999.2500      19.4738      36.8695     175.7541     239.9456     147.8984       0.0134       0.0025       0.0259       1.7662
   2526.9539       4.7309    -999.2500      22.9433      30.9439     139.9422     211.4854     140.7460       0.0131       0.0033       0.0249       2.0276
   2527.1062       5.8526    -999.2500      30.9635      27.9128     120.0380     196.7268     158.4558       0.0141       0.0039       0.1099       2.7957
   2527.2588       8.4964    -999.2500      43.8611      34.9153     105.0066     154.8988     133.6427       0.0168       0.0050       0.4300       3.9373
   2527.4111      11.6592    -999.2500      55.2813      41.2460      98.3427     128.6876      98.7402       0.0206       0.0062       0.8613       4.8566
   2527.5635      12.7186    -999.2500      57.7059      58.0901      90.2344     106.8874      83.0253       0.0247       0.0064       1.0614       5.0086
   2527.7158      11.4932    -999.2500      49.8196     111.5629      42.9556      40.4410      32.7879       0.0272       0.0058       0.9422       4.2670
   2527.8684       8.8154    -999.2500      37.6651     100.6055      42.9556      42.9120      38.0044       0.0274       0.0046       0.6826       3.2120
   2528.0208       7.8411    -999.2500      29.8796      67.2776      43.2839      45.3082      46.7554       0.0291       0.0040       0.6367       2.4536
   2528.1731      10.5628    -999.2500      31.1008      44.9641      43.8977      42.7587      48.2766       0.0334       0.0048       1.1097       2.2866
   2528.3254      16.8088    -999.2500      38.5024      48.2932      44.0441      42.1507      48.6394       0.0339       0.0069       2.0132       2.4153
   2528.4778      23.2019    -999.2500      46.6993      69.5678      44.0441      37.5572      37.6485       0.0281       0.0092       2.9383       2.6161
