#------------------------------------------------------------------------------
#
#   Created by  : [OpenWorks] Log Export Utility (LEXP)
#   Created on  : 2016-05-11 12:25:27
#   Project     : CANT971
#   User        : R5K
#   Interpreter : PEP
#
#------------------------------------------------------------------------------
~VERSION INFORMATION
VERS. 2.0 : CWLS Log ASCII Standard - version 2.0
WRAP.  NO : One line per depth step
~WELL INFORMATION
#MNEMONIC   .UNIT                                           VALUE :DESCRIPTION
#------------------------------------------------------------------------------
STRT        .M                                           761.3999 :START DEPTH
STOP        .M                                          3020.1204 :STOP DEPTH
STEP        .M                                             0.1524 :STEP
NULL        .                                           -999.2500 :NULL VALUE
COMP        .                                             UNKNOWN :COMPANY
WELL        .                                               3048D :WELL
FLD         .                                             UNKNOWN :FIELD
LOC         .                                             UNKNOWN :LOCATION
CNTY        .                                             UNKNOWN :COUNTY
STAT        .                                             UNKNOWN :STATE
CTRY        .                                             UNKNOWN :COUNTRY
SRVC        .                                             UNKNOWN :SERVICE COMPANY
DATE        .                                             UNKNOWN :LOG DATE
UWI         .                                               3048D :UNIQUE WELL ID
XCOORD      .                                       599714.170000 :SURFACE X
YCOORD      .                                      2149960.100000 :SURFACE Y
LAT         .                                           19.442708 :LATITUDE
LON         .                                          -92.050104 :LONGITUDE
ELEV        .M                                             0.0000 :SURFACE ELEV
ELEV_TYPE   .                                                  KB :ELEV TYPE
~CURVE INFORMATION
#MNEMONIC.UNIT        API CODE       : CURVE DESCRIPTION
#------------------------------------------------------------------------------
DEPTH    .M                          : Measured Depth
CGR      .API         UNKNOWN        : CGR:Espectrometria-entubado-final:rC:NONE:v0 (auto-composite)
DT       .us/ft       UNKNOWN        : DT:Sonico:rC:NONE:v0 (auto-composite)
GR       .API         UNKNOWN        : GR:PETROWORKS:rC:NONE:v1 
GR-LWD   .API         UNKNOWN        : GR-LWD:resistivos-LWD:rC:NONE:v0 (auto-composite)
LLD-LWD  .ohm.m       UNKNOWN        : LLD-LWD:resistivos-LWD:rC:NONE:v0 (auto-composite)
LLS-LWD  .ohm.m       UNKNOWN        : LLS-LWD:resistivos-LWD:rC:NONE:v0 (auto-composite)
MSFL-LWD .ohm.m       UNKNOWN        : MSFL-LWD:resistivos-LWD:rC:NONE:v0 (auto-composite)
NPHI     .UNKNOWN     UNKNOWN        : NPHI:porosidad-entubado:rC:NONE:v0 (auto-composite)
POTA     .wtpercent   UNKNOWN        : POTA:Espectrometria-entubado-final:rC:NONE:v0 (auto-composite)
THOR     .ppm         UNKNOWN        : THOR:Espectrometria-entubado-final:rC:NONE:v0 (auto-composite)
URAN     .ppm         UNKNOWN        : URAN:Espectrometria-entubado-final:rC:NONE:v0 (auto-composite)
~A     DEPTH          CGR           DT           GR       GR-LWD      LLD-LWD      LLS-LWD     MSFL-LWD         NPHI         POTA         THOR         URAN
# ...
   2409.7583       4.9907    -999.2500      36.4846      35.7301      11.8729      12.8111      13.1244       0.0017       0.0034       0.0757       3.5064
   2409.9106       6.7961    -999.2500      38.4398      35.7301      11.8729      12.8111      13.1244       0.0012       0.0045       0.1489       3.5233
   2410.0630       9.0936    -999.2500      39.7701      35.7301      11.8729      12.8111      13.1244       0.0013       0.0055       0.4081       3.4154
   2410.2156       9.9798    -999.2500      40.7108      35.7301      11.8729      12.8111      13.1244       0.0018       0.0054       0.6848       3.4214
   2410.3679      10.5825    -999.2500      40.8554      35.7301      11.8729      12.8111      13.1244       0.0022       0.0051       0.9799       3.3703
   2410.5203      10.3126    -999.2500      40.2779      35.7301      11.8729      12.8111      13.1244       0.0021       0.0047       1.0623       3.3362
   2410.6726       9.6470    -999.2500      38.6816      35.7301      11.8729      12.8111      13.1244       0.0019       0.0039       1.1749       3.2325
   2410.8252       7.6154    -999.2500      37.2827      35.7301      11.8729      12.8111      13.1244       0.0017       0.0027       1.1053       3.3029
   2410.9775       5.4166    -999.2500      36.4798      35.7301      11.8729      12.8111      13.1244       0.0009       0.0012       1.0708       3.4583
   2411.1299       3.1884    -999.2500      36.9710      35.7301      11.8729      12.8111      13.1244      -0.0005       0.0004       0.7651       3.7612
   2411.2822       3.2118    -999.2500      38.3543      35.7301      11.8729      12.8111      13.1244      -0.0013       0.0007       0.6385       3.9125
   2411.4348       3.3269    -999.2500      40.0054      35.7301      11.8729      12.8111      13.1244      -0.0004       0.0014       0.4061       4.0837
   2411.5872       4.6454    -999.2500      40.5845      35.7301      11.8729      12.8111      13.1244       0.0013       0.0025       0.3122       4.0013
   2411.7395       5.8099    -999.2500      39.6818      35.7301      11.8729      12.8111      13.1244       0.0021       0.0031       0.4137       3.7711
   2411.8918       7.3187    -999.2500      37.4995      35.7301      11.8729      12.8111      13.1244       0.0027       0.0037       0.5949       3.3597
   2412.0442       7.7908    -999.2500      34.8965      35.7301      11.8729      12.8111      13.1244       0.0042       0.0036       0.7734       3.0178
   2412.1968       7.7455    -999.2500      32.3644      35.7301      11.8729      12.8111      13.1244       0.0062       0.0034       0.8522       2.7409
   2412.3491       6.9404    -999.2500      30.4921      35.7301      11.8729      12.8111      13.1244       0.0081       0.0025       0.9889       2.6220
   2412.5015       5.3275    -999.2500      29.1586      35.7301      11.8729      12.8111      13.1244       0.0098       0.0013       0.9840       2.6532
   2412.6538       4.8637    -999.2500      28.4680      35.7301      11.8729      12.8111      13.1244       0.0108       0.0007       1.0895       2.6280
   2412.8064       3.5788    -999.2500      27.9128      35.7301      11.8729      12.8111      13.1244       0.0113       0.0003       0.8926       2.7092
   2412.9587       3.1178    -999.2500      27.8291      35.7301      11.8729      12.8111      13.1244       0.0116       0.0003       0.7796       2.7512
   2413.1111       2.2333    -999.2500      27.0680      35.7301      11.8729      12.8111      13.1244       0.0118       0.0003       0.5092       2.7650
   2413.2634       2.7472    -999.2500      26.5229      35.7301      11.8729      12.8111      13.1244       0.0112       0.0014       0.2345       2.6470
   2413.4160       4.0972    -999.2500      26.3285      35.7301      11.8729      12.8111      13.1244       0.0103       0.0025       0.1583       2.4751
   2413.5684       5.3806    -999.2500      26.7881      35.7301      11.8729      12.8111      13.1244       0.0097       0.0036       0.1085       2.3834
   2413.7207       6.6405    -999.2500      27.2429      35.7301      11.8729      12.8111      13.1244       0.0090       0.0044       0.1423       2.2937
   2413.8730       7.8464    -999.2500      27.7579      35.7301      11.8729      12.8111      13.1244       0.0082       0.0045       0.4358       2.2169
   2414.0254       8.0624    -999.2500      28.1113      35.7301      11.8729      12.8111      13.1244       0.0077       0.0041       0.6716       2.2321
   2414.1780       9.5849    -999.2500      28.7764      35.7301      11.8729      12.8111      13.1244       0.0063       0.0042       1.0400       2.1366
   2414.3303      11.0499    -999.2500      29.4475      35.7301      11.8729      12.8111      13.1244       0.0026       0.0049       1.1970       2.0483
   2414.4827      12.1459    -999.2500      30.1788      35.7301      11.8729      12.8111      13.1244      -0.0014       0.0055       1.2615       2.0077
   2414.6350      10.8403    -999.2500      30.5945      35.7301      11.8729      12.8111      13.1244      -0.0021       0.0053       0.9773       2.1993
   2414.7876       8.9918    -999.2500      31.0238      35.7301      11.8729      12.8111      13.1244      -0.0000       0.0048       0.6610       2.4529
   2414.9399       7.0685    -999.2500      31.1713      35.7301      11.8729      12.8111      13.1244       0.0018       0.0043       0.2872       2.6835
   2415.0923       6.4382    -999.2500      31.3373      35.7301      11.8729      12.8111      13.1244       0.0019       0.0043       0.1147       2.7721
   2415.2446       6.7902    -999.2500      31.2911      35.7301      11.8729      12.8111      13.1244       0.0010       0.0048       0.0288       2.7278
   2415.3972       8.1524    -999.2500      32.0841      35.7301      11.8729      12.8111      13.1244      -0.0001       0.0058       0.0252       2.6646
   2415.5496       9.3287    -999.2500      33.5614      35.7301      11.8729      12.8111      13.1244      -0.0006       0.0066       0.0347       2.6980
   2415.7019       6.7896    -999.2500      34.7158      35.7301      11.8729      12.8111      13.1244      -0.0004       0.0047       0.0619       3.1091
   2415.8542       5.9328    -999.2500      32.4773      35.7301      11.8729      12.8111      13.1244       0.0012       0.0036       0.2547       2.9550
   2416.0066       6.5163    -999.2500      29.9698      35.7301      11.8729      12.8111      13.1244       0.0039       0.0036       0.4214       2.6111
   2416.1592       5.3294    -999.2500      27.5801      35.7301      11.8729      12.8111      13.1244       0.0071       0.0031       0.2947       2.4773
   2416.3115       4.2588    -999.2500      26.5182      35.7301      11.8729      12.8111      13.1244       0.0093       0.0027       0.1207       2.4782
   2416.4639       3.8938    -999.2500      26.0921      35.7301      11.8729      12.8111      13.1244       0.0100       0.0027       0.0423       2.4714
   2416.6162       4.4574    -999.2500      25.2764      35.7301      11.8729      12.8111      13.1244       0.0101       0.0029       0.1018       2.3178
   2416.7688       4.7256    -999.2500      24.5032      35.7301      11.8729      12.8111      13.1244       0.0104       0.0026       0.3224       2.2019
   2416.9211       4.7634    -999.2500      23.9488      35.7301      11.8729      12.8111      13.1244       0.0109       0.0021       0.5298       2.1360
   2417.0735       4.5791    -999.2500      24.1323      35.7301      11.8729      12.8111      13.1244       0.0114       0.0017       0.6361       2.1769
   2417.2258       4.6182    -999.2500      24.0056      35.7301      11.8729      12.8111      13.1244       0.0116       0.0018       0.5941       2.1584
   2417.3784       5.2250    -999.2500      23.5622      35.7301      11.8729      12.8111      13.1244       0.0110       0.0023       0.5882       2.0415
   2417.5308       6.5891    -999.2500      23.3309      35.7301      11.8729      12.8111      13.1244       0.0099       0.0033       0.5411       1.8639
