#------------------------------------------------------------------------------
#
#   Created by  : [OpenWorks] Log Export Utility (LEXP)
#   Created on  : 2016-05-19 10:13:49
#   Project     : CANT971
#   User        : R5K
#   Interpreter : PEP
#
#------------------------------------------------------------------------------
~VERSION INFORMATION
VERS. 2.0 : CWLS Log ASCII Standard - version 2.0
WRAP.  NO : One line per depth step
~WELL INFORMATION
#MNEMONIC   .UNIT                                           VALUE :DESCRIPTION
#------------------------------------------------------------------------------
STRT        .M                                           767.9436 :START DEPTH
STOP        .M                                          2393.5945 :STOP DEPTH
STEP        .M                                             0.1524 :STEP
NULL        .                                           -999.2500 :NULL VALUE
COMP        .                                             UNKNOWN :COMPANY
WELL        .                                                3050 :WELL
FLD         .                                             UNKNOWN :FIELD
LOC         .                                             UNKNOWN :LOCATION
CNTY        .                                             UNKNOWN :COUNTY
STAT        .                                             UNKNOWN :STATE
CTRY        .                                             UNKNOWN :COUNTRY
SRVC        .                                             UNKNOWN :SERVICE COMPANY
DATE        .                                             UNKNOWN :LOG DATE
UWI         .                                                3050 :UNIQUE WELL ID
XCOORD      .                                       601504.140000 :SURFACE X
YCOORD      .                                      2149905.320000 :SURFACE Y
LAT         .                                           19.442123 :LATITUDE
LON         .                                          -92.033057 :LONGITUDE
ELEV        .M                                             0.0000 :SURFACE ELEV
ELEV_TYPE   .                                                  KB :ELEV TYPE
~CURVE INFORMATION
#MNEMONIC.UNIT        API CODE       : CURVE DESCRIPTION
#------------------------------------------------------------------------------
DEPTH    .M                          : Measured Depth
DT       .us/ft       UNKNOWN        : DT:Sonico:rC:NONE:v0 (auto-composite)
GR       .API         UNKNOWN        : GR:PETROWORKS:rC:NONE:v2 
GR-LWD   .UNKNOWN     UNKNOWN        : GR-LWD:PETROWORKS:rC:NONE:v1 
ILD-LWD  .UNKNOWN     UNKNOWN        : ILD-LWD:PETROWORKS:rC:NONE:v1 
ILM-LWD  .UNKNOWN     UNKNOWN        : ILM-LWD:PETROWORKS:rC:NONE:v1 
~A     DEPTH           DT           GR       GR-LWD      ILD-LWD      ILM-LWD
# ...
   1960.9308     107.8999      38.0267      55.0985       0.9444       1.0441
   1961.0833     107.4779      38.8916      55.3087       0.9630       1.0387
   1961.2356     107.5667      39.2637      56.0849       0.9588       0.9749
   1961.3881     107.0544      41.3675      59.8799       0.9134       0.8821
   1961.5404     107.5224      42.0844      60.9760       0.8721       0.8282
   1961.6927     107.2405      40.8353      58.7187       0.8573       0.8135
   1961.8452     112.8401      38.9433      56.8217       0.9414       0.8795
   1961.9976     114.2740      38.2570      58.8628       1.1407       1.0404
   1962.1500     114.2543      38.2107      55.8784       1.2406       1.1279
   1962.3024     111.1255      37.5521      50.7198       1.2238       1.1415
   1962.4548     109.5309      37.1503      48.6747       1.2196       1.2069
   1962.6072     108.1838      36.1583      51.7112       1.2554       1.2626
   1962.7596     110.9481      37.1634      55.1869       1.1742       1.1497
   1962.9120     107.6052      40.3818      60.7974       1.0316       1.0078
   1963.0645     108.3360      41.7282      66.2215       0.9338       0.9295
   1963.2168     108.6365      41.7172      66.3248       0.8430       0.8400
   1963.3693     112.2797      40.1074      62.9748       0.8468       0.8056
   1963.5216     111.1692      39.8678      58.3043       0.8657       0.7984
   1963.6740     113.0836      39.6979      58.6360       0.8633       0.8085
   1963.8264     114.6405      39.2209      57.3117       0.8702       0.8352
   1963.9788     115.4523      39.4749      55.8365       0.8993       0.8621
   1964.1312     117.2472      38.2252      62.5190       0.9369       0.8866
   1964.2836     117.0552      39.0398      64.5474       0.9643       0.9101
   1964.4360     117.2615      40.2936      61.8297       0.9638       0.9124
   1964.5884     116.2638      42.6739      58.9018       0.9474       0.8933
   1964.7408     113.1080      42.2377      55.6989       0.9738       0.9293
   1964.8932     108.6130      37.9171      50.8090       1.1489       1.1347
   1965.0457     110.2337      33.7462      51.3531       1.2828       1.3323
   1965.1980     102.7351      32.7439      51.1198       1.1295       1.2148
   1965.3505     100.6443      33.4308      51.3441       0.9806       1.0662
   1965.5028      99.8195      34.2414      49.2152       0.8905       0.9753
   1965.6552     100.0321      33.3666      48.2604       0.9596       1.0084
   1965.8076     103.0296      34.1779      48.9636       1.0418       1.0455
   1965.9600     104.8008      35.1704      48.4423       1.0617       1.0672
   1966.1124     110.3923      36.2558      50.2002       1.0522       1.0900
   1966.2648     109.9009      38.0822      53.3525       1.0360       1.0708
   1966.4172     112.7683      40.0167      59.2615       1.0283       1.0223
   1966.5696     115.0636      41.4565      60.6263       1.0149       0.9690
   1966.7220     117.9533      41.2240      60.3227       0.9749       0.9290
   1966.8744     124.2292      40.5606      61.3544       0.8815       0.8651
   1967.0269     126.9450      40.5247      62.6328       0.7575       0.7404
   1967.1792     132.9080      40.2823      64.0275       0.6752       0.6464
   1967.3315     136.7454      40.9148      66.8439       0.6529       0.6129
   1967.4840     134.3472      41.1780      62.8631       0.6948       0.6234
   1967.6364     132.1113      41.8388      61.3107       0.7500       0.6483
   1967.7888     128.8576      40.4607      60.9038       0.7680       0.6734
   1967.9412     126.3210      40.0392      60.4123       0.7538       0.6907
   1968.0936     124.0075      40.7785      59.5214       0.7626       0.7137
   1968.2460     117.8144      40.6429      60.4769       0.8312       0.7739
   1968.3984     113.8523      40.0465      62.1744       0.8825       0.8154
   1968.5508     113.7500      40.6284      62.0631       0.9148       0.8574
   1968.7032     113.2777      41.9854      61.9276       0.9752       0.9346
   1968.8556     114.6166      44.0793      63.1821       1.0216       0.9912
   1969.0081     116.2628      42.8808      64.5553       1.0213       0.9803
   1969.1604     117.7160      42.6611      62.5359       0.9956       0.9492
   1969.3127     118.2905      41.7688      61.5541       0.9459       0.9124
   1969.4652     119.7531      41.5390      60.8810       0.8963       0.8675
   1969.6176     120.1889      40.2751      59.6414       0.8838       0.8428
   1969.7700     120.4194      39.7152      55.2681       0.8990       0.8501
   1969.9224     120.3230      39.5657      53.4107       0.9044       0.8568
   1970.0748     119.7071      41.2209      56.5717       0.8893       0.8469
   1970.2272     119.9089      42.8215      58.3820       0.8703       0.8353
   1970.3796     117.9531      43.2540      58.9940       0.8728       0.8350
   1970.5320     117.4909      43.5043      61.6783       0.8986       0.8468
   1970.6844     119.3236      42.3665      59.5896       0.9377       0.8800
   1970.8368     117.8749      42.5775      61.4391       0.9657       0.9163
   1970.9893     117.1019      40.8426      61.5749       0.9653       0.9338
   1971.1416     116.2242      40.1882      63.1002       0.9454       0.9316
   1971.2939     116.3269      39.4244      62.3272       0.9126       0.8991
   1971.4464     116.3725      40.5156      55.4267       0.8789       0.8527
   1971.5988     117.1865      41.0650      56.9927       0.8676       0.8226
   1971.7512     113.8001      40.5578      60.1704       0.8669       0.8064
   1971.9036     108.3536      38.4333      59.5395       0.8905       0.8184
   1972.0560     106.1166      37.0743      57.5782       0.9848       0.9006
   1972.2084     103.6923      35.2691      50.5555       1.1641       1.0787
   1972.3608     100.3102      33.5815      46.0636       1.2949       1.2085
   1972.5132      98.6111      31.5586      46.4058       1.3532       1.2714
   1972.6656      97.3142      30.9962      44.5028       1.4842       1.3681
   1972.8180      99.4706      30.4456      43.0620       1.8539       1.5624
   1972.9705      96.4724      29.9745      42.6732       2.6057       1.9507
   1973.1228      95.1276      28.5953      38.5603       3.7193       2.6644
   1973.2751      93.6980      25.5728      33.3538       4.9518       4.4269
   1973.4276      84.4245      21.0038      28.2481       6.0669       7.1189
   1973.5800      81.6196      16.9855      22.6573       7.3704      10.6346
   1973.7324      62.7702      15.7794      23.1982       7.8659      11.9402
   1973.8848      63.9480      16.8779      24.9884       8.1537      10.5113
   1974.0372      63.8738      17.7761      21.2939      11.6671      12.9668
   1974.1896      67.9881      15.9639      19.8112      11.6419      13.1487
   1974.3420      67.9019      13.3661      20.1331      10.2491      12.3849
   1974.4944      76.7421      10.7601      21.5945       7.3787       9.1468
   1974.6469      71.4088      10.5585      22.6527       5.5478       6.6098
   1974.7992      78.8723      14.1518      24.6632       4.6637       5.3018
   1974.9517      80.8383      18.1757      30.8537       4.0083       4.2717
   1975.1040      82.0339      21.7445      34.1394       3.8852       4.0273
   1975.2563      93.5657      23.7235      34.1031       3.8650       3.9863
   1975.4088     104.8672      25.8627      37.0491       3.6003       3.5391
   1975.5612     105.1867      25.9674      40.4591       2.3635       2.1201
   1975.7136     102.5810      26.7486      42.9342       2.0645       1.8154
   1975.8660     105.0165      27.5897      46.0129       1.8846       1.6400
   1976.0184     105.2292      29.8028      44.1276       1.7118       1.5307
   1976.1708     106.9758      30.0824      43.4546       1.5320       1.3906
   1976.3232     107.5912      29.7987      43.1316       1.3556       1.2374
   1976.4756     107.1043      28.8586      44.2985       1.2047       1.1124
