#------------------------------------------------------------------------------
#
#   Created by  : [OpenWorks] Log Export Utility (LEXP)
#   Created on  : 2016-05-19 10:13:49
#   Project     : CANT971
#   User        : R5K
#   Interpreter : PEP
#
#------------------------------------------------------------------------------
~VERSION INFORMATION
VERS. 2.0 : CWLS Log ASCII Standard - version 2.0
WRAP.  NO : One line per depth step
~WELL INFORMATION
#MNEMONIC   .UNIT                                           VALUE :DESCRIPTION
#------------------------------------------------------------------------------
STRT        .M                                           767.9436 :START DEPTH
STOP        .M                                          2393.5945 :STOP DEPTH
STEP        .M                                             0.1524 :STEP
NULL        .                                           -999.2500 :NULL VALUE
COMP        .                                             UNKNOWN :COMPANY
WELL        .                                                3050 :WELL
FLD         .                                             UNKNOWN :FIELD
LOC         .                                             UNKNOWN :LOCATION
CNTY        .                                             UNKNOWN :COUNTY
STAT        .                                             UNKNOWN :STATE
CTRY        .                                             UNKNOWN :COUNTRY
SRVC        .                                             UNKNOWN :SERVICE COMPANY
DATE        .                                             UNKNOWN :LOG DATE
UWI         .                                                3050 :UNIQUE WELL ID
XCOORD      .                                       601504.140000 :SURFACE X
YCOORD      .                                      2149905.320000 :SURFACE Y
LAT         .                                           19.442123 :LATITUDE
LON         .                                          -92.033057 :LONGITUDE
ELEV        .M                                             0.0000 :SURFACE ELEV
ELEV_TYPE   .                                                  KB :ELEV TYPE
~CURVE INFORMATION
#MNEMONIC.UNIT        API CODE       : CURVE DESCRIPTION
#------------------------------------------------------------------------------
DEPTH    .M                          : Measured Depth
DT       .us/ft       UNKNOWN        : DT:Sonico:rC:NONE:v0 (auto-composite)
GR       .API         UNKNOWN        : GR:PETROWORKS:rC:NONE:v2 
GR-LWD   .UNKNOWN     UNKNOWN        : GR-LWD:PETROWORKS:rC:NONE:v1 
ILD-LWD  .UNKNOWN     UNKNOWN        : ILD-LWD:PETROWORKS:rC:NONE:v1 
ILM-LWD  .UNKNOWN     UNKNOWN        : ILM-LWD:PETROWORKS:rC:NONE:v1 
~A     DEPTH           DT           GR       GR-LWD      ILD-LWD      ILM-LWD
# ...
   2133.6001    -999.2500    -999.2500      43.3829       3.4500       2.6600
   2133.7524    -999.2500    -999.2500      46.0229       3.2408       2.6474
   2133.9048    -999.2500    -999.2500      48.9754       2.6281       2.3140
   2134.0571    -999.2500    -999.2500      57.5189       2.2400       2.0000
   2134.2097    -999.2500    -999.2500      61.6200       2.3060       2.0115
   2134.3621    -999.2500    -999.2500      60.4668       2.5348       2.0778
   2134.5144    -999.2500    -999.2500      57.6213       2.5900       2.1100
   2134.6667    -999.2500    -999.2500      54.7708       2.5289       2.0755
   2134.8191    -999.2500    -999.2500      52.5470       2.3841       1.9918
   2134.9717    -999.2500    -999.2500      53.0476       2.2396       1.9070
   2135.1240    -999.2500    -999.2500      55.3829       2.1299       1.8190
   2135.2764    -999.2500    -999.2500      55.3528       2.1086       1.7800
   2135.4287    -999.2500    -999.2500      50.0050       1.9724       1.7577
   2135.5813    -999.2500    -999.2500      46.6900       1.8400       1.6941
   2135.7336    -999.2500    -999.2500      46.6900       1.8831       1.6800
   2135.8860    -999.2500    -999.2500      46.6900       2.0514       1.8674
   2136.0383    -999.2500    -999.2500      46.6900       2.1769       2.1037
   2136.1909    -999.2500    -999.2500      45.3767       2.2397       2.1550
   2136.3433    -999.2500    -999.2500      44.8200       2.3631       2.3193
   2136.4956    -999.2500    -999.2500      44.8200       2.3073       2.2587
   2136.6479    -999.2500    -999.2500      44.8200       2.0675       1.8837
   2136.8003    -999.2500    -999.2500      44.8200       2.2404       2.0905
   2136.9529    -999.2500    -999.2500      46.1525       2.5357       2.3889
   2137.1052    -999.2500    -999.2500      52.5276       2.6695       2.4211
   2137.2576    -999.2500    -999.2500      62.0033       2.6700       2.3700
   2137.4099    -999.2500    -999.2500      58.3509       2.6758       2.3700
   2137.5625    -999.2500    -999.2500      51.2441       2.7025       2.4316
   2137.7148    -999.2500    -999.2500      45.5789       2.7329       2.5765
   2137.8672    -999.2500    -999.2500      44.8200       2.7500       2.6600
   2138.0195    -999.2500    -999.2500      48.5284       2.6371       2.5704
   2138.1721    -999.2500    -999.2500      56.6656       2.2373       2.1869
   2138.3245    -999.2500    -999.2500      58.7443       2.1200       2.0500
   2138.4768    -999.2500    -999.2500      60.3265       2.1277       2.1192
   2138.6292    -999.2500    -999.2500      62.1091       2.1429       2.2527
   2138.7815    -999.2500    -999.2500      65.8168       2.1582       2.3834
   2138.9341    -999.2500    -999.2500      67.2300       2.1734       2.5167
   2139.0864    -999.2500    -999.2500      62.9283       2.1968       2.6329
   2139.2388    -999.2500    -999.2500      55.3371       2.3959       2.7030
   2139.3911    -999.2500    -999.2500      52.2900       2.6434       2.7873
   2139.5437    -999.2500    -999.2500      55.6218       2.6482       2.7575
   2139.6960    -999.2500    -999.2500      65.2708       2.5816       2.5651
   2139.8484    -999.2500    -999.2500      67.1157       2.5160       2.3674
   2140.0007    -999.2500    -999.2500      61.5779       2.4546       2.2040
   2140.1533    -999.2500    -999.2500      56.0844       2.3855       2.1538
   2140.3057    -999.2500    -999.2500      57.7512       2.3267       2.1237
   2140.4580    -999.2500    -999.2500      59.6395       2.3158       2.0455
   2140.6104    -999.2500    -999.2500      59.7600       2.3281       1.8703
   2140.7627    -999.2500    -999.2500      59.6773       2.3363       1.6955
   2140.9153    -999.2500    -999.2500      58.6534       2.3515       1.5576
   2141.0676    -999.2500    -999.2500      61.4550       2.3668       1.5400
   2141.2200    -999.2500    -999.2500      70.6619       2.3787       1.7934
   2141.3723    -999.2500    -999.2500      66.0987       2.3787       2.3000
   2141.5249    -999.2500    -999.2500      56.5172       2.3427       2.2965
   2141.6772    -999.2500    -999.2500      55.4619       2.2587       2.2587
   2141.8296    -999.2500    -999.2500      60.2516       2.2400       2.2063
   2141.9819    -999.2500    -999.2500      56.0999       2.2400       2.0129
   2142.1345    -999.2500    -999.2500      53.8515       2.2400       1.9400
   2142.2869    -999.2500    -999.2500      50.5967       3.5782       2.9552
   2142.4392    -999.2500    -999.2500      45.2116       4.2100       4.2510
   2142.5916    -999.2500    -999.2500      41.1199       4.0330       4.3741
   2142.7439    -999.2500    -999.2500      33.3199       3.6500       4.6886
   2142.8965    -999.2500    -999.2500      35.2102       3.5487       4.5849
   2143.0488    -999.2500    -999.2500      38.8621       2.9897       3.4652
   2143.2012    -999.2500    -999.2500      45.3244       2.4203       2.3247
   2143.3535    -999.2500    -999.2500      54.2781       2.3477       2.1100
   2143.5061    -999.2500    -999.2500      59.6806       2.4279       2.1100
   2143.6584    -999.2500    -999.2500      63.3706       2.4500       2.0924
   2143.8108    -999.2500    -999.2500      61.2637       2.4441       2.0556
   2143.9631    -999.2500    -999.2500      59.2074       2.3825       2.1061
   2144.1157    -999.2500    -999.2500      57.7769       2.4478       2.3051
   2144.2681    -999.2500    -999.2500      56.8216       2.7030       2.6139
   2144.4204    -999.2500    -999.2500      54.8202       2.6617       2.6358
   2144.5728    -999.2500    -999.2500      56.5185       2.5294       2.5521
   2144.7251    -999.2500    -999.2500      61.9764       2.4666       2.4597
   2144.8777    -999.2500    -999.2500      61.9774       2.3874       2.3164
   2145.0300    -999.2500    -999.2500      61.6200       2.3800       2.2555
   2145.1824    -999.2500    -999.2500      59.7222       2.4522       2.3225
   2145.3347    -999.2500    -999.2500      51.5869       2.5180       2.4350
   2145.4873    -999.2500    -999.2500      56.5303       2.5113       2.4187
   2145.6396    -999.2500    -999.2500      64.0531       2.4877       2.3767
   2145.7920    -999.2500    -999.2500      62.1436       2.5018       2.3700
   2145.9443    -999.2500    -999.2500      56.4675       2.5892       2.4181
   2146.0969    -999.2500    -999.2500      57.4966       2.6621       2.5536
   2146.2493    -999.2500    -999.2500      61.6055       2.9939       2.6030
   2146.4016    -999.2500    -999.2500      61.0362       3.8767       3.3353
   2146.5540    -999.2500    -999.2500      60.9051       4.2689       3.6820
   2146.7063    -999.2500    -999.2500      60.5283       4.7862       3.8676
   2146.8589    -999.2500    -999.2500      56.9825       5.1864       4.0297
   2147.0112    -999.2500    -999.2500      54.8330       5.4766       4.3216
   2147.1636    -999.2500    -999.2500      54.1500       5.7778       4.8992
   2147.3159    -999.2500    -999.2500      54.1500       5.5782       4.9338
   2147.4685    -999.2500    -999.2500      54.5541       4.8476       4.4472
   2147.6208    -999.2500    -999.2500      56.8537       3.8366       3.5901
   2147.7732    -999.2500    -999.2500      50.9642       3.7313       3.3169
   2147.9255    -999.2500    -999.2500      42.7562       3.9823       3.2543
   2148.0781    -999.2500    -999.2500      43.4850       4.2306       3.2945
   2148.2305    -999.2500    -999.2500      45.8224       4.3278       3.3285
   2148.3828    -999.2500    -999.2500      47.8535       4.2426       3.7188
   2148.5352    -999.2500    -999.2500      48.9093       4.0866       3.7853
   2148.6875    -999.2500    -999.2500      50.1264       3.8105       3.4896
   2148.8401    -999.2500    -999.2500      51.5689       3.1486       3.1181
   2148.9924    -999.2500    -999.2500      57.3531       3.1690       3.0199
   2149.1448    -999.2500    -999.2500      58.7393       3.3966       3.0950
