#------------------------------------------------------------------------------
#
#   Created by  : [OpenWorks] Log Export Utility (LEXP)
#   Created on  : 2016-05-19 10:13:49
#   Project     : CANT971
#   User        : R5K
#   Interpreter : PEP
#
#------------------------------------------------------------------------------
~VERSION INFORMATION
VERS. 2.0 : CWLS Log ASCII Standard - version 2.0
WRAP.  NO : One line per depth step
~WELL INFORMATION
#MNEMONIC   .UNIT                                           VALUE :DESCRIPTION
#------------------------------------------------------------------------------
STRT        .M                                           767.9436 :START DEPTH
STOP        .M                                          2393.5945 :STOP DEPTH
STEP        .M                                             0.1524 :STEP
NULL        .                                           -999.2500 :NULL VALUE
COMP        .                                             UNKNOWN :COMPANY
WELL        .                                                3050 :WELL
FLD         .                                             UNKNOWN :FIELD
LOC         .                                             UNKNOWN :LOCATION
CNTY        .                                             UNKNOWN :COUNTY
STAT        .                                             UNKNOWN :STATE
CTRY        .                                             UNKNOWN :COUNTRY
SRVC        .                                             UNKNOWN :SERVICE COMPANY
DATE        .                                             UNKNOWN :LOG DATE
UWI         .                                                3050 :UNIQUE WELL ID
XCOORD      .                                       601504.140000 :SURFACE X
YCOORD      .                                      2149905.320000 :SURFACE Y
LAT         .                                           19.442123 :LATITUDE
LON         .                                          -92.033057 :LONGITUDE
ELEV        .M                                             0.0000 :SURFACE ELEV
ELEV_TYPE   .                                                  KB :ELEV TYPE
~CURVE INFORMATION
#MNEMONIC.UNIT        API CODE       : CURVE DESCRIPTION
#------------------------------------------------------------------------------
DEPTH    .M                          : Measured Depth
DT       .us/ft       UNKNOWN        : DT:Sonico:rC:NONE:v0 (auto-composite)
GR       .API         UNKNOWN        : GR:PETROWORKS:rC:NONE:v2 
GR-LWD   .UNKNOWN     UNKNOWN        : GR-LWD:PETROWORKS:rC:NONE:v1 
ILD-LWD  .UNKNOWN     UNKNOWN        : ILD-LWD:PETROWORKS:rC:NONE:v1 
ILM-LWD  .UNKNOWN     UNKNOWN        : ILM-LWD:PETROWORKS:rC:NONE:v1 
~A     DEPTH           DT           GR       GR-LWD      ILD-LWD      ILM-LWD
# ...
   2086.5083    -999.2500    -999.2500      37.3500      30.9565      55.6631
   2086.6609    -999.2500    -999.2500      37.3500      10.8482      19.5494
   2086.8132    -999.2500    -999.2500      37.8908       2.2534       5.4319
   2086.9656    -999.2500    -999.2500      39.0777       2.1716       2.2853
   2087.1179    -999.2500    -999.2500      40.2642       2.0910       2.1437
   2087.2705    -999.2500    -999.2500      41.4497       2.0207       2.0055
   2087.4229    -999.2500    -999.2500      42.6362       2.0000       1.8917
   2087.5752    -999.2500    -999.2500      43.8222       4.2687       1.8800
   2087.7275    -999.2500    -999.2500      45.0085      22.9587       5.6155
   2087.8799    -999.2500    -999.2500      46.1942      35.3232      18.6038
   2088.0325    -999.2500    -999.2500      46.6900      37.4957      34.2864
   2088.1848    -999.2500    -999.2500      47.9572      48.9825      54.5402
   2088.3372    -999.2500    -999.2500      50.3275      63.9037      62.9512
   2088.4895    -999.2500    -999.2500      49.5783      64.3800      67.3900
   2088.6421    -999.2500    -999.2500      44.3880      56.3868      67.3900
   2088.7944    -999.2500    -999.2500      38.0545      28.6726      52.7751
   2088.9468    -999.2500    -999.2500      31.6402       9.2600      29.3710
   2089.0991    -999.2500    -999.2500      25.2437       9.2600      20.9300
   2089.2517    -999.2500    -999.2500      18.9884      10.9745      20.9640
   2089.4041    -999.2500    -999.2500      16.8100      16.0534      21.9522
   2089.5564    -999.2500    -999.2500      16.6025      19.2500      23.4531
   2089.7087    -999.2500    -999.2500      13.8041      19.2500      24.6681
   2089.8611    -999.2500    -999.2500      13.0700      19.2755      24.8600
   2090.0137    -999.2500    -999.2500      13.2133      19.4952      24.8600
   2090.1660    -999.2500    -999.2500      13.8495      19.7148      24.1944
   2090.3184    -999.2500    -999.2500      14.5576      19.9346      23.3668
   2090.4707    -999.2500    -999.2500      15.2718      20.1543      22.5377
   2090.6233    -999.2500    -999.2500      15.9804      20.3740      21.7090
   2090.7756    -999.2500    -999.2500      16.6297      20.5936      20.8810
   2090.9280    -999.2500    -999.2500      16.8100      20.8134      20.0522
   2091.0803    -999.2500    -999.2500      16.8100      20.9800      19.2238
   2091.2329    -999.2500    -999.2500      16.8100      20.9800      18.8800
   2091.3853    -999.2500    -999.2500      16.8100      20.1818      18.5969
   2091.5376    -999.2500    -999.2500      16.6380      19.7900      17.3735
   2091.6899    -999.2500    -999.2500      16.0188      19.8465      17.3200
   2091.8423    -999.2500    -999.2500      15.3810      20.1920      17.3506
   2091.9949    -999.2500    -999.2500      14.7540      20.6156      17.4586
   2092.1472    -999.2500    -999.2500      14.1216      21.0420      17.5732
   2092.2996    -999.2500    -999.2500      13.4894      21.4664      17.6821
   2092.4519    -999.2500    -999.2500      13.0700      21.8753      17.7939
   2092.6045    -999.2500    -999.2500      13.0700      22.0200      17.8300
   2092.7568    -999.2500    -999.2500      13.0700      22.0200      17.8300
   2092.9092    -999.2500    -999.2500      13.0700      22.0200      17.8300
   2093.0615    -999.2500    -999.2500      13.0700      22.0303      17.8300
   2093.2141    -999.2500    -999.2500      12.9563      22.1681      17.8884
   2093.3665    -999.2500    -999.2500      12.4488      22.3720      18.1461
   2093.5188    -999.2500    -999.2500      11.8806      22.5746      18.4391
   2093.6711    -999.2500    -999.2500      11.3551      22.7725      18.7356
   2093.8235    -999.2500    -999.2500      11.2000      22.9707      19.0247
   2093.9761    -999.2500    -999.2500      12.5121      23.0700      19.2877
   2094.1284    -999.2500    -999.2500      14.7603      23.0700      19.3600
   2094.2808    -999.2500    -999.2500      14.9400      24.1929      19.6145
   2094.4331    -999.2500    -999.2500      14.9400      24.8100      20.8379
   2094.5857    -999.2500    -999.2500      14.9400      25.0152      20.9300
   2094.7380    -999.2500    -999.2500      14.9400      26.3542      21.8734
   2094.8904    -999.2500    -999.2500      14.9400      28.0627      25.2833
   2095.0427    -999.2500    -999.2500      14.9400      29.7741      28.7867
   2095.1953    -999.2500    -999.2500      14.9400      31.4653      32.2452
   2095.3477    -999.2500    -999.2500      14.9400      33.1737      35.7238
   2095.5000    -999.2500    -999.2500      14.9400      34.8808      39.2089
   2095.6523    -999.2500    -999.2500      14.9400      36.0000      42.6059
   2095.8047    -999.2500    -999.2500      14.8786      36.0000      43.7800
   2095.9573    -999.2500    -999.2500      14.5731      38.6960      47.0079
   2096.1096    -999.2500    -999.2500      14.2179      41.2600      55.9695
   2096.2620    -999.2500    -999.2500      13.8620      41.5202      56.8347
   2096.4143    -999.2500    -999.2500      13.5068      44.9779      46.6614
   2096.5669    -999.2500    -999.2500      13.1740      49.9346      32.0990
   2096.7192    -999.2500    -999.2500      13.0700      54.8805      17.5376
   2096.8716    -999.2500    -999.2500      12.8420      57.5100       4.1491
   2097.0239    -999.2500    -999.2500      11.4071      57.6785       0.2700
   2097.1765    -999.2500    -999.2500      11.2000      58.8215      27.2271
   2097.3289    -999.2500    -999.2500      11.2000      59.3300      65.8675
   2097.4812    -999.2500    -999.2500      11.2000      62.0580      68.8693
   2097.6335    -999.2500    -999.2500      11.2000      67.1689      70.7902
   2097.7859    -999.2500    -999.2500      11.2000      72.2812      73.2713
   2097.9385    -999.2500    -999.2500      11.2000      77.3952      75.7575
   2098.0908    -999.2500    -999.2500      11.5848      81.8215      78.2418
   2098.2432    -999.2500    -999.2500      13.0700      82.8200      80.0200
   2098.3955    -999.2500    -999.2500      13.0700      82.4458      80.0200
   2098.5481    -999.2500    -999.2500      13.2952      80.4082      81.7392
   2098.7004    -999.2500    -999.2500      14.0096      79.5200      86.3025
   2098.8528    -999.2500    -999.2500      14.6992      79.5046      87.1700
   2099.0051    -999.2500    -999.2500      14.9400      79.1172      86.8230
   2099.1577    -999.2500    -999.2500      14.8254      78.5313      85.1347
   2099.3101    -999.2500    -999.2500      13.4252      77.9491      83.1716
   2099.4624    -999.2500    -999.2500      13.0700      77.3620      81.2039
   2099.6147    -999.2500    -999.2500      12.9892      76.7753      79.2371
   2099.7671    -999.2500    -999.2500      12.6286      76.4500      77.4058
   2099.9197    -999.2500    -999.2500      12.2169      76.7150      76.8500
   2100.0720    -999.2500    -999.2500      11.8117      78.6050      77.9947
   2100.2244    -999.2500    -999.2500      11.4041      79.5200      79.8491
   2100.3767    -999.2500    -999.2500      11.7269      78.5750      79.9433
   2100.5293    -999.2500    -999.2500      14.6504      76.6992      79.3351
   2100.6816    -999.2500    -999.2500      16.6504      74.8272      78.5268
   2100.8340    -999.2500    -999.2500      16.3720      72.9513      77.7241
   2100.9863    -999.2500    -999.2500      15.8816      71.3066      77.0208
   2101.1389    -999.2500    -999.2500      15.5189      70.9100      76.8500
   2101.2913    -999.2500    -999.2500      13.3903      69.6513      74.8876
   2101.4436    -999.2500    -999.2500      10.3015      68.4100      67.3900
   2101.5959    -999.2500    -999.2500       7.4700      67.9943      67.3900
   2101.7483    -999.2500    -999.2500       7.9381      65.7159      67.2494
   2101.9009    -999.2500    -999.2500       9.1227      62.9478      66.8000
   2102.0532    -999.2500    -999.2500       9.3400      60.2564      66.3677
