#------------------------------------------------------------------------------
#
#   Created by  : [OpenWorks] Log Export Utility (LEXP)
#   Created on  : 2016-05-19 10:13:49
#   Project     : CANT971
#   User        : R5K
#   Interpreter : PEP
#
#------------------------------------------------------------------------------
~VERSION INFORMATION
VERS. 2.0 : CWLS Log ASCII Standard - version 2.0
WRAP.  NO : One line per depth step
~WELL INFORMATION
#MNEMONIC   .UNIT                                           VALUE :DESCRIPTION
#------------------------------------------------------------------------------
STRT        .M                                           767.9436 :START DEPTH
STOP        .M                                          2393.5945 :STOP DEPTH
STEP        .M                                             0.1524 :STEP
NULL        .                                           -999.2500 :NULL VALUE
COMP        .                                             UNKNOWN :COMPANY
WELL        .                                                3050 :WELL
FLD         .                                             UNKNOWN :FIELD
LOC         .                                             UNKNOWN :LOCATION
CNTY        .                                             UNKNOWN :COUNTY
STAT        .                                             UNKNOWN :STATE
CTRY        .                                             UNKNOWN :COUNTRY
SRVC        .                                             UNKNOWN :SERVICE COMPANY
DATE        .                                             UNKNOWN :LOG DATE
UWI         .                                                3050 :UNIQUE WELL ID
XCOORD      .                                       601504.140000 :SURFACE X
YCOORD      .                                      2149905.320000 :SURFACE Y
LAT         .                                           19.442123 :LATITUDE
LON         .                                          -92.033057 :LONGITUDE
ELEV        .M                                             0.0000 :SURFACE ELEV
ELEV_TYPE   .                                                  KB :ELEV TYPE
~CURVE INFORMATION
#MNEMONIC.UNIT        API CODE       : CURVE DESCRIPTION
#------------------------------------------------------------------------------
DEPTH    .M                          : Measured Depth
DT       .us/ft       UNKNOWN        : DT:Sonico:rC:NONE:v0 (auto-composite)
GR       .API         UNKNOWN        : GR:PETROWORKS:rC:NONE:v2 
GR-LWD   .UNKNOWN     UNKNOWN        : GR-LWD:PETROWORKS:rC:NONE:v1 
ILD-LWD  .UNKNOWN     UNKNOWN        : ILD-LWD:PETROWORKS:rC:NONE:v1 
ILM-LWD  .UNKNOWN     UNKNOWN        : ILM-LWD:PETROWORKS:rC:NONE:v1 
~A     DEPTH           DT           GR       GR-LWD      ILD-LWD      ILM-LWD
# ...
   2306.2693    -999.2500    -999.2500      46.6188      15.7993      23.7514
   2306.4216    -999.2500    -999.2500      45.7661      16.8500      21.2403
   2306.5740    -999.2500    -999.2500      44.8828      17.0293      21.0150
   2306.7263    -999.2500    -999.2500      45.2428      18.5585      21.7392
   2306.8789    -999.2500    -999.2500      46.9041      20.6252      22.7079
   2307.0312    -999.2500    -999.2500      48.6841      22.6943      23.6799
   2307.1836    -999.2500    -999.2500      50.4620      23.5011      24.0571
   2307.3359    -999.2500    -999.2500      52.2392      21.9424      22.5872
   2307.4885    -999.2500    -999.2500      53.7884      19.9988      19.1288
   2307.6409    -999.2500    -999.2500      54.1500      20.1031      18.1700
   2307.7932    -999.2500    -999.2500      49.3197      21.2173      17.4693
   2307.9456    -999.2500    -999.2500      31.7500      22.3216      16.7646
   2308.0979    -999.2500    -999.2500      31.7500      23.4577      16.0388
   2308.2505    -999.2500    -999.2500      34.3810      24.2100      15.3417
   2308.4028    -999.2500    -999.2500      42.3415      24.2100      15.1000
   2308.5552    -999.2500    -999.2500      50.3133      32.3427      15.3500
   2308.7075    -999.2500    -999.2500      56.8280      54.7781      20.4409
   2308.8601    -999.2500    -999.2500      54.9258      77.2526      27.9943
   2309.0125    -999.2500    -999.2500      44.4433      99.7004      35.5656
   2309.1648    -999.2500    -999.2500      41.2528     120.7857      42.6725
   2309.3171    -999.2500    -999.2500      42.6699     127.3400      44.8700
   2309.4695    -999.2500    -999.2500      42.9500     116.1285      45.2811
   2309.6221    -999.2500    -999.2500      46.7716      86.6355      48.0503
   2309.7744    -999.2500    -999.2500      54.1500      83.3915      48.4900
   2309.9268    -999.2500    -999.2500      54.1500      88.2173      49.7079
   2310.0791    -999.2500    -999.2500      55.4224      94.7138      54.5040
   2310.2317    -999.2500    -999.2500      57.8637     101.2012      59.6229
   2310.3840    -999.2500    -999.2500      60.3020     107.6975      64.7356
   2310.5364    -999.2500    -999.2500      62.7411     114.1910      69.8539
   2310.6887    -999.2500    -999.2500      64.8648     116.9000      74.3145
   2310.8413    -999.2500    -999.2500      65.3600     116.9000      75.3500
   2310.9937    -999.2500    -999.2500      63.7328      75.5802      64.7962
   2311.1460    -999.2500    -999.2500      54.5364      59.3300      27.0200
   2311.2983    -999.2500    -999.2500      50.4200      74.1221      27.0200
   2311.4507    -999.2500    -999.2500      50.3940     152.6377      30.1097
   2311.6033    -999.2500    -999.2500      49.5639     247.0742      39.3621
   2311.7556    -999.2500    -999.2500      48.2996     337.3973      48.6099
   2311.9080    -999.2500    -999.2500      47.0343     322.2442      57.8681
   2312.0603    -999.2500    -999.2500      45.7693     176.4561      68.5260
   2312.2129    -999.2500    -999.2500      44.5046     127.7697      93.7217
   2312.3652    -999.2500    -999.2500      43.3178     159.9786     106.1747
   2312.5176    -999.2500    -999.2500      42.9500     172.2400     108.7400
   2312.6699    -999.2500    -999.2500      42.7350     309.1244     108.7400
   2312.8225    -999.2500    -999.2500      40.6678    1222.8058     108.7400
   2312.9749    -999.2500    -999.2500      38.0763    1365.5000     105.4236
   2313.1272    -999.2500    -999.2500      37.3500    1316.2194     101.5690
   2313.2795    -999.2500    -999.2500      37.3500    1122.6234      97.7186
   2313.4319    -999.2500    -999.2500      38.3126     916.2575      93.8637
   2313.5845    -999.2500    -999.2500      39.9723     709.7846      90.0110
   2313.7368    -999.2500    -999.2500      41.6321     503.7728      86.1580
   2313.8892    -999.2500    -999.2500      43.2916     324.1734      82.3057
   2314.0415    -999.2500    -999.2500      44.9513     282.5500      78.4530
   2314.1941    -999.2500    -999.2500      46.6123     263.2686      78.4000
   2314.3464    -999.2500    -999.2500      48.2706     194.4300      88.3678
   2314.4988    -999.2500    -999.2500      49.9315     194.4300     100.4700
   2314.6511    -999.2500    -999.2500      50.4200     206.6846     100.9200
   2314.8037    -999.2500    -999.2500      49.4468     243.1787     114.4424
   2314.9561    -999.2500    -999.2500      46.6900     279.6995     135.0279
   2315.1084    -999.2500    -999.2500      46.6900     316.2381     155.6000
   2315.2607    -999.2500    -999.2500      46.6900     352.7079     176.1465
   2315.4131    -999.2500    -999.2500      46.6900     389.2441     196.7205
   2315.5657    -999.2500    -999.2500      46.6900     423.4825     217.2884
   2315.7180    -999.2500    -999.2500      46.6900     434.0300     233.4744
   2315.8704    -999.2500    -999.2500      46.6484     423.4241     235.4200
   2316.0227    -999.2500    -999.2500      46.4109     322.5243     208.3018
   2316.1753    -999.2500    -999.2500      46.1732     252.4000     157.0200
   2316.3276    -999.2500    -999.2500      45.9360     252.4000     157.0200
   2316.4800    -999.2500    -999.2500      45.6983     257.1293     157.5909
   2316.6323    -999.2500    -999.2500      45.4607     276.9019     159.9847
   2316.7849    -999.2500    -999.2500      45.2234     296.6673     162.3755
   2316.9373    -999.2500    -999.2500      44.9858     316.4384     164.7694
   2317.0896    -999.2500    -999.2500      44.8200     336.2224     167.1618
   2317.2419    -999.2500    -999.2500      46.1953     356.1886     169.5801
   2317.3943    -999.2500    -999.2500      49.7415     375.7589     171.9465
   2317.5469    -999.2500    -999.2500      50.3947     395.5430     174.3389
   2317.6992    -999.2500    -999.2500      48.5690     415.2954     176.7329
   2317.8516    -999.2500    -999.2500      45.7924     434.0300     179.1236
   2318.0039    -999.2500    -999.2500      44.8200     434.0300     180.5700
   2318.1565    -999.2500    -999.2500      48.3929     434.0300     180.5700
   2318.3088    -999.2500    -999.2500      60.9128     434.0300     180.5700
   2318.4612    -999.2500    -999.2500      62.9172     434.0300     164.7330
   2318.6135    -999.2500    -999.2500      55.0081     434.0300     125.3455
   2318.7661    -999.2500    -999.2500      44.3569     434.0300     103.0600
   2318.9185    -999.2500    -999.2500      41.1517     434.0300     103.0600
   2319.0708    -999.2500    -999.2500      42.0319     434.0300     112.2650
   2319.2231    -999.2500    -999.2500      42.8911     434.0300     163.9601
   2319.3755    -999.2500    -999.2500      46.4742     434.0300     215.6212
   2319.5281    -999.2500    -999.2500      51.8767     434.0300     267.3123
   2319.6804    -999.2500    -999.2500      52.2900     434.0300     319.0298
   2319.8328    -999.2500    -999.2500      50.1174     434.0300     370.6645
   2319.9851    -999.2500    -999.2500      46.6900     434.0300     422.3820
   2320.1377    -999.2500    -999.2500      46.6900     434.0300     474.0945
   2320.2900    -999.2500    -999.2500      46.4764     410.9507     484.9786
   2320.4424    -999.2500    -999.2500      46.1198     290.3530     267.5052
   2320.5947    -999.2500    -999.2500      45.7649     252.4000      77.5358
   2320.7473    -999.2500    -999.2500      45.4072     225.3350      60.0324
   2320.8997    -999.2500    -999.2500      45.0511     137.4447      49.0071
   2321.0520    -999.2500    -999.2500      44.8200      79.5200      38.2461
   2321.2043    -999.2500    -999.2500      44.8200      76.5219      33.8598
   2321.3567    -999.2500    -999.2500      43.7609      61.4310      27.7139
   2321.5093    -999.2500    -999.2500      40.9121      54.9500      21.9543
   2321.6616    -999.2500    -999.2500      38.0691      56.1366      35.6862
   2321.8140    -999.2500    -999.2500      35.7939      66.1674      70.6109
