#------------------------------------------------------------------------------
#
#   Created by  : [OpenWorks] Log Export Utility (LEXP)
#   Created on  : 2016-05-19 10:13:49
#   Project     : CANT971
#   User        : R5K
#   Interpreter : PEP
#
#------------------------------------------------------------------------------
~VERSION INFORMATION
VERS. 2.0 : CWLS Log ASCII Standard - version 2.0
WRAP.  NO : One line per depth step
~WELL INFORMATION
#MNEMONIC   .UNIT                                           VALUE :DESCRIPTION
#------------------------------------------------------------------------------
STRT        .M                                           767.9436 :START DEPTH
STOP        .M                                          2393.5945 :STOP DEPTH
STEP        .M                                             0.1524 :STEP
NULL        .                                           -999.2500 :NULL VALUE
COMP        .                                             UNKNOWN :COMPANY
WELL        .                                                3050 :WELL
FLD         .                                             UNKNOWN :FIELD
LOC         .                                             UNKNOWN :LOCATION
CNTY        .                                             UNKNOWN :COUNTY
STAT        .                                             UNKNOWN :STATE
CTRY        .                                             UNKNOWN :COUNTRY
SRVC        .                                             UNKNOWN :SERVICE COMPANY
DATE        .                                             UNKNOWN :LOG DATE
UWI         .                                                3050 :UNIQUE WELL ID
XCOORD      .                                       601504.140000 :SURFACE X
YCOORD      .                                      2149905.320000 :SURFACE Y
LAT         .                                           19.442123 :LATITUDE
LON         .                                          -92.033057 :LONGITUDE
ELEV        .M                                             0.0000 :SURFACE ELEV
ELEV_TYPE   .                                                  KB :ELEV TYPE
~CURVE INFORMATION
#MNEMONIC.UNIT        API CODE       : CURVE DESCRIPTION
#------------------------------------------------------------------------------
DEPTH    .M                          : Measured Depth
DT       .us/ft       UNKNOWN        : DT:Sonico:rC:NONE:v0 (auto-composite)
GR       .API         UNKNOWN        : GR:PETROWORKS:rC:NONE:v2 
GR-LWD   .UNKNOWN     UNKNOWN        : GR-LWD:PETROWORKS:rC:NONE:v1 
ILD-LWD  .UNKNOWN     UNKNOWN        : ILD-LWD:PETROWORKS:rC:NONE:v1 
ILM-LWD  .UNKNOWN     UNKNOWN        : ILM-LWD:PETROWORKS:rC:NONE:v1 
~A     DEPTH           DT           GR       GR-LWD      ILD-LWD      ILM-LWD
# ...
   1756.8672     124.0724      61.6466    -999.2500    -999.2500    -999.2500
   1757.0197     124.3708      62.6528    -999.2500    -999.2500    -999.2500
   1757.1720     124.5407      63.2673    -999.2500    -999.2500    -999.2500
   1757.3245     124.3225      62.5503    -999.2500    -999.2500    -999.2500
   1757.4768     124.1172      64.3656    -999.2500    -999.2500    -999.2500
   1757.6292     123.8480      64.5310    -999.2500    -999.2500    -999.2500
   1757.7816     123.5584      66.7894    -999.2500    -999.2500    -999.2500
   1757.9340     123.3966      65.0628    -999.2500    -999.2500    -999.2500
   1758.0864     123.4933      64.1615    -999.2500    -999.2500    -999.2500
   1758.2388     123.5731      62.7899    -999.2500    -999.2500    -999.2500
   1758.3912     123.2654      64.1753    -999.2500    -999.2500    -999.2500
   1758.5436     123.8828      65.8980    -999.2500    -999.2500    -999.2500
   1758.6960     123.9080      67.3237    -999.2500    -999.2500    -999.2500
   1758.8484     124.2827      69.2859    -999.2500    -999.2500    -999.2500
   1759.0009     124.1437      67.2028    -999.2500    -999.2500    -999.2500
   1759.1532     123.4140      64.5085    -999.2500    -999.2500    -999.2500
   1759.3057     123.2225      62.8483    -999.2500    -999.2500    -999.2500
   1759.4580     123.3260      65.1685    -999.2500    -999.2500    -999.2500
   1759.6104     123.1540      67.4927    -999.2500    -999.2500    -999.2500
   1759.7628     123.1749      69.7697    -999.2500    -999.2500    -999.2500
   1759.9152     123.6741      69.2115    -999.2500    -999.2500    -999.2500
   1760.0676     124.3116      69.0898    -999.2500    -999.2500    -999.2500
   1760.2200     124.3369      70.6229    -999.2500    -999.2500    -999.2500
   1760.3724     124.4561      73.4838    -999.2500    -999.2500    -999.2500
   1760.5248     124.0198      75.3163    -999.2500    -999.2500    -999.2500
   1760.6772     123.2488      74.3079    -999.2500    -999.2500    -999.2500
   1760.8296     121.5259      70.2220    -999.2500    -999.2500    -999.2500
   1760.9821     120.5263      66.7120    -999.2500    -999.2500    -999.2500
   1761.1344     120.8325      63.5464    -999.2500    -999.2500    -999.2500
   1761.2867     120.4591      61.8195    -999.2500    -999.2500    -999.2500
   1761.4392     119.8971      62.1671    -999.2500    -999.2500    -999.2500
   1761.5916     120.3160      60.9957    -999.2500    -999.2500    -999.2500
   1761.7440     120.6406      61.2424    -999.2500    -999.2500    -999.2500
   1761.8964     121.2854      59.0985    -999.2500    -999.2500    -999.2500
   1762.0488     121.7538      57.0633    -999.2500    -999.2500    -999.2500
   1762.2012     122.8788      57.3367    -999.2500    -999.2500    -999.2500
   1762.3536     122.0722      56.8220    -999.2500    -999.2500    -999.2500
   1762.5060     120.4007      58.4793    -999.2500    -999.2500    -999.2500
   1762.6584     120.1153      58.1834    -999.2500    -999.2500    -999.2500
   1762.8108     120.1372      58.9896    -999.2500    -999.2500    -999.2500
   1762.9633     119.8797      56.4684    -999.2500    -999.2500    -999.2500
   1763.1156     119.6983      53.1702    -999.2500    -999.2500    -999.2500
   1763.2679     120.0176      51.7024    -999.2500    -999.2500    -999.2500
   1763.4204     121.1009      52.6321    -999.2500    -999.2500    -999.2500
   1763.5728     121.1086      53.7746    -999.2500    -999.2500    -999.2500
   1763.7252     118.1183      53.9983    -999.2500    -999.2500    -999.2500
   1763.8776     117.3040      54.0670    -999.2500    -999.2500    -999.2500
   1764.0300     115.7654      55.8277    -999.2500    -999.2500    -999.2500
   1764.1824     116.2590      55.9297    -999.2500    -999.2500    -999.2500
   1764.3348     115.7338      55.4769    -999.2500    -999.2500    -999.2500
   1764.4872     114.8706      55.1284    -999.2500    -999.2500    -999.2500
   1764.6396     114.8913      55.3048    -999.2500    -999.2500    -999.2500
   1764.7920     116.1851      56.1148    -999.2500    -999.2500    -999.2500
   1764.9445     117.1710      56.9264    -999.2500    -999.2500    -999.2500
   1765.0968     116.8551      55.8317    -999.2500    -999.2500    -999.2500
   1765.2491     116.9866      53.9099    -999.2500    -999.2500    -999.2500
   1765.4016     117.1189      50.6819    -999.2500    -999.2500    -999.2500
   1765.5540     117.0554      48.6625    -999.2500    -999.2500    -999.2500
   1765.7064     116.2154      47.6173    -999.2500    -999.2500    -999.2500
   1765.8588     115.1594      46.8493    -999.2500    -999.2500    -999.2500
   1766.0112     113.8003      46.4863    -999.2500    -999.2500    -999.2500
   1766.1636     113.1529      45.9026    -999.2500    -999.2500    -999.2500
   1766.3160     111.2557      46.5820    -999.2500    -999.2500    -999.2500
   1766.4684     113.3731      46.9703    -999.2500    -999.2500    -999.2500
   1766.6208     113.9388      48.5730    -999.2500    -999.2500    -999.2500
   1766.7732     112.5156      47.9415    -999.2500    -999.2500    -999.2500
   1766.9257     115.8073      47.5601    -999.2500    -999.2500    -999.2500
   1767.0780     115.8657      47.5688    -999.2500    -999.2500    -999.2500
   1767.2303     115.2615      49.0983    -999.2500    -999.2500    -999.2500
   1767.3828     115.4424      48.4725    -999.2500    -999.2500    -999.2500
   1767.5352     113.7649      47.3360    -999.2500    -999.2500    -999.2500
   1767.6876     111.9335      48.3134    -999.2500    -999.2500    -999.2500
   1767.8400     109.6605      50.3856    -999.2500    -999.2500    -999.2500
   1767.9924     112.2881      51.7784    -999.2500    -999.2500    -999.2500
   1768.1448     111.8803      50.7305    -999.2500    -999.2500    -999.2500
   1768.2972     112.3328      50.3057    -999.2500    -999.2500    -999.2500
   1768.4496     113.3983      50.6076    -999.2500    -999.2500    -999.2500
   1768.6021     114.4323      51.2039    -999.2500    -999.2500    -999.2500
   1768.7544     110.8177      51.3907    -999.2500    -999.2500    -999.2500
   1768.9069     111.2227      49.9915    -999.2500    -999.2500    -999.2500
   1769.0592     112.1234      47.9031    -999.2500    -999.2500    -999.2500
   1769.2115     112.5065      45.9471    -999.2500    -999.2500    -999.2500
   1769.3640     113.5942      46.3075    -999.2500    -999.2500    -999.2500
   1769.5164     114.5885      48.9610    -999.2500    -999.2500    -999.2500
   1769.6688     116.8657      51.4106    -999.2500    -999.2500    -999.2500
   1769.8212     117.3857      53.8182      67.6125       1.5256       1.6186
   1769.9736     120.4625      57.4123      71.9161       1.4078       1.4627
   1770.1260     120.9012      60.0286      77.9274       1.2559       1.2386
   1770.2784     120.8765      59.4920      76.9676       1.1878       1.1345
   1770.4308     120.3342      56.6310      76.5693       1.1664       1.0980
   1770.5833     120.2339      57.3371      79.3258       1.1829       1.1034
   1770.7356     120.4461      59.7973      80.4284       1.2133       1.1237
   1770.8881     119.9000      60.0657      78.0474       1.2049       1.1239
   1771.0404     121.0732      59.9962      72.8132       1.1891       1.1332
   1771.1927     121.5922      57.9990      77.4748       1.1797       1.1475
   1771.3452     121.5571      57.9771      80.3792       1.1682       1.1401
   1771.4976     122.0964      56.2882      80.2282       1.1120       1.0962
   1771.6500     121.3489      55.1585      82.4400       1.0650       1.0460
   1771.8024     123.0118      55.6752      82.3240       1.0356       1.0003
   1771.9548     122.9033      57.0112      79.3319       1.0148       0.9621
   1772.1072     121.7501      59.2872      78.3904       1.0163       0.9496
   1772.2596     121.5970      59.5595      77.0586       1.0469       0.9751
   1772.4120     120.7578      58.3065      79.5448       1.0837       1.0160
