#------------------------------------------------------------------------------
#
#   Created by  : [OpenWorks] Log Export Utility (LEXP)
#   Created on  : 2016-05-19 10:13:49
#   Project     : CANT971
#   User        : R5K
#   Interpreter : PEP
#
#------------------------------------------------------------------------------
~VERSION INFORMATION
VERS. 2.0 : CWLS Log ASCII Standard - version 2.0
WRAP.  NO : One line per depth step
~WELL INFORMATION
#MNEMONIC   .UNIT                                           VALUE :DESCRIPTION
#------------------------------------------------------------------------------
STRT        .M                                           767.9436 :START DEPTH
STOP        .M                                          2393.5945 :STOP DEPTH
STEP        .M                                             0.1524 :STEP
NULL        .                                           -999.2500 :NULL VALUE
COMP        .                                             UNKNOWN :COMPANY
WELL        .                                                3050 :WELL
FLD         .                                             UNKNOWN :FIELD
LOC         .                                             UNKNOWN :LOCATION
CNTY        .                                             UNKNOWN :COUNTY
STAT        .                                             UNKNOWN :STATE
CTRY        .                                             UNKNOWN :COUNTRY
SRVC        .                                             UNKNOWN :SERVICE COMPANY
DATE        .                                             UNKNOWN :LOG DATE
UWI         .                                                3050 :UNIQUE WELL ID
XCOORD      .                                       601504.140000 :SURFACE X
YCOORD      .                                      2149905.320000 :SURFACE Y
LAT         .                                           19.442123 :LATITUDE
LON         .                                          -92.033057 :LONGITUDE
ELEV        .M                                             0.0000 :SURFACE ELEV
ELEV_TYPE   .                                                  KB :ELEV TYPE
~CURVE INFORMATION
#MNEMONIC.UNIT        API CODE       : CURVE DESCRIPTION
#------------------------------------------------------------------------------
DEPTH    .M                          : Measured Depth
DT       .us/ft       UNKNOWN        : DT:Sonico:rC:NONE:v0 (auto-composite)
GR       .API         UNKNOWN        : GR:PETROWORKS:rC:NONE:v2 
GR-LWD   .UNKNOWN     UNKNOWN        : GR-LWD:PETROWORKS:rC:NONE:v1 
ILD-LWD  .UNKNOWN     UNKNOWN        : ILD-LWD:PETROWORKS:rC:NONE:v1 
ILM-LWD  .UNKNOWN     UNKNOWN        : ILM-LWD:PETROWORKS:rC:NONE:v1 
~A     DEPTH           DT           GR       GR-LWD      ILD-LWD      ILM-LWD
# ...
   1929.5364      91.4098      25.6208      34.2668       2.6494       2.0371
   1929.6888      87.3605      25.0700      37.9948       2.8001       2.1687
   1929.8412      84.7885      25.7786      39.8501       2.7104       2.1664
   1929.9937      86.7230      26.7339      38.0860       2.4031       1.9361
   1930.1460      98.0332      28.2307      40.1764       2.1784       1.7552
   1930.2985      99.3968      29.2652      44.8458       1.8348       1.6302
   1930.4508     103.8930      30.1147      49.5812       1.5006       1.4182
   1930.6031     102.7383      30.2752      50.3908       1.3860       1.2311
   1930.7556     112.3993      29.7674      48.3952       1.3311       1.1541
   1930.9080     110.0374      29.6303      48.8891       1.3279       1.1495
   1931.0604     110.8103      30.0249      47.5924       1.3676       1.2156
   1931.2128     105.4431      31.2176      44.0799       1.4558       1.3629
   1931.3652     104.0729      30.9033      43.1599       1.4826       1.4629
   1931.5176      98.2706      29.6071      40.6389       1.4924       1.5067
   1931.6700      97.3746      28.5509      39.5858       1.5168       1.5375
   1931.8224      96.6350      28.6886      40.8181       1.5260       1.5469
   1931.9749     103.5984      28.9094      43.9974       1.4985       1.5172
   1932.1272     105.8081      28.8049      45.1532       1.4481       1.4708
   1932.2797     106.3998      30.3779      44.8452       1.4178       1.4352
   1932.4320     107.2213      30.8153      49.1528       1.4058       1.4010
   1932.5844     107.3780      31.3260      49.9919       1.3934       1.3697
   1932.7368     105.9969      30.4949      50.0164       1.3779       1.3431
   1932.8892     104.0588      30.1210      47.4841       1.3757       1.3515
   1933.0416     105.0429      30.6886      44.9441       1.3915       1.3762
   1933.1940     105.6771      30.9155      44.6585       1.3975       1.3757
   1933.3464     107.0395      31.1528      44.7873       1.4033       1.3754
   1933.4988     107.5649      31.0550      45.9869       1.4378       1.3965
   1933.6512     106.2953      31.2336      48.8334       1.4937       1.4482
   1933.8036     105.4302      32.4162      46.6157       1.5313       1.4897
   1933.9561     105.3128      32.6119      45.0624       1.5199       1.4980
   1934.1084     105.2436      33.4085      47.8624       1.4875       1.4891
   1934.2609     105.9049      33.0085      49.7698       1.4587       1.4583
   1934.4132     106.0890      31.9818      49.0817       1.4625       1.4352
   1934.5656     105.6586      30.6386      46.1177       1.5023       1.4631
   1934.7180     106.2379      31.3468      43.9209       1.5353       1.5046
   1934.8704     106.6159      32.4136      46.4400       1.4964       1.4797
   1935.0228     103.1925      32.5046      49.3033       1.4222       1.4297
   1935.1752     109.1790      32.1600      49.7761       1.4037       1.4290
   1935.3276     112.3936      32.5235      48.7608       1.3717       1.4064
   1935.4800     114.3516      32.5863      49.8060       1.2294       1.2447
   1935.6324     117.2402      32.4604      51.6894       1.0637       1.0432
   1935.7848     119.3989      32.6829      52.5870       1.0116       0.9792
   1935.9373     119.9465      32.7437      52.7482       1.0039       0.9631
   1936.0896     122.1739      35.2193      49.1883       0.9803       0.9322
   1936.2419     123.1078      36.3201      48.4370       0.9318       0.9018
   1936.3944     123.3583      38.6278      52.4979       0.8950       0.8763
   1936.5468     123.3416      38.1908      56.7393       0.8960       0.8689
   1936.6992     122.9770      37.9099      57.2041       0.9293       0.8919
   1936.8516     121.9024      36.3098      57.0382       0.9524       0.9140
   1937.0040     122.4143      36.8521      52.6293       0.9584       0.9284
   1937.1564     122.4577      36.0925      49.3647       0.9908       0.9589
   1937.3088     120.9161      35.9291      51.3919       1.0207       0.9802
   1937.4612     119.5969      34.7279      53.8921       1.0312       0.9829
   1937.6136     117.8705      35.3686      53.6329       1.0712       1.0220
   1937.7660     117.2570      35.0341      53.1173       1.1411       1.0914
   1937.9185     116.2831      34.8130      51.3921       1.1895       1.1271
   1938.0708     115.3970      34.4606      51.2880       1.2341       1.1756
   1938.2231     114.9244      34.4510      49.6075       1.2616       1.2434
   1938.3756     115.6991      34.8075      48.5183       1.1642       1.1589
   1938.5280     117.9300      35.1885      49.3262       1.0550       1.0335
   1938.6804     119.3684      36.8302      51.0824       0.9591       0.9250
   1938.8328     119.8711      36.7595      55.4565       0.9265       0.8637
   1938.9852     123.5168      36.4107      54.6228       1.0107       0.9342
   1939.1376     123.8213      36.2934      52.9282       1.0482       0.9745
   1939.2900     123.3740      37.0005      52.9178       0.9280       0.8808
   1939.4424     122.9862      37.5621      54.8372       0.8240       0.7960
   1939.5948     120.9846      38.0262      57.6274       0.8118       0.7825
   1939.7472     120.5253      37.8297      57.1709       0.8310       0.7883
   1939.8997     121.3700      39.4831      58.1810       0.9079       0.8198
   1940.0520     123.3314      40.1159      59.5400       0.9464       0.8647
   1940.2043     124.9505      44.3947      62.9909       0.9505       0.8877
   1940.3568     129.8458      48.1971      70.2838       0.9119       0.8592
   1940.5092     135.4745      52.1441      75.3953       0.7952       0.7701
   1940.6616     139.1004      54.5062      80.8804       0.6024       0.5908
   1940.8140     141.7457      57.3757      84.3492       0.4928       0.4682
   1940.9664     139.8244      60.2665      84.5350       0.4652       0.4297
   1941.1188     137.0069      63.3953      82.2093       0.4573       0.4241
   1941.2712     130.0887      60.9127      82.9614       0.4451       0.4243
   1941.4236     127.1251      55.8890      82.2771       0.4837       0.4768
   1941.5760     126.0705      47.0940      75.4635       0.6350       0.6492
   1941.7284     119.8410      41.4421      63.8913       0.8251       0.8495
   1941.8809     114.6612      37.6404      55.7800       0.9521       0.9825
   1942.0332     114.4159      36.6200      51.5661       1.0173       1.0780
   1942.1855     117.1572      35.0230      50.4822       1.0380       1.1066
   1942.3380     119.5244      35.6702      53.4787       1.0246       1.0586
   1942.4904     118.3168      37.3913      56.7683       0.9479       0.9105
   1942.6428     116.7721      40.4710      60.1616       0.8541       0.7437
   1942.7952     119.7111      42.0209      57.7899       0.9053       0.7811
   1942.9476     121.4024      45.2377      55.8607       0.9975       0.8940
   1943.1000     125.2764      49.9408      58.0698       1.0434       0.9839
   1943.2524     129.6487      54.9881      70.8075       0.9303       0.9351
   1943.4048     131.6110      56.5425      83.1264       0.6991       0.6999
   1943.5573     132.0450      55.3205      81.8931       0.5527       0.5223
   1943.7096     131.8562      50.0271      75.9935       0.5812       0.5112
   1943.8621     128.6560      43.8714      70.5821       0.7363       0.6359
   1944.0144     123.7018      38.9409      63.6411       0.8700       0.7547
   1944.1667     118.6555      37.3940      60.2957       0.8996       0.7991
   1944.3192     118.6255      38.2107      59.6549       0.9189       0.8582
   1944.4716     120.1237      40.3402      58.0931       0.9292       0.9172
   1944.6240     125.6152      44.4534      60.0398       0.8435       0.8594
   1944.7764     125.6126      47.4240      70.2718       0.6641       0.6695
   1944.9288     125.9193      49.6573      74.3607       0.5394       0.5168
   1945.0812     120.2788      46.1513      68.4685       0.5769       0.5327
