#------------------------------------------------------------------------------
#
#   Created by  : [OpenWorks] Log Export Utility (LEXP)
#   Created on  : 2016-05-19 10:13:49
#   Project     : CANT971
#   User        : R5K
#   Interpreter : PEP
#
#------------------------------------------------------------------------------
~VERSION INFORMATION
VERS. 2.0 : CWLS Log ASCII Standard - version 2.0
WRAP.  NO : One line per depth step
~WELL INFORMATION
#MNEMONIC   .UNIT                                           VALUE :DESCRIPTION
#------------------------------------------------------------------------------
STRT        .M                                           767.9436 :START DEPTH
STOP        .M                                          2393.5945 :STOP DEPTH
STEP        .M                                             0.1524 :STEP
NULL        .                                           -999.2500 :NULL VALUE
COMP        .                                             UNKNOWN :COMPANY
WELL        .                                                3050 :WELL
FLD         .                                             UNKNOWN :FIELD
LOC         .                                             UNKNOWN :LOCATION
CNTY        .                                             UNKNOWN :COUNTY
STAT        .                                             UNKNOWN :STATE
CTRY        .                                             UNKNOWN :COUNTRY
SRVC        .                                             UNKNOWN :SERVICE COMPANY
DATE        .                                             UNKNOWN :LOG DATE
UWI         .                                                3050 :UNIQUE WELL ID
XCOORD      .                                       601504.140000 :SURFACE X
YCOORD      .                                      2149905.320000 :SURFACE Y
LAT         .                                           19.442123 :LATITUDE
LON         .                                          -92.033057 :LONGITUDE
ELEV        .M                                             0.0000 :SURFACE ELEV
ELEV_TYPE   .                                                  KB :ELEV TYPE
~CURVE INFORMATION
#MNEMONIC.UNIT        API CODE       : CURVE DESCRIPTION
#------------------------------------------------------------------------------
DEPTH    .M                          : Measured Depth
DT       .us/ft       UNKNOWN        : DT:Sonico:rC:NONE:v0 (auto-composite)
GR       .API         UNKNOWN        : GR:PETROWORKS:rC:NONE:v2 
GR-LWD   .UNKNOWN     UNKNOWN        : GR-LWD:PETROWORKS:rC:NONE:v1 
ILD-LWD  .UNKNOWN     UNKNOWN        : ILD-LWD:PETROWORKS:rC:NONE:v1 
ILM-LWD  .UNKNOWN     UNKNOWN        : ILM-LWD:PETROWORKS:rC:NONE:v1 
~A     DEPTH           DT           GR       GR-LWD      ILD-LWD      ILM-LWD
# ...
   1803.9589     123.2047      57.5236      85.2304       0.9657       0.9360
   1804.1112     123.0583      59.7611      83.9346       0.9723       0.9569
   1804.2635     123.4481      60.3661      80.6134       0.9824       0.9648
   1804.4160     124.3371      61.2471      83.5923       0.9979       0.9679
   1804.5684     123.7322      59.9017      87.5950       1.0115       0.9820
   1804.7208     123.9666      59.5475      88.5671       1.0484       1.0128
   1804.8732     123.9198      61.5255      87.2196       1.0959       1.0614
   1805.0256     123.6500      64.3823      89.2834       1.1212       1.0974
   1805.1780     123.7587      68.2044      94.0631       1.1364       1.1034
   1805.3304     123.5525      71.4969      98.9880       1.1829       1.1118
   1805.4828     122.4746      73.8324     101.3103       1.3492       1.2315
   1805.6353     124.1285      74.3539      98.6035       1.6689       1.5347
   1805.7876     124.0232      70.9995      94.3364       1.9574       1.8663
   1805.9401     122.9682      66.6464      90.9181       2.0731       2.0599
   1806.0924     121.3658      60.6469      82.7555       2.0087       2.0309
   1806.2448     118.0424      54.9170      77.4673       1.8917       1.8968
   1806.3972     113.2485      46.7484      65.6633       1.9016       1.9199
   1806.5496     111.2553      39.4272      53.8209       1.9364       1.9931
   1806.7020     110.6818      36.8355      52.8992       1.6690       1.7269
   1806.8544     110.7659      38.8061      58.8222       1.3703       1.3895
   1807.0068     113.3836      44.9366      72.3863       1.2053       1.1877
   1807.1592     115.6552      51.1553      83.9022       1.1396       1.1047
   1807.3116     118.5028      59.4529      88.3436       1.1037       1.0570
   1807.4640     120.4808      64.8718      82.3513       1.0821       1.0105
   1807.6165     129.4333      69.0617      84.9671       1.0857       1.0005
   1807.7688     130.0956      69.0256      92.1331       1.0953       1.0271
   1807.9211     129.5262      68.8115      96.0647       1.0969       1.0554
   1808.0736     129.1074      66.2150      94.8100       1.0866       1.0499
   1808.2260     125.7003      63.3698      90.6839       1.1058       1.0722
   1808.3784     125.4465      60.5414      81.1395       1.1590       1.1372
   1808.5308     123.3062      58.6935      74.0661       1.2295       1.2001
   1808.6832     120.5909      58.6578      72.2397       1.4262       1.3873
   1808.8356     119.8418      57.5061      68.4862       1.7036       1.7195
   1808.9880     118.4429      56.0707      68.6653       1.8070       1.8974
   1809.1404     117.6604      53.2330      67.4083       1.7081       1.7931
   1809.2928     117.6254      52.2183      70.2438       1.4612       1.5313
   1809.4452     118.0462      53.0806      74.7444       1.2962       1.3133
   1809.5977     118.8988      53.8000      75.7803       1.2480       1.2228
   1809.7500     120.1793      57.3147      82.5199       1.2146       1.1363
   1809.9023     121.1366      57.6494      84.4819       1.2070       1.1068
   1810.0548     121.4577      58.1946      82.8450       1.2193       1.1059
   1810.2072     122.5402      56.8945      78.4035       1.2205       1.0915
   1810.3596     122.8070      55.4170      73.4060       1.1812       1.0857
   1810.5120     122.5308      55.5840      73.1031       1.1381       1.0839
   1810.6644     122.4020      55.8136      77.1045       1.1244       1.0749
   1810.8168     122.9810      56.3455      79.2883       1.1185       1.0591
   1810.9692     123.4187      56.4011      80.4663       1.1031       1.0569
   1811.1216     124.4592      57.4395      83.3745       1.0938       1.0697
   1811.2740     124.6052      58.1733      82.1311       1.0924       1.0829
   1811.4264     124.5417      57.4816      82.4060       1.0883       1.0841
   1811.5789     124.3339      55.3226      80.1497       1.0731       1.0739
   1811.7312     124.5086      55.1199      79.3015       1.0631       1.0582
   1811.8835     124.5805      56.9480      80.5138       1.0667       1.0541
   1812.0360     124.5699      57.5225      78.9339       1.0821       1.0538
   1812.1884     124.7102      56.0061      76.9819       1.0933       1.0558
   1812.3408     124.3302      55.8083      76.2114       1.1096       1.0713
   1812.4932     124.3756      56.7235      78.9225       1.1409       1.1116
   1812.6456     124.5614      57.4430      81.7222       1.1551       1.1386
   1812.7980     123.9825      57.6671      86.1120       1.1598       1.1528
   1812.9504     124.3726      58.5711      90.0097       1.1869       1.2004
   1813.1028     124.5391      59.5392      88.7931       1.1694       1.1727
   1813.2552     123.4762      59.4898      86.6136       1.0982       1.0930
   1813.4076     123.7919      58.1800      82.5022       1.0347       1.0332
   1813.5601     124.0252      56.8817      76.8299       0.9991       0.9961
   1813.7124     124.0285      56.4997      78.3209       0.9819       0.9656
   1813.8647     123.2090      56.1589      79.9177       0.9870       0.9456
   1814.0172     123.3045      56.1732      79.5484       0.9937       0.9477
   1814.1696     123.7778      54.9563      78.5959       0.9759       0.9449
   1814.3220     124.2357      53.8714      79.3914       0.9504       0.9146
   1814.4744     124.4324      55.5457      79.8369       0.9622       0.9207
   1814.6268     124.8760      57.7301      78.3478       1.0096       0.9824
   1814.7792     125.7757      59.5196      74.5389       1.0230       1.0066
   1814.9316     127.0926      59.1095      78.1933       0.9905       0.9807
   1815.0840     127.3201      57.9758      78.0008       0.9567       0.9412
   1815.2365     128.0358      57.9223      83.0329       0.9385       0.9105
   1815.3888     128.5266      57.3957      85.7908       0.9200       0.8919
   1815.5413     128.7966      57.4156      81.8226       0.9221       0.8850
   1815.6936     128.7445      56.7313      81.8331       0.9443       0.8905
   1815.8459     128.2333      57.6601      81.7965       0.9603       0.9015
   1815.9984     128.2402      57.9028      79.7475       0.9614       0.9173
   1816.1508     125.6285      58.4969      77.2140       0.9969       0.9606
   1816.3032     127.9750      58.5531      79.3099       1.0408       1.0030
   1816.4556     128.2074      57.2090      81.7443       1.0581       1.0178
   1816.6080     128.0434      54.6686      77.7067       1.0386       0.9973
   1816.7604     127.9922      52.1604      72.7737       0.9916       0.9589
   1816.9128     127.1756      51.8549      73.2527       0.9567       0.9231
   1817.0652     127.7158      52.7671      71.7174       0.9175       0.8813
   1817.2177     128.5321      54.5422      72.7643       0.9053       0.8573
   1817.3700     129.1695      55.1856      75.3780       0.9091       0.8507
   1817.5225     129.4233      54.9769      76.7500       0.9128       0.8507
   1817.6748     128.9095      53.4257      77.0182       0.9254       0.8705
   1817.8271     129.0762      54.0421      76.5687       0.9063       0.8623
   1817.9796     130.0072      55.1618      75.3384       0.8576       0.8241
   1818.1320     130.5680      57.0734      76.4128       0.8295       0.8019
   1818.2844     128.4959      58.4611      76.3163       0.8278       0.8096
   1818.4368     128.8523      59.5952      77.7305       0.8256       0.8179
   1818.5892     128.8419      59.5299      77.6873       0.8257       0.8075
   1818.7416     129.4593      58.7704      78.1889       0.8366       0.8065
   1818.8940     129.5873      58.6154      79.8643       0.8381       0.8085
   1819.0464     132.6497      56.8960      79.0427       0.8320       0.8050
   1819.1989     129.4329      54.8800      80.1863       0.8379       0.7993
   1819.3512     130.0099      53.8647      84.2708       0.8906       0.8297
   1819.5037     129.7885      54.7641      85.6115       0.9877       0.9305
