#------------------------------------------------------------------------------
#
#   Created by  : [OpenWorks] Log Export Utility (LEXP)
#   Created on  : 2016-05-19 10:13:49
#   Project     : CANT971
#   User        : R5K
#   Interpreter : PEP
#
#------------------------------------------------------------------------------
~VERSION INFORMATION
VERS. 2.0 : CWLS Log ASCII Standard - version 2.0
WRAP.  NO : One line per depth step
~WELL INFORMATION
#MNEMONIC   .UNIT                                           VALUE :DESCRIPTION
#------------------------------------------------------------------------------
STRT        .M                                           767.9436 :START DEPTH
STOP        .M                                          2393.5945 :STOP DEPTH
STEP        .M                                             0.1524 :STEP
NULL        .                                           -999.2500 :NULL VALUE
COMP        .                                             UNKNOWN :COMPANY
WELL        .                                                3050 :WELL
FLD         .                                             UNKNOWN :FIELD
LOC         .                                             UNKNOWN :LOCATION
CNTY        .                                             UNKNOWN :COUNTY
STAT        .                                             UNKNOWN :STATE
CTRY        .                                             UNKNOWN :COUNTRY
SRVC        .                                             UNKNOWN :SERVICE COMPANY
DATE        .                                             UNKNOWN :LOG DATE
UWI         .                                                3050 :UNIQUE WELL ID
XCOORD      .                                       601504.140000 :SURFACE X
YCOORD      .                                      2149905.320000 :SURFACE Y
LAT         .                                           19.442123 :LATITUDE
LON         .                                          -92.033057 :LONGITUDE
ELEV        .M                                             0.0000 :SURFACE ELEV
ELEV_TYPE   .                                                  KB :ELEV TYPE
~CURVE INFORMATION
#MNEMONIC.UNIT        API CODE       : CURVE DESCRIPTION
#------------------------------------------------------------------------------
DEPTH    .M                          : Measured Depth
DT       .us/ft       UNKNOWN        : DT:Sonico:rC:NONE:v0 (auto-composite)
GR       .API         UNKNOWN        : GR:PETROWORKS:rC:NONE:v2 
GR-LWD   .UNKNOWN     UNKNOWN        : GR-LWD:PETROWORKS:rC:NONE:v1 
ILD-LWD  .UNKNOWN     UNKNOWN        : ILD-LWD:PETROWORKS:rC:NONE:v1 
ILM-LWD  .UNKNOWN     UNKNOWN        : ILM-LWD:PETROWORKS:rC:NONE:v1 
~A     DEPTH           DT           GR       GR-LWD      ILD-LWD      ILM-LWD
# ...
   2008.0225     107.3394      36.7945      53.6678       1.3104       1.2596
   2008.1748     106.8132      35.4566      51.5799       1.3153       1.2877
   2008.3271     107.7225      32.8971      52.9047       1.3423       1.3393
   2008.4796     107.5905      32.8453      54.9630       1.3631       1.3618
   2008.6320     107.4986      34.3870      55.3054       1.3578       1.3392
   2008.7844     108.0235      36.9310      54.8550       1.3209       1.2879
   2008.9368     108.2370      37.7820      55.7790       1.3001       1.2551
   2009.0892     107.1637      37.0988      56.4718       1.2938       1.2376
   2009.2416     107.0217      36.4401      54.4654       1.3147       1.2498
   2009.3940     107.0513      35.7306      51.4491       1.3722       1.3033
   2009.5464     107.4146      34.4316      50.2163       1.4281       1.3644
   2009.6989     105.8962      33.6119      49.8991       1.4354       1.3978
   2009.8512     103.9013      33.6081      50.1139       1.4220       1.4063
   2010.0037     103.6494      35.1580      52.4567       1.4475       1.4385
   2010.1560     103.3133      34.7845      53.7968       1.5203       1.4895
   2010.3083     101.4036      33.7394      54.3618       1.5725       1.5323
   2010.4608     103.6222      32.4951      54.1860       1.5641       1.5417
   2010.6132     101.7317      33.5923      51.0623       1.5339       1.5276
   2010.7656     103.3633      33.9921      50.0329       1.4907       1.4806
   2010.9180     106.9932      33.9654      49.4483       1.4432       1.4043
   2011.0704     107.9985      35.3567      51.9149       1.4257       1.3404
   2011.2228     108.5155      37.4041      52.2824       1.4602       1.3606
   2011.3752     108.1517      37.9102      54.9757       1.4896       1.4028
   2011.5276     107.4982      36.3307      56.6463       1.4746       1.4207
   2011.6801     109.3510      35.0475      59.0575       1.4646       1.4367
   2011.8324     110.7709      34.5782      57.7084       1.4896       1.4572
   2011.9849     111.8258      35.7206      53.5631       1.4075       1.3964
   2012.1372     113.0045      35.7832      53.3636       1.0972       1.1058
   2012.2896     113.0385      35.5437      52.9474       0.9864       0.9686
   2012.4420     112.8569      34.4181      51.8868       1.1150       1.0361
   2012.5944     108.2844      33.3473      47.9887       1.2983       1.1718
   2012.7468     104.3673      31.5721      45.4630       1.3885       1.2658
   2012.8992     104.3863      29.4503      42.8933       1.4209       1.3688
   2013.0516     103.8848      28.0448      43.5325       1.4434       1.4560
   2013.2040     105.0123      28.7642      44.0474       1.4504       1.4742
   2013.3564     104.5334      29.6996      45.7660       1.4577       1.4545
   2013.5088     102.7400      29.7943      48.5839       1.4571       1.4286
   2013.6613     103.1806      29.0320      49.7814       1.4462       1.3925
   2013.8136     103.4879      29.4352      50.6279       1.4195       1.3489
   2013.9661     105.1749      29.8955      50.8772       1.3840       1.3047
   2014.1184     104.8917      30.6403      50.1375       1.3924       1.3295
   2014.2708     104.2102      30.4462      47.7310       1.4567       1.4013
   2014.4232     102.9043      31.1581      44.4267       1.5195       1.4719
   2014.5756     100.6274      31.4041      45.3672       1.5456       1.5063
   2014.7280     100.4035      31.0097      47.8539       1.5626       1.5412
   2014.8804      99.8455      29.7231      46.8652       1.5810       1.5718
   2015.0328      99.8995      28.9612      44.7424       1.5851       1.5754
   2015.1852     100.4404      29.7508      42.6691       1.5521       1.5482
   2015.3376     103.2956      31.1478      41.1469       1.4879       1.4881
   2015.4900     104.9072      32.0608      44.0887       1.4119       1.3913
   2015.6425     106.0841      32.6479      44.2073       1.3280       1.2941
   2015.7948     106.2083      32.7259      44.8820       1.2902       1.2507
   2015.9471     106.8794      33.1084      47.8409       1.2684       1.2307
   2016.0996     108.6448      32.8305      48.6368       1.2542       1.2143
   2016.2520     107.9788      32.0294      50.2983       1.3151       1.2617
   2016.4044     106.8960      31.6150      52.0838       1.3277       1.2896
   2016.5568     107.1800      31.5789      53.5386       1.1494       1.1246
   2016.7092     108.0477      32.0892      52.1154       1.1615       1.1254
   2016.8616     108.1842      32.9838      52.4124       1.3100       1.2459
   2017.0140     106.3074      32.3341      51.3605       1.3339       1.2771
   2017.1664     107.7768      32.0550      50.6490       1.2969       1.2622
   2017.3188     109.2805      32.6093      49.6818       1.2865       1.2975
   2017.4712     110.9339      36.2075      52.8658       1.3043       1.3100
   2017.6237     112.7488      38.1086      54.4803       1.2195       1.2124
   2017.7760     112.2448      38.1624      56.3836       0.9925       0.9755
   2017.9283     112.3091      35.8102      55.7359       0.8855       0.8452
   2018.0808     111.3243      34.7309      52.8150       1.0224       0.9436
   2018.2332     106.6923      33.5370      51.8713       1.1785       1.0799
   2018.3856     103.0908      33.6919      51.4984       1.1868       1.1664
   2018.5380     102.7456      34.0457      51.9094       1.1978       1.2826
   2018.6904     103.1058      34.7677      52.2947       1.2454       1.2933
   2018.8428     104.0121      36.2722      54.5432       1.2809       1.2625
   2018.9952     104.7389      35.7242      55.6965       1.2572       1.2066
   2019.1476     104.4802      36.0843      53.5261       1.2338       1.1771
   2019.3000     110.3622      35.6709      51.7760       1.2471       1.2018
   2019.4524     110.9002      36.7266      49.9225       1.2632       1.2068
   2019.6049     110.3138      37.1204      51.7648       1.2074       1.1564
   2019.7572     111.4177      35.7695      52.4923       1.1411       1.0936
   2019.9095     111.6148      34.7274      52.1219       1.1447       1.0859
   2020.0620     110.3507      34.1872      51.0474       1.1589       1.0895
   2020.2144     108.4911      34.6050      52.0958       1.1738       1.1141
   2020.3668     106.4463      34.2480      52.7916       1.1850       1.1609
   2020.5192     107.8004      33.0203      52.6665       1.1845       1.1976
   2020.6716     108.7783      32.8924      46.8145       1.2962       1.3106
   2020.8240     110.4306      33.2220      50.6252       1.3364       1.3445
   2020.9764     111.7127      33.4995      54.2052       1.0965       1.1244
   2021.1288     111.0845      33.1963      53.5897       0.8927       0.8866
   2021.2812     111.1677      33.1278      51.2910       0.9605       0.9058
   2021.4336     110.4060      34.1466      50.3516       1.0829       1.0016
   2021.5861     107.8742      34.4086      47.4424       1.1562       1.0784
   2021.7384     108.2865      32.7652      48.7785       1.1883       1.1731
   2021.8907     108.6590      30.9560      51.2110       1.1940       1.2407
   2022.0432     108.8988      29.5347      51.7511       1.2056       1.2569
   2022.1956     108.9432      32.8318      49.9901       1.2213       1.2031
   2022.3480     107.5274      33.1505      47.6951       1.2520       1.1691
   2022.5004     101.1076      31.2865      46.4208       1.3124       1.2062
   2022.6528      98.0150      27.9951      43.7768       1.3884       1.2832
   2022.8052      98.5501      26.6459      39.1150       1.4690       1.4065
   2022.9576      97.0411      26.2410      41.8660       1.2819       1.2833
   2023.1100     101.7548      27.5568      46.0589       1.0930       1.0971
   2023.2625     107.7097      29.2950      47.9042       1.1155       1.0888
   2023.4148     110.0714      32.1130      46.3520       1.2005       1.1349
   2023.5673     111.0951      32.9408      47.8608       1.2580       1.1651
