#------------------------------------------------------------------------------
#
#   Created by  : [OpenWorks] Log Export Utility (LEXP)
#   Created on  : 2016-05-19 10:13:49
#   Project     : CANT971
#   User        : R5K
#   Interpreter : PEP
#
#------------------------------------------------------------------------------
~VERSION INFORMATION
VERS. 2.0 : CWLS Log ASCII Standard - version 2.0
WRAP.  NO : One line per depth step
~WELL INFORMATION
#MNEMONIC   .UNIT                                           VALUE :DESCRIPTION
#------------------------------------------------------------------------------
STRT        .M                                           767.9436 :START DEPTH
STOP        .M                                          2393.5945 :STOP DEPTH
STEP        .M                                             0.1524 :STEP
NULL        .                                           -999.2500 :NULL VALUE
COMP        .                                             UNKNOWN :COMPANY
WELL        .                                                3050 :WELL
FLD         .                                             UNKNOWN :FIELD
LOC         .                                             UNKNOWN :LOCATION
CNTY        .                                             UNKNOWN :COUNTY
STAT        .                                             UNKNOWN :STATE
CTRY        .                                             UNKNOWN :COUNTRY
SRVC        .                                             UNKNOWN :SERVICE COMPANY
DATE        .                                             UNKNOWN :LOG DATE
UWI         .                                                3050 :UNIQUE WELL ID
XCOORD      .                                       601504.140000 :SURFACE X
YCOORD      .                                      2149905.320000 :SURFACE Y
LAT         .                                           19.442123 :LATITUDE
LON         .                                          -92.033057 :LONGITUDE
ELEV        .M                                             0.0000 :SURFACE ELEV
ELEV_TYPE   .                                                  KB :ELEV TYPE
~CURVE INFORMATION
#MNEMONIC.UNIT        API CODE       : CURVE DESCRIPTION
#------------------------------------------------------------------------------
DEPTH    .M                          : Measured Depth
DT       .us/ft       UNKNOWN        : DT:Sonico:rC:NONE:v0 (auto-composite)
GR       .API         UNKNOWN        : GR:PETROWORKS:rC:NONE:v2 
GR-LWD   .UNKNOWN     UNKNOWN        : GR-LWD:PETROWORKS:rC:NONE:v1 
ILD-LWD  .UNKNOWN     UNKNOWN        : ILD-LWD:PETROWORKS:rC:NONE:v1 
ILM-LWD  .UNKNOWN     UNKNOWN        : ILM-LWD:PETROWORKS:rC:NONE:v1 
~A     DEPTH           DT           GR       GR-LWD      ILD-LWD      ILM-LWD
# ...
   1882.4448     100.6491      30.3775      45.1747       1.8702       1.7480
   1882.5972      99.0820      32.2373      46.7544       1.8954       1.6718
   1882.7496     100.3665      33.9386      45.8185       1.9138       1.5456
   1882.9020     104.5189      34.9511      46.2549       1.8515       1.3563
   1883.0544     104.1274      36.6358      52.5351       1.7319       1.1985
   1883.2068     114.2980      40.8773      57.2907       1.5698       1.0995
   1883.3593     116.8229      45.2790      60.1564       1.3620       0.9925
   1883.5116     118.2062      46.9978      68.0189       1.2260       0.9440
   1883.6641     119.5768      45.9038      69.9277       1.0821       0.9034
   1883.8164     117.6608      42.8998      67.7066       0.9556       0.8604
   1883.9688     112.4164      40.5506      62.8892       0.8906       0.8252
   1884.1212      82.4833      38.3113      59.8210       0.8749       0.8093
   1884.2736      85.7338      34.9251      57.3764       0.9206       0.8575
   1884.4260      84.6015      32.8994      53.3623       1.0533       1.0056
   1884.5784      87.7129      31.2774      50.8511       1.2624       1.2407
   1884.7308      89.6821      31.8366      47.4817       1.4187       1.4621
   1884.8832     102.3002      31.9248      46.8405       1.5222       1.6441
   1885.0356     102.6188      34.1686      48.4581       1.5370       1.7042
   1885.1880     108.2459      37.3969      49.9193       1.4479       1.6800
   1885.3405     109.0059      41.1810      52.3509       1.2600       1.4406
   1885.4928     110.2770      43.8371      55.2662       1.0651       1.1152
   1885.6453     114.9923      46.6490      59.9952       0.9519       0.9261
   1885.7976     120.2701      45.4790      61.0332       0.9055       0.8544
   1885.9500     126.4282      44.0064      63.0889       0.8735       0.8108
   1886.1024     130.8242      42.2928      62.3971       0.8287       0.7688
   1886.2548     130.0132      42.0889      62.0027       0.8166       0.7667
   1886.4072     127.8916      42.7934      63.2682       0.8134       0.7714
   1886.5596     127.6744      42.4663      69.0657       0.7554       0.7260
   1886.7120     129.0154      42.0629      68.3474       0.7498       0.7234
   1886.8644     129.8793      40.9928      66.6103       0.7807       0.7470
   1887.0168     129.6715      40.1300      64.0807       0.8176       0.7697
   1887.1692     128.2569      40.7987      62.0403       0.8389       0.7846
   1887.3217     127.0496      41.8984      60.7337       0.8430       0.8009
   1887.4740     126.6317      42.0835      60.5570       0.8339       0.8024
   1887.6263     126.4515      41.5570      61.2384       0.8393       0.8022
   1887.7788     124.8657      40.6594      60.4743       0.8635       0.8179
   1887.9312     122.5133      40.8419      61.0534       0.9263       0.8774
   1888.0836     119.8574      41.2390      61.3781       1.0101       0.9653
   1888.2360     118.5886      40.4168      58.8467       1.0451       1.0171
   1888.3884     114.5933      40.2929      55.9348       1.0508       1.0376
   1888.5408     116.0187      38.3796      56.4133       1.0651       1.0653
   1888.6932     116.6463      37.7782      55.3855       1.0641       1.0591
   1888.8456     117.8165      35.4019      52.1853       1.0608       1.0431
   1888.9980     117.3331      34.6571      52.2484       1.0527       1.0312
   1889.1504     120.1787      34.7577      56.1635       1.0403       1.0272
   1889.3029     121.4277      37.9242      59.5570       1.0039       0.9799
   1889.4552     122.0893      40.4391      64.7164       0.9507       0.9034
   1889.6075     122.8467      43.3090      65.3256       0.9185       0.8645
   1889.7600     122.9221      43.2323      64.3567       0.9069       0.8577
   1889.9124     123.7641      43.7020      60.7989       0.9158       0.8753
   1890.0648     122.7947      42.3853      61.2403       0.9467       0.9004
   1890.2172     121.9312      41.5535      61.5458       0.9788       0.9318
   1890.3696     120.5637      39.8886      59.0466       1.0023       0.9660
   1890.5220     119.7927      38.6848      58.3359       1.0074       0.9889
   1890.6744     120.7502      37.4041      57.6962       0.9994       0.9936
   1890.8268     120.2917      36.8914      57.7364       0.9950       0.9917
   1890.9792     119.9289      36.9136      57.2036       1.0023       0.9828
   1891.1316     120.7613      38.0845      56.4703       1.0094       0.9730
   1891.2841     122.5585      39.1565      57.6369       0.9986       0.9615
   1891.4364     122.4424      39.2528      60.2671       0.9784       0.9426
   1891.5887     122.9648      39.5085      55.4464       0.9760       0.9421
   1891.7412     123.1133      37.8672      53.6512       0.9862       0.9666
   1891.8936     122.4899      39.1048      58.2761       0.9900       0.9957
   1892.0460     122.4230      39.4115      62.2005       0.9843       0.9943
   1892.1984     121.4932      40.3649      58.9601       0.9892       0.9805
   1892.3508     120.9423      39.7516      57.0581       0.9978       0.9716
   1892.5032     121.2178      39.4140      57.2099       1.0009       0.9626
   1892.6556     121.8502      41.4458      57.0120       1.0232       0.9738
   1892.8080     122.6555      42.2348      59.4202       1.0310       0.9786
   1892.9604     122.9811      43.3201      59.0873       1.0190       0.9619
   1893.1128     123.0261      42.7126      58.1008       1.0001       0.9392
   1893.2653     124.2850      42.6480      58.7739       0.9781       0.9174
   1893.4176     125.6150      42.1786      61.9292       0.9576       0.9025
   1893.5699     124.9667      42.2663      60.7723       0.9441       0.8959
   1893.7224     124.9065      40.5323      59.2685       0.9519       0.9050
   1893.8748     125.0598      39.4646      57.8654       0.9456       0.9025
   1894.0272     125.4452      38.6966      56.6238       0.9271       0.8861
   1894.1796     125.7702      39.9451      58.8770       0.9176       0.8688
   1894.3320     125.5439      40.5907      59.0926       0.9130       0.8601
   1894.4844     124.7990      39.8335      56.2798       0.9244       0.8645
   1894.6368     123.2186      40.0680      55.3195       0.9528       0.8832
   1894.7892     122.1177      38.9363      55.8252       0.9602       0.8975
   1894.9417     121.0762      37.7868      54.5617       0.9401       0.8890
   1895.0940     119.5770      35.9501      53.1418       0.9447       0.8908
   1895.2465     119.0466      36.1083      51.2555       0.9855       0.9256
   1895.3988     117.2874      36.1863      52.5331       1.0341       0.9755
   1895.5511     117.0083      36.4111      50.8392       1.0771       1.0188
   1895.7036     118.1656      36.5432      51.7379       1.0973       1.0547
   1895.8560     118.6759      37.1885      54.7152       1.0728       1.0401
   1896.0084     118.5891      37.9189      51.9263       1.0096       0.9671
   1896.1608     118.4634      37.3541      48.9649       1.0000       0.9527
   1896.3132     115.9630      36.1474      50.1791       1.0811       1.0376
   1896.4656     114.5221      35.0116      50.2383       1.1551       1.1173
   1896.6180     113.7169      35.1553      47.6730       1.1823       1.1441
   1896.7704     113.2062      36.2551      48.2716       1.1760       1.1383
   1896.9229     112.4253      36.9280      54.7629       1.1241       1.0995
   1897.0752     113.5446      37.2169      58.5178       1.0447       1.0343
   1897.2277     119.1422      36.7327      57.2747       1.0003       0.9761
   1897.3800     120.1502      36.1678      54.7045       0.9792       0.9366
   1897.5323     120.4998      35.9199      50.6406       0.9643       0.9090
   1897.6848     119.2148      35.1788      47.5551       0.9386       0.8827
   1897.8372     120.0101      34.6844      47.2755       0.9173       0.8798
   1897.9896     120.8253      35.0434      51.2174       0.9869       0.9541
