#------------------------------------------------------------------------------
#
#   Created by  : [OpenWorks] Log Export Utility (LEXP)
#   Created on  : 2016-05-19 10:13:49
#   Project     : CANT971
#   User        : R5K
#   Interpreter : PEP
#
#------------------------------------------------------------------------------
~VERSION INFORMATION
VERS. 2.0 : CWLS Log ASCII Standard - version 2.0
WRAP.  NO : One line per depth step
~WELL INFORMATION
#MNEMONIC   .UNIT                                           VALUE :DESCRIPTION
#------------------------------------------------------------------------------
STRT        .M                                           767.9436 :START DEPTH
STOP        .M                                          2393.5945 :STOP DEPTH
STEP        .M                                             0.1524 :STEP
NULL        .                                           -999.2500 :NULL VALUE
COMP        .                                             UNKNOWN :COMPANY
WELL        .                                                3050 :WELL
FLD         .                                             UNKNOWN :FIELD
LOC         .                                             UNKNOWN :LOCATION
CNTY        .                                             UNKNOWN :COUNTY
STAT        .                                             UNKNOWN :STATE
CTRY        .                                             UNKNOWN :COUNTRY
SRVC        .                                             UNKNOWN :SERVICE COMPANY
DATE        .                                             UNKNOWN :LOG DATE
UWI         .                                                3050 :UNIQUE WELL ID
XCOORD      .                                       601504.140000 :SURFACE X
YCOORD      .                                      2149905.320000 :SURFACE Y
LAT         .                                           19.442123 :LATITUDE
LON         .                                          -92.033057 :LONGITUDE
ELEV        .M                                             0.0000 :SURFACE ELEV
ELEV_TYPE   .                                                  KB :ELEV TYPE
~CURVE INFORMATION
#MNEMONIC.UNIT        API CODE       : CURVE DESCRIPTION
#------------------------------------------------------------------------------
DEPTH    .M                          : Measured Depth
DT       .us/ft       UNKNOWN        : DT:Sonico:rC:NONE:v0 (auto-composite)
GR       .API         UNKNOWN        : GR:PETROWORKS:rC:NONE:v2 
GR-LWD   .UNKNOWN     UNKNOWN        : GR-LWD:PETROWORKS:rC:NONE:v1 
ILD-LWD  .UNKNOWN     UNKNOWN        : ILD-LWD:PETROWORKS:rC:NONE:v1 
ILM-LWD  .UNKNOWN     UNKNOWN        : ILM-LWD:PETROWORKS:rC:NONE:v1 
~A     DEPTH           DT           GR       GR-LWD      ILD-LWD      ILM-LWD
# ...
   2337.6636    -999.2500    -999.2500      72.3354     592.3822     374.1785
   2337.8159    -999.2500    -999.2500      79.3857     662.9300     163.5260
   2337.9685    -999.2500    -999.2500      80.0321     662.9300     136.2500
   2338.1208    -999.2500    -999.2500      77.7153     650.4467     136.2500
   2338.2732    -999.2500    -999.2500      76.5600     625.8386     147.4857
   2338.4255    -999.2500    -999.2500      63.8881     601.2145     160.7105
   2338.5781    -999.2500    -999.2500      41.0800     576.5787     173.9290
   2338.7305    -999.2500    -999.2500      41.0800     551.9822     187.1503
   2338.8828    -999.2500    -999.2500      34.9563     527.3464     200.3660
   2339.0352    -999.2500    -999.2500      31.7500     502.7138     213.5863
   2339.1875    -999.2500    -999.2500      33.3587     478.1140     226.8148
   2339.3401    -999.2500    -999.2500      43.4946     453.4796     240.0222
   2339.4924    -999.2500    -999.2500      48.5500     428.8624     253.2508
   2339.6448    -999.2500    -999.2500      48.5500     404.4474     266.3712
   2339.7971    -999.2500    -999.2500      48.5500     379.6282     279.6868
   2339.9497    -999.2500    -999.2500      48.6172     355.0111     292.9153
   2340.1021    -999.2500    -999.2500      51.1699     330.3776     301.0700
   2340.2544    -999.2500    -999.2500      55.0842     305.7769     299.4510
   2340.4067    -999.2500    -999.2500      58.9946     281.1452     264.1893
   2340.5591    -999.2500    -999.2500      62.9094     256.5093     211.5777
   2340.7117    -999.2500    -999.2500      66.8226     231.9129     158.9608
   2340.8640    -999.2500    -999.2500      69.0900     207.2770     106.3914
   2341.0164    -999.2500    -999.2500      68.6206     208.8856      64.7294
   2341.1687    -999.2500    -999.2500      66.3104     415.0448      61.9181
   2341.3213    -999.2500    -999.2500      65.3600     644.2302      68.3481
   2341.4736    -999.2500    -999.2500      63.3961     482.5746      68.7214
   2341.6260    -999.2500    -999.2500      59.3307     196.5573      58.8920
   2341.7783    -999.2500    -999.2500      55.2707     253.5130      46.9763
   2341.9309    -999.2500    -999.2500      51.1990    1160.0974      43.7800
   2342.0833    -999.2500    -999.2500      47.5966    2000.0000      70.4548
   2342.2356    -999.2500    -999.2500      46.6900    1873.3422     252.7787
   2342.3879    -999.2500    -999.2500      45.4653    1465.1995     487.5935
   2342.5403    -999.2500    -999.2500      43.0006    1365.5000     657.3221
   2342.6929    -999.2500    -999.2500      43.9500    1020.3661     612.7793
   2342.8452    -999.2500    -999.2500      49.6543     368.9500     307.0840
   2342.9976    -999.2500    -999.2500      52.2900     364.8477     136.2500
   2343.1499    -999.2500    -999.2500      51.2361     342.7840     136.2500
   2343.3025    -999.2500    -999.2500      48.9233     316.2062     136.2500
   2343.4548    -999.2500    -999.2500      48.5959     289.6032     136.2500
   2343.6072    -999.2500    -999.2500      49.5544     262.9868     136.2500
   2343.7595    -999.2500    -999.2500      50.9737     236.4263     136.2500
   2343.9121    -999.2500    -999.2500      52.3991     209.8137     136.2500
   2344.0645    -999.2500    -999.2500      53.7343     255.1438     136.2500
   2344.2168    -999.2500    -999.2500      54.1500    1077.0239     136.2500
   2344.3691    -999.2500    -999.2500      54.0878    1940.4961     131.9397
   2344.5215    -999.2500    -999.2500      53.4695    1921.0345     122.4332
   2344.6741    -999.2500    -999.2500      52.6160    1595.6030     112.9246
   2344.8264    -999.2500    -999.2500      51.7631    1241.2220     103.4356
   2344.9788    -999.2500    -999.2500      50.9090     886.7676      93.9245
   2345.1311    -999.2500    -999.2500      50.0555     532.2524      84.4156
   2345.2837    -999.2500    -999.2500      49.2027     218.5807      76.0125
   2345.4360    -999.2500    -999.2500      48.5741     241.1410      73.9000
   2345.5884    -999.2500    -999.2500      48.5500     965.1539     968.4659
   2345.7407    -999.2500    -999.2500      49.7339    1362.3295    1985.9552
   2345.8933    -999.2500    -999.2500      53.3524    1158.8818    2000.0000
   2346.0457    -999.2500    -999.2500      54.1500     820.3527    2000.0000
   2346.1980    -999.2500    -999.2500      53.9298     482.4538    2000.0000
   2346.3503    -999.2500    -999.2500      52.7526     150.7096    2000.0000
   2346.5027    -999.2500    -999.2500      51.3269      33.7900    2000.0000
   2346.6553    -999.2500    -999.2500      49.9066      33.6607    2000.0000
   2346.8076    -999.2500    -999.2500      48.7417      31.0361    2000.0000
   2346.9600    -999.2500    -999.2500      48.5500      27.1268    1952.5399
   2347.1123    -999.2500    -999.2500      47.4333      23.2231    1254.2422
   2347.2649    -999.2500    -999.2500      44.8200      20.9800     306.5777
   2347.4172    -999.2500    -999.2500      44.8200      20.9800      12.1300
   2347.5696    -999.2500    -999.2500      42.2209      21.3554      12.1300
   2347.7219    -999.2500    -999.2500      36.5300      23.5437      11.3926
   2347.8745    -999.2500    -999.2500      31.3389      25.7355       9.9593
   2348.0269    -999.2500    -999.2500      29.8800      27.9267       8.5252
   2348.1792    -999.2500    -999.2500      31.0378      30.1155       7.0904
   2348.3315    -999.2500    -999.2500      39.6972      32.3069       5.6578
   2348.4839    -999.2500    -999.2500      51.0908      34.4970       4.2230
   2348.6365    -999.2500    -999.2500      59.4583      36.6873       2.7883
   2348.7888    -999.2500    -999.2500      59.7600      36.7900       1.7800
   2348.9412    -999.2500    -999.2500      58.1697      35.9119       1.7800
   2349.0935    -999.2500    -999.2500      52.5289      32.7733       8.5693
   2349.2461    -999.2500    -999.2500      46.8389      29.6081      11.2300
   2349.3984    -999.2500    -999.2500      41.1460      26.4430      11.2659
   2349.5508    -999.2500    -999.2500      37.3500      23.2734      11.4562
   2349.7031    -999.2500    -999.2500      37.3500      20.1144      11.6849
   2349.8557    -999.2500    -999.2500      37.3500      17.0546      11.9133
   2350.0081    -999.2500    -999.2500      37.3500      16.0200      12.0999
   2350.1604    -999.2500    -999.2500      37.3500      15.9593      12.1300
   2350.3127    -999.2500    -999.2500      37.3500      15.0818      10.7845
   2350.4651    -999.2500    -999.2500      37.2813      14.3500       7.6700
   2350.6177    -999.2500    -999.2500      36.4951      14.3500       7.6700
   2350.7700    -999.2500    -999.2500      35.3900      13.6729       8.0269
   2350.9224    -999.2500    -999.2500      34.2804      12.1939       8.8046
   2351.0747    -999.2500    -999.2500      33.1745      10.7083       9.5757
   2351.2273    -999.2500    -999.2500      32.0659       9.2281      10.3489
   2351.3796    -999.2500    -999.2500      31.0741       8.5200      11.0459
   2351.5320    -999.2500    -999.2500      30.8100       8.5200      11.2300
   2351.6843    -999.2500    -999.2500      30.8100      11.1678      16.8422
   2351.8369    -999.2500    -999.2500      31.0104      21.0612      41.4984
   2351.9893    -999.2500    -999.2500      31.3389      30.9480      42.7300
   2352.1416    -999.2500    -999.2500      31.6715      40.9617      41.7105
   2352.2939    -999.2500    -999.2500      31.9953      50.7217      38.2178
   2352.4463    -999.2500    -999.2500      32.3237      60.6086      34.6666
   2352.5989    -999.2500    -999.2500      32.6519      70.5026      31.1226
   2352.7512    -999.2500    -999.2500      32.9801      80.3823      27.5818
   2352.9036    -999.2500    -999.2500      33.3083      86.3800      24.6458
   2353.0559    -999.2500    -999.2500      33.6100      85.6383      24.1200
   2353.2085    -999.2500    -999.2500      33.6100      71.6601      24.9148
