#------------------------------------------------------------------------------
#
#   Created by  : [OpenWorks] Log Export Utility (LEXP)
#   Created on  : 2016-05-19 10:13:49
#   Project     : CANT971
#   User        : R5K
#   Interpreter : PEP
#
#------------------------------------------------------------------------------
~VERSION INFORMATION
VERS. 2.0 : CWLS Log ASCII Standard - version 2.0
WRAP.  NO : One line per depth step
~WELL INFORMATION
#MNEMONIC   .UNIT                                           VALUE :DESCRIPTION
#------------------------------------------------------------------------------
STRT        .M                                           767.9436 :START DEPTH
STOP        .M                                          2393.5945 :STOP DEPTH
STEP        .M                                             0.1524 :STEP
NULL        .                                           -999.2500 :NULL VALUE
COMP        .                                             UNKNOWN :COMPANY
WELL        .                                                3050 :WELL
FLD         .                                             UNKNOWN :FIELD
LOC         .                                             UNKNOWN :LOCATION
CNTY        .                                             UNKNOWN :COUNTY
STAT        .                                             UNKNOWN :STATE
CTRY        .                                             UNKNOWN :COUNTRY
SRVC        .                                             UNKNOWN :SERVICE COMPANY
DATE        .                                             UNKNOWN :LOG DATE
UWI         .                                                3050 :UNIQUE WELL ID
XCOORD      .                                       601504.140000 :SURFACE X
YCOORD      .                                      2149905.320000 :SURFACE Y
LAT         .                                           19.442123 :LATITUDE
LON         .                                          -92.033057 :LONGITUDE
ELEV        .M                                             0.0000 :SURFACE ELEV
ELEV_TYPE   .                                                  KB :ELEV TYPE
~CURVE INFORMATION
#MNEMONIC.UNIT        API CODE       : CURVE DESCRIPTION
#------------------------------------------------------------------------------
DEPTH    .M                          : Measured Depth
DT       .us/ft       UNKNOWN        : DT:Sonico:rC:NONE:v0 (auto-composite)
GR       .API         UNKNOWN        : GR:PETROWORKS:rC:NONE:v2 
GR-LWD   .UNKNOWN     UNKNOWN        : GR-LWD:PETROWORKS:rC:NONE:v1 
ILD-LWD  .UNKNOWN     UNKNOWN        : ILD-LWD:PETROWORKS:rC:NONE:v1 
ILM-LWD  .UNKNOWN     UNKNOWN        : ILM-LWD:PETROWORKS:rC:NONE:v1 
~A     DEPTH           DT           GR       GR-LWD      ILD-LWD      ILM-LWD
# ...
   1835.3531     132.0954      57.6961      79.2649       0.9023       0.9038
   1835.5056     133.1811      57.3582      76.7498       0.8915       0.9032
   1835.6580     132.4234      57.4510      77.2121       0.9241       0.9257
   1835.8104     129.6039      55.6114      75.5256       0.9722       0.9563
   1835.9628     129.6182      54.3581      75.1918       0.9582       0.9372
   1836.1152     129.6799      52.8547      72.8001       0.8935       0.8611
   1836.2676     129.7707      51.2331      72.0088       0.8539       0.8151
   1836.4200     129.7708      52.2140      74.2295       0.8515       0.8071
   1836.5724     130.4276      52.6796      76.8143       0.8695       0.8201
   1836.7249     130.4323      53.4231      82.0602       0.8895       0.8461
   1836.8772     130.3175      53.3194      82.5650       0.8820       0.8477
   1837.0297     130.6872      54.8457      75.0211       0.8759       0.8460
   1837.1820     127.7995      55.9184      67.5157       0.8917       0.8628
   1837.3344     124.9272      54.8674      65.1650       0.9748       0.9342
   1837.4868     125.9096      53.4412      72.1424       1.0961       1.0693
   1837.6392     125.0118      53.1376      72.8729       1.1526       1.1467
   1837.7916     122.2262      54.2341      73.7497       1.1676       1.1766
   1837.9440     121.7845      54.7303      73.7315       1.1609       1.1854
   1838.0964     121.0129      53.8733      73.9255       1.1177       1.1431
   1838.2488     120.5412      52.9698      76.7131       1.0560       1.0696
   1838.4012     123.9268      54.3866      80.6920       1.0132       0.9954
   1838.5536     126.4345      54.2787      82.9386       0.9903       0.9450
   1838.7061     126.8993      55.9059      81.3106       0.9827       0.9223
   1838.8584     128.3460      54.9805      81.3537       1.0049       0.9485
   1839.0109     129.2513      55.7625      82.5854       1.0203       0.9846
   1839.1632     128.6771      55.4931      82.5028       0.9835       0.9562
   1839.3156     127.2967      57.0772      82.9954       0.9324       0.9053
   1839.4680     126.5851      57.8474      83.5080       0.9107       0.8794
   1839.6204     127.3880      58.5892      80.2503       0.9387       0.9076
   1839.7728     129.1139      57.9649      77.2010       0.9681       0.9400
   1839.9252     131.1048      57.5648      73.9789       0.9741       0.9270
   1840.0776     131.4273      57.1570      75.6877       0.9670       0.8980
   1840.2300     130.6741      57.1431      78.9652       1.0032       0.9309
   1840.3824     129.0185      57.1371      77.1973       1.1043       1.0530
   1840.5348     127.9319      56.1357      75.3258       1.2183       1.1937
   1840.6873     125.4457      54.1270      71.4127       1.2787       1.3035
   1840.8396     123.0262      51.0042      72.0004       1.2974       1.3713
   1840.9919     120.1200      50.2662      70.5464       1.2964       1.3817
   1841.1444     119.7430      50.5565      70.1182       1.2851       1.3762
   1841.2968     120.2951      51.2283      69.2344       1.2625       1.3258
   1841.4492     121.0542      51.0466      67.9626       1.2807       1.2675
   1841.6016     119.6371      49.8637      69.3782       1.3088       1.2582
   1841.7540     120.8320      49.6419      72.6976       1.3308       1.2614
   1841.9064     119.3829      50.3838      71.4834       1.3982       1.3075
   1842.0588     119.5531      51.1429      64.7184       1.4991       1.4268
   1842.2112     119.0877      51.7424      63.5571       1.5165       1.5155
   1842.3636     117.4451      50.0110      65.2221       1.4446       1.4954
   1842.5160     116.9494      49.4511      64.4297       1.3300       1.3936
   1842.6685     117.5380      48.9536      68.3174       1.1778       1.2364
   1842.8208     119.5698      50.3021      71.2253       1.0745       1.0916
   1842.9731     120.8305      49.3509      72.4030       1.0846       1.0568
   1843.1256     123.3699      49.8953      73.6722       1.1511       1.0861
   1843.2780     125.3798      49.6120      73.2491       1.1840       1.1017
   1843.4304     123.9688      49.2615      70.3866       1.2023       1.1104
   1843.5828     123.7607      48.8712      70.1075       1.2397       1.1577
   1843.7352     121.9958      48.9191      71.0044       1.2652       1.2144
   1843.8876     119.1990      51.2537      70.0265       1.2485       1.2402
   1844.0400     118.5686      52.6080      68.5482       1.2138       1.2225
   1844.1924     122.0990      52.2677      71.3362       1.1458       1.1385
   1844.3448     121.9622      51.5366      75.0476       1.0750       1.0460
   1844.4972     123.4924      50.9533      77.3101       1.0517       1.0018
   1844.6497     124.2021      52.1578      80.0198       1.0538       0.9916
   1844.8020     124.1517      52.9663      77.8559       1.0371       0.9709
   1844.9543     126.4865      53.8152      80.4129       1.0014       0.9325
   1845.1068     126.4985      54.3814      84.4016       0.9966       0.9192
   1845.2592     127.2979      55.6762      79.2858       1.0089       0.9252
   1845.4116     128.6406      55.3466      75.1803       1.0223       0.9358
   1845.5640     127.9937      53.7816      73.2994       1.0682       0.9803
   1845.7164     128.4640      52.4323      73.1752       1.1253       1.0537
   1845.8688     127.5260      52.5153      73.9527       1.1459       1.0855
   1846.0212     127.6464      55.1852      76.1951       1.1283       1.0681
   1846.1736     126.9283      55.3023      77.1574       1.1163       1.0713
   1846.3260     126.1463      53.0012      75.9434       1.1225       1.0900
   1846.4784     126.0321      50.6706      71.7544       1.1258       1.0925
   1846.6309     123.7594      49.5342      70.7324       1.1363       1.0977
   1846.7832     122.9765      49.8677      71.0647       1.1717       1.1327
   1846.9355     123.0424      48.5444      66.6377       1.2072       1.1767
   1847.0880     122.8695      48.4151      70.1652       1.2243       1.2142
   1847.2404     121.5775      48.5233      76.5342       1.2333       1.2387
   1847.3928     121.1464      46.8227      74.6885       1.2591       1.2605
   1847.5452     121.3734      45.2887      68.1802       1.3025       1.2931
   1847.6976     121.2486      45.4753      64.3502       1.3498       1.3319
   1847.8500     121.0544      46.5841      66.8777       1.3745       1.3448
   1848.0024     123.1978      47.7553      70.0603       1.3939       1.3457
   1848.1548     121.0137      47.8569      69.5925       1.4119       1.3770
   1848.3073     120.9372      47.9564      66.9209       1.4105       1.4069
   1848.4596     121.6600      47.3457      67.1309       1.4077       1.4137
   1848.6121     121.8655      47.5713      66.5755       1.4178       1.4148
   1848.7644     122.1615      47.3214      65.2228       1.4293       1.4191
   1848.9167     121.1450      47.2686      63.2246       1.4323       1.4147
   1849.0692     120.4828      48.0667      65.5677       1.3926       1.3815
   1849.2216     120.2687      48.6461      69.3155       1.3500       1.3447
   1849.3740     121.4738      48.7205      66.0510       1.3476       1.3353
   1849.5264     122.6828      48.1120      65.0468       1.3445       1.3089
   1849.6788     122.2200      48.6122      70.4688       1.3473       1.2899
   1849.8312     118.8152      51.2496      75.9348       1.3444       1.2768
   1849.9836     122.1349      53.6007      77.4087       1.3378       1.2805
   1850.1360     121.9030      56.5545      78.5005       1.3288       1.2710
   1850.2885     124.3815      56.2106      77.7128       1.2865       1.2375
   1850.4408     123.2780      55.6955      79.2317       1.2410       1.1963
   1850.5933     122.5424      54.7674      75.6981       1.2254       1.1662
   1850.7456     120.8836      54.0995      72.6660       1.2108       1.1453
   1850.8979     118.7253      52.5481      70.2647       1.2014       1.1464
