#------------------------------------------------------------------------------
#
#   Created by  : [OpenWorks] Log Export Utility (LEXP)
#   Created on  : 2016-05-19 10:13:49
#   Project     : CANT971
#   User        : R5K
#   Interpreter : PEP
#
#------------------------------------------------------------------------------
~VERSION INFORMATION
VERS. 2.0 : CWLS Log ASCII Standard - version 2.0
WRAP.  NO : One line per depth step
~WELL INFORMATION
#MNEMONIC   .UNIT                                           VALUE :DESCRIPTION
#------------------------------------------------------------------------------
STRT        .M                                           767.9436 :START DEPTH
STOP        .M                                          2393.5945 :STOP DEPTH
STEP        .M                                             0.1524 :STEP
NULL        .                                           -999.2500 :NULL VALUE
COMP        .                                             UNKNOWN :COMPANY
WELL        .                                                3050 :WELL
FLD         .                                             UNKNOWN :FIELD
LOC         .                                             UNKNOWN :LOCATION
CNTY        .                                             UNKNOWN :COUNTY
STAT        .                                             UNKNOWN :STATE
CTRY        .                                             UNKNOWN :COUNTRY
SRVC        .                                             UNKNOWN :SERVICE COMPANY
DATE        .                                             UNKNOWN :LOG DATE
UWI         .                                                3050 :UNIQUE WELL ID
XCOORD      .                                       601504.140000 :SURFACE X
YCOORD      .                                      2149905.320000 :SURFACE Y
LAT         .                                           19.442123 :LATITUDE
LON         .                                          -92.033057 :LONGITUDE
ELEV        .M                                             0.0000 :SURFACE ELEV
ELEV_TYPE   .                                                  KB :ELEV TYPE
~CURVE INFORMATION
#MNEMONIC.UNIT        API CODE       : CURVE DESCRIPTION
#------------------------------------------------------------------------------
DEPTH    .M                          : Measured Depth
DT       .us/ft       UNKNOWN        : DT:Sonico:rC:NONE:v0 (auto-composite)
GR       .API         UNKNOWN        : GR:PETROWORKS:rC:NONE:v2 
GR-LWD   .UNKNOWN     UNKNOWN        : GR-LWD:PETROWORKS:rC:NONE:v1 
ILD-LWD  .UNKNOWN     UNKNOWN        : ILD-LWD:PETROWORKS:rC:NONE:v1 
ILM-LWD  .UNKNOWN     UNKNOWN        : ILM-LWD:PETROWORKS:rC:NONE:v1 
~A     DEPTH           DT           GR       GR-LWD      ILD-LWD      ILM-LWD
# ...
   2212.0859    -999.2500    -999.2500      75.6691       3.3728       3.3448
   2212.2385    -999.2500    -999.2500      72.9036       4.1174       4.3093
   2212.3909    -999.2500    -999.2500      72.8300       4.3300       4.8009
   2212.5432    -999.2500    -999.2500      73.1353       4.3300       4.7900
   2212.6956    -999.2500    -999.2500      74.1995       4.5592       4.9026
   2212.8479    -999.2500    -999.2500      75.2647       4.9207       5.0727
   2213.0005    -999.2500    -999.2500      76.3324       5.2215       5.2405
   2213.1528    -999.2500    -999.2500      77.4000       5.2800       5.3500
   2213.3052    -999.2500    -999.2500      78.2781       5.4599       5.3500
   2213.4575    -999.2500    -999.2500      78.4300       6.2892       5.5808
   2213.6101    -999.2500    -999.2500      77.8884       6.6100       6.0744
   2213.7625    -999.2500    -999.2500      76.5600       6.6100       6.1500
   2213.9148    -999.2500    -999.2500      76.5600       6.4876       6.0847
   2214.0671    -999.2500    -999.2500      74.5579       6.2256       5.7987
   2214.2195    -999.2500    -999.2500      70.0033       5.9640       5.4787
   2214.3721    -999.2500    -999.2500      65.4514       5.7020       5.1589
   2214.5244    -999.2500    -999.2500      61.9453       5.4401       4.8387
   2214.6768    -999.2500    -999.2500      64.0650       5.1784       4.5184
   2214.8291    -999.2500    -999.2500      79.1658       4.9164       4.1988
   2214.9817    -999.2500    -999.2500      84.0300       4.7200       4.0500
   2215.1340    -999.2500    -999.2500      83.1109       4.7200       4.0500
   2215.2864    -999.2500    -999.2500      79.6867       4.6320       4.0500
   2215.4387    -999.2500    -999.2500      76.1271       4.5900       4.0500
   2215.5913    -999.2500    -999.2500      74.7000       4.5775       4.0500
   2215.7437    -999.2500    -999.2500      75.4247       4.5039       4.0500
   2215.8960    -999.2500    -999.2500      79.2400       4.4124       4.0500
   2216.0483    -999.2500    -999.2500      80.3766       4.3163       4.0500
   2216.2007    -999.2500    -999.2500      84.0636       4.2196       4.0500
   2216.3533    -999.2500    -999.2500      87.7700       4.1306       4.0500
   2216.5056    -999.2500    -999.2500      87.7700       4.1000       4.0500
   2216.6580    -999.2500    -999.2500      81.9680       4.1898       4.0620
   2216.8103    -999.2500    -999.2500      76.5600       4.5226       4.2538
   2216.9629    -999.2500    -999.2500      75.8833       4.5900       4.4100
   2217.1152    -999.2500    -999.2500      67.2384       4.5900       4.4351
   2217.2676    -999.2500    -999.2500      55.7574       4.5900       4.5384
   2217.4199    -999.2500    -999.2500      52.2900       4.5900       4.6561
   2217.5725    -999.2500    -999.2500      55.2734       4.5900       4.7619
   2217.7249    -999.2500    -999.2500      62.6555       4.5900       4.7900
   2217.8772    -999.2500    -999.2500      63.4360       4.5900       4.7518
   2218.0295    -999.2500    -999.2500      63.0108       4.5900       4.6671
   2218.1819    -999.2500    -999.2500      62.4399       4.5719       4.6432
   2218.3345    -999.2500    -999.2500      61.8694       4.5297       4.5257
   2218.4868    -999.2500    -999.2500      61.6200       4.4908       4.3731
   2218.6392    -999.2500    -999.2500      61.6200       4.4607       4.2248
   2218.7915    -999.2500    -999.2500      70.8608       4.4495       4.1700
   2218.9441    -999.2500    -999.2500      74.7000       4.3752       3.9908
   2219.0964    -999.2500    -999.2500      69.0001       4.3300       3.6646
   2219.2488    -999.2500    -999.2500      65.3600       4.3933       3.6331
   2219.4011    -999.2500    -999.2500      66.2951       4.5915       3.7717
   2219.5537    -999.2500    -999.2500      69.0900       4.7200       3.9790
   2219.7061    -999.2500    -999.2500      69.0900       4.7662       4.0500
   2219.8584    -999.2500    -999.2500      68.4138       4.9420       4.2544
   2220.0107    -999.2500    -999.2500      66.6344       4.9900       4.5196
   2220.1631    -999.2500    -999.2500      64.8554       5.1163       4.5717
   2220.3157    -999.2500    -999.2500      63.0790       5.4244       4.9707
   2220.4680    -999.2500    -999.2500      61.2960       5.6000       5.5082
   2220.6204    -999.2500    -999.2500      59.9117       5.6435       5.6700
   2220.7727    -999.2500    -999.2500      59.7600       5.9400       5.8447
   2220.9253    -999.2500    -999.2500      59.6249       6.0800       6.1251
   2221.0776    -999.2500    -999.2500      59.0930       6.1731       6.1455
   2221.2300    -999.2500    -999.2500      58.5252       6.3559       6.1072
   2221.3823    -999.2500    -999.2500      58.0180       6.5405       6.0553
   2221.5349    -999.2500    -999.2500      57.8900       6.7313       6.0056
   2221.6873    -999.2500    -999.2500      57.8900       6.8612       5.9800
   2221.8396    -999.2500    -999.2500      59.2591       7.5889       6.2395
   2221.9919    -999.2500    -999.2500      61.4371       9.1656       7.3833
   2222.1443    -999.2500    -999.2500      63.6029      12.7873      10.1265
   2222.2969    -999.2500    -999.2500      65.7896      14.7700      13.8538
   2222.4492    -999.2500    -999.2500      67.9676      14.9810      14.4038
   2222.6016    -999.2500    -999.2500      70.1441      15.5281      14.5921
   2222.7539    -999.2500    -999.2500      72.3201      15.6300      14.7100
   2222.9065    -999.2500    -999.2500      74.4968      15.7392      14.7100
   2223.0588    -999.2500    -999.2500      76.6731      16.2705      14.9814
   2223.2112    -999.2500    -999.2500      78.8506      16.8844      15.6900
   2223.3635    -999.2500    -999.2500      81.0258      17.4945      16.3979
   2223.5161    -999.2500    -999.2500      82.1700      18.1039      17.1038
   2223.6685    -999.2500    -999.2500      81.1577      18.7144      17.8111
   2223.8208    -999.2500    -999.2500      70.9004      19.1974      18.5154
   2223.9731    -999.2500    -999.2500      57.8620      19.2500      18.8800
   2224.1255    -999.2500    -999.2500      54.1500      19.2107      18.8800
   2224.2781    -999.2500    -999.2500      54.1500      19.0606      18.8020
   2224.4304    -999.2500    -999.2500      55.0344      18.9005      18.6495
   2224.5828    -999.2500    -999.2500      56.5873      18.7577      18.4905
   2224.7351    -999.2500    -999.2500      58.1404      18.7200      18.3747
   2224.8877    -999.2500    -999.2500      59.6930      18.7200      18.3700
   2225.0400    -999.2500    -999.2500      61.2460      18.5966      18.3700
   2225.1924    -999.2500    -999.2500      62.8001      18.4021      18.0674
   2225.3447    -999.2500    -999.2500      64.3409      18.2089      17.7600
   2225.4973    -999.2500    -999.2500      65.3600      18.0125      17.4478
   2225.6497    -999.2500    -999.2500      65.2985      17.8178      17.1377
   2225.8020    -999.2500    -999.2500      62.9833      17.6231      16.8281
   2225.9543    -999.2500    -999.2500      59.4229      17.4284      16.5181
   2226.1067    -999.2500    -999.2500      56.5057      17.2336      16.2082
   2226.2593    -999.2500    -999.2500      56.0200      17.0390      15.8984
   2226.4116    -999.2500    -999.2500      56.0200      16.8442      15.5885
   2226.5640    -999.2500    -999.2500      56.0200      16.6493      15.2787
   2226.7163    -999.2500    -999.2500      56.0200      16.4548      14.9687
   2226.8689    -999.2500    -999.2500      56.0200      16.4200      14.7100
   2227.0212    -999.2500    -999.2500      56.0200      16.7105      14.7100
   2227.1736    -999.2500    -999.2500      56.0200      17.2800      15.1891
   2227.3259    -999.2500    -999.2500      56.0200      17.2800      15.5000
   2227.4785    -999.2500    -999.2500      56.0200      17.4819      15.5000
   2227.6309    -999.2500    -999.2500      56.0200      18.3647      16.1811
