#------------------------------------------------------------------------------
#
#   Created by  : [OpenWorks] Log Export Utility (LEXP)
#   Created on  : 2016-05-19 10:13:49
#   Project     : CANT971
#   User        : R5K
#   Interpreter : PEP
#
#------------------------------------------------------------------------------
~VERSION INFORMATION
VERS. 2.0 : CWLS Log ASCII Standard - version 2.0
WRAP.  NO : One line per depth step
~WELL INFORMATION
#MNEMONIC   .UNIT                                           VALUE :DESCRIPTION
#------------------------------------------------------------------------------
STRT        .M                                           767.9436 :START DEPTH
STOP        .M                                          2393.5945 :STOP DEPTH
STEP        .M                                             0.1524 :STEP
NULL        .                                           -999.2500 :NULL VALUE
COMP        .                                             UNKNOWN :COMPANY
WELL        .                                                3050 :WELL
FLD         .                                             UNKNOWN :FIELD
LOC         .                                             UNKNOWN :LOCATION
CNTY        .                                             UNKNOWN :COUNTY
STAT        .                                             UNKNOWN :STATE
CTRY        .                                             UNKNOWN :COUNTRY
SRVC        .                                             UNKNOWN :SERVICE COMPANY
DATE        .                                             UNKNOWN :LOG DATE
UWI         .                                                3050 :UNIQUE WELL ID
XCOORD      .                                       601504.140000 :SURFACE X
YCOORD      .                                      2149905.320000 :SURFACE Y
LAT         .                                           19.442123 :LATITUDE
LON         .                                          -92.033057 :LONGITUDE
ELEV        .M                                             0.0000 :SURFACE ELEV
ELEV_TYPE   .                                                  KB :ELEV TYPE
~CURVE INFORMATION
#MNEMONIC.UNIT        API CODE       : CURVE DESCRIPTION
#------------------------------------------------------------------------------
DEPTH    .M                          : Measured Depth
DT       .us/ft       UNKNOWN        : DT:Sonico:rC:NONE:v0 (auto-composite)
GR       .API         UNKNOWN        : GR:PETROWORKS:rC:NONE:v2 
GR-LWD   .UNKNOWN     UNKNOWN        : GR-LWD:PETROWORKS:rC:NONE:v1 
ILD-LWD  .UNKNOWN     UNKNOWN        : ILD-LWD:PETROWORKS:rC:NONE:v1 
ILM-LWD  .UNKNOWN     UNKNOWN        : ILM-LWD:PETROWORKS:rC:NONE:v1 
~A     DEPTH           DT           GR       GR-LWD      ILD-LWD      ILM-LWD
# ...
   2259.1775    -999.2500    -999.2500      43.9554     800.3878     381.2220
   2259.3301    -999.2500    -999.2500      50.1620     825.5158     388.9189
   2259.4824    -999.2500    -999.2500      52.2900     850.6301     396.6281
   2259.6348    -999.2500    -999.2500      51.9159     875.7479     404.3362
   2259.7871    -999.2500    -999.2500      50.7160     893.6700     412.0342
   2259.9397    -999.2500    -999.2500      50.4200     893.6700     414.8900
   2260.0920    -999.2500    -999.2500      48.8438     724.2510     405.3927
   2260.2444    -999.2500    -999.2500      39.6887     525.3300     350.4304
   2260.3967    -999.2500    -999.2500      35.4800     525.3300     281.7092
   2260.5493    -999.2500    -999.2500      35.5024     526.5159     235.4200
   2260.7017    -999.2500    -999.2500      36.4277     557.9659     235.4200
   2260.8540    -999.2500    -999.2500      37.8511     589.4662     236.0341
   2261.0063    -999.2500    -999.2500      39.2768     620.9479     245.1518
   2261.1587    -999.2500    -999.2500      40.6981     652.4165     254.2710
   2261.3113    -999.2500    -999.2500      42.1212     683.9006     263.3756
   2261.4636    -999.2500    -999.2500      42.9500     715.3770     272.4948
   2261.6160    -999.2500    -999.2500      42.9500     746.8672     281.6100
   2261.7683    -999.2500    -999.2500      43.2702     778.3297     290.7187
   2261.9209    -999.2500    -999.2500      43.9787     809.8175     299.8346
   2262.0732    -999.2500    -999.2500      44.6333     841.3179     308.9469
   2262.2256    -999.2500    -999.2500      44.8200     872.7678     318.0618
   2262.3779    -999.2500    -999.2500      45.0053     795.3345     325.1200
   2262.5305    -999.2500    -999.2500      46.4397     693.1399     325.1200
   2262.6829    -999.2500    -999.2500      48.3390     615.5876     312.5232
   2262.8352    -999.2500    -999.2500      50.2339     528.3099     289.4040
   2262.9875    -999.2500    -999.2500      51.8947     452.1252     269.1453
   2263.1399    -999.2500    -999.2500      52.2900     434.0300     264.3500
   2263.2925    -999.2500    -999.2500      51.2992     482.7116     264.3500
   2263.4448    -999.2500    -999.2500      45.5853     662.9300     264.3500
   2263.5972    -999.2500    -999.2500      42.9500     662.9300     264.3500
   2263.7495    -999.2500    -999.2500      42.9803     656.1211     264.7410
   2263.9021    -999.2500    -999.2500      44.1397     635.1424     279.7131
   2264.0544    -999.2500    -999.2500      45.9156     614.1629     302.6580
   2264.2068    -999.2500    -999.2500      47.6999     593.2074     325.6057
   2264.3591    -999.2500    -999.2500      49.4755     572.2202     348.5273
   2264.5117    -999.2500    -999.2500      51.2549     551.2581     371.4829
   2264.6641    -999.2500    -999.2500      52.2900     531.5148     394.4424
   2264.8164    -999.2500    -999.2500      52.2900     525.3300     412.5735
   2264.9688    -999.2500    -999.2500      49.2923     532.8781     414.8900
   2265.1211    -999.2500    -999.2500      42.6476     608.6976     403.7302
   2265.2737    -999.2500    -999.2500      39.2200     662.9300     362.1441
   2265.4260    -999.2500    -999.2500      39.2200     662.9300     349.1700
   2265.5784    -999.2500    -999.2500      41.7277     647.5169     349.1700
   2265.7307    -999.2500    -999.2500      46.6061     617.5814     349.1700
   2265.8833    -999.2500    -999.2500      51.4784     587.6066     349.1700
   2266.0356    -999.2500    -999.2500      56.3565     557.6439     349.1700
   2266.1880    -999.2500    -999.2500      60.6170     531.5040     349.1700
   2266.3403    -999.2500    -999.2500      61.6200     525.3300     349.1700
   2266.4929    -999.2500    -999.2500      60.1538     525.3300     349.1700
   2266.6453    -999.2500    -999.2500      51.7921     525.3300     349.1700
   2266.7976    -999.2500    -999.2500      42.8592     525.3300     349.1700
   2266.9500    -999.2500    -999.2500      41.0800     607.0477     348.9330
   2267.1023    -999.2500    -999.2500      41.0800     856.9448     340.4756
   2267.2549    -999.2500    -999.2500      41.4957    1106.5042     327.5630
   2267.4072    -999.2500    -999.2500      42.0657    1356.2797     314.6333
   2267.5596    -999.2500    -999.2500      42.6356    1606.1147     301.7018
   2267.7119    -999.2500    -999.2500      43.2058    1855.6484     288.7763
   2267.8645    -999.2500    -999.2500      43.7754    2000.0000     275.8614
   2268.0168    -999.2500    -999.2500      44.3455    2000.0000     265.6342
   2268.1692    -999.2500    -999.2500      44.9158    1419.3705     264.3500
   2268.3215    -999.2500    -999.2500      45.4853     424.4192     854.5770
   2268.4741    -999.2500    -999.2500      46.0556     320.3800    2000.0000
   2268.6265    -999.2500    -999.2500      46.6258     316.8789    2000.0000
   2268.7788    -999.2500    -999.2500      46.9929     303.0182    1821.6123
   2268.9312    -999.2500    -999.2500      49.1990     288.2214    1476.2709
   2269.0835    -999.2500    -999.2500      50.4200     273.4129    1131.1487
   2269.2361    -999.2500    -999.2500      50.3273     258.6262     786.2018
   2269.3884    -999.2500    -999.2500      49.9801     252.4000     485.4061
   2269.5408    -999.2500    -999.2500      49.6264     252.4000     414.8900
   2269.6931    -999.2500    -999.2500      49.2684     288.5759     406.6742
   2269.8457    -999.2500    -999.2500      48.9198     347.4829     360.3826
   2269.9980    -999.2500    -999.2500      48.6118     368.9500     310.8203
   2270.1504    -999.2500    -999.2500      48.5500     368.9500     301.0700
   2270.3027    -999.2500    -999.2500      49.5127     375.5669     301.0700
   2270.4553    -999.2500    -999.2500      54.1591     392.5876     291.4654
   2270.6077    -999.2500    -999.2500      56.0200     409.6182     278.3475
   2270.7600    -999.2500    -999.2500      55.8072     426.6292     265.2354
   2270.9124    -999.2500    -999.2500      52.6646     443.6584     252.1165
   2271.0647    -999.2500    -999.2500      48.1141     460.6922     239.0010
   2271.2173    -999.2500    -999.2500      43.5550     477.6987     225.8799
   2271.3696    -999.2500    -999.2500      41.0800     494.7324     212.7700
   2271.5220    -999.2500    -999.2500      41.0800     511.7603     199.6500
   2271.6743    -999.2500    -999.2500      38.9954     525.3300     186.5245
   2271.8269    -999.2500    -999.2500      35.7471     525.3300     180.5700
   2271.9792    -999.2500    -999.2500      35.4800     759.6678     180.5700
   2272.1316    -999.2500    -999.2500      37.1542     893.6700     180.5700
   2272.2839    -999.2500    -999.2500      43.4976     893.6700     180.5700
   2272.4365    -999.2500    -999.2500      48.3730     838.2164     180.5700
   2272.5889    -999.2500    -999.2500      48.5500     747.0981     167.8008
   2272.7412    -999.2500    -999.2500      48.5500     656.1257     154.3967
   2272.8936    -999.2500    -999.2500      48.5500     565.0074     140.9937
   2273.0459    -999.2500    -999.2500      49.6243     473.8892     127.5902
   2273.1985    -999.2500    -999.2500      53.1859     382.9167     114.1770
   2273.3508    -999.2500    -999.2500      56.6386     291.7985     100.7832
   2273.5032    -999.2500    -999.2500      55.7184     200.7390      87.3710
   2273.6555    -999.2500    -999.2500      47.5697     116.9000      73.9573
   2273.8081    -999.2500    -999.2500      43.5332     116.9000      66.2200
   2273.9604    -999.2500    -999.2500      45.1950     242.3624      68.2891
   2274.1128    -999.2500    -999.2500      47.3295     559.6923      98.0712
   2274.2651    -999.2500    -999.2500      48.5500     876.6985     141.0038
   2274.4177    -999.2500    -999.2500      48.5500    1193.8469     183.9998
   2274.5701    -999.2500    -999.2500      48.5500    1365.5000     223.7289
   2274.7224    -999.2500    -999.2500      48.5500    1365.5000     235.4200
