#------------------------------------------------------------------------------
#
#   Created by  : [OpenWorks] Log Export Utility (LEXP)
#   Created on  : 2016-05-19 10:13:49
#   Project     : CANT971
#   User        : R5K
#   Interpreter : PEP
#
#------------------------------------------------------------------------------
~VERSION INFORMATION
VERS. 2.0 : CWLS Log ASCII Standard - version 2.0
WRAP.  NO : One line per depth step
~WELL INFORMATION
#MNEMONIC   .UNIT                                           VALUE :DESCRIPTION
#------------------------------------------------------------------------------
STRT        .M                                           767.9436 :START DEPTH
STOP        .M                                          2393.5945 :STOP DEPTH
STEP        .M                                             0.1524 :STEP
NULL        .                                           -999.2500 :NULL VALUE
COMP        .                                             UNKNOWN :COMPANY
WELL        .                                                3050 :WELL
FLD         .                                             UNKNOWN :FIELD
LOC         .                                             UNKNOWN :LOCATION
CNTY        .                                             UNKNOWN :COUNTY
STAT        .                                             UNKNOWN :STATE
CTRY        .                                             UNKNOWN :COUNTRY
SRVC        .                                             UNKNOWN :SERVICE COMPANY
DATE        .                                             UNKNOWN :LOG DATE
UWI         .                                                3050 :UNIQUE WELL ID
XCOORD      .                                       601504.140000 :SURFACE X
YCOORD      .                                      2149905.320000 :SURFACE Y
LAT         .                                           19.442123 :LATITUDE
LON         .                                          -92.033057 :LONGITUDE
ELEV        .M                                             0.0000 :SURFACE ELEV
ELEV_TYPE   .                                                  KB :ELEV TYPE
~CURVE INFORMATION
#MNEMONIC.UNIT        API CODE       : CURVE DESCRIPTION
#------------------------------------------------------------------------------
DEPTH    .M                          : Measured Depth
DT       .us/ft       UNKNOWN        : DT:Sonico:rC:NONE:v0 (auto-composite)
GR       .API         UNKNOWN        : GR:PETROWORKS:rC:NONE:v2 
GR-LWD   .UNKNOWN     UNKNOWN        : GR-LWD:PETROWORKS:rC:NONE:v1 
ILD-LWD  .UNKNOWN     UNKNOWN        : ILD-LWD:PETROWORKS:rC:NONE:v1 
ILM-LWD  .UNKNOWN     UNKNOWN        : ILM-LWD:PETROWORKS:rC:NONE:v1 
~A     DEPTH           DT           GR       GR-LWD      ILD-LWD      ILM-LWD
# ...
   2055.1140     109.8893    -999.2500      52.0094       1.4763       1.2235
   2055.2664     109.4656    -999.2500      53.2261       1.7528       1.1242
   2055.4187     106.9519    -999.2500      51.7996       2.0602       1.2830
   2055.5713      97.0342    -999.2500      48.8669       2.3919       1.8153
   2055.7236      95.4190    -999.2500      44.8585       2.6041       2.3152
   2055.8760      94.9457    -999.2500      44.9132       2.5585       2.5427
   2056.0283      93.9761    -999.2500      46.6202       2.4553       2.6665
   2056.1809      96.7177    -999.2500      45.9294       2.5325       2.8354
   2056.3333      99.1417    -999.2500      44.7194       2.8416       2.9417
   2056.4856     100.2482    -999.2500      42.0098       2.9721       2.8297
   2056.6379     100.5009    -999.2500      44.2489       2.8194       2.5892
   2056.7903     102.1286    -999.2500      47.0471       2.6406       2.4307
   2056.9429     101.9404    -999.2500      50.1526       2.2965       2.1297
   2057.0952      99.0132    -999.2500      52.1966       1.9701       1.7702
   2057.2476      97.2749    -999.2500      52.8381       1.9425       1.6588
   2057.3999      94.7605    -999.2500      48.6196       2.2160       1.8761
   2057.5525      93.3575    -999.2500      46.7498       2.2147       1.9112
   2057.7048      91.0766    -999.2500      45.7331       2.3079       2.1009
   2057.8572      89.6740    -999.2500      42.7541       2.9100       2.8037
   2058.0095      89.8390    -999.2500      41.2908       3.1035       3.0740
   2058.1621      90.4175    -999.2500      40.1653       2.9600       3.0095
   2058.3145      92.0731    -999.2500      40.8180       2.7854       2.7489
   2058.4668      90.1247    -999.2500      40.1676       3.2593       3.1643
   2058.6191      90.7943    -999.2500      40.5736       3.5846       3.4662
   2058.7715      89.2815    -999.2500      41.8314       3.1690       2.9025
   2058.9241      87.4389    -999.2500      43.8704       2.7242       2.3892
   2059.0764      87.5740    -999.2500      43.7303       3.0799       2.7450
   2059.2288      86.6173    -999.2500      40.7561       4.4494       3.6959
   2059.3811      91.2282    -999.2500      37.6915       6.0271       4.8505
   2059.5337      93.4466    -999.2500      33.7987       7.2460       6.3948
   2059.6860      93.5835    -999.2500      34.9111       7.2708       7.1544
   2059.8384      93.5976    -999.2500      37.0877       6.1736       6.4841
   2059.9907      93.7258    -999.2500      38.8501       5.6268       5.5428
   2060.1433      93.3672    -999.2500      39.5862       5.6274       5.0853
   2060.2957      95.2216    -999.2500      36.9803       5.7692       5.0031
   2060.4480      97.6400    -999.2500      38.6209       6.3436       5.2371
   2060.6003      98.5340    -999.2500    -999.2500       6.8691       5.4276
   2060.7527      99.1059    -999.2500    -999.2500       6.7810       5.4238
   2060.9053      98.1145    -999.2500    -999.2500       6.5303       5.6561
   2061.0576     100.6513    -999.2500    -999.2500       6.7072       6.4205
   2061.2100     102.2338    -999.2500    -999.2500       6.3004       6.7014
   2061.3623     103.8433    -999.2500    -999.2500       4.8221       5.2660
   2061.5149     104.4722    -999.2500    -999.2500       3.5268       3.5262
   2061.6672     104.8110    -999.2500    -999.2500       3.1987       2.9496
   2061.8196     104.7888    -999.2500    -999.2500       2.7924       2.5735
   2061.9719     103.8903    -999.2500    -999.2500       2.6829       2.3107
   2062.1245     104.4179    -999.2500    -999.2500       2.5662       2.0494
   2062.2769     104.5011    -999.2500    -999.2500       2.0319       1.6751
   2062.4292     104.0681    -999.2500    -999.2500       1.6124       1.3439
   2062.5815     105.1993    -999.2500    -999.2500       1.4809       1.2720
   2062.7339     105.0150    -999.2500    -999.2500       1.4672       1.3018
   2062.8865     106.2090    -999.2500    -999.2500       1.5383       1.4201
   2063.0388     106.0705    -999.2500    -999.2500       1.6389       1.5609
   2063.1912     106.1919    -999.2500    -999.2500       1.6366       1.6237
   2063.3435     107.9572    -999.2500      36.4028       1.4436       1.5221
   2063.4961     106.8469    -999.2500      24.2800       1.3318       1.4051
   2063.6484     106.0067    -999.2500      24.3392       1.3846       1.3871
   2063.8008     104.3057    -999.2500      27.1013    -999.2500    -999.2500
   2063.9531     104.1166    -999.2500      29.8800    -999.2500    -999.2500
   2064.1057     103.6451    -999.2500      29.8800    -999.2500    -999.2500
   2064.2581     104.0568    -999.2500      30.6920    -999.2500    -999.2500
   2064.4104     103.4756    -999.2500      32.8262    -999.2500    -999.2500
   2064.5627     102.6105    -999.2500      34.9584    -999.2500    -999.2500
   2064.7151     103.1747    -999.2500      37.0932    -999.2500    -999.2500
   2064.8677     103.3108    -999.2500      39.2259    -999.2500    -999.2500
   2065.0200     102.0397    -999.2500      40.8934    -999.2500    -999.2500
   2065.1724     103.2535    -999.2500      41.0800    -999.2500    -999.2500
   2065.3247     103.3411    -999.2500      40.1985    -999.2500    -999.2500
   2065.4773     103.2035    -999.2500      36.6667    -999.2500    -999.2500
   2065.6296     103.2429    -999.2500      33.8062    -999.2500    -999.2500
   2065.7820     103.2570    -999.2500      33.6100    -999.2500    -999.2500
   2065.9343     103.2756    -999.2500      33.6100    -999.2500    -999.2500
   2066.0869     103.2754    -999.2500      33.6100    -999.2500    -999.2500
   2066.2393     103.2809    -999.2500      30.8691    -999.2500    -999.2500
   2066.3916     103.2973    -999.2500      22.4468    -999.2500      52.5571
   2066.5439     103.3081    -999.2500      22.7205    -999.2500      72.6880
   2066.6963     103.3164    -999.2500      27.3526      10.2814      89.8576
   2066.8489     103.3218    -999.2500      28.2166      11.4406      93.3700
   2067.0012     103.3218    -999.2500      35.1178      18.3624      93.3700
   2067.1536     103.3218    -999.2500      37.3500      23.6300      91.2352
   2067.3059     103.3218    -999.2500      36.0797      22.9853      88.2816
   2067.4585     103.3218    -999.2500      30.2502      19.8760      85.3232
   2067.6108     103.3218    -999.2500      28.0100      16.2635      82.3663
   2067.7632     103.3218    -999.2500      28.0893      12.6543      79.4111
   2067.9155     103.3218    -999.2500      29.0887       9.0435      76.4540
   2068.0681     103.3218    -999.2500      29.8800       5.4358      73.4978
   2068.2205     103.3218    -999.2500      29.8800       2.6209      70.5406
   2068.3728     103.3218    -999.2500      29.8800       2.3100      67.5855
   2068.5251     103.3218    -999.2500      29.8800       2.3100      64.6285
   2068.6775     103.3218    -999.2500      29.8800       2.3100      61.6701
   2068.8301     103.3218    -999.2500      32.5508       2.3100      58.7164
   2068.9824     103.3218    -999.2500      36.6406       2.3591      55.7580
   2069.1348     103.3218    -999.2500      33.1506       2.6969      52.8000
   2069.2871     103.3218    -999.2500      30.7567      68.9306      49.8459
   2069.4397     103.3218    -999.2500      33.0909     395.0725      46.8877
   2069.5920     103.3218    -999.2500      31.2579    1384.8217      44.8700
   2069.7444     103.3218    -999.2500      29.1874    2000.0000      43.0669
   2069.8967     103.3218    -999.2500      31.3202    2000.0000      39.4300
   2070.0493     103.3218    -999.2500      33.4777    1507.3787      38.5243
   2070.2017     103.3218    -999.2500      32.7508     240.2542      20.5818
   2070.3540     103.3218    -999.2500      32.6450       3.3600       2.8100
   2070.5063     103.3218    -999.2500      34.8379     550.9805       6.2740
   2070.6587     103.3218    -999.2500      35.4800    2000.0000      24.8898
