#------------------------------------------------------------------------------
#
#   Created by  : [OpenWorks] Log Export Utility (LEXP)
#   Created on  : 2016-05-19 10:13:49
#   Project     : CANT971
#   User        : R5K
#   Interpreter : PEP
#
#------------------------------------------------------------------------------
~VERSION INFORMATION
VERS. 2.0 : CWLS Log ASCII Standard - version 2.0
WRAP.  NO : One line per depth step
~WELL INFORMATION
#MNEMONIC   .UNIT                                           VALUE :DESCRIPTION
#------------------------------------------------------------------------------
STRT        .M                                           767.9436 :START DEPTH
STOP        .M                                          2393.5945 :STOP DEPTH
STEP        .M                                             0.1524 :STEP
NULL        .                                           -999.2500 :NULL VALUE
COMP        .                                             UNKNOWN :COMPANY
WELL        .                                                3050 :WELL
FLD         .                                             UNKNOWN :FIELD
LOC         .                                             UNKNOWN :LOCATION
CNTY        .                                             UNKNOWN :COUNTY
STAT        .                                             UNKNOWN :STATE
CTRY        .                                             UNKNOWN :COUNTRY
SRVC        .                                             UNKNOWN :SERVICE COMPANY
DATE        .                                             UNKNOWN :LOG DATE
UWI         .                                                3050 :UNIQUE WELL ID
XCOORD      .                                       601504.140000 :SURFACE X
YCOORD      .                                      2149905.320000 :SURFACE Y
LAT         .                                           19.442123 :LATITUDE
LON         .                                          -92.033057 :LONGITUDE
ELEV        .M                                             0.0000 :SURFACE ELEV
ELEV_TYPE   .                                                  KB :ELEV TYPE
~CURVE INFORMATION
#MNEMONIC.UNIT        API CODE       : CURVE DESCRIPTION
#------------------------------------------------------------------------------
DEPTH    .M                          : Measured Depth
DT       .us/ft       UNKNOWN        : DT:Sonico:rC:NONE:v0 (auto-composite)
GR       .API         UNKNOWN        : GR:PETROWORKS:rC:NONE:v2 
GR-LWD   .UNKNOWN     UNKNOWN        : GR-LWD:PETROWORKS:rC:NONE:v1 
ILD-LWD  .UNKNOWN     UNKNOWN        : ILD-LWD:PETROWORKS:rC:NONE:v1 
ILM-LWD  .UNKNOWN     UNKNOWN        : ILM-LWD:PETROWORKS:rC:NONE:v1 
~A     DEPTH           DT           GR       GR-LWD      ILD-LWD      ILM-LWD
# ...
   2180.6917    -999.2500    -999.2500      60.8984       2.3126       2.3223
   2180.8440    -999.2500    -999.2500      62.7902       2.1913       2.1551
   2180.9963    -999.2500    -999.2500      63.4900       2.1731       2.0939
   2181.1487    -999.2500    -999.2500      63.4900       2.1361       2.0008
   2181.3013    -999.2500    -999.2500      63.4900       2.1200       1.8992
   2181.4536    -999.2500    -999.2500      63.4787       2.1200       1.8800
   2181.6060    -999.2500    -999.2500      63.2117       2.1200       2.0138
   2181.7583    -999.2500    -999.2500      62.8024       2.1200       2.3700
   2181.9109    -999.2500    -999.2500      62.3940       2.1346       2.3700
   2182.0632    -999.2500    -999.2500      61.9895       2.2071       2.3628
   2182.2156    -999.2500    -999.2500      61.6627       2.2909       2.3400
   2182.3679    -999.2500    -999.2500      61.6200       2.3751       2.3221
   2182.5205    -999.2500    -999.2500      65.3708       2.4422       2.3026
   2182.6729    -999.2500    -999.2500      72.8300       2.4894       2.3000
   2182.8252    -999.2500    -999.2500      72.8300       2.7813       2.5099
   2182.9775    -999.2500    -999.2500      69.2084       2.9100       2.8900
   2183.1299    -999.2500    -999.2500      62.0868       2.9965       2.8900
   2183.2825    -999.2500    -999.2500      55.7625       3.3294       3.0119
   2183.4348    -999.2500    -999.2500      54.1500       3.6798       3.2288
   2183.5872    -999.2500    -999.2500      56.9890       4.0374       3.4422
   2183.7395    -999.2500    -999.2500      68.7493       4.3908       3.6555
   2183.8921    -999.2500    -999.2500      69.0900       4.7415       3.8688
   2184.0444    -999.2500    -999.2500      67.8689       4.9900       4.0856
   2184.1968    -999.2500    -999.2500      63.5786       4.8303       4.1700
   2184.3491    -999.2500    -999.2500      59.3840       3.8603       3.9038
   2184.5017    -999.2500    -999.2500      57.8900       3.3600       3.3300
   2184.6541    -999.2500    -999.2500      56.5830       3.4841       3.2455
   2184.8064    -999.2500    -999.2500      52.9753       3.8374       3.3649
   2184.9587    -999.2500    -999.2500      52.3205       4.1950       3.5400
   2185.1111    -999.2500    -999.2500      52.8046       4.5487       3.7154
   2185.2637    -999.2500    -999.2500      53.5179       4.8861       3.8954
   2185.4160    -999.2500    -999.2500      54.0782       4.9900       4.0329
   2185.5684    -999.2500    -999.2500      54.7683       5.0898       4.0727
   2185.7207    -999.2500    -999.2500      63.5058       5.7914       4.3678
   2185.8733    -999.2500    -999.2500      73.0665       5.9100       4.6600
   2186.0256    -999.2500    -999.2500      75.1575       5.9885       4.7101
   2186.1780    -999.2500    -999.2500      76.5600       6.3014       4.9094
   2186.3303    -999.2500    -999.2500      70.5686       6.6370       5.1225
   2186.4829    -999.2500    -999.2500      50.2684       6.9344       5.3055
   2186.6353    -999.2500    -999.2500      44.8200       7.0100       5.3500
   2186.7876    -999.2500    -999.2500      48.3132       5.5022       4.8483
   2186.9399    -999.2500    -999.2500      55.0414       4.3434       3.9591
   2187.0923    -999.2500    -999.2500      68.1405       4.2832       3.8930
   2187.2449    -999.2500    -999.2500      74.9874       4.0143       3.6196
   2187.3972    -999.2500    -999.2500      76.4682       3.6763       3.2738
   2187.5496    -999.2500    -999.2500      72.8608       3.4500       2.9318
   2187.7019    -999.2500    -999.2500      63.3724       3.4246       2.8100
   2187.8545    -999.2500    -999.2500      60.7551       3.2605       2.8100
   2188.0068    -999.2500    -999.2500      57.2615       3.1700       2.8100
   2188.1592    -999.2500    -999.2500      55.6378       3.1470       2.8397
   2188.3115    -999.2500    -999.2500      51.4333       3.0936       2.9158
   2188.4641    -999.2500    -999.2500      53.9655       3.0399       2.9920
   2188.6165    -999.2500    -999.2500      64.4044       2.9961       3.0523
   2188.7688    -999.2500    -999.2500      69.1459       2.9559       3.0370
   2188.9211    -999.2500    -999.2500      72.4730       2.8559       2.8528
   2189.0735    -999.2500    -999.2500      72.8300       2.8300       2.7713
   2189.2261    -999.2500    -999.2500      72.1575       2.8300       2.7448
   2189.3784    -999.2500    -999.2500      69.7791       2.8558       2.7437
   2189.5308    -999.2500    -999.2500      69.2116       3.0524       2.8439
   2189.6831    -999.2500    -999.2500      70.2522       3.1683       2.9528
   2189.8357    -999.2500    -999.2500      70.4468       3.1364       2.9800
   2189.9880    -999.2500    -999.2500      71.9991       3.0474       2.9315
   2190.1404    -999.2500    -999.2500      77.1792       2.8902       2.7344
   2190.2927    -999.2500    -999.2500      74.0347       2.8300       2.7300
   2190.4453    -999.2500    -999.2500      74.9431       2.8300       2.7300
   2190.5977    -999.2500    -999.2500      79.6201       2.8818       2.7796
   2190.7500    -999.2500    -999.2500      80.3517       3.1489       3.0392
   2190.9023    -999.2500    -999.2500      82.2106       3.2447       3.1449
   2191.0547    -999.2500    -999.2500      83.9568       3.1446       3.1040
   2191.2073    -999.2500    -999.2500      81.8806       3.0821       3.0641
   2191.3596    -999.2500    -999.2500      78.7481       2.9477       2.8075
   2191.5120    -999.2500    -999.2500      78.9873       2.8128       2.5770
   2191.6643    -999.2500    -999.2500      81.1093       2.7643       2.5414
   2191.8169    -999.2500    -999.2500      91.6479       2.6777       2.4796
   2191.9692    -999.2500    -999.2500     101.6059       2.5786       2.3776
   2192.1216    -999.2500    -999.2500      98.6882       2.5328       2.3269
   2192.2739    -999.2500    -999.2500      96.1954       2.5147       2.3092
   2192.4265    -999.2500    -999.2500      93.8794       2.4731       2.3470
   2192.5789    -999.2500    -999.2500      93.3700       2.4594       2.3858
   2192.7312    -999.2500    -999.2500      92.6265       2.4900       2.4392
   2192.8835    -999.2500    -999.2500      91.3329       2.5706       2.5416
   2193.0359    -999.2500    -999.2500      90.0389       2.6930       2.7205
   2193.1885    -999.2500    -999.2500      88.7441       2.7110       2.7300
   2193.3408    -999.2500    -999.2500      87.4514       2.6820       2.7300
   2193.4932    -999.2500    -999.2500      86.1565       2.6700       2.7257
   2193.6455    -999.2500    -999.2500      84.8791       2.6700       2.6662
   2193.7981    -999.2500    -999.2500      84.0300       2.6700       2.5877
   2193.9504    -999.2500    -999.2500      83.8087       2.6700       2.6002
   2194.1028    -999.2500    -999.2500      76.3505       2.6700       2.6508
   2194.2551    -999.2500    -999.2500      69.0900       2.6700       2.6600
   2194.4077    -999.2500    -999.2500      69.0900       2.6700       2.6600
   2194.5601    -999.2500    -999.2500      69.5096       2.6277       2.6493
   2194.7124    -999.2500    -999.2500      70.5800       2.5930       2.5393
   2194.8647    -999.2500    -999.2500      71.6525       2.6250       2.5348
   2195.0171    -999.2500    -999.2500      72.7199       2.6655       2.5740
   2195.1697    -999.2500    -999.2500      73.7876       2.8563       2.7143
   2195.3220    -999.2500    -999.2500      74.6143       2.9661       2.8066
   2195.4744    -999.2500    -999.2500      74.7000       2.8260       2.7668
   2195.6267    -999.2500    -999.2500      76.9579       2.7519       2.7319
   2195.7793    -999.2500    -999.2500      85.8489       2.7697       2.7439
   2195.9316    -999.2500    -999.2500      92.9481       2.8543       2.8037
   2196.0840    -999.2500    -999.2500      93.3700       2.9388       2.8635
   2196.2363    -999.2500    -999.2500      92.7220       3.0233       2.9233
