#------------------------------------------------------------------------------
#
#   Created by  : [OpenWorks] Log Export Utility (LEXP)
#   Created on  : 2016-05-19 10:13:49
#   Project     : CANT971
#   User        : R5K
#   Interpreter : PEP
#
#------------------------------------------------------------------------------
~VERSION INFORMATION
VERS. 2.0 : CWLS Log ASCII Standard - version 2.0
WRAP.  NO : One line per depth step
~WELL INFORMATION
#MNEMONIC   .UNIT                                           VALUE :DESCRIPTION
#------------------------------------------------------------------------------
STRT        .M                                           767.9436 :START DEPTH
STOP        .M                                          2393.5945 :STOP DEPTH
STEP        .M                                             0.1524 :STEP
NULL        .                                           -999.2500 :NULL VALUE
COMP        .                                             UNKNOWN :COMPANY
WELL        .                                                3050 :WELL
FLD         .                                             UNKNOWN :FIELD
LOC         .                                             UNKNOWN :LOCATION
CNTY        .                                             UNKNOWN :COUNTY
STAT        .                                             UNKNOWN :STATE
CTRY        .                                             UNKNOWN :COUNTRY
SRVC        .                                             UNKNOWN :SERVICE COMPANY
DATE        .                                             UNKNOWN :LOG DATE
UWI         .                                                3050 :UNIQUE WELL ID
XCOORD      .                                       601504.140000 :SURFACE X
YCOORD      .                                      2149905.320000 :SURFACE Y
LAT         .                                           19.442123 :LATITUDE
LON         .                                          -92.033057 :LONGITUDE
ELEV        .M                                             0.0000 :SURFACE ELEV
ELEV_TYPE   .                                                  KB :ELEV TYPE
~CURVE INFORMATION
#MNEMONIC.UNIT        API CODE       : CURVE DESCRIPTION
#------------------------------------------------------------------------------
DEPTH    .M                          : Measured Depth
DT       .us/ft       UNKNOWN        : DT:Sonico:rC:NONE:v0 (auto-composite)
GR       .API         UNKNOWN        : GR:PETROWORKS:rC:NONE:v2 
GR-LWD   .UNKNOWN     UNKNOWN        : GR-LWD:PETROWORKS:rC:NONE:v1 
ILD-LWD  .UNKNOWN     UNKNOWN        : ILD-LWD:PETROWORKS:rC:NONE:v1 
ILM-LWD  .UNKNOWN     UNKNOWN        : ILM-LWD:PETROWORKS:rC:NONE:v1 
~A     DEPTH           DT           GR       GR-LWD      ILD-LWD      ILM-LWD
# ...
   2384.7551    -999.2500    -999.2500      29.8800     525.3300     224.4752
   2384.9077    -999.2500    -999.2500      31.2313     525.3300     235.4200
   2385.0601    -999.2500    -999.2500      37.6414     596.9316     235.4200
   2385.2124    -999.2500    -999.2500      45.0395     690.4818     280.0724
   2385.3647    -999.2500    -999.2500      51.9898     784.1818     378.9460
   2385.5171    -999.2500    -999.2500      54.1500     877.8425     477.9112
   2385.6697    -999.2500    -999.2500      59.3726     971.4321     576.9098
   2385.8220    -999.2500    -999.2500      68.1808    1065.0999     675.7500
   2385.9744    -999.2500    -999.2500      68.8404    1158.7285     774.7486
   2386.1267    -999.2500    -999.2500      66.7288    1252.3824     873.7206
   2386.2793    -999.2500    -999.2500      63.8817    1345.9860     972.5874
   2386.4316    -999.2500    -999.2500      61.0338    1439.6326    1071.5669
   2386.5840    -999.2500    -999.2500      58.1905    1533.3326    1170.4902
   2386.7363    -999.2500    -999.2500      56.0965    1626.8828    1269.4249
   2386.8889    -999.2500    -999.2500      55.0803    1720.5829    1368.3367
   2387.0413    -999.2500    -999.2500      48.5774    1814.2795    1467.2639
   2387.1936    -999.2500    -999.2500      44.8200    1907.8331    1566.2626
   2387.3459    -999.2500    -999.2500      44.8162    2000.0000    1665.1064
   2387.4983    -999.2500    -999.2500      44.5569    2000.0000    1728.5601
   2387.6509    -999.2500    -999.2500      44.2977    1473.3549    1678.2169
   2387.8032    -999.2500    -999.2500      44.0389     893.6700     499.6501
   2387.9556    -999.2500    -999.2500      43.7796     905.2292     136.2500
   2388.1079    -999.2500    -999.2500      43.5205    1132.5924     143.4691
   2388.2605    -999.2500    -999.2500      43.2616    1469.3856     177.3432
   2388.4128    -999.2500    -999.2500      43.0024    1806.7910     216.4021
   2388.5652    -999.2500    -999.2500      42.9500    2000.0000     253.0353
   2388.7175    -999.2500    -999.2500      41.1471    2000.0000     260.5680
   2388.8701    -999.2500    -999.2500      34.0796    2000.0000     243.4957
   2389.0225    -999.2500    -999.2500      31.7500    1972.7919     235.6559
   2389.1748    -999.2500    -999.2500      31.7500    1861.4440     230.2788
   2389.3271    -999.2500    -999.2500      31.7500    1740.5715     219.8421
   2389.4795    -999.2500    -999.2500      31.7500    1619.6832     209.3858
   2389.6321    -999.2500    -999.2500      31.7500    1498.7765     198.9316
   2389.7844    -999.2500    -999.2500      31.7500    1392.0660     188.4937
   2389.9368    -999.2500    -999.2500      31.7500    1365.5000     180.8328
   2390.0891    -999.2500    -999.2500      32.1188     969.0363     180.5700
   2390.2417    -999.2500    -999.2500      34.4238     434.0300     180.5700
   2390.3940    -999.2500    -999.2500      37.2358     434.0300     174.5168
   2390.5464    -999.2500    -999.2500    -999.2500     568.3688     168.3810
   2390.6987    -999.2500    -999.2500    -999.2500     767.0530     162.2408
   2390.8513    -999.2500    -999.2500    -999.2500     966.0554     156.1094
   2391.0037    -999.2500    -999.2500    -999.2500    1164.9308     149.9697
   2391.1560    -999.2500    -999.2500    -999.2500    1363.7421     143.8292
   2391.3083    -999.2500    -999.2500    -999.2500    1562.6327     137.6985
   2391.4607    -999.2500    -999.2500    -999.2500    1761.4836     131.5580
   2391.6133    -999.2500    -999.2500    -999.2500    1960.4312     125.4205
   2391.7656    -999.2500    -999.2500    -999.2500    2000.0000     120.1700
   2391.9180    -999.2500    -999.2500    -999.2500    2000.0000     120.1700
   2392.0703    -999.2500    -999.2500    -999.2500    2000.0000     597.9731
   2392.2229    -999.2500    -999.2500    -999.2500    2000.0000     933.2100
   2392.3752    -999.2500    -999.2500    -999.2500    2000.0000     933.2100
   2392.5276    -999.2500    -999.2500    -999.2500    2000.0000     878.9297
   2392.6799    -999.2500    -999.2500    -999.2500    2000.0000     780.2920
   2392.8325    -999.2500    -999.2500    -999.2500    2000.0000     681.8121
   2392.9849    -999.2500    -999.2500    -999.2500    2000.0000     583.1744
   2393.1372    -999.2500    -999.2500    -999.2500    2000.0000     484.5467
   2393.2896    -999.2500    -999.2500    -999.2500    1957.7367     386.0567
   2393.4419    -999.2500    -999.2500    -999.2500    1696.5748     286.3851
   2393.5945    -999.2500    -999.2500    -999.2500    1424.2063     188.8589
