#------------------------------------------------------------------------------
#
#   Created by  : [OpenWorks] Log Export Utility (LEXP)
#   Created on  : 2016-05-19 10:14:19
#   Project     : CANT971
#   User        : R5K
#   Interpreter : PEP
#
#------------------------------------------------------------------------------
~VERSION INFORMATION
VERS. 2.0 : CWLS Log ASCII Standard - version 2.0
WRAP.  NO : One line per depth step
~WELL INFORMATION
#MNEMONIC   .UNIT                                           VALUE :DESCRIPTION
#------------------------------------------------------------------------------
STRT        .M                                           724.6620 :START DEPTH
STOP        .M                                          3013.5576 :STOP DEPTH
STEP        .M                                             0.1524 :STEP
NULL        .                                           -999.2500 :NULL VALUE
COMP        .                                             UNKNOWN :COMPANY
WELL        .                                                3056 :WELL
FLD         .                                           CANTARELL :FIELD
LOC         .                                             UNKNOWN :LOCATION
CNTY        .                                             UNKNOWN :COUNTY
STAT        .                                             UNKNOWN :STATE
CTRY        .                                              MEXICO :COUNTRY
SRVC        .                                             UNKNOWN :SERVICE COMPANY
DATE        .                                             UNKNOWN :LOG DATE
UWI         .                                                3056 :UNIQUE WELL ID
XCOORD      .                                       501503.280000 :SURFACE X
YCOORD      .                                      2149903.210000 :SURFACE Y
LAT         .                                           19.444680 :LATITUDE
LON         .                                          -92.985679 :LONGITUDE
ELEV        .M                                            30.0000 :SURFACE ELEV
ELEV_TYPE   .                                                  KB :ELEV TYPE
~CURVE INFORMATION
#MNEMONIC.UNIT        API CODE       : CURVE DESCRIPTION
#------------------------------------------------------------------------------
DEPTH    .M                          : Measured Depth
CGR      .API         UNKNOWN        : CGR:Espectroscopia-entubado:r1:0001:v1 
DT       .us/ft       UNKNOWN        : DT:sonico:r1:0001:v1 
GR-LWD   .API         UNKNOWN        : GR-LWD:PETROWORKS:rC:NONE:v1 
GR       .UNKNOWN     UNKNOWN        : GR:PETROWORKS:rC:NONE:v1 
ILD      .ohm.m       UNKNOWN        : ILD:resistivos:r1:0001:v1 
ILM      .ohm.m       UNKNOWN        : ILM:resistivos:r1:0001:v1 
LLD-LWD  .ohm.m       UNKNOWN        : LLD-LWD:PETROWORKS:rC:NONE:v1 
LLM-LWD  .UNKNOWN     UNKNOWN        : LLM-LWD:PETROWORKS:rC:NONE:v1 
LLS-LWD  .ohm.m       UNKNOWN        : LLS-LWD:PETROWORKS:rC:NONE:v1 
MSFL-LWD .ohm.m       UNKNOWN        : MSFL-LWD:PETROWORKS:rC:NONE:v1 
NPHI     .v/v_decimal UNKNOWN        : NPHI:porosidad-entubado:r1:0001:v1 
POTA     .wtpercent   UNKNOWN        : POTA:Espectroscopia-entubado:r1:0001:v2 
THOR     .UNKNOWN     UNKNOWN        : THOR:Espectroscopia-entubado:r1:0001:v1 
URAN     .UNKNOWN     UNKNOWN        : URAN:Espectroscopia-entubado:r1:0001:v1 
~A     DEPTH          CGR           DT       GR-LWD           GR          ILD          ILM      LLD-LWD      LLM-LWD      LLS-LWD     MSFL-LWD         NPHI         POTA         THOR         URAN
# ...
   2318.4612       7.4001    -999.2500      50.4184      42.5737    -999.2500    -999.2500     158.2672      93.8387      86.5881      98.6994       0.1488       0.0050       0.1211       3.9156
   2318.6135       6.4277    -999.2500      48.6299      38.9697    -999.2500    -999.2500     167.6242     102.1200      90.7677     107.4823       0.1521       0.0025       0.8194       3.6230
   2318.7659       7.1893    -999.2500      45.2664      38.0009    -999.2500    -999.2500     177.0678     112.4329      96.2421     115.4830       0.1555       0.0020       1.2334       3.4303
   2318.9185       7.4809    -999.2500      43.6122      37.8410    -999.2500    -999.2500     198.0617     126.8100     112.0984     128.0552       0.1525       0.0013       1.5958       3.3801
   2319.0708       9.4531    -999.2500      42.6544      38.0792    -999.2500    -999.2500     224.0494     145.7093     136.7455     151.3900       0.1408       0.0024       1.7159       3.1870
   2319.2231       9.6854    -999.2500      44.4162      37.3191    -999.2500    -999.2500     239.2427     166.7164     156.8128     173.7198       0.1285       0.0029       1.6038       3.0766
   2319.3755       9.5383    -999.2500      46.4292      34.2544    -999.2500    -999.2500     247.9618     180.9839     168.1007     187.0994       0.1309       0.0032       1.4311       2.7517
   2319.5281       8.2876    -999.2500      43.0189      29.8494    -999.2500    -999.2500     254.0965     187.4560     174.6139     198.6872       0.1430       0.0029       1.1843       2.3996
   2319.6804       7.1928    -999.2500      36.8910      23.8042    -999.2500    -999.2500     258.1520     190.7762     175.9098     203.5164       0.1628       0.0026       1.0195       1.8494
   2319.8328       5.6913    -999.2500      30.7191      19.6043    -999.2500    -999.2500     254.3530     184.0005     166.7664     193.2621       0.1813       0.0021       0.7911       1.5490
   2319.9851       4.2299    -999.2500      26.1287      16.2745    -999.2500    -999.2500     254.9118     179.8071     161.6644     187.8352       0.1932       0.0013       0.7019       1.3407
   2320.1377       3.8598    -999.2500      22.9334      15.6974    -999.2500    -999.2500     278.5625     189.6028     175.5514     198.4351       0.1668       0.0010       0.6803       1.3179
   2320.2900       5.6308    -999.2500      20.0708      16.5985    -999.2500    -999.2500     300.6173     204.5583     192.7079     207.3499       0.1375       0.0018       0.8976       1.2210
   2320.4424       7.6903    -999.2500      19.7445      17.9646    -999.2500    -999.2500     299.2127     209.0867     197.2162     210.7611       0.1337       0.0026       1.1439       1.1440
   2320.5947       9.6551    -999.2500      21.8097      20.6147    -999.2500    -999.2500     301.6624     205.7966     195.4964     222.0522       0.1306       0.0038       1.2508       1.2202
   2320.7471      11.2652    -999.2500      23.9496      22.2697    -999.2500    -999.2500     292.9198     195.9635     186.3470     216.1526       0.1272       0.0044       1.4386       1.2252
   2320.8997      13.4327    -999.2500      25.6438      23.7871    -999.2500    -999.2500     271.8487     184.9129     170.4579     196.4910       0.1214       0.0059       1.4752       1.1528
   2321.0520      13.5772    -999.2500      27.1009      23.6462    -999.2500    -999.2500     261.2626     178.4726     158.9805     183.0508       0.1239       0.0062       1.3718       1.1210
   2321.2043      10.3273    -999.2500      25.8159      22.0476    -999.2500    -999.2500     268.5070     179.7745     157.6878     188.4507       0.1233       0.0057       0.6831       1.3048
   2321.3567       8.1006    -999.2500      23.8072      21.2336    -999.2500    -999.2500     282.3624     182.6018     159.8224     192.4226       0.1212       0.0048       0.3839       1.4622
   2321.5093       5.7016    -999.2500      22.4956      22.1593    -999.2500    -999.2500     303.1473     183.4964     162.8994     189.9162       0.1212       0.0035       0.2242       1.8327
   2321.6616       4.4535    -999.2500      22.1089      24.7634    -999.2500    -999.2500     320.1147     184.3882     167.0253     195.0769       0.1167       0.0026       0.2503       2.2612
   2321.8140       5.7716    -999.2500      23.1173      30.8443    -999.2500    -999.2500     320.0012     185.6002     164.7388     197.6586       0.1175       0.0016       1.0020       2.7914
   2321.9663       8.6107    -999.2500      27.1704      33.7388    -999.2500    -999.2500     302.9717     177.8693     154.8856     185.6921       0.1255       0.0021       1.6293       2.7979
   2322.1189      11.5326    -999.2500      32.6412      35.7441    -999.2500    -999.2500     285.5552     166.7312     137.8790     154.2844       0.1373       0.0034       1.9231       2.6956
   2322.2712      11.3694    -999.2500      36.9394      37.7115    -999.2500    -999.2500     297.8981     169.3489     134.2998     137.4478       0.1494       0.0050       1.2518       2.9327
   2322.4236       9.4651    -999.2500      40.8453      41.0357    -999.2500    -999.2500     328.6982     181.0951     139.2784     135.5207       0.1420       0.0053       0.5835       3.5152
   2322.5759       7.7533    -999.2500      47.2150      47.7318    -999.2500    -999.2500     345.9496     188.5763     138.2426     136.0864       0.1339       0.0053       0.0792       4.4512
   2322.7283       6.5343    -999.2500      57.8466      52.1263    -999.2500    -999.2500     340.8172     190.0064     137.3710     138.5165       0.1253       0.0044       0.0911       5.0760
   2322.8809       5.6085    -999.2500      67.1077      56.4473    -999.2500    -999.2500     336.0583     187.1862     141.6513     142.2342       0.1152       0.0037       0.1133       5.6601
   2323.0332       5.9795    -999.2500      73.2589      60.4280    -999.2500    -999.2500     335.8890     193.6632     153.2831     156.2018       0.1130       0.0039       0.1547       6.0628
   2323.1855       5.7736    -999.2500      72.1680      64.3180    -999.2500    -999.2500     332.0498     197.7297     162.0972     173.4869       0.1153       0.0040       0.0600       6.5180
   2323.3379       6.8210    -999.2500      64.5055      63.6716    -999.2500    -999.2500     287.1852     179.3901     145.6799     159.7268       0.1207       0.0044       0.1856       6.3294
   2323.4905       6.5558    -999.2500      55.9765      59.9856    -999.2500    -999.2500     246.2292     158.4535     128.8965     140.4861       0.1358       0.0038       0.3508       5.9479
   2323.6428       5.6178    -999.2500      48.6817      54.9731    -999.2500    -999.2500     223.1487     141.8141     119.0152     127.3231       0.1529       0.0029       0.4243       5.4949
   2323.7952       2.1826    -999.2500      43.4085      47.2211    -999.2500    -999.2500     203.7992     125.0458     102.8959     108.6503       0.1723       0.0008       0.3138       5.0143
   2323.9475       1.6943    -999.2500      41.0353      43.4189    -999.2500    -999.2500     187.8925     108.9643      90.0368      89.3887       0.1822       0.0004       0.3102       4.6450
   2324.1001       4.6793    -999.2500      44.4136      39.6981    -999.2500    -999.2500     177.1372     100.1604      86.6901      81.8802       0.1913       0.0018       0.6033       3.8988
   2324.2524       8.4944    -999.2500      53.1886      39.9806    -999.2500    -999.2500     165.4334      95.3968      82.1797      74.8796       0.1919       0.0039       0.8561       3.5055
   2324.4048      13.9871    -999.2500      60.1691      43.9332    -999.2500    -999.2500     155.0064      89.3820      74.1296      67.6605       0.2014       0.0075       0.9982       3.3340
   2324.5571      16.4176    -999.2500      65.9234      47.8700    -999.2500    -999.2500     136.2893      79.6593      65.3840      58.3367       0.2046       0.0093       0.9671       3.5020
   2324.7095      18.2003    -999.2500      63.1287      52.9387    -999.2500    -999.2500     122.6966      69.3857      54.5480      45.1147       0.1950       0.0106       0.9488       3.8676
