#------------------------------------------------------------------------------
#
#   Created by  : [OpenWorks] Log Export Utility (LEXP)
#   Created on  : 2016-05-19 10:14:19
#   Project     : CANT971
#   User        : R5K
#   Interpreter : PEP
#
#------------------------------------------------------------------------------
~VERSION INFORMATION
VERS. 2.0 : CWLS Log ASCII Standard - version 2.0
WRAP.  NO : One line per depth step
~WELL INFORMATION
#MNEMONIC   .UNIT                                           VALUE :DESCRIPTION
#------------------------------------------------------------------------------
STRT        .M                                           724.6620 :START DEPTH
STOP        .M                                          3013.5576 :STOP DEPTH
STEP        .M                                             0.1524 :STEP
NULL        .                                           -999.2500 :NULL VALUE
COMP        .                                             UNKNOWN :COMPANY
WELL        .                                                3056 :WELL
FLD         .                                           CANTARELL :FIELD
LOC         .                                             UNKNOWN :LOCATION
CNTY        .                                             UNKNOWN :COUNTY
STAT        .                                             UNKNOWN :STATE
CTRY        .                                              MEXICO :COUNTRY
SRVC        .                                             UNKNOWN :SERVICE COMPANY
DATE        .                                             UNKNOWN :LOG DATE
UWI         .                                                3056 :UNIQUE WELL ID
XCOORD      .                                       501503.280000 :SURFACE X
YCOORD      .                                      2149903.210000 :SURFACE Y
LAT         .                                           19.444680 :LATITUDE
LON         .                                          -92.985679 :LONGITUDE
ELEV        .M                                            30.0000 :SURFACE ELEV
ELEV_TYPE   .                                                  KB :ELEV TYPE
~CURVE INFORMATION
#MNEMONIC.UNIT        API CODE       : CURVE DESCRIPTION
#------------------------------------------------------------------------------
DEPTH    .M                          : Measured Depth
CGR      .API         UNKNOWN        : CGR:Espectroscopia-entubado:r1:0001:v1 
DT       .us/ft       UNKNOWN        : DT:sonico:r1:0001:v1 
GR-LWD   .API         UNKNOWN        : GR-LWD:PETROWORKS:rC:NONE:v1 
GR       .UNKNOWN     UNKNOWN        : GR:PETROWORKS:rC:NONE:v1 
ILD      .ohm.m       UNKNOWN        : ILD:resistivos:r1:0001:v1 
ILM      .ohm.m       UNKNOWN        : ILM:resistivos:r1:0001:v1 
LLD-LWD  .ohm.m       UNKNOWN        : LLD-LWD:PETROWORKS:rC:NONE:v1 
LLM-LWD  .UNKNOWN     UNKNOWN        : LLM-LWD:PETROWORKS:rC:NONE:v1 
LLS-LWD  .ohm.m       UNKNOWN        : LLS-LWD:PETROWORKS:rC:NONE:v1 
MSFL-LWD .ohm.m       UNKNOWN        : MSFL-LWD:PETROWORKS:rC:NONE:v1 
NPHI     .v/v_decimal UNKNOWN        : NPHI:porosidad-entubado:r1:0001:v1 
POTA     .wtpercent   UNKNOWN        : POTA:Espectroscopia-entubado:r1:0001:v2 
THOR     .UNKNOWN     UNKNOWN        : THOR:Espectroscopia-entubado:r1:0001:v1 
URAN     .UNKNOWN     UNKNOWN        : URAN:Espectroscopia-entubado:r1:0001:v1 
~A     DEPTH          CGR           DT       GR-LWD           GR          ILD          ILM      LLD-LWD      LLM-LWD      LLS-LWD     MSFL-LWD         NPHI         POTA         THOR         URAN
# ...
   2644.9021      26.2269    -999.2500     104.4587      88.1928    -999.2500    -999.2500      47.3503      36.9561      34.5249      24.9225       0.1504       0.0146       1.6458       6.8988
   2645.0544      24.9804    -999.2500      90.1019      87.0665    -999.2500    -999.2500      54.8405      41.9505      39.5356      28.7048       0.1656       0.0139       1.5701       6.9122
   2645.2068      24.9272    -999.2500      99.6462      78.2644    -999.2500    -999.2500      61.3819      47.1594      42.7192      30.3931       0.1341       0.0124       2.1690       5.9382
   2645.3591      22.9902    -999.2500     110.6555      70.5228    -999.2500    -999.2500      66.8097      51.8283      45.0749      32.3382       0.1188       0.0113       2.0264       5.2920
   2645.5115      19.0446    -999.2500      86.8224      63.5842    -999.2500    -999.2500      76.0974      60.3205      51.2130      37.5084       0.1196       0.0103       1.3153       4.9588
   2645.6641      17.4699    -999.2500      72.9335      64.3689    -999.2500    -999.2500      81.3261      64.8011      54.6230      38.7278       0.1235       0.0099       1.0114       5.2215
   2645.8164      17.5210    -999.2500      67.6082      66.7780    -999.2500    -999.2500      74.4576      57.6618      47.0465      30.5778       0.1296       0.0095       1.1899       5.4840
   2645.9688      17.5699    -999.2500      78.4026      66.3051    -999.2500    -999.2500      73.6508      55.2445      46.2749      29.7110       0.1267       0.0088       1.4919       5.4259
   2646.1211      17.6946    -999.2500      88.9515      62.0951    -999.2500    -999.2500      75.6900      56.1003      48.7720      31.8828       0.1172       0.0082       1.7689       4.9432
   2646.2737      16.7387    -999.2500      82.6068      54.1897    -999.2500    -999.2500      75.3522      57.4097      49.6088      34.3871       0.1038       0.0076       1.7149       4.1696
   2646.4260      15.6566    -999.2500      66.6835      50.6791    -999.2500    -999.2500      75.0898      58.1198      51.8698      36.3385       0.1035       0.0075       1.4691       3.8992
   2646.5784      17.0230    -999.2500      52.4384      52.0005    -999.2500    -999.2500      77.6034      59.5662      56.3250      37.8783       0.1129       0.0090       1.2399       3.8941
   2646.7307      20.9245    -999.2500      49.3753      61.6710    -999.2500    -999.2500      82.9666      62.0931      59.3010      39.3150       0.1308       0.0116       1.3329       4.5364
   2646.8833      25.0485    -999.2500      49.2385      77.7889    -999.2500    -999.2500      80.4594      60.7419      53.3905      36.6738       0.1536       0.0145       1.3487       5.8718
   2647.0356      24.3112    -999.2500      63.4133      89.0852    -999.2500    -999.2500      78.9489      59.1597      49.1235      34.3428       0.1738       0.0150       0.9435       7.2115
   2647.1880      23.1411    -999.2500      93.1692      97.3396    -999.2500    -999.2500      77.9070      58.3607      48.1652      33.3284       0.1675       0.0144       0.8384       8.2608
   2647.3403      26.7054    -999.2500     117.8859     102.7666    -999.2500    -999.2500      82.0493      61.7917      51.5228      33.6942       0.1505       0.0160       1.2335       8.4682
   2647.4927      36.2093    -999.2500     104.9813     117.7147    -999.2500    -999.2500      84.3646      64.8148      52.2051      33.8457       0.1713       0.0206       2.1113       9.0743
   2647.6453      41.4586    -999.2500     112.0644     128.0639    -999.2500    -999.2500      80.7120      62.7425      49.0363      32.5851       0.1903       0.0230       2.6527       9.6421
   2647.7976      42.8483    -999.2500     151.8862     134.3897    -999.2500    -999.2500      73.7919      57.2548      44.8726      30.8165       0.2107       0.0244       2.4550      10.1917
   2647.9500      38.0693    -999.2500     164.8207     128.2790    -999.2500    -999.2500      73.7467      58.6979      47.7612      33.7722       0.1899       0.0224       1.9133      10.0433
   2648.1023      31.3346    -999.2500     159.3961     109.6238    -999.2500    -999.2500      77.1825      63.0344      53.3373      38.1092       0.1610       0.0191       1.3159       8.7163
   2648.2549      28.3940    -999.2500     134.0385      97.6650    -999.2500    -999.2500      81.5580      67.3639      57.3710      40.8025       0.1389       0.0168       1.3682       7.7122
   2648.4072      27.9433    -999.2500     113.6061      82.0117    -999.2500    -999.2500      83.0571      68.3126      58.2995      40.8889       0.1231       0.0157       1.6799       6.0196
   2648.5596      26.1131    -999.2500     106.0031      75.8504    -999.2500    -999.2500      83.5204      68.6325      61.2654      40.9024       0.1104       0.0148       1.5527       5.5375
   2648.7119      20.1960    -999.2500      90.7225      68.9536    -999.2500    -999.2500      88.3714      74.0725      68.1602      44.9942       0.0973       0.0136       0.3205       5.4284
   2648.8645      17.6714    -999.2500      74.5649      67.8289    -999.2500    -999.2500      91.3668      77.4878      70.5759      47.2003       0.0891       0.0122       0.1612       5.5842
   2649.0168      15.3733    -999.2500      74.9876      64.1914    -999.2500    -999.2500      83.7605      68.9954      60.1058      38.1063       0.0801       0.0106       0.1575       5.4351
   2649.1692      15.0344    -999.2500      73.0852      56.6575    -999.2500    -999.2500      81.0005      64.4932      52.7581      32.5017       0.0730       0.0100       0.3012       4.6341
   2649.3215      18.4111    -999.2500      60.2498      55.3729    -999.2500    -999.2500      77.5696      60.4642      42.8311      28.3258       0.0767       0.0115       0.6605       4.1151
   2649.4739      24.4697    -999.2500      55.9847      58.0741    -999.2500    -999.2500      75.7647      59.0800      41.0160      26.5374       0.0855       0.0151       0.9628       3.7413
   2649.6265      27.6814    -999.2500      59.8266      61.3463    -999.2500    -999.2500      74.4210      58.6915      43.5280      25.6761       0.0934       0.0171       1.0649       3.7480
   2649.7788      28.2303    -999.2500      69.5544      63.0434    -999.2500    -999.2500      60.7692      46.5778      36.1354      21.9165       0.0942       0.0174       1.0942       3.8759
   2649.9312      23.6511    -999.2500      75.8952      60.5307    -999.2500    -999.2500      51.9672      36.9991      28.9106      20.1514       0.0884       0.0150       0.7493       4.1059
   2650.0835      18.5727    -999.2500      75.7888      57.6814    -999.2500    -999.2500      51.0722      34.5987      27.3664      20.8955       0.0807       0.0121       0.4739       4.3541
   2650.2361      21.3017    -999.2500      63.4373      63.9790    -999.2500    -999.2500      53.7873      37.8138      28.7269      22.3300       0.0777       0.0130       0.8822       4.7514
   2650.3884      30.7738    -999.2500      57.0711      81.5087    -999.2500    -999.2500      55.5696      38.7178      28.5422      21.8579       0.0815       0.0172       1.8839       5.6485
   2650.5408      41.4575    -999.2500      68.5296     100.8377    -999.2500    -999.2500      55.6885      35.4462      26.4129      19.9097       0.0962       0.0229       2.6879       6.6110
   2650.6931      53.5265    -999.2500     104.7290     130.9683    -999.2500    -999.2500      47.8253      29.0624      22.2877      16.6730       0.1230       0.0297       3.4133       8.6219
   2650.8457      55.4306    -999.2500     158.0723     141.1073    -999.2500    -999.2500      36.7272      22.6338      17.6336      13.6653       0.1270       0.0305       3.6250       9.5387
   2650.9980      47.0804    -999.2500     167.3067     134.5628    -999.2500    -999.2500      34.0272      21.5237      16.8133      13.0945       0.1104       0.0248       3.4972       9.7398
   2651.1504      41.9580    -999.2500     169.4959     118.3971    -999.2500    -999.2500      35.2421      21.7863      16.7149      12.6889       0.1014       0.0198       4.0448       8.5102
