#------------------------------------------------------------------------------
#
#   Created by  : [OpenWorks] Log Export Utility (LEXP)
#   Created on  : 2016-05-19 10:14:19
#   Project     : CANT971
#   User        : R5K
#   Interpreter : PEP
#
#------------------------------------------------------------------------------
~VERSION INFORMATION
VERS. 2.0 : CWLS Log ASCII Standard - version 2.0
WRAP.  NO : One line per depth step
~WELL INFORMATION
#MNEMONIC   .UNIT                                           VALUE :DESCRIPTION
#------------------------------------------------------------------------------
STRT        .M                                           724.6620 :START DEPTH
STOP        .M                                          3013.5576 :STOP DEPTH
STEP        .M                                             0.1524 :STEP
NULL        .                                           -999.2500 :NULL VALUE
COMP        .                                             UNKNOWN :COMPANY
WELL        .                                                3056 :WELL
FLD         .                                           CANTARELL :FIELD
LOC         .                                             UNKNOWN :LOCATION
CNTY        .                                             UNKNOWN :COUNTY
STAT        .                                             UNKNOWN :STATE
CTRY        .                                              MEXICO :COUNTRY
SRVC        .                                             UNKNOWN :SERVICE COMPANY
DATE        .                                             UNKNOWN :LOG DATE
UWI         .                                                3056 :UNIQUE WELL ID
XCOORD      .                                       501503.280000 :SURFACE X
YCOORD      .                                      2149903.210000 :SURFACE Y
LAT         .                                           19.444680 :LATITUDE
LON         .                                          -92.985679 :LONGITUDE
ELEV        .M                                            30.0000 :SURFACE ELEV
ELEV_TYPE   .                                                  KB :ELEV TYPE
~CURVE INFORMATION
#MNEMONIC.UNIT        API CODE       : CURVE DESCRIPTION
#------------------------------------------------------------------------------
DEPTH    .M                          : Measured Depth
CGR      .API         UNKNOWN        : CGR:Espectroscopia-entubado:r1:0001:v1 
DT       .us/ft       UNKNOWN        : DT:sonico:r1:0001:v1 
GR-LWD   .API         UNKNOWN        : GR-LWD:PETROWORKS:rC:NONE:v1 
GR       .UNKNOWN     UNKNOWN        : GR:PETROWORKS:rC:NONE:v1 
ILD      .ohm.m       UNKNOWN        : ILD:resistivos:r1:0001:v1 
ILM      .ohm.m       UNKNOWN        : ILM:resistivos:r1:0001:v1 
LLD-LWD  .ohm.m       UNKNOWN        : LLD-LWD:PETROWORKS:rC:NONE:v1 
LLM-LWD  .UNKNOWN     UNKNOWN        : LLM-LWD:PETROWORKS:rC:NONE:v1 
LLS-LWD  .ohm.m       UNKNOWN        : LLS-LWD:PETROWORKS:rC:NONE:v1 
MSFL-LWD .ohm.m       UNKNOWN        : MSFL-LWD:PETROWORKS:rC:NONE:v1 
NPHI     .v/v_decimal UNKNOWN        : NPHI:porosidad-entubado:r1:0001:v1 
POTA     .wtpercent   UNKNOWN        : POTA:Espectroscopia-entubado:r1:0001:v2 
THOR     .UNKNOWN     UNKNOWN        : THOR:Espectroscopia-entubado:r1:0001:v1 
URAN     .UNKNOWN     UNKNOWN        : URAN:Espectroscopia-entubado:r1:0001:v1 
~A     DEPTH          CGR           DT       GR-LWD           GR          ILD          ILM      LLD-LWD      LLM-LWD      LLS-LWD     MSFL-LWD         NPHI         POTA         THOR         URAN
# ...
   2369.6675       9.4255    -999.2500      26.6101      31.5797    -999.2500    -999.2500      69.7491      96.9177     141.2258     191.5098       0.1085       0.0064       0.1190       2.4665
   2369.8201       9.4284    -999.2500      26.8312      32.8476    -999.2500    -999.2500      84.4231     116.1925     150.2295     198.9954       0.1090       0.0065       0.1074       2.6074
   2369.9724       9.6773    -999.2500      26.5605      35.4656    -999.2500    -999.2500     100.2040     131.0833     150.5113     188.9229       0.1050       0.0057       0.4908       2.8714
   2370.1248      11.6501    -999.2500      28.9352      38.0319    -999.2500    -999.2500     116.3309     148.1912     158.0999     184.1182       0.1026       0.0058       1.0165       2.9372
   2370.2771      15.3552    -999.2500      31.0385      42.2204    -999.2500    -999.2500     139.3508     170.4359     174.6215     193.1570       0.1082       0.0076       1.3204       2.9910
   2370.4297      17.0542    -999.2500      34.6450      44.1630    -999.2500    -999.2500     162.0091     191.2200     190.3115     207.4865       0.1183       0.0087       1.3719       3.0182
   2370.5820      15.7096    -999.2500      39.7294      43.8543    -999.2500    -999.2500     181.4230     208.4385     203.1296     226.4345       0.1369       0.0085       1.0962       3.1334
   2370.7344      11.4955    -999.2500      42.1756      40.5732    -999.2500    -999.2500     185.6294     196.0726     184.1646     198.0008       0.1358       0.0063       0.7803       3.2373
   2370.8867       7.1958    -999.2500      42.6249      36.5331    -999.2500    -999.2500     184.6095     185.3719     163.5932     171.6694       0.1218       0.0041       0.4276       3.2662
   2371.0393       4.9672    -999.2500      41.1815      35.6374    -999.2500    -999.2500     197.1853     188.3651     160.2116     169.6446       0.1092       0.0025       0.4303       3.4147
   2371.1917       5.4229    -999.2500      36.8915      38.1702    -999.2500    -999.2500     228.5051     206.3239     181.0532     191.5350       0.0909       0.0023       0.6098       3.6459
   2371.3440       5.6655    -999.2500      31.5358      41.5260    -999.2500    -999.2500     252.2279     219.3707     207.1777     219.9417       0.0814       0.0027       0.5504       3.9925
   2371.4963       9.2041    -999.2500      31.4820      46.6225    -999.2500    -999.2500     251.0166     220.3020     203.8454     231.0776       0.0756       0.0048       0.7149       4.1670
   2371.6487      12.3621    -999.2500      40.2117      49.6558    -999.2500    -999.2500     249.5633     217.6033     195.7613     246.0361       0.0763       0.0062       1.0310       4.1521
   2371.8013      15.7593    -999.2500      48.6261      53.7661    -999.2500    -999.2500     246.8439     214.0674     200.5576     258.3920       0.0798       0.0067       1.8273       4.2314
   2371.9536      17.7725    -999.2500      50.6256      55.1912    -999.2500    -999.2500     242.6925     211.7350     202.7645     253.2289       0.0848       0.0064       2.4898       4.1661
   2372.1060      17.3118    -999.2500      53.0781      54.3246    -999.2500    -999.2500     240.5927     190.4176     186.5506     215.1279       0.0968       0.0060       2.5220       4.1208
   2372.2583      17.1908    -999.2500      58.0912      51.6833    -999.2500    -999.2500     224.7298     172.6361     160.3418     177.6134       0.1069       0.0071       2.0515       3.8402
   2372.4109      14.9787    -999.2500      59.5436      44.1413    -999.2500    -999.2500     230.0703     170.3833     150.9068     166.2800       0.1349       0.0080       1.0920       3.2467
   2372.5632      16.7390    -999.2500      59.8688      38.7421    -999.2500    -999.2500     240.3078     169.6225     148.5512     158.7693       0.1400       0.0081       1.5467       2.4494
   2372.7156      18.1990    -999.2500      58.7936      33.2949    -999.2500    -999.2500     237.7260     162.6242     137.0626     143.0569       0.1334       0.0074       2.2331       1.6807
   2372.8679      18.0373    -999.2500      56.1493      28.0549    -999.2500    -999.2500     245.0361     157.9238     124.8716     129.0880       0.1168       0.0061       2.7038       1.1153
   2373.0205      15.5182    -999.2500      44.6694      26.4445    -999.2500    -999.2500     297.0240     198.3101     152.0921     155.1443       0.0942       0.0046       2.5604       1.2162
   2373.1729       9.5981    -999.2500      29.2103      25.3045    -999.2500    -999.2500     377.5052     265.9284     225.3784     247.6298       0.0719       0.0023       1.8007       1.7487
   2373.3252       6.7210    -999.2500      24.7524      24.4995    -999.2500    -999.2500     422.1255     289.6832     282.4483     344.7511       0.0640       0.0020       1.1147       1.9793
   2373.4775       6.9863    -999.2500      23.7233      23.7841    -999.2500    -999.2500     441.8798     311.5254     337.1152     456.8279       0.0629       0.0032       0.7280       1.8701
   2373.6299       9.7299    -999.2500      23.3597      23.5096    -999.2500    -999.2500     448.1960     341.5312     408.6260     622.5566       0.0656       0.0045       0.9743       1.5341
   2373.7825      12.5868    -999.2500      23.0608      23.0014    -999.2500    -999.2500     462.0731     370.4466     476.7833     730.1985       0.0687       0.0048       1.6524       1.1595
   2373.9348      12.7122    -999.2500      21.8222      22.3839    -999.2500    -999.2500     528.2123     426.6855     558.0184     878.4830       0.0743       0.0041       1.9830       1.0767
   2374.0872      12.5127    -999.2500      19.4455      21.5028    -999.2500    -999.2500     650.8948     491.5819     663.3726    1146.4606       0.0824       0.0034       2.1927       1.0009
   2374.2395      12.7004    -999.2500      18.5387      20.7072    -999.2500    -999.2500     828.7200     566.9069     828.5200    1542.6658       0.0870       0.0038       2.1007       0.8914
   2374.3921      14.5929    -999.2500      18.9431      19.5309    -999.2500    -999.2500    1050.0588     660.4617    1066.3479    1761.4984       0.0970       0.0046       2.3133       0.5497
   2374.5444      17.6389    -999.2500      19.8053      19.0698    -999.2500    -999.2500    1192.5385     753.5556    1298.8607    1724.5070       0.1059       0.0048       3.0806       0.1593
   2374.6968      17.0687    -999.2500      19.1949      18.4925    -999.2500    -999.2500    1289.1512     831.6899    1363.3729    1719.2786       0.1217       0.0054       2.7081       0.1585
   2374.8491      14.0876    -999.2500      17.8020      18.2783    -999.2500    -999.2500    1390.4868     886.5167    1406.1003    1759.0859       0.1355       0.0053       1.8843       0.4665
   2375.0017       8.8938    -999.2500      16.9897      19.1435    -999.2500    -999.2500    1522.2279     872.9369    1419.1694    1694.9226       0.1549       0.0043       0.8125       1.1411
   2375.1541       7.7618    -999.2500      16.4797      19.9580    -999.2500    -999.2500    1553.9583     799.8234    1343.3223    1491.0272       0.1534       0.0039       0.6511       1.3579
   2375.3064       9.8109    -999.2500      15.3181      21.2030    -999.2500    -999.2500    1530.1288     784.3233    1220.7010    1351.1318       0.1406       0.0038       1.2597       1.2683
   2375.4587      10.3504    -999.2500      14.9164      21.3445    -999.2500    -999.2500    1546.7778     816.1079    1099.2871    1255.4181       0.1297       0.0037       1.4855       1.2240
   2375.6111       9.2815    -999.2500      15.4395      20.6657    -999.2500    -999.2500    1697.7854     940.8342    1019.7137    1070.0754       0.1124       0.0030       1.4512       1.2674
   2375.7637       7.4629    -999.2500      16.5407      19.8808    -999.2500    -999.2500    1926.6639    1110.9125    1115.7867     997.4018       0.1021       0.0026       1.0824       1.3826
   2375.9160       6.0543    -999.2500      17.0674      19.3524    -999.2500    -999.2500    1985.9227    1238.1157    1375.3661    1298.5549       0.0971       0.0026       0.6873       1.4805
