#------------------------------------------------------------------------------
#
#   Created by  : [OpenWorks] Log Export Utility (LEXP)
#   Created on  : 2016-05-19 10:14:19
#   Project     : CANT971
#   User        : R5K
#   Interpreter : PEP
#
#------------------------------------------------------------------------------
~VERSION INFORMATION
VERS. 2.0 : CWLS Log ASCII Standard - version 2.0
WRAP.  NO : One line per depth step
~WELL INFORMATION
#MNEMONIC   .UNIT                                           VALUE :DESCRIPTION
#------------------------------------------------------------------------------
STRT        .M                                           724.6620 :START DEPTH
STOP        .M                                          3013.5576 :STOP DEPTH
STEP        .M                                             0.1524 :STEP
NULL        .                                           -999.2500 :NULL VALUE
COMP        .                                             UNKNOWN :COMPANY
WELL        .                                                3056 :WELL
FLD         .                                           CANTARELL :FIELD
LOC         .                                             UNKNOWN :LOCATION
CNTY        .                                             UNKNOWN :COUNTY
STAT        .                                             UNKNOWN :STATE
CTRY        .                                              MEXICO :COUNTRY
SRVC        .                                             UNKNOWN :SERVICE COMPANY
DATE        .                                             UNKNOWN :LOG DATE
UWI         .                                                3056 :UNIQUE WELL ID
XCOORD      .                                       501503.280000 :SURFACE X
YCOORD      .                                      2149903.210000 :SURFACE Y
LAT         .                                           19.444680 :LATITUDE
LON         .                                          -92.985679 :LONGITUDE
ELEV        .M                                            30.0000 :SURFACE ELEV
ELEV_TYPE   .                                                  KB :ELEV TYPE
~CURVE INFORMATION
#MNEMONIC.UNIT        API CODE       : CURVE DESCRIPTION
#------------------------------------------------------------------------------
DEPTH    .M                          : Measured Depth
CGR      .API         UNKNOWN        : CGR:Espectroscopia-entubado:r1:0001:v1 
DT       .us/ft       UNKNOWN        : DT:sonico:r1:0001:v1 
GR-LWD   .API         UNKNOWN        : GR-LWD:PETROWORKS:rC:NONE:v1 
GR       .UNKNOWN     UNKNOWN        : GR:PETROWORKS:rC:NONE:v1 
ILD      .ohm.m       UNKNOWN        : ILD:resistivos:r1:0001:v1 
ILM      .ohm.m       UNKNOWN        : ILM:resistivos:r1:0001:v1 
LLD-LWD  .ohm.m       UNKNOWN        : LLD-LWD:PETROWORKS:rC:NONE:v1 
LLM-LWD  .UNKNOWN     UNKNOWN        : LLM-LWD:PETROWORKS:rC:NONE:v1 
LLS-LWD  .ohm.m       UNKNOWN        : LLS-LWD:PETROWORKS:rC:NONE:v1 
MSFL-LWD .ohm.m       UNKNOWN        : MSFL-LWD:PETROWORKS:rC:NONE:v1 
NPHI     .v/v_decimal UNKNOWN        : NPHI:porosidad-entubado:r1:0001:v1 
POTA     .wtpercent   UNKNOWN        : POTA:Espectroscopia-entubado:r1:0001:v2 
THOR     .UNKNOWN     UNKNOWN        : THOR:Espectroscopia-entubado:r1:0001:v1 
URAN     .UNKNOWN     UNKNOWN        : URAN:Espectroscopia-entubado:r1:0001:v1 
~A     DEPTH          CGR           DT       GR-LWD           GR          ILD          ILM      LLD-LWD      LLM-LWD      LLS-LWD     MSFL-LWD         NPHI         POTA         THOR         URAN
# ...
   2504.0845       5.1004    -999.2500      20.9992      20.7800    -999.2500    -999.2500     169.8126     148.1834     103.7910      61.6419       0.0674       0.0023       0.5423       1.7457
   2504.2368       5.0372    -999.2500      19.6530      21.0716    -999.2500    -999.2500     135.4421     128.7396      85.2676      50.6311       0.0689       0.0028       0.3321       1.7851
   2504.3892       5.3841    -999.2500      19.0401      20.4744    -999.2500    -999.2500     140.0526     135.1595      91.8907      51.7283       0.0712       0.0034       0.1810       1.6801
   2504.5415       5.8234    -999.2500      19.4195      19.7803    -999.2500    -999.2500     146.3118     133.9535      98.6231      52.6748       0.0708       0.0030       0.4578       1.5539
   2504.6941       6.4668    -999.2500      20.3670      19.0465    -999.2500    -999.2500     142.5500     143.4745     104.2849      56.5189       0.0692       0.0027       0.7580       1.4006
   2504.8464       6.3562    -999.2500      19.4379      19.2324    -999.2500    -999.2500     143.1912     160.9724     124.9711      61.8134       0.0674       0.0026       0.7857       1.4336
   2504.9988       9.4790    -999.2500      17.8327      19.4075    -999.2500    -999.2500     138.6146     152.2857     119.6440      57.5459       0.0679       0.0039       1.1563       1.1054
   2505.1511      10.5315    -999.2500      19.3690      19.2987    -999.2500    -999.2500     139.1577     145.4117     111.9485      63.7132       0.0684       0.0041       1.3452       0.9761
   2505.3035      11.3557    -999.2500      18.9421      18.4820    -999.2500    -999.2500     129.7763     153.0703     134.2209      71.0107       0.0725       0.0039       1.6635       0.7934
   2505.4561      11.3407    -999.2500      18.7193      18.1260    -999.2500    -999.2500     113.7000     136.5156     132.4672      58.3043       0.0738       0.0033       1.8902       0.7554
   2505.6084      12.6845    -999.2500      18.8835      18.1052    -999.2500    -999.2500     108.3015     120.8570     127.4927      51.5116       0.0739       0.0036       2.1741       0.6035
   2505.7607      14.5484    -999.2500      19.2975      18.3266    -999.2500    -999.2500     102.3173     114.0504     113.5042      51.8884       0.0748       0.0049       2.1718       0.4206
   2505.9131      14.8732    -999.2500      19.4301      18.7384    -999.2500    -999.2500      91.3100     104.9650      93.9302      48.5502       0.0740       0.0063       1.7004       0.4303
   2506.0657      13.9840    -999.2500      20.3989      18.9010    -999.2500    -999.2500      86.5821     100.3627      83.2499      51.4809       0.0747       0.0062       1.5128       0.5474
   2506.2180      12.5684    -999.2500      19.4682      19.0552    -999.2500    -999.2500      80.6541      93.1172      93.9552      55.0437       0.0716       0.0050       1.5731       0.7222
   2506.3704      10.1719    -999.2500      20.1086      19.1685    -999.2500    -999.2500      77.7565      96.8813     116.0009      62.8046       0.0698       0.0029       1.7176       1.0016
   2506.5227      10.0196    -999.2500      21.9108      19.1623    -999.2500    -999.2500      70.8164      86.3637     107.7457      53.2593       0.0728       0.0030       1.6664       1.0179
   2506.6753       8.6250    -999.2500      23.3644      19.6502    -999.2500    -999.2500      53.5074      56.7841      64.4091      34.1464       0.0767       0.0036       1.0154       1.2275
   2506.8276       7.4359    -999.2500      29.9521      21.2007    -999.2500    -999.2500      46.6126      47.4728      49.6848      30.3330       0.0803       0.0038       0.5900       1.5325
   2506.9800       7.8764    -999.2500      47.3930      24.6496    -999.2500    -999.2500      44.1999      45.2514      51.3145      32.2144       0.0848       0.0035       0.8361       1.8674
   2507.1323      10.1513    -999.2500      60.2061      29.6908    -999.2500    -999.2500      49.9285      51.4974      72.9089      54.2466       0.0866       0.0038       1.3722       2.1754
   2507.2847      13.6716    -999.2500      66.1359      37.1440    -999.2500    -999.2500      41.5960      38.5757      52.6413      36.1828       0.0910       0.0056       1.6553       2.6133
   2507.4373      18.4516    -999.2500      63.9602      43.6672    -999.2500    -999.2500      28.0264      25.0091      26.9993      19.8912       0.0926       0.0091       1.6292       2.8073
   2507.5896      23.0060    -999.2500      58.9182      49.5025    -999.2500    -999.2500      24.4321      22.5912      21.1833      18.5718       0.0934       0.0130       1.3697       2.9500
   2507.7419      23.8141    -999.2500      50.1239      51.3906    -999.2500    -999.2500      23.2121      21.1669      19.9998      17.7260       0.0930       0.0140       1.2173       3.0702
   2507.8943      25.8826    -999.2500      52.0690      51.3040    -999.2500    -999.2500      24.2372      23.0452      23.6084      21.8266       0.0845       0.0150       1.3890       2.8303
   2508.0469      30.0336    -999.2500      55.2161      50.4150    -999.2500    -999.2500      22.9419      21.6379      22.2203      19.6763       0.0868       0.0165       1.9540       2.2692
   2508.1992      36.8723    -999.2500      50.2682      49.0819    -999.2500    -999.2500      18.6364      16.2541      15.5456      13.0711       0.1000       0.0199       2.5688       1.3593
   2508.3516      39.1107    -999.2500      46.7147      48.9498    -999.2500    -999.2500      18.6164      16.3778      15.2953      13.2303       0.1056       0.0207       2.8651       1.0954
   2508.5039      36.6868    -999.2500      45.9519      47.8808    -999.2500    -999.2500      20.1076      17.4277      15.9896      13.7776       0.1213       0.0193       2.7467       1.2463
   2508.6565      33.0209    -999.2500      47.1465      46.0471    -999.2500    -999.2500      22.4060      18.9616      16.1261      13.3608       0.1229       0.0166       2.7620       1.4502
   2508.8088      26.8582    -999.2500      47.1988      42.8211    -999.2500    -999.2500      24.9759      22.4919      17.0697      11.8091       0.1196       0.0128       2.5577       1.7772
   2508.9612      24.6162    -999.2500      50.4350      41.8899    -999.2500    -999.2500      49.8893      58.4544      39.5552      15.1116       0.1243       0.0117       2.3340       1.9231
   2509.1135      24.1587    -999.2500      52.7201      42.2038    -999.2500    -999.2500      82.3415     105.5224      78.5153      20.9923       0.1309       0.0113       2.3831       2.0090
   2509.2659      23.9336    -999.2500      55.0692      42.9008    -999.2500    -999.2500      50.2035      60.8957      42.2953      13.4018       0.1330       0.0115       2.2424       2.1117
   2509.4185      23.8679    -999.2500      58.1541      44.5331    -999.2500    -999.2500      25.7236      25.1381      17.0789       9.6624       0.1397       0.0120       2.0245       2.3008
   2509.5708      25.7542    -999.2500      63.6181      48.9715    -999.2500    -999.2500      34.5664      34.1463      29.8173      16.4158       0.1541       0.0138       1.8444       2.5849
   2509.7231      30.5924    -999.2500      71.2677      52.7041    -999.2500    -999.2500      56.4839     100.8685      47.1370      26.0300       0.1701       0.0158       2.4042       2.4618
   2509.8755      37.6858    -999.2500      75.2518      56.1040    -999.2500    -999.2500      56.4200     120.3345      40.4228      24.4810       0.1740       0.0182       3.4697       2.0505
   2510.0281      38.6056    -999.2500      70.1900      55.9998    -999.2500    -999.2500      40.5010      63.6707      31.6920      17.4632       0.1539       0.0179       3.8649       1.9366
   2510.1804      33.7129    -999.2500      66.8931      56.1305    -999.2500    -999.2500      43.2582      51.5953      44.5886      20.9745       0.1329       0.0160       3.2154       2.4958
   2510.3328      27.4256    -999.2500      67.4593      57.3872    -999.2500    -999.2500      46.0644      54.8663      47.0545      22.1993       0.1313       0.0143       2.1136       3.3357
