#------------------------------------------------------------------------------
#
#   Created by  : [OpenWorks] Log Export Utility (LEXP)
#   Created on  : 2016-05-19 10:14:19
#   Project     : CANT971
#   User        : R5K
#   Interpreter : PEP
#
#------------------------------------------------------------------------------
~VERSION INFORMATION
VERS. 2.0 : CWLS Log ASCII Standard - version 2.0
WRAP.  NO : One line per depth step
~WELL INFORMATION
#MNEMONIC   .UNIT                                           VALUE :DESCRIPTION
#------------------------------------------------------------------------------
STRT        .M                                           724.6620 :START DEPTH
STOP        .M                                          3013.5576 :STOP DEPTH
STEP        .M                                             0.1524 :STEP
NULL        .                                           -999.2500 :NULL VALUE
COMP        .                                             UNKNOWN :COMPANY
WELL        .                                                3056 :WELL
FLD         .                                           CANTARELL :FIELD
LOC         .                                             UNKNOWN :LOCATION
CNTY        .                                             UNKNOWN :COUNTY
STAT        .                                             UNKNOWN :STATE
CTRY        .                                              MEXICO :COUNTRY
SRVC        .                                             UNKNOWN :SERVICE COMPANY
DATE        .                                             UNKNOWN :LOG DATE
UWI         .                                                3056 :UNIQUE WELL ID
XCOORD      .                                       501503.280000 :SURFACE X
YCOORD      .                                      2149903.210000 :SURFACE Y
LAT         .                                           19.444680 :LATITUDE
LON         .                                          -92.985679 :LONGITUDE
ELEV        .M                                            30.0000 :SURFACE ELEV
ELEV_TYPE   .                                                  KB :ELEV TYPE
~CURVE INFORMATION
#MNEMONIC.UNIT        API CODE       : CURVE DESCRIPTION
#------------------------------------------------------------------------------
DEPTH    .M                          : Measured Depth
CGR      .API         UNKNOWN        : CGR:Espectroscopia-entubado:r1:0001:v1 
DT       .us/ft       UNKNOWN        : DT:sonico:r1:0001:v1 
GR-LWD   .API         UNKNOWN        : GR-LWD:PETROWORKS:rC:NONE:v1 
GR       .UNKNOWN     UNKNOWN        : GR:PETROWORKS:rC:NONE:v1 
ILD      .ohm.m       UNKNOWN        : ILD:resistivos:r1:0001:v1 
ILM      .ohm.m       UNKNOWN        : ILM:resistivos:r1:0001:v1 
LLD-LWD  .ohm.m       UNKNOWN        : LLD-LWD:PETROWORKS:rC:NONE:v1 
LLM-LWD  .UNKNOWN     UNKNOWN        : LLM-LWD:PETROWORKS:rC:NONE:v1 
LLS-LWD  .ohm.m       UNKNOWN        : LLS-LWD:PETROWORKS:rC:NONE:v1 
MSFL-LWD .ohm.m       UNKNOWN        : MSFL-LWD:PETROWORKS:rC:NONE:v1 
NPHI     .v/v_decimal UNKNOWN        : NPHI:porosidad-entubado:r1:0001:v1 
POTA     .wtpercent   UNKNOWN        : POTA:Espectroscopia-entubado:r1:0001:v2 
THOR     .UNKNOWN     UNKNOWN        : THOR:Espectroscopia-entubado:r1:0001:v1 
URAN     .UNKNOWN     UNKNOWN        : URAN:Espectroscopia-entubado:r1:0001:v1 
~A     DEPTH          CGR           DT       GR-LWD           GR          ILD          ILM      LLD-LWD      LLM-LWD      LLS-LWD     MSFL-LWD         NPHI         POTA         THOR         URAN
# ...
   2971.3428      34.4068    -999.2500      52.1067      67.9404    -999.2500    -999.2500      47.4813      42.2690      40.8361      33.7159       0.0905       0.0160       3.4159       3.7334
   2971.4951      39.2671    -999.2500      46.6695      64.5310    -999.2500    -999.2500      49.7340      44.8748      44.1143      35.4046       0.0906       0.0166       4.5643       2.8127
   2971.6477      39.7978    -999.2500      48.2589      60.3448    -999.2500    -999.2500      49.8661      45.5621      45.4775      37.0015       0.0827       0.0160       4.9608       2.2876
   2971.8000      34.6770    -999.2500      50.6096      54.5773    -999.2500    -999.2500      49.4686      45.1502      45.5160      37.8233       0.0720       0.0136       4.4458       2.2156
   2971.9524      31.3081    -999.2500      50.8456      52.9676    -999.2500    -999.2500      48.9800      44.3715      46.0516      37.7864       0.0705       0.0124       3.9784       2.4115
   2972.1047      24.3529    -999.2500      49.2737      52.5939    -999.2500    -999.2500      48.6124      44.1338      46.5058      37.8161       0.0732       0.0102       2.8587       3.1442
   2972.2571      23.2082    -999.2500      45.2413      52.1505    -999.2500    -999.2500      49.2036      45.1789      46.0472      38.3316       0.0732       0.0102       2.5213       3.2222
   2972.4097      21.6038    -999.2500      43.7716      50.3163    -999.2500    -999.2500      48.3644      44.5965      45.3011      37.2069       0.0704       0.0101       2.1281       3.1967
   2972.5620      23.5953    -999.2500      42.6646      48.6239    -999.2500    -999.2500      45.1866      42.4937      43.6234      35.6993       0.0675       0.0113       2.2169       2.7866
   2972.7144      27.8096    -999.2500      42.5552      46.0736    -999.2500    -999.2500      44.0880      41.0440      42.8876      36.0750       0.0666       0.0130       2.7153       2.0334
   2972.8667      31.5378    -999.2500      44.2937      45.3207    -999.2500    -999.2500      44.1323      40.7029      42.6454      36.1367       0.0666       0.0144       3.2484       1.5345
   2973.0193      35.5872    -999.2500      53.5046      46.2706    -999.2500    -999.2500      44.2908      40.1407      41.4271      35.1962       0.0665       0.0155       3.9593       1.1894
   2973.1716      39.6747    -999.2500      49.7886      50.5151    -999.2500    -999.2500      43.4939      37.8289      37.4644      32.3543       0.0649       0.0173       4.4021       1.2069
   2973.3240      41.2264    -999.2500      46.4055      53.8567    -999.2500    -999.2500      42.7036      36.7728      35.8374      30.9102       0.0644       0.0191       4.0960       1.4061
   2973.4763      39.2547    -999.2500      44.0521      55.3125    -999.2500    -999.2500      40.4129      34.7844      33.0577      27.4087       0.0660       0.0206       2.9722       1.7878
   2973.6289      37.7146    -999.2500      45.0804      53.1338    -999.2500    -999.2500      38.8677      33.5155      30.9545      25.2105       0.0641       0.0209       2.3956       1.7167
   2973.7812      35.1099    -999.2500      48.5368      49.9585    -999.2500    -999.2500      37.8108      33.1612      29.7055      24.2724       0.0631       0.0200       2.0319       1.6531
   2973.9336      33.7425    -999.2500      56.7437      50.5032    -999.2500    -999.2500      36.9859      31.8775      28.0187      23.0117       0.0682       0.0183       2.2970       1.8660
   2974.0859      33.4154    -999.2500      66.4617      54.6065    -999.2500    -999.2500      36.4613      29.9732      26.6579      22.0378       0.0781       0.0163       3.0030       2.3593
   2974.2383      35.8334    -999.2500      72.4856      60.8939    -999.2500    -999.2500      35.5743      29.5466      26.6576      22.1064       0.0851       0.0164       3.6486       2.7901
   2974.3909      38.6832    -999.2500      70.7223      67.4142    -999.2500    -999.2500      35.9447      30.5277      27.9922      22.6693       0.0944       0.0176       3.9762       3.1987
   2974.5432      41.0377    -999.2500      61.5755      69.5774    -999.2500    -999.2500      39.2724      34.8690      34.1505      25.0578       0.1001       0.0197       3.8132       3.1774
   2974.6956      38.2705    -999.2500      48.6892      67.6084    -999.2500    -999.2500      52.9794      52.6334      59.2689      32.7667       0.1014       0.0204       2.7419       3.2663
   2974.8479      35.9124    -999.2500      44.4178      62.9796    -999.2500    -999.2500      55.5167      53.5266      58.6064      32.0489       0.0957       0.0188       2.7302       3.0135
   2975.0005      30.1876    -999.2500      46.9361      54.9299    -999.2500    -999.2500      44.0280      37.9110      36.4856      23.3319       0.0877       0.0151       2.5773       2.7547
   2975.1528      29.4944    -999.2500      53.0595      52.0103    -999.2500    -999.2500      40.0697      33.5228      31.0520      23.8991       0.0874       0.0139       2.8420       2.5068
   2975.3052      29.3634    -999.2500      57.0295      53.4098    -999.2500    -999.2500      41.7824      35.4431      33.3023      27.9189       0.0955       0.0134       3.0315       2.6772
   2975.4575      29.7583    -999.2500      58.0115      55.9532    -999.2500    -999.2500      43.2850      37.9288      36.3148      31.5590       0.0977       0.0133       3.1834       2.9164
   2975.6101      29.9341    -999.2500      57.9143      59.6067    -999.2500    -999.2500      43.7236      39.3458      38.1127      33.0672       0.0892       0.0129       3.3926       3.3035
   2975.7625      29.3088    -999.2500      57.0856      60.1452    -999.2500    -999.2500      45.3216      41.3664      40.3304      33.8760       0.0831       0.0126       3.3249       3.4331
   2975.9148      30.4689    -999.2500      56.8635      60.3820    -999.2500    -999.2500      45.9885      41.8535      41.2518      34.3691       0.0768       0.0130       3.4867       3.3303
   2976.0671      30.0963    -999.2500      57.6450      60.9271    -999.2500    -999.2500      45.9071      42.0176      41.4930      34.4177       0.0746       0.0132       3.2912       3.4325
   2976.2195      29.7627    -999.2500      67.9466      62.0356    -999.2500    -999.2500      45.1360      40.1875      38.2621      31.2758       0.0774       0.0138       2.9667       3.5931
   2976.3721      30.1170    -999.2500      72.5166      65.3706    -999.2500    -999.2500      45.0601      39.4431      37.2574      30.1570       0.0812       0.0155       2.3823       3.9249
   2976.5244      33.6799    -999.2500      75.7130      69.3311    -999.2500    -999.2500      45.2594      38.7360      37.9570      30.5989       0.0845       0.0178       2.4823       3.9692
   2976.6768      38.3478    -999.2500      65.1595      74.7581    -999.2500    -999.2500      45.5156      39.8729      39.7220      33.6225       0.0879       0.0199       2.9850       4.0537
   2976.8291      39.7641    -999.2500      57.3501      74.5869    -999.2500    -999.2500      45.3527      40.1758      40.0380      34.7222       0.0884       0.0191       3.7147       3.8769
   2976.9817      37.7789    -999.2500      48.8147      69.3779    -999.2500    -999.2500      46.1771      41.2971      42.1034      35.7033       0.0858       0.0165       4.1577       3.5180
   2977.1340      35.3949    -999.2500      45.2687      62.1992    -999.2500    -999.2500      48.1251      43.3709      45.1864      36.5430       0.0803       0.0152       4.0232       2.9842
   2977.2864      32.9563    -999.2500      43.9015      55.6888    -999.2500    -999.2500      49.9747      45.2916      47.5774      36.9482       0.0748       0.0151       3.3725       2.5309
   2977.4387      30.1796    -999.2500      45.6351      53.7915    -999.2500    -999.2500      49.2502      45.1982      46.3475      35.8900       0.0736       0.0142       2.9105       2.6288
   2977.5913      27.1609    -999.2500      48.6741      53.9242    -999.2500    -999.2500      47.9816      44.7592      45.0062      35.4190       0.0741       0.0134       2.3975       2.9796
