#------------------------------------------------------------------------------
#
#   Created by  : [OpenWorks] Log Export Utility (LEXP)
#   Created on  : 2016-05-19 10:14:19
#   Project     : CANT971
#   User        : R5K
#   Interpreter : PEP
#
#------------------------------------------------------------------------------
~VERSION INFORMATION
VERS. 2.0 : CWLS Log ASCII Standard - version 2.0
WRAP.  NO : One line per depth step
~WELL INFORMATION
#MNEMONIC   .UNIT                                           VALUE :DESCRIPTION
#------------------------------------------------------------------------------
STRT        .M                                           724.6620 :START DEPTH
STOP        .M                                          3013.5576 :STOP DEPTH
STEP        .M                                             0.1524 :STEP
NULL        .                                           -999.2500 :NULL VALUE
COMP        .                                             UNKNOWN :COMPANY
WELL        .                                                3056 :WELL
FLD         .                                           CANTARELL :FIELD
LOC         .                                             UNKNOWN :LOCATION
CNTY        .                                             UNKNOWN :COUNTY
STAT        .                                             UNKNOWN :STATE
CTRY        .                                              MEXICO :COUNTRY
SRVC        .                                             UNKNOWN :SERVICE COMPANY
DATE        .                                             UNKNOWN :LOG DATE
UWI         .                                                3056 :UNIQUE WELL ID
XCOORD      .                                       501503.280000 :SURFACE X
YCOORD      .                                      2149903.210000 :SURFACE Y
LAT         .                                           19.444680 :LATITUDE
LON         .                                          -92.985679 :LONGITUDE
ELEV        .M                                            30.0000 :SURFACE ELEV
ELEV_TYPE   .                                                  KB :ELEV TYPE
~CURVE INFORMATION
#MNEMONIC.UNIT        API CODE       : CURVE DESCRIPTION
#------------------------------------------------------------------------------
DEPTH    .M                          : Measured Depth
CGR      .API         UNKNOWN        : CGR:Espectroscopia-entubado:r1:0001:v1 
DT       .us/ft       UNKNOWN        : DT:sonico:r1:0001:v1 
GR-LWD   .API         UNKNOWN        : GR-LWD:PETROWORKS:rC:NONE:v1 
GR       .UNKNOWN     UNKNOWN        : GR:PETROWORKS:rC:NONE:v1 
ILD      .ohm.m       UNKNOWN        : ILD:resistivos:r1:0001:v1 
ILM      .ohm.m       UNKNOWN        : ILM:resistivos:r1:0001:v1 
LLD-LWD  .ohm.m       UNKNOWN        : LLD-LWD:PETROWORKS:rC:NONE:v1 
LLM-LWD  .UNKNOWN     UNKNOWN        : LLM-LWD:PETROWORKS:rC:NONE:v1 
LLS-LWD  .ohm.m       UNKNOWN        : LLS-LWD:PETROWORKS:rC:NONE:v1 
MSFL-LWD .ohm.m       UNKNOWN        : MSFL-LWD:PETROWORKS:rC:NONE:v1 
NPHI     .v/v_decimal UNKNOWN        : NPHI:porosidad-entubado:r1:0001:v1 
POTA     .wtpercent   UNKNOWN        : POTA:Espectroscopia-entubado:r1:0001:v2 
THOR     .UNKNOWN     UNKNOWN        : THOR:Espectroscopia-entubado:r1:0001:v1 
URAN     .UNKNOWN     UNKNOWN        : URAN:Espectroscopia-entubado:r1:0001:v1 
~A     DEPTH          CGR           DT       GR-LWD           GR          ILD          ILM      LLD-LWD      LLM-LWD      LLS-LWD     MSFL-LWD         NPHI         POTA         THOR         URAN
# ...
   1979.2188    -999.2500      91.3179      40.4516      34.1318       1.9542       1.6906       1.9459       1.8370       1.9016       2.0557    -999.2500    -999.2500    -999.2500    -999.2500
   1979.3712    -999.2500      91.3179      38.0890      34.1318       1.9540       1.6904       2.0980       2.2958       2.1779       2.2900    -999.2500    -999.2500    -999.2500    -999.2500
   1979.5236    -999.2500      91.3179      37.6243      34.1318       1.9533       1.6900       2.5102       2.6619       2.4907       2.5190    -999.2500    -999.2500    -999.2500    -999.2500
   1979.6760    -999.2500      91.3179      40.1217      34.1318       1.9524       1.6893       2.6200       2.6544       2.5895       2.6300    -999.2500    -999.2500    -999.2500    -999.2500
   1979.8284    -999.2500      91.3179      40.7081      34.1318       1.9516       1.6888       2.2484       2.2558       2.3140       2.4382    -999.2500    -999.2500    -999.2500    -999.2500
   1979.9808    -999.2500      91.3179      40.7262      34.1318       1.9510       1.6884       2.0914       2.1012       2.1142       2.2321    -999.2500    -999.2500    -999.2500    -999.2500
   1980.1332    -999.2500      91.3179      41.8840      34.1318       1.9512       1.6886       2.0518       2.0643       2.0296       2.1307    -999.2500    -999.2500    -999.2500    -999.2500
   1980.2856    -999.2500      91.3179      46.0406      34.1318       1.9515       1.6889       1.9494       1.9420       1.8968       1.9770    -999.2500    -999.2500    -999.2500    -999.2500
   1980.4380    -999.2500      91.3179      49.5388      34.1318       1.9511       1.6886       1.7979       1.7477       1.7380       1.7989    -999.2500    -999.2500    -999.2500    -999.2500
   1980.5903    -999.2500      90.8621      53.8994      34.1318       1.9509       1.6885       1.6657       1.5906       1.6118       1.6723    -999.2500    -999.2500    -999.2500    -999.2500
   1980.7428    -999.2500      90.8893      55.7307      34.1318       1.9510       1.6886       1.5357       1.4580       1.5190       1.5948    -999.2500    -999.2500    -999.2500    -999.2500
   1980.8951    -999.2500      90.3627      57.0430      34.1318       1.9501       1.6880       1.4872       1.3923       1.4589       1.5519    -999.2500    -999.2500    -999.2500    -999.2500
   1981.0476    -999.2500      89.6460      59.6002      34.1318       1.9498       1.6878       1.5141       1.4064       1.4658       1.5630    -999.2500    -999.2500    -999.2500    -999.2500
   1981.2000    -999.2500      90.6828      59.0923      34.1318       1.9502       1.6880       1.4714       1.4341       1.4934       1.6208    -999.2500    -999.2500    -999.2500    -999.2500
   1981.3524    -999.2500      91.3179      54.6975      34.1318       1.9495       1.6875       1.5138       1.5187       1.5716       1.7381    -999.2500    -999.2500    -999.2500    -999.2500
   1981.5048    -999.2500      91.3179      51.7344      34.1318       1.9495       1.6874       1.4732       1.4902       1.5601       1.7278    -999.2500    -999.2500    -999.2500    -999.2500
   1981.6572    -999.2500      91.3179      52.6825      34.1318       1.9498       1.6876       1.4165       1.4143       1.4754       1.5923    -999.2500    -999.2500    -999.2500    -999.2500
   1981.8096    -999.2500      91.3179      56.4085      34.1318       1.9498       1.6875       1.3253       1.3061       1.3540       1.4363    -999.2500    -999.2500    -999.2500    -999.2500
   1981.9620    -999.2500      91.3179      57.7834      34.1318       1.9494       1.6872       1.2514       1.2160       1.2540       1.3244    -999.2500    -999.2500    -999.2500    -999.2500
   1982.1144    -999.2500      91.3179      55.4431      34.1318       1.9494       1.6871       1.2279       1.1839       1.2213       1.3049    -999.2500    -999.2500    -999.2500    -999.2500
   1982.2668    -999.2500      91.3179      52.4977      34.1318       1.9493       1.6871       1.2246       1.1900       1.2264       1.3229    -999.2500    -999.2500    -999.2500    -999.2500
   1982.4192    -999.2500      91.3179      53.6508      34.1318       1.9493       1.6870       1.2524       1.2380       1.2782       1.3785    -999.2500    -999.2500    -999.2500    -999.2500
   1982.5715    -999.2500      91.3179      54.6477      34.1318       1.9492       1.6870       1.2595       1.2588       1.3132       1.4258    -999.2500    -999.2500    -999.2500    -999.2500
   1982.7240    -999.2500      91.3179      59.1238      34.1318       1.9492       1.6869       1.2118       1.2224       1.2871       1.3912    -999.2500    -999.2500    -999.2500    -999.2500
   1982.8763    -999.2500      91.3179      63.3273      34.1318       1.9491       1.6868       1.1987       1.1939       1.2649       1.3609    -999.2500    -999.2500    -999.2500    -999.2500
   1983.0288    -999.2500      91.3179      63.3785      34.1318       1.9491       1.6868       1.1934       1.1802       1.2408       1.3465    -999.2500    -999.2500    -999.2500    -999.2500
   1983.1812    -999.2500      91.3179      62.6769      34.1318       1.9490       1.6867       1.2214       1.2091       1.2618       1.3615    -999.2500    -999.2500    -999.2500    -999.2500
   1983.3336    -999.2500      91.3179      62.7058      34.1318       1.9489       1.6867       1.2308       1.2321       1.2855       1.3940    -999.2500    -999.2500    -999.2500    -999.2500
   1983.4860    -999.2500      91.3179      63.3288      34.1318       1.9489       1.6866       1.1946       1.2079       1.2887       1.4043    -999.2500    -999.2500    -999.2500    -999.2500
   1983.6384    -999.2500      91.3179      61.1958      34.1318       1.9488       1.6865       1.2101       1.1863       1.2831       1.4013    -999.2500    -999.2500    -999.2500    -999.2500
   1983.7908    -999.2500      91.3179      56.8660      34.1318       1.9487       1.6865       1.3163       1.1960       1.3139       1.4291    -999.2500    -999.2500    -999.2500    -999.2500
   1983.9432    -999.2500      91.3179      53.5992      34.1318       1.9487       1.6864       1.6276       1.3731       1.5089       1.6137    -999.2500    -999.2500    -999.2500    -999.2500
   1984.0956    -999.2500      91.3179      48.7420      34.1318       1.9486       1.6864       2.4401       2.0706       2.1784       2.2956    -999.2500    -999.2500    -999.2500    -999.2500
   1984.2480    -999.2500      91.3179      39.0036      34.1318       1.9486       1.6863       3.9837       3.7710       3.8242       4.1886    -999.2500    -999.2500    -999.2500    -999.2500
   1984.4004    -999.2500      91.3179      30.2304      34.1318       1.9485       1.6863       5.7934       6.3325       6.6979       7.9896    -999.2500    -999.2500    -999.2500    -999.2500
   1984.5527    -999.2500      91.3179      23.1121      34.1318       1.9485       1.6862       7.6727       9.6264      11.3685      14.5581    -999.2500    -999.2500    -999.2500    -999.2500
   1984.7052    -999.2500      91.3179      18.7422      34.1318       1.9484       1.6862      10.1783      14.7120      18.4286      24.5587    -999.2500    -999.2500    -999.2500    -999.2500
   1984.8575    -999.2500      91.3179      16.5297      34.1318       1.9484       1.6861      13.3326      21.4859      26.1104      35.4866    -999.2500    -999.2500    -999.2500    -999.2500
   1985.0100    -999.2500      91.3179      14.5520      34.1318       1.9483       1.6861      18.7150      28.8488      35.9266      48.4733    -999.2500    -999.2500    -999.2500    -999.2500
   1985.1624    -999.2500      91.3179      13.3706      34.1318       1.9483       1.6861      25.3807      34.5738      46.8015      61.7417    -999.2500    -999.2500    -999.2500    -999.2500
   1985.3148    -999.2500      91.3179      13.5172      34.1318       1.9483       1.6860      31.8396      40.3602      57.0609      73.7432    -999.2500    -999.2500    -999.2500    -999.2500
   1985.4672    -999.2500      91.3179      14.1452      34.1318       1.9482       1.6860      38.0580      47.6950      67.4289      87.3218    -999.2500    -999.2500    -999.2500    -999.2500
