#------------------------------------------------------------------------------
#
#   Created by  : [OpenWorks] Log Export Utility (LEXP)
#   Created on  : 2016-05-19 10:14:19
#   Project     : CANT971
#   User        : R5K
#   Interpreter : PEP
#
#------------------------------------------------------------------------------
~VERSION INFORMATION
VERS. 2.0 : CWLS Log ASCII Standard - version 2.0
WRAP.  NO : One line per depth step
~WELL INFORMATION
#MNEMONIC   .UNIT                                           VALUE :DESCRIPTION
#------------------------------------------------------------------------------
STRT        .M                                           724.6620 :START DEPTH
STOP        .M                                          3013.5576 :STOP DEPTH
STEP        .M                                             0.1524 :STEP
NULL        .                                           -999.2500 :NULL VALUE
COMP        .                                             UNKNOWN :COMPANY
WELL        .                                                3056 :WELL
FLD         .                                           CANTARELL :FIELD
LOC         .                                             UNKNOWN :LOCATION
CNTY        .                                             UNKNOWN :COUNTY
STAT        .                                             UNKNOWN :STATE
CTRY        .                                              MEXICO :COUNTRY
SRVC        .                                             UNKNOWN :SERVICE COMPANY
DATE        .                                             UNKNOWN :LOG DATE
UWI         .                                                3056 :UNIQUE WELL ID
XCOORD      .                                       501503.280000 :SURFACE X
YCOORD      .                                      2149903.210000 :SURFACE Y
LAT         .                                           19.444680 :LATITUDE
LON         .                                          -92.985679 :LONGITUDE
ELEV        .M                                            30.0000 :SURFACE ELEV
ELEV_TYPE   .                                                  KB :ELEV TYPE
~CURVE INFORMATION
#MNEMONIC.UNIT        API CODE       : CURVE DESCRIPTION
#------------------------------------------------------------------------------
DEPTH    .M                          : Measured Depth
CGR      .API         UNKNOWN        : CGR:Espectroscopia-entubado:r1:0001:v1 
DT       .us/ft       UNKNOWN        : DT:sonico:r1:0001:v1 
GR-LWD   .API         UNKNOWN        : GR-LWD:PETROWORKS:rC:NONE:v1 
GR       .UNKNOWN     UNKNOWN        : GR:PETROWORKS:rC:NONE:v1 
ILD      .ohm.m       UNKNOWN        : ILD:resistivos:r1:0001:v1 
ILM      .ohm.m       UNKNOWN        : ILM:resistivos:r1:0001:v1 
LLD-LWD  .ohm.m       UNKNOWN        : LLD-LWD:PETROWORKS:rC:NONE:v1 
LLM-LWD  .UNKNOWN     UNKNOWN        : LLM-LWD:PETROWORKS:rC:NONE:v1 
LLS-LWD  .ohm.m       UNKNOWN        : LLS-LWD:PETROWORKS:rC:NONE:v1 
MSFL-LWD .ohm.m       UNKNOWN        : MSFL-LWD:PETROWORKS:rC:NONE:v1 
NPHI     .v/v_decimal UNKNOWN        : NPHI:porosidad-entubado:r1:0001:v1 
POTA     .wtpercent   UNKNOWN        : POTA:Espectroscopia-entubado:r1:0001:v2 
THOR     .UNKNOWN     UNKNOWN        : THOR:Espectroscopia-entubado:r1:0001:v1 
URAN     .UNKNOWN     UNKNOWN        : URAN:Espectroscopia-entubado:r1:0001:v1 
~A     DEPTH          CGR           DT       GR-LWD           GR          ILD          ILM      LLD-LWD      LLM-LWD      LLS-LWD     MSFL-LWD         NPHI         POTA         THOR         URAN
# ...
   2459.2788       6.6827    -999.2500      16.8723      18.8740    -999.2500    -999.2500     387.7247     232.0362     163.0085     102.3976       0.0818       0.0033       0.5702       1.3573
   2459.4312       6.9748    -999.2500      18.9296      18.6941    -999.2500    -999.2500     413.7769     227.7096     163.5975     104.7265       0.0844       0.0028       0.8840       1.3047
   2459.5835       5.9707    -999.2500      20.8328      18.4832    -999.2500    -999.2500     463.8739     236.3081     161.0625     107.1001       0.0876       0.0024       0.7328       1.3931
   2459.7361       5.1310    -999.2500      20.5697      18.4674    -999.2500    -999.2500     474.9572     258.1554     158.5116     102.3633       0.0867       0.0021       0.6338       1.4848
   2459.8884       5.4696    -999.2500      21.0335      18.7836    -999.2500    -999.2500     450.5883     261.5902     156.8014     101.0263       0.0782       0.0023       0.6393       1.4823
   2460.0408       6.5549    -999.2500      20.3050      18.9712    -999.2500    -999.2500     493.0826     241.7289     154.7150     103.3270       0.0771       0.0026       0.8232       1.3823
   2460.1931       6.7577    -999.2500      21.0737      18.8060    -999.2500    -999.2500     473.3118     236.5873     154.3166     103.5357       0.0743       0.0032       0.6516       1.3414
   2460.3457       6.0623    -999.2500      23.5767      18.6502    -999.2500    -999.2500     443.2693     238.1278     154.4479     100.5002       0.0728       0.0033       0.4090       1.4015
   2460.4980       3.6348    -999.2500      22.5689      18.6978    -999.2500    -999.2500     422.4769     236.6333     154.8708      98.3574       0.0707       0.0024       0.0655       1.6770
   2460.6504       2.9863    -999.2500      20.4701      18.9170    -999.2500    -999.2500     415.4448     243.3692     163.6279     101.3421       0.0704       0.0020       0.0533       1.7736
   2460.8027       3.7960    -999.2500      18.9401      18.6978    -999.2500    -999.2500     379.6180     222.6525     144.5348      92.7735       0.0764       0.0026       0.0372       1.6591
   2460.9551       4.5458    -999.2500      19.0150      18.2849    -999.2500    -999.2500     329.7485     188.9872     120.0747      80.5584       0.0769       0.0031       0.0438       1.5296
   2461.1077       5.1184    -999.2500      20.0093      18.1502    -999.2500    -999.2500     323.5246     173.0099     115.7061      77.9706       0.0807       0.0035       0.0726       1.4509
   2461.2600       4.9272    -999.2500      20.7046      18.7128    -999.2500    -999.2500     347.5143     177.8292     123.7380      82.7854       0.0842       0.0033       0.0713       1.5348
   2461.4124       4.6927    -999.2500      20.5922      19.5106    -999.2500    -999.2500     352.3579     179.8648     124.1536      83.3566       0.0818       0.0032       0.0639       1.6497
   2461.5647       4.5299    -999.2500      21.2810      19.6027    -999.2500    -999.2500     348.9208     179.9849     119.6712      81.1248       0.0797       0.0031       0.0508       1.6781
   2461.7173       3.7155    -999.2500      22.7134      19.8342    -999.2500    -999.2500     332.8036     179.9849     118.0679      80.3397       0.0819       0.0025       0.0438       1.7946
   2461.8696       2.5281    -999.2500      22.8657      20.4630    -999.2500    -999.2500     318.2790     179.9849     115.8873      79.1002       0.0854       0.0017       0.0391       1.9968
   2462.0220       1.7456    -999.2500      22.1753      21.5796    -999.2500    -999.2500     305.7569     179.9849     116.0512      80.3683       0.0807       0.0011       0.0691       2.2082
   2462.1743       3.2784    -999.2500      22.0617      23.0609    -999.2500    -999.2500     308.3125     179.9849     117.6527      83.7860       0.0806       0.0018       0.2294       2.2025
   2462.3269       5.5590    -999.2500      25.0528      23.9273    -999.2500    -999.2500     295.0796     179.9849     118.4513      90.4750       0.0787       0.0027       0.4898       2.0450
   2462.4792       7.1590    -999.2500      25.2130      24.9136    -999.2500    -999.2500     287.9289     179.9849     120.3160      90.6167       0.0702       0.0031       0.7906       1.9767
   2462.6316       8.1088    -999.2500      24.4392      25.6846    -999.2500    -999.2500     281.3254     179.9849     120.9373      88.4657       0.0656       0.0033       0.9827       1.9568
   2462.7839       8.2070    -999.2500      23.1855      25.9522    -999.2500    -999.2500     261.1843     176.3859     116.2545      82.9136       0.0628       0.0036       0.8961       1.9756
   2462.9363       5.9181    -999.2500      23.0026      26.1407    -999.2500    -999.2500     264.8388     171.5568     110.2891      76.7918       0.0662       0.0034       0.3355       2.2515
   2463.0889       4.1033    -999.2500      24.5726      27.4240    -999.2500    -999.2500     290.9030     170.3247     107.5775      75.1854       0.0687       0.0028       0.0699       2.5964
   2463.2412       3.5628    -999.2500      25.6328      27.0344    -999.2500    -999.2500     329.9547     173.9859     111.3661      80.0798       0.0697       0.0024       0.0676       2.6132
   2463.3936       3.5675    -999.2500      26.0692      26.6277    -999.2500    -999.2500     329.1347     174.7566     112.6184      82.8526       0.0685       0.0024       0.0691       2.5674
   2463.5459       4.4034    -999.2500      25.5444      23.7527    -999.2500    -999.2500     309.5540     178.5461     113.8464      84.0124       0.0677       0.0023       0.3521       2.1542
   2463.6985       7.8887    -999.2500      27.0560      24.1342    -999.2500    -999.2500     334.6598     179.9849     116.8023      85.7403       0.0676       0.0022       1.3493       1.8087
   2463.8508       6.6333    -999.2500      25.4691      24.2920    -999.2500    -999.2500     435.6414     179.9849     124.4996      87.3024       0.0680       0.0018       1.1500       1.9660
   2464.0032       3.6205    -999.2500      24.2200      23.4710    -999.2500    -999.2500     408.5607     179.9849     126.9512      85.6466       0.0697       0.0016       0.3828       2.2101
   2464.1555       4.0276    -999.2500      23.2372      22.6552    -999.2500    -999.2500     398.1458     179.9849     122.8430      83.2294       0.0709       0.0025       0.1405       2.0739
   2464.3081       6.4394    -999.2500      23.2756      22.1709    -999.2500    -999.2500     350.3300     181.3711     124.3269      90.3728       0.0704       0.0044       0.0933       1.7514
   2464.4604       8.0046    -999.2500      23.7019      22.6013    -999.2500    -999.2500     344.4734     191.7787     130.3728     100.5786       0.0661       0.0053       0.1847       1.6251
   2464.6128       8.5005    -999.2500      25.9585      24.3830    -999.2500    -999.2500     346.3295     208.2296     135.7095     102.2440       0.0543       0.0045       0.6168       1.7683
   2464.7651       7.8217    -999.2500      27.0324      25.4177    -999.2500    -999.2500     362.3844     219.0180     140.0485      99.1277       0.0502       0.0035       0.8306       1.9590
   2464.9175       7.3766    -999.2500      28.5107      26.4362    -999.2500    -999.2500     360.8812     220.0671     139.8213      98.7438       0.0478       0.0024       1.1265       2.1220
   2465.0701       8.6127    -999.2500      31.3127      27.7131    -999.2500    -999.2500     307.7923     220.0671     137.8495     102.1327       0.0473       0.0018       1.7320       2.1265
   2465.2224       8.9997    -999.2500      30.1573      28.3926    -999.2500    -999.2500     345.8425     225.1107     144.7675     107.0731       0.0451       0.0020       1.7755       2.1591
   2465.3748       7.0517    -999.2500      31.3504      29.2556    -999.2500    -999.2500     430.2806     235.1156     150.4163     113.4700       0.0422       0.0017       1.3099       2.4720
   2465.5271       5.5786    -999.2500      33.2112      29.5315    -999.2500    -999.2500     455.9933     224.8901     153.2247     107.2782       0.0397       0.0020       0.7741       2.6668
