#------------------------------------------------------------------------------
#
#   Created by  : [OpenWorks] Log Export Utility (LEXP)
#   Created on  : 2016-05-19 10:14:19
#   Project     : CANT971
#   User        : R5K
#   Interpreter : PEP
#
#------------------------------------------------------------------------------
~VERSION INFORMATION
VERS. 2.0 : CWLS Log ASCII Standard - version 2.0
WRAP.  NO : One line per depth step
~WELL INFORMATION
#MNEMONIC   .UNIT                                           VALUE :DESCRIPTION
#------------------------------------------------------------------------------
STRT        .M                                           724.6620 :START DEPTH
STOP        .M                                          3013.5576 :STOP DEPTH
STEP        .M                                             0.1524 :STEP
NULL        .                                           -999.2500 :NULL VALUE
COMP        .                                             UNKNOWN :COMPANY
WELL        .                                                3056 :WELL
FLD         .                                           CANTARELL :FIELD
LOC         .                                             UNKNOWN :LOCATION
CNTY        .                                             UNKNOWN :COUNTY
STAT        .                                             UNKNOWN :STATE
CTRY        .                                              MEXICO :COUNTRY
SRVC        .                                             UNKNOWN :SERVICE COMPANY
DATE        .                                             UNKNOWN :LOG DATE
UWI         .                                                3056 :UNIQUE WELL ID
XCOORD      .                                       501503.280000 :SURFACE X
YCOORD      .                                      2149903.210000 :SURFACE Y
LAT         .                                           19.444680 :LATITUDE
LON         .                                          -92.985679 :LONGITUDE
ELEV        .M                                            30.0000 :SURFACE ELEV
ELEV_TYPE   .                                                  KB :ELEV TYPE
~CURVE INFORMATION
#MNEMONIC.UNIT        API CODE       : CURVE DESCRIPTION
#------------------------------------------------------------------------------
DEPTH    .M                          : Measured Depth
CGR      .API         UNKNOWN        : CGR:Espectroscopia-entubado:r1:0001:v1 
DT       .us/ft       UNKNOWN        : DT:sonico:r1:0001:v1 
GR-LWD   .API         UNKNOWN        : GR-LWD:PETROWORKS:rC:NONE:v1 
GR       .UNKNOWN     UNKNOWN        : GR:PETROWORKS:rC:NONE:v1 
ILD      .ohm.m       UNKNOWN        : ILD:resistivos:r1:0001:v1 
ILM      .ohm.m       UNKNOWN        : ILM:resistivos:r1:0001:v1 
LLD-LWD  .ohm.m       UNKNOWN        : LLD-LWD:PETROWORKS:rC:NONE:v1 
LLM-LWD  .UNKNOWN     UNKNOWN        : LLM-LWD:PETROWORKS:rC:NONE:v1 
LLS-LWD  .ohm.m       UNKNOWN        : LLS-LWD:PETROWORKS:rC:NONE:v1 
MSFL-LWD .ohm.m       UNKNOWN        : MSFL-LWD:PETROWORKS:rC:NONE:v1 
NPHI     .v/v_decimal UNKNOWN        : NPHI:porosidad-entubado:r1:0001:v1 
POTA     .wtpercent   UNKNOWN        : POTA:Espectroscopia-entubado:r1:0001:v2 
THOR     .UNKNOWN     UNKNOWN        : THOR:Espectroscopia-entubado:r1:0001:v1 
URAN     .UNKNOWN     UNKNOWN        : URAN:Espectroscopia-entubado:r1:0001:v1 
~A     DEPTH          CGR           DT       GR-LWD           GR          ILD          ILM      LLD-LWD      LLM-LWD      LLS-LWD     MSFL-LWD         NPHI         POTA         THOR         URAN
# ...
   2689.7075       9.2078    -999.2500      26.6430      24.5294    -999.2500    -999.2500     274.0390     230.2743     133.8946      51.2394       0.0614       0.0045       0.8446       1.7058
   2689.8601       8.2424    -999.2500      26.0732      24.4383    -999.2500    -999.2500     296.7698     193.9285     118.0369      43.7057       0.0626       0.0044       0.5989       1.8032
   2690.0125       7.1641    -999.2500      27.4265      25.8908    -999.2500    -999.2500     276.4411     168.0360      98.6752      41.8582       0.0626       0.0029       0.8660       2.0849
   2690.1648       6.1222    -999.2500      27.2983      27.0674    -999.2500    -999.2500     234.1505     136.5360      74.6199      37.8095       0.0620       0.0016       1.0888       2.3319
   2690.3171       4.0589    -999.2500      30.6225      28.4399    -999.2500    -999.2500     260.7375     153.6141      67.5297      36.6723       0.0597       0.0005       0.9627       2.7145
   2690.4695       4.4253    -999.2500      29.5769      30.0309    -999.2500    -999.2500     302.9604     158.0675      66.0030      34.1495       0.0566       0.0003       1.1217       2.8508
   2690.6221       4.6045    -999.2500      28.3411      29.1859    -999.2500    -999.2500     315.4959     153.1329      61.6964      31.1896       0.0556       0.0004       1.1409       2.7367
   2690.7744       5.5225    -999.2500      25.5107      27.7829    -999.2500    -999.2500     233.3877     127.8558      58.6008      28.7634       0.0548       0.0015       0.9868       2.4783
   2690.9268       6.9376    -999.2500      23.0986      26.7546    -999.2500    -999.2500     176.3082     102.0438      56.9673      27.9720       0.0557       0.0031       0.7535       2.2063
   2691.0791       7.7730    -999.2500      22.3396      25.4836    -999.2500    -999.2500     148.4638      85.5701      51.3126      26.8586       0.0565       0.0048       0.3031       1.9718
   2691.2317       7.3286    -999.2500      23.5900      25.2164    -999.2500    -999.2500     134.8362      93.0705      54.3591      30.1243       0.0571       0.0050       0.0873       1.9915
   2691.3840       6.6122    -999.2500      25.3436      24.8464    -999.2500    -999.2500     145.6097     116.7682      69.8011      37.2554       0.0570       0.0045       0.0754       2.0301
   2691.5364       6.3054    -999.2500      24.7032      24.6119    -999.2500    -999.2500     204.0067     164.9410      89.8873      47.9166       0.0535       0.0041       0.1506       2.0382
   2691.6887       6.5777    -999.2500      24.3272      24.7945    -999.2500    -999.2500     218.3339     160.9248      88.5859      47.3503       0.0495       0.0038       0.3716       2.0281
   2691.8413       6.9862    -999.2500      24.3957      24.6150    -999.2500    -999.2500     172.2256     126.9644      78.8189      42.2610       0.0476       0.0035       0.5802       1.9627
   2691.9937       6.8985    -999.2500      25.3557      24.3598    -999.2500    -999.2500     170.4905     139.3891      96.2047      50.6168       0.0465       0.0026       0.9061       1.9441
   2692.1460       6.0431    -999.2500      25.1197      24.2602    -999.2500    -999.2500     179.2864     156.6685     112.5275      60.2053       0.0463       0.0024       0.7719       2.0282
   2692.2983       6.1533    -999.2500      23.0304      24.2430    -999.2500    -999.2500     171.6124     144.1183     112.3778      68.7823       0.0462       0.0027       0.6760       2.0140
   2692.4507       7.0119    -999.2500      22.5642      23.9775    -999.2500    -999.2500     162.6952     128.1403     111.2096      67.1742       0.0458       0.0032       0.7209       1.8888
   2692.6033       8.6086    -999.2500      22.0442      24.0955    -999.2500    -999.2500     155.3679     119.2008     108.7540      58.7704       0.0472       0.0033       1.1134       1.7242
   2692.7556       8.5527    -999.2500      26.7027      25.2857    -999.2500    -999.2500     143.4153     114.5978      80.0632      47.6816       0.0485       0.0037       0.9506       1.8629
   2692.9080      11.5926    -999.2500      34.9934      32.1067    -999.2500    -999.2500     138.2596     111.0641      70.3572      43.7115       0.0550       0.0051       1.2631       2.2839
   2693.0603      13.2200    -999.2500      47.8770      39.2701    -999.2500    -999.2500     132.9762     101.0408      72.9520      43.6535       0.0618       0.0062       1.3073       2.9002
   2693.2129      16.4494    -999.2500      65.9516      52.5510    -999.2500    -999.2500     125.4868      91.8459      66.0801      40.3255       0.0697       0.0085       1.2797       4.0193
   2693.3652      17.7007    -999.2500      66.1634      56.2801    -999.2500    -999.2500     112.0378      77.3687      47.4601      28.0562       0.0742       0.0098       1.1380       4.2952
   2693.5176      17.6091    -999.2500      47.6803      54.7921    -999.2500    -999.2500     134.5353      79.9401      46.2134      25.4495       0.0722       0.0098       1.1136       4.1397
   2693.6699      15.7355    -999.2500      34.0440      44.9707    -999.2500    -999.2500     149.6257      78.9145      46.3824      25.4719       0.0675       0.0080       1.3025       3.2548
   2693.8223      13.3380    -999.2500      26.6466      36.3683    -999.2500    -999.2500     103.4956      57.3885      37.4173      23.0461       0.0625       0.0054       1.6597       2.5640
   2693.9749      11.2556    -999.2500      23.8156      27.6522    -999.2500    -999.2500      68.6637      44.5730      35.8734      24.4174       0.0591       0.0033       1.8800       1.8255
   2694.1272      10.6956    -999.2500      23.5739      24.3062    -999.2500    -999.2500      64.1524      45.1379      38.9720      27.3773       0.0563       0.0028       1.9321       1.5153
   2694.2795      10.4914    -999.2500      24.5212      22.8848    -999.2500    -999.2500      66.8250      49.4205      40.2208      28.8786       0.0523       0.0034       1.6143       1.3798
   2694.4319      11.0823    -999.2500      25.8041      24.1933    -999.2500    -999.2500      73.4510      51.5241      40.2861      28.9062       0.0531       0.0044       1.3799       1.4597
   2694.5845      12.3729    -999.2500      28.5341      27.8326    -999.2500    -999.2500      85.6226      51.7874      39.0674      27.7767       0.0582       0.0057       1.2294       1.7212
   2694.7368      10.9893    -999.2500      34.2027      31.6786    -999.2500    -999.2500      84.1466      46.8252      36.5747      25.9563       0.0613       0.0054       0.9578       2.3034
   2694.8892       9.1476    -999.2500      36.0542      35.7226    -999.2500    -999.2500      62.5279      39.4393      32.8187      24.4260       0.0644       0.0052       0.5174       2.9587
   2695.0415       9.2019    -999.2500      34.5664      36.9501    -999.2500    -999.2500      52.5480      36.7534      32.6399      25.9461       0.0656       0.0059       0.2657       3.0893
   2695.1941      11.3495    -999.2500      36.8811      38.5995    -999.2500    -999.2500      52.3202      36.8760      33.6578      26.5212       0.0654       0.0078       0.1421       3.0338
   2695.3464      13.5317    -999.2500      44.4319      40.5829    -999.2500    -999.2500      49.0451      34.2705      32.2622      26.0837       0.0675       0.0087       0.3970       3.0117
   2695.4988      14.1311    -999.2500      51.5724      45.6946    -999.2500    -999.2500      46.5592      31.4216      30.5723      27.0331       0.0720       0.0098       0.1290       3.5141
   2695.6511      13.7513    -999.2500      53.3706      48.2117    -999.2500    -999.2500      49.4266      31.7321      30.1746      27.7398       0.0729       0.0092       0.2322       3.8366
   2695.8035      16.2826    -999.2500      48.2892      45.9569    -999.2500    -999.2500      50.2833      32.2623      28.5045      25.7173       0.0711       0.0074       1.6784       3.3037
   2695.9561      15.1481    -999.2500      40.7713      42.8434    -999.2500    -999.2500      46.5245      30.5220      25.9125      22.3411       0.0693       0.0059       1.9383       3.0835
