#------------------------------------------------------------------------------
#
#   Created by  : [OpenWorks] Log Export Utility (LEXP)
#   Created on  : 2016-05-19 10:14:19
#   Project     : CANT971
#   User        : R5K
#   Interpreter : PEP
#
#------------------------------------------------------------------------------
~VERSION INFORMATION
VERS. 2.0 : CWLS Log ASCII Standard - version 2.0
WRAP.  NO : One line per depth step
~WELL INFORMATION
#MNEMONIC   .UNIT                                           VALUE :DESCRIPTION
#------------------------------------------------------------------------------
STRT        .M                                           724.6620 :START DEPTH
STOP        .M                                          3013.5576 :STOP DEPTH
STEP        .M                                             0.1524 :STEP
NULL        .                                           -999.2500 :NULL VALUE
COMP        .                                             UNKNOWN :COMPANY
WELL        .                                                3056 :WELL
FLD         .                                           CANTARELL :FIELD
LOC         .                                             UNKNOWN :LOCATION
CNTY        .                                             UNKNOWN :COUNTY
STAT        .                                             UNKNOWN :STATE
CTRY        .                                              MEXICO :COUNTRY
SRVC        .                                             UNKNOWN :SERVICE COMPANY
DATE        .                                             UNKNOWN :LOG DATE
UWI         .                                                3056 :UNIQUE WELL ID
XCOORD      .                                       501503.280000 :SURFACE X
YCOORD      .                                      2149903.210000 :SURFACE Y
LAT         .                                           19.444680 :LATITUDE
LON         .                                          -92.985679 :LONGITUDE
ELEV        .M                                            30.0000 :SURFACE ELEV
ELEV_TYPE   .                                                  KB :ELEV TYPE
~CURVE INFORMATION
#MNEMONIC.UNIT        API CODE       : CURVE DESCRIPTION
#------------------------------------------------------------------------------
DEPTH    .M                          : Measured Depth
CGR      .API         UNKNOWN        : CGR:Espectroscopia-entubado:r1:0001:v1 
DT       .us/ft       UNKNOWN        : DT:sonico:r1:0001:v1 
GR-LWD   .API         UNKNOWN        : GR-LWD:PETROWORKS:rC:NONE:v1 
GR       .UNKNOWN     UNKNOWN        : GR:PETROWORKS:rC:NONE:v1 
ILD      .ohm.m       UNKNOWN        : ILD:resistivos:r1:0001:v1 
ILM      .ohm.m       UNKNOWN        : ILM:resistivos:r1:0001:v1 
LLD-LWD  .ohm.m       UNKNOWN        : LLD-LWD:PETROWORKS:rC:NONE:v1 
LLM-LWD  .UNKNOWN     UNKNOWN        : LLM-LWD:PETROWORKS:rC:NONE:v1 
LLS-LWD  .ohm.m       UNKNOWN        : LLS-LWD:PETROWORKS:rC:NONE:v1 
MSFL-LWD .ohm.m       UNKNOWN        : MSFL-LWD:PETROWORKS:rC:NONE:v1 
NPHI     .v/v_decimal UNKNOWN        : NPHI:porosidad-entubado:r1:0001:v1 
POTA     .wtpercent   UNKNOWN        : POTA:Espectroscopia-entubado:r1:0001:v2 
THOR     .UNKNOWN     UNKNOWN        : THOR:Espectroscopia-entubado:r1:0001:v1 
URAN     .UNKNOWN     UNKNOWN        : URAN:Espectroscopia-entubado:r1:0001:v1 
~A     DEPTH          CGR           DT       GR-LWD           GR          ILD          ILM      LLD-LWD      LLM-LWD      LLS-LWD     MSFL-LWD         NPHI         POTA         THOR         URAN
# ...
   2740.9141      15.2219    -999.2500      49.2329      53.1392    -999.2500    -999.2500      40.6911      38.4454      37.1323      30.9265       0.0620       0.0076       1.3211       4.2214
   2741.0664      13.2328    -999.2500      54.0834      50.2602    -999.2500    -999.2500      42.4171      38.8744      38.1350      31.0603       0.0593       0.0075       0.7814       4.1224
   2741.2188      13.7403    -999.2500      62.1038      48.8888    -999.2500    -999.2500      49.3288      47.9263      59.3123      54.7350       0.0583       0.0088       0.4075       3.9132
   2741.3711      18.7076    -999.2500      67.4447      49.5080    -999.2500    -999.2500      56.1642      59.0488      92.9185      94.5673       0.0616       0.0129       0.1852       3.4292
   2741.5237      21.7103    -999.2500      76.1307      51.7747    -999.2500    -999.2500      44.6984      43.1762      59.5909      57.2985       0.0656       0.0150       0.1884       3.3472
   2741.6760      24.2134    -999.2500      81.4038      56.3613    -999.2500    -999.2500      41.6781      35.9229      37.5153      31.7149       0.0674       0.0160       0.5308       3.5791
   2741.8284      22.0904    -999.2500      82.9186      61.2823    -999.2500    -999.2500      46.2071      38.6324      36.9767      31.5318       0.0732       0.0143       0.5924       4.3634
   2741.9807      19.0779    -999.2500      77.5370      66.7272    -999.2500    -999.2500      45.7273      38.5007      36.6310      31.3691       0.0784       0.0125       0.4495       5.3050
   2742.1333      19.1529    -999.2500      74.4457      68.0175    -999.2500    -999.2500      44.5225      37.5706      35.6764      29.5904       0.0755       0.0119       0.6958       5.4403
   2742.2856      21.4981    -999.2500      75.2269      67.3237    -999.2500    -999.2500      46.2382      38.3410      35.3731      27.3620       0.0729       0.0120       1.3467       5.1019
   2742.4380      25.9351    -999.2500      71.1203      65.8007    -999.2500    -999.2500      48.4102      38.7373      35.4752      27.0548       0.0749       0.0130       2.1815       4.4384
   2742.5903      31.1161    -999.2500      64.0939      63.6607    -999.2500    -999.2500      49.3292      38.7123      35.8692      28.2422       0.0763       0.0149       2.9074       3.6233
   2742.7427      34.1129    -999.2500      53.2042      61.3030    -999.2500    -999.2500      52.5203      42.6630      41.0496      32.5049       0.0740       0.0158       3.4130       3.0272
   2742.8953      33.9987    -999.2500      45.2688      54.2713    -999.2500    -999.2500      55.7386      46.7027      46.0298      36.1750       0.0672       0.0153       3.5891       2.2570
   2743.0476      31.9092    -999.2500      42.0727      49.3811    -999.2500    -999.2500      57.6697      49.9625      48.4800      39.1141       0.0616       0.0137       3.6085       1.9452
   2743.2000      24.2712    -999.2500      45.3923      42.8807    -999.2500    -999.2500      60.1595      51.7334      49.0556      38.6225       0.0561       0.0101       2.8658       2.0719
   2743.3523      18.2225    -999.2500      53.6825      41.8666    -999.2500    -999.2500      62.9390      53.3984      50.3374      38.8359       0.0549       0.0079       2.0342       2.6324
   2743.5049      14.8353    -999.2500      59.2447      43.6544    -999.2500    -999.2500      63.5886      55.1903      51.0381      37.0312       0.0593       0.0056       1.9747       3.2086
   2743.6572      15.6395    -999.2500      54.5652      46.7377    -999.2500    -999.2500      64.2982      59.0967      51.8019      35.6073       0.0632       0.0055       2.2648       3.4623
   2743.8096      17.8229    -999.2500      47.8426      51.2460    -999.2500    -999.2500      65.7367      57.7178      48.3158      34.9354       0.0663       0.0063       2.5378       3.7212
   2743.9619      19.0464    -999.2500      44.8113      51.9738    -999.2500    -999.2500      67.6947      58.7317      50.3994      37.1012       0.0671       0.0068       2.7157       3.6659
   2744.1145      20.2867    -999.2500      42.3682      48.8169    -999.2500    -999.2500      71.5058      62.3783      55.1924      41.5043       0.0620       0.0068       3.0671       3.1764
   2744.2668      20.0896    -999.2500      39.8171      45.2398    -999.2500    -999.2500      78.8118      68.7142      61.6165      45.2255       0.0576       0.0070       2.9290       2.8001
   2744.4192      19.4266    -999.2500      38.5989      41.4077    -999.2500    -999.2500      82.9928      74.3135      65.7281      45.2876       0.0543       0.0071       2.6824       2.4473
   2744.5715      15.2185    -999.2500      38.9631      37.3939    -999.2500    -999.2500      85.6404      78.1901      68.9662      43.9250       0.0506       0.0066       1.7070       2.4689
   2744.7239      11.7536    -999.2500      37.2060      35.5848    -999.2500    -999.2500      90.0901      83.9673      74.1902      46.7097       0.0474       0.0057       1.0907       2.6532
   2744.8765       8.3664    -999.2500      36.1673      33.6221    -999.2500    -999.2500      99.3196      92.3831      76.8372      50.7087       0.0456       0.0055       0.1769       2.8118
   2745.0288      10.1636    -999.2500      38.3233      34.2865    -999.2500    -999.2500      96.9430      87.8092      76.4152      47.3655       0.0451       0.0070       0.0904       2.6857
   2745.1812      12.8679    -999.2500      40.6631      38.2164    -999.2500    -999.2500      94.5114      83.7450      75.6082      46.2450       0.0455       0.0090       0.0788       2.8221
   2745.3335      12.7255    -999.2500      39.8961      37.5840    -999.2500    -999.2500      96.5416      85.3731      75.4624      49.1677       0.0472       0.0088       0.1138       2.7676
   2745.4861      16.7151    -999.2500      39.2585      36.2617    -999.2500    -999.2500     100.2184      90.0503      78.5410      54.5459       0.0500       0.0087       1.2742       2.1762
   2745.6384      19.0712    -999.2500      39.0367      37.7311    -999.2500    -999.2500     102.0153      93.3898      79.8550      56.4236       0.0500       0.0084       2.0882       2.0775
   2745.7908      16.2451    -999.2500      39.8370      38.4336    -999.2500    -999.2500     101.4521      93.1335      77.3883      52.8795       0.0481       0.0084       1.2943       2.4703
   2745.9431      13.0644    -999.2500      42.1955      40.3910    -999.2500    -999.2500     102.0362      91.0604      76.9462      50.2790       0.0466       0.0091       0.1120       3.0424
   2746.0957      14.1541    -999.2500      42.9604      44.7343    -999.2500    -999.2500     102.5428      90.4379      78.1624      49.9779       0.0446       0.0099       0.0775       3.4046
   2746.2480      13.5166    -999.2500      43.4182      45.9382    -999.2500    -999.2500     101.9007      90.2954      81.2421      53.8290       0.0434       0.0095       0.0774       3.6096
   2746.4004      13.1238    -999.2500      42.8468      40.9895    -999.2500    -999.2500     103.6879      90.9970      84.9260      55.5768       0.0432       0.0090       0.1522       3.1024
   2746.5527      14.3155    -999.2500      45.1424      40.8938    -999.2500    -999.2500     107.8876      91.0037      87.7457      55.5425       0.0434       0.0078       0.9660       2.9590
   2746.7051      14.5567    -999.2500      48.6079      41.1315    -999.2500    -999.2500     102.3941      85.5406      82.4165      50.4447       0.0434       0.0058       1.8155       2.9587
   2746.8577      12.7769    -999.2500      49.0368      41.8294    -999.2500    -999.2500      95.7789      80.9419      73.3255      45.0423       0.0438       0.0049       1.6613       3.2345
   2747.0100      14.9122    -999.2500      47.7377      42.7451    -999.2500    -999.2500      96.0978      79.1182      69.2402      47.1817       0.0446       0.0065       1.6675       3.0987
   2747.1624      16.4333    -999.2500      47.2691      42.9488    -999.2500    -999.2500      97.5257      79.7182      69.5092      49.7064       0.0442       0.0074       1.7370       2.9521
