#------------------------------------------------------------------------------
#
#   Created by  : [OpenWorks] Log Export Utility (LEXP)
#   Created on  : 2016-05-19 10:14:19
#   Project     : CANT971
#   User        : R5K
#   Interpreter : PEP
#
#------------------------------------------------------------------------------
~VERSION INFORMATION
VERS. 2.0 : CWLS Log ASCII Standard - version 2.0
WRAP.  NO : One line per depth step
~WELL INFORMATION
#MNEMONIC   .UNIT                                           VALUE :DESCRIPTION
#------------------------------------------------------------------------------
STRT        .M                                           724.6620 :START DEPTH
STOP        .M                                          3013.5576 :STOP DEPTH
STEP        .M                                             0.1524 :STEP
NULL        .                                           -999.2500 :NULL VALUE
COMP        .                                             UNKNOWN :COMPANY
WELL        .                                                3056 :WELL
FLD         .                                           CANTARELL :FIELD
LOC         .                                             UNKNOWN :LOCATION
CNTY        .                                             UNKNOWN :COUNTY
STAT        .                                             UNKNOWN :STATE
CTRY        .                                              MEXICO :COUNTRY
SRVC        .                                             UNKNOWN :SERVICE COMPANY
DATE        .                                             UNKNOWN :LOG DATE
UWI         .                                                3056 :UNIQUE WELL ID
XCOORD      .                                       501503.280000 :SURFACE X
YCOORD      .                                      2149903.210000 :SURFACE Y
LAT         .                                           19.444680 :LATITUDE
LON         .                                          -92.985679 :LONGITUDE
ELEV        .M                                            30.0000 :SURFACE ELEV
ELEV_TYPE   .                                                  KB :ELEV TYPE
~CURVE INFORMATION
#MNEMONIC.UNIT        API CODE       : CURVE DESCRIPTION
#------------------------------------------------------------------------------
DEPTH    .M                          : Measured Depth
CGR      .API         UNKNOWN        : CGR:Espectroscopia-entubado:r1:0001:v1 
DT       .us/ft       UNKNOWN        : DT:sonico:r1:0001:v1 
GR-LWD   .API         UNKNOWN        : GR-LWD:PETROWORKS:rC:NONE:v1 
GR       .UNKNOWN     UNKNOWN        : GR:PETROWORKS:rC:NONE:v1 
ILD      .ohm.m       UNKNOWN        : ILD:resistivos:r1:0001:v1 
ILM      .ohm.m       UNKNOWN        : ILM:resistivos:r1:0001:v1 
LLD-LWD  .ohm.m       UNKNOWN        : LLD-LWD:PETROWORKS:rC:NONE:v1 
LLM-LWD  .UNKNOWN     UNKNOWN        : LLM-LWD:PETROWORKS:rC:NONE:v1 
LLS-LWD  .ohm.m       UNKNOWN        : LLS-LWD:PETROWORKS:rC:NONE:v1 
MSFL-LWD .ohm.m       UNKNOWN        : MSFL-LWD:PETROWORKS:rC:NONE:v1 
NPHI     .v/v_decimal UNKNOWN        : NPHI:porosidad-entubado:r1:0001:v1 
POTA     .wtpercent   UNKNOWN        : POTA:Espectroscopia-entubado:r1:0001:v2 
THOR     .UNKNOWN     UNKNOWN        : THOR:Espectroscopia-entubado:r1:0001:v1 
URAN     .UNKNOWN     UNKNOWN        : URAN:Espectroscopia-entubado:r1:0001:v1 
~A     DEPTH          CGR           DT       GR-LWD           GR          ILD          ILM      LLD-LWD      LLM-LWD      LLS-LWD     MSFL-LWD         NPHI         POTA         THOR         URAN
# ...
   2785.7195       8.9019    -999.2500      29.2208      26.8061    -999.2500    -999.2500     128.9851     118.1127     112.1648      65.0378       0.0323       0.0057       0.2682       1.9933
   2785.8721      12.7937    -999.2500      27.3376      26.1396    -999.2500    -999.2500     129.9352     122.3950     112.6525      66.2762       0.0329       0.0061       1.2035       1.4858
   2786.0244      14.0925    -999.2500      25.1751      25.7266    -999.2500    -999.2500     133.9728     123.0288     115.3726      71.5947       0.0341       0.0061       1.5829       1.2953
   2786.1768      15.2854    -999.2500      25.7016      25.4316    -999.2500    -999.2500     136.0591     120.3391     117.0493      70.7328       0.0344       0.0067       1.6899       1.1297
   2786.3291      14.6743    -999.2500      27.3865      25.3911    -999.2500    -999.2500     125.8314     111.8836     104.0815      62.3207       0.0353       0.0068       1.4639       1.1931
   2786.4817      12.0079    -999.2500      28.8955      25.9316    -999.2500    -999.2500     122.4690     108.0358      95.2129      56.5926       0.0369       0.0061       0.9717       1.5502
   2786.6340       8.4574    -999.2500      29.2983      28.2244    -999.2500    -999.2500     124.7871     108.3138      95.0418      56.8520       0.0386       0.0053       0.2825       2.2016
   2786.7864       7.1386    -999.2500      31.4340      33.5000    -999.2500    -999.2500     123.3053     108.7065      96.9849      61.0253       0.0405       0.0049       0.0719       2.9349
   2786.9387       7.5313    -999.2500      33.1283      35.2773    -999.2500    -999.2500     116.2939     105.3469      91.5374      59.7649       0.0414       0.0052       0.0704       3.0891
   2787.0913       9.4099    -999.2500      32.1085      34.5547    -999.2500    -999.2500     109.4122      99.1571      84.1759      54.5473       0.0403       0.0065       0.0918       2.7992
   2787.2437      10.7439    -999.2500      27.7218      31.3405    -999.2500    -999.2500     113.1506      99.1962      89.3671      57.6138       0.0394       0.0071       0.2289       2.2931
   2787.3960      14.0991    -999.2500      26.9115      28.8455    -999.2500    -999.2500     121.7525     106.0973      97.1652      64.6788       0.0374       0.0065       1.4186       1.6418
   2787.5483      15.1990    -999.2500      30.6588      28.3414    -999.2500    -999.2500     124.8793     106.3303      93.4505      67.1174       0.0374       0.0055       2.1369       1.4632
   2787.7007      14.9592    -999.2500      33.7118      29.5533    -999.2500    -999.2500     118.9807     101.7384      87.4363      59.3452       0.0391       0.0044       2.5057       1.6248
   2787.8533      14.1178    -999.2500      34.0422      31.6292    -999.2500    -999.2500     110.3506      99.6805      88.6864      50.6304       0.0403       0.0041       2.3969       1.9496
   2788.0056      12.5412    -999.2500      35.3718      34.0702    -999.2500    -999.2500     112.0760      97.7811      89.9473      54.0384       0.0407       0.0045       1.7724       2.3969
   2788.1580      12.7097    -999.2500      36.5455      34.5928    -999.2500    -999.2500     115.1337      97.9916      89.7297      53.9711       0.0409       0.0051       1.5626       2.4364
   2788.3103      14.2787    -999.2500      35.3703      32.5529    -999.2500    -999.2500     124.2474     108.0822      93.1014      49.6643       0.0418       0.0074       1.1170       2.0345
   2788.4629      13.7800    -999.2500      31.6583      30.7735    -999.2500    -999.2500     133.5043     119.2200     107.6159      50.7758       0.0424       0.0083       0.6120       1.8919
   2788.6152      12.2141    -999.2500      28.7797      31.8109    -999.2500    -999.2500     138.4979     127.3094     129.5925      55.4339       0.0444       0.0085       0.1073       2.1813
   2788.7676       9.2749    -999.2500      27.9988      28.2986    -999.2500    -999.2500     150.4716     138.5738     206.2772      83.6012       0.0485       0.0063       0.1238       2.1180
   2788.9199       8.2030    -999.2500      27.4543      27.1067    -999.2500    -999.2500     132.9299     117.6397     183.4557      76.7036       0.0509       0.0046       0.4988       2.1046
   2789.0723       7.2347    -999.2500      26.0825      26.2737    -999.2500    -999.2500      94.8542      79.5914      85.5292      43.6067       0.0504       0.0042       0.3914       2.1196
   2789.2249       8.5290    -999.2500      25.7148      25.6718    -999.2500    -999.2500      91.8292      79.8655      74.9675      44.9247       0.0465       0.0047       0.5729       1.9086
   2789.3772      12.0885    -999.2500      25.7956      25.4638    -999.2500    -999.2500     110.5511     100.4982     102.4317      53.4079       0.0416       0.0055       1.2313       1.4891
   2789.5295      13.5646    -999.2500      26.3505      26.2013    -999.2500    -999.2500     156.6010     156.9633     186.9077      77.8626       0.0420       0.0062       1.4025       1.4069
   2789.6819      14.0776    -999.2500      28.7528      27.4386    -999.2500    -999.2500     135.4429     134.6026     152.8490      70.0752       0.0448       0.0071       1.1776       1.4875
   2789.8345      15.1172    -999.2500      29.4530      28.2190    -999.2500    -999.2500     116.3417     106.6325     101.3905      61.1267       0.0451       0.0078       1.2000       1.4586
   2789.9868      17.4663    -999.2500      28.7113      28.5190    -999.2500    -999.2500     115.2211     103.9953      94.2266      58.0915       0.0441       0.0090       1.3771       1.2305
   2790.1392      18.0264    -999.2500      28.0060      27.9469    -999.2500    -999.2500     111.8314     101.3176      92.2962      55.3110       0.0419       0.0091       1.5029       1.1044
   2790.2915      15.8820    -999.2500      22.5528      25.6749    -999.2500    -999.2500     109.2438      99.9631      95.3274      61.2497       0.0368       0.0084       1.1855       1.0903
   2790.4441      13.3225    -999.2500      19.9803      23.4884    -999.2500    -999.2500     112.1174     108.1122     109.4559      74.5599       0.0354       0.0074       0.8263       1.1318
   2790.5964      10.4940    -999.2500      20.4326      21.2576    -999.2500    -999.2500     116.3945     115.4220     121.6388      81.5508       0.0341       0.0057       0.7254       1.1979
   2790.7488      10.0843    -999.2500      21.6544      21.0451    -999.2500    -999.2500     118.3577     111.7270     117.0831      73.9012       0.0335       0.0048       0.9491       1.2203
   2790.9011      10.0491    -999.2500      22.1806      22.1890    -999.2500    -999.2500     116.9865     110.7988     112.6822      70.4998       0.0326       0.0033       1.5224       1.3516
   2791.0535      10.3859    -999.2500      22.5477      22.5851    -999.2500    -999.2500     110.3682     113.5337     109.0202      67.6629       0.0329       0.0036       1.5088       1.3582
   2791.2061      12.1155    -999.2500      23.9919      23.4104    -999.2500    -999.2500     104.7914     113.0889     111.6304      66.2904       0.0358       0.0052       1.3873       1.2575
   2791.3584      12.8459    -999.2500      26.3174      24.4742    -999.2500    -999.2500      99.6347     106.7690     104.4811      59.0473       0.0367       0.0063       1.1421       1.2946
   2791.5107      10.8177    -999.2500      33.7964      28.2948    -999.2500    -999.2500     107.7764     102.0830      87.0674      50.9680       0.0382       0.0073       0.1756       1.9459
   2791.6631      11.0672    -999.2500      38.4188      32.6012    -999.2500    -999.2500     112.1763     100.7744      77.8436      50.2824       0.0400       0.0077       0.1009       2.3977
   2791.8157      11.4230    -999.2500      36.9494      34.0075    -999.2500    -999.2500     113.4416     101.8545      89.5642      59.8995       0.0409       0.0077       0.1905       2.5144
   2791.9680      13.4024    -999.2500      35.1813      31.8060    -999.2500    -999.2500     113.3878     105.3114      97.5129      59.8618       0.0416       0.0070       1.0260       2.0490
