#------------------------------------------------------------------------------
#
#   Created by  : [OpenWorks] Log Export Utility (LEXP)
#   Created on  : 2016-05-19 10:14:19
#   Project     : CANT971
#   User        : R5K
#   Interpreter : PEP
#
#------------------------------------------------------------------------------
~VERSION INFORMATION
VERS. 2.0 : CWLS Log ASCII Standard - version 2.0
WRAP.  NO : One line per depth step
~WELL INFORMATION
#MNEMONIC   .UNIT                                           VALUE :DESCRIPTION
#------------------------------------------------------------------------------
STRT        .M                                           724.6620 :START DEPTH
STOP        .M                                          3013.5576 :STOP DEPTH
STEP        .M                                             0.1524 :STEP
NULL        .                                           -999.2500 :NULL VALUE
COMP        .                                             UNKNOWN :COMPANY
WELL        .                                                3056 :WELL
FLD         .                                           CANTARELL :FIELD
LOC         .                                             UNKNOWN :LOCATION
CNTY        .                                             UNKNOWN :COUNTY
STAT        .                                             UNKNOWN :STATE
CTRY        .                                              MEXICO :COUNTRY
SRVC        .                                             UNKNOWN :SERVICE COMPANY
DATE        .                                             UNKNOWN :LOG DATE
UWI         .                                                3056 :UNIQUE WELL ID
XCOORD      .                                       501503.280000 :SURFACE X
YCOORD      .                                      2149903.210000 :SURFACE Y
LAT         .                                           19.444680 :LATITUDE
LON         .                                          -92.985679 :LONGITUDE
ELEV        .M                                            30.0000 :SURFACE ELEV
ELEV_TYPE   .                                                  KB :ELEV TYPE
~CURVE INFORMATION
#MNEMONIC.UNIT        API CODE       : CURVE DESCRIPTION
#------------------------------------------------------------------------------
DEPTH    .M                          : Measured Depth
CGR      .API         UNKNOWN        : CGR:Espectroscopia-entubado:r1:0001:v1 
DT       .us/ft       UNKNOWN        : DT:sonico:r1:0001:v1 
GR-LWD   .API         UNKNOWN        : GR-LWD:PETROWORKS:rC:NONE:v1 
GR       .UNKNOWN     UNKNOWN        : GR:PETROWORKS:rC:NONE:v1 
ILD      .ohm.m       UNKNOWN        : ILD:resistivos:r1:0001:v1 
ILM      .ohm.m       UNKNOWN        : ILM:resistivos:r1:0001:v1 
LLD-LWD  .ohm.m       UNKNOWN        : LLD-LWD:PETROWORKS:rC:NONE:v1 
LLM-LWD  .UNKNOWN     UNKNOWN        : LLM-LWD:PETROWORKS:rC:NONE:v1 
LLS-LWD  .ohm.m       UNKNOWN        : LLS-LWD:PETROWORKS:rC:NONE:v1 
MSFL-LWD .ohm.m       UNKNOWN        : MSFL-LWD:PETROWORKS:rC:NONE:v1 
NPHI     .v/v_decimal UNKNOWN        : NPHI:porosidad-entubado:r1:0001:v1 
POTA     .wtpercent   UNKNOWN        : POTA:Espectroscopia-entubado:r1:0001:v2 
THOR     .UNKNOWN     UNKNOWN        : THOR:Espectroscopia-entubado:r1:0001:v1 
URAN     .UNKNOWN     UNKNOWN        : URAN:Espectroscopia-entubado:r1:0001:v1 
~A     DEPTH          CGR           DT       GR-LWD           GR          ILD          ILM      LLD-LWD      LLM-LWD      LLS-LWD     MSFL-LWD         NPHI         POTA         THOR         URAN
# ...
   2875.3308      20.9396    -999.2500      25.2115      30.9304    -999.2500    -999.2500      91.1001      76.9839      71.0237      48.8493       0.0467       0.0081       2.7245       1.1123
   2875.4832      19.3065    -999.2500      25.6961      30.0464    -999.2500    -999.2500      94.5229      81.6010      76.6577      52.6264       0.0436       0.0066       2.8519       1.1957
   2875.6355      17.2745    -999.2500      27.5564      30.0208    -999.2500    -999.2500     100.9525      89.3524      88.8047      59.0984       0.0431       0.0064       2.3673       1.4191
   2875.7881      16.3974    -999.2500      29.7225      30.3299    -999.2500    -999.2500     108.1393      97.6709     102.6657      66.0439       0.0442       0.0070       1.8619       1.5511
   2875.9404      15.8158    -999.2500      29.8383      30.0145    -999.2500    -999.2500     113.3102     102.8484     109.5729      69.9162       0.0444       0.0077       1.4267       1.5808
   2876.0928      15.1326    -999.2500      30.4366      29.8028    -999.2500    -999.2500     117.7722     106.9866     111.8419      71.3413       0.0448       0.0081       1.0649       1.6333
   2876.2451      15.2419    -999.2500      36.1987      30.2123    -999.2500    -999.2500     119.1294     107.0375      99.8526      63.5161       0.0460       0.0084       1.0016       1.6667
   2876.3977      16.9665    -999.2500      37.2248      33.3611    -999.2500    -999.2500     120.2357     107.1364      98.8195      62.2058       0.0465       0.0093       1.1258       1.8253
   2876.5500      19.4097    -999.2500      37.1328      36.1009    -999.2500    -999.2500     122.5584     107.5599     102.1168      62.8993       0.0484       0.0095       1.7364       1.8583
   2876.7024      22.0241    -999.2500      37.7466      39.8740    -999.2500    -999.2500     120.7655     107.5275     100.3629      60.9720       0.0537       0.0101       2.2270       1.9873
   2876.8547      23.4322    -999.2500      37.7236      40.3563    -999.2500    -999.2500     119.8084     107.4965      99.3960      60.0609       0.0568       0.0107       2.3844       1.8842
   2877.0071      23.3327    -999.2500      34.1951      39.2033    -999.2500    -999.2500     115.1579     104.8621      94.8636      57.7512       0.0564       0.0104       2.4951       1.7669
   2877.1597      21.1977    -999.2500      28.4815      37.4965    -999.2500    -999.2500     112.6853     102.8730      91.8681      56.8294       0.0528       0.0093       2.3277       1.8146
   2877.3120      15.7830    -999.2500      25.3371      34.1409    -999.2500    -999.2500     112.5811     103.4915      92.6497      57.4154       0.0489       0.0068       1.7950       2.0439
   2877.4644      14.1575    -999.2500      24.1126      32.1004    -999.2500    -999.2500     115.8366     107.0232     100.6414      60.9538       0.0449       0.0065       1.4462       1.9977
   2877.6167      13.8827    -999.2500      24.7105      30.4786    -999.2500    -999.2500     117.4193     108.1970     102.9721      63.0591       0.0436       0.0069       1.1871       1.8477
   2877.7693      15.9813    -999.2500      26.7836      29.5821    -999.2500    -999.2500     116.1693     106.7930      96.6063      62.7061       0.0433       0.0081       1.3004       1.5142
   2877.9216      17.7896    -999.2500      25.9742      29.7577    -999.2500    -999.2500     114.6390     103.9908      92.5787      61.1224       0.0431       0.0086       1.6451       1.3324
   2878.0740      20.4784    -999.2500      24.7305      30.0926    -999.2500    -999.2500     112.3420      99.0704      88.2639      59.1958       0.0434       0.0088       2.3078       1.0704
   2878.2263      18.9908    -999.2500      29.8255      29.5600    -999.2500    -999.2500     104.0667      88.7471      75.1955      54.5970       0.0439       0.0084       2.0632       1.1767
   2878.3789      15.8367    -999.2500      32.0581      29.4396    -999.2500    -999.2500      99.4661      85.1178      70.9464      52.2812       0.0447       0.0073       1.6071       1.5144
   2878.5312      14.3871    -999.2500      35.8106      30.3724    -999.2500    -999.2500      85.4900      76.1798      62.2808      44.3172       0.0452       0.0067       1.4209       1.7797
   2878.6836      14.8327    -999.2500      31.6776      32.3730    -999.2500    -999.2500      76.5950      72.0850      64.1605      44.9566       0.0468       0.0070       1.4318       1.9528
   2878.8359      19.7381    -999.2500      28.4611      32.6400    -999.2500    -999.2500      74.6631      72.9315      67.6727      48.1780       0.0474       0.0085       2.2151       1.4364
   2878.9883      23.2318    -999.2500      23.3922      31.1308    -999.2500    -999.2500      76.0487      79.0467      77.4398      56.9863       0.0455       0.0094       2.8588       0.8794
   2879.1409      23.3601    -999.2500      21.1088      29.2696    -999.2500    -999.2500      75.8468      81.8658      82.0707      59.1207       0.0421       0.0090       3.0475       0.6579
   2879.2932      19.8851    -999.2500      20.1758      27.5551    -999.2500    -999.2500      74.5313      82.1796      83.3093      57.8474       0.0371       0.0069       2.9170       0.8539
   2879.4456      16.9086    -999.2500      21.2747      27.4557    -999.2500    -999.2500      69.8571      78.7050      80.3307      56.8913       0.0378       0.0056       2.5829       1.1742
   2879.5979      11.1544    -999.2500      25.7776      29.7035    -999.2500    -999.2500      63.8022      73.6642      74.8045      54.8774       0.0400       0.0033       1.8391       2.0651
   2879.7505      10.4149    -999.2500      36.6608      32.1154    -999.2500    -999.2500      56.7896      66.9725      66.4189      50.8405       0.0426       0.0031       1.7342       2.4160
   2879.9028      12.1567    -999.2500      39.1212      36.8355    -999.2500    -999.2500      53.6150      62.7134      62.5895      49.6334       0.0467       0.0039       1.9061       2.7476
   2880.0552      14.6457    -999.2500      40.1860      38.6319    -999.2500    -999.2500      48.6998      54.1939      56.2495      46.9639       0.0506       0.0049       2.2299       2.6705
   2880.2075      19.0401    -999.2500      40.9195      40.2650    -999.2500    -999.2500      45.3970      44.5159      46.2488      39.7014       0.0544       0.0069       2.6559       2.3630
   2880.3601      19.3625    -999.2500      41.5378      40.8978    -999.2500    -999.2500      43.7853      41.1396      42.1578      36.6920       0.0563       0.0077       2.4499       2.3976
   2880.5125      16.6500    -999.2500      47.0641      44.1614    -999.2500    -999.2500      37.7339      34.8876      32.4238      29.5999       0.0629       0.0081       1.5169       3.0629
   2880.6648      17.4310    -999.2500      72.3598      48.0245    -999.2500    -999.2500      37.7184      27.8155      23.5765      22.0717       0.0658       0.0084       1.6036       3.4061
   2880.8171      23.2529    -999.2500      88.2372      54.1840    -999.2500    -999.2500      39.2684      23.9165      19.3183      18.1147       0.0711       0.0103       2.4957       3.4437
   2880.9695      34.7697    -999.2500     121.8346      65.7438    -999.2500    -999.2500      31.6910      17.9528      14.4072      13.3558       0.0850       0.0159       3.5539       3.4485
   2881.1221      42.6259    -999.2500     161.0306      77.7522    -999.2500    -999.2500      29.2578      13.7246       9.9027       8.9004       0.1020       0.0206       3.9067       3.9107
   2881.2744      59.6522    -999.2500     201.9409      98.6870    -999.2500    -999.2500      35.1609      11.1015       5.6831       4.6000       0.1395       0.0275       6.0167       4.3459
   2881.4268      75.3996    -999.2500     211.9331     118.0817    -999.2500    -999.2500      37.0337       9.4308       4.3705       3.3952       0.1883       0.0343       7.7655       4.7520
   2881.5791     105.4384    -999.2500     219.8306     141.9731    -999.2500    -999.2500      31.0717       6.8515       2.9206       2.2266       0.2514       0.0481      10.8359       4.0675
