#------------------------------------------------------------------------------
#
#   Created by  : [OpenWorks] Log Export Utility (LEXP)
#   Created on  : 2016-05-19 10:14:19
#   Project     : CANT971
#   User        : R5K
#   Interpreter : PEP
#
#------------------------------------------------------------------------------
~VERSION INFORMATION
VERS. 2.0 : CWLS Log ASCII Standard - version 2.0
WRAP.  NO : One line per depth step
~WELL INFORMATION
#MNEMONIC   .UNIT                                           VALUE :DESCRIPTION
#------------------------------------------------------------------------------
STRT        .M                                           724.6620 :START DEPTH
STOP        .M                                          3013.5576 :STOP DEPTH
STEP        .M                                             0.1524 :STEP
NULL        .                                           -999.2500 :NULL VALUE
COMP        .                                             UNKNOWN :COMPANY
WELL        .                                                3056 :WELL
FLD         .                                           CANTARELL :FIELD
LOC         .                                             UNKNOWN :LOCATION
CNTY        .                                             UNKNOWN :COUNTY
STAT        .                                             UNKNOWN :STATE
CTRY        .                                              MEXICO :COUNTRY
SRVC        .                                             UNKNOWN :SERVICE COMPANY
DATE        .                                             UNKNOWN :LOG DATE
UWI         .                                                3056 :UNIQUE WELL ID
XCOORD      .                                       501503.280000 :SURFACE X
YCOORD      .                                      2149903.210000 :SURFACE Y
LAT         .                                           19.444680 :LATITUDE
LON         .                                          -92.985679 :LONGITUDE
ELEV        .M                                            30.0000 :SURFACE ELEV
ELEV_TYPE   .                                                  KB :ELEV TYPE
~CURVE INFORMATION
#MNEMONIC.UNIT        API CODE       : CURVE DESCRIPTION
#------------------------------------------------------------------------------
DEPTH    .M                          : Measured Depth
CGR      .API         UNKNOWN        : CGR:Espectroscopia-entubado:r1:0001:v1 
DT       .us/ft       UNKNOWN        : DT:sonico:r1:0001:v1 
GR-LWD   .API         UNKNOWN        : GR-LWD:PETROWORKS:rC:NONE:v1 
GR       .UNKNOWN     UNKNOWN        : GR:PETROWORKS:rC:NONE:v1 
ILD      .ohm.m       UNKNOWN        : ILD:resistivos:r1:0001:v1 
ILM      .ohm.m       UNKNOWN        : ILM:resistivos:r1:0001:v1 
LLD-LWD  .ohm.m       UNKNOWN        : LLD-LWD:PETROWORKS:rC:NONE:v1 
LLM-LWD  .UNKNOWN     UNKNOWN        : LLM-LWD:PETROWORKS:rC:NONE:v1 
LLS-LWD  .ohm.m       UNKNOWN        : LLS-LWD:PETROWORKS:rC:NONE:v1 
MSFL-LWD .ohm.m       UNKNOWN        : MSFL-LWD:PETROWORKS:rC:NONE:v1 
NPHI     .v/v_decimal UNKNOWN        : NPHI:porosidad-entubado:r1:0001:v1 
POTA     .wtpercent   UNKNOWN        : POTA:Espectroscopia-entubado:r1:0001:v2 
THOR     .UNKNOWN     UNKNOWN        : THOR:Espectroscopia-entubado:r1:0001:v1 
URAN     .UNKNOWN     UNKNOWN        : URAN:Espectroscopia-entubado:r1:0001:v1 
~A     DEPTH          CGR           DT       GR-LWD           GR          ILD          ILM      LLD-LWD      LLM-LWD      LLS-LWD     MSFL-LWD         NPHI         POTA         THOR         URAN
# ...
   2600.0964      13.7146    -999.2500      47.4092      50.6136    -999.2500    -999.2500      37.3789      28.1284      25.0702      20.4591       0.1633       0.0072       1.0500       4.1081
   2600.2488      13.3636    -999.2500      48.4707      46.2067    -999.2500    -999.2500      35.3525      26.8031      23.1210      19.3040       0.1564       0.0069       1.0694       3.6563
   2600.4011      14.4377    -999.2500      49.7822      41.9912    -999.2500    -999.2500      33.6242      25.9868      22.1430      18.2025       0.1543       0.0071       1.2950       3.0676
   2600.5535      16.1477    -999.2500      50.6968      41.1973    -999.2500    -999.2500      33.0959      26.4858      22.2135      18.2888       0.1564       0.0088       1.1078       2.7888
   2600.7061      21.1390    -999.2500      53.6964      41.5693    -999.2500    -999.2500      31.5949      25.5366      21.2594      17.7904       0.1489       0.0116       1.3953       2.2746
   2600.8584      24.0900    -999.2500      54.5004      42.4256    -999.2500    -999.2500      29.5929      24.3728      20.8392      16.8378       0.1503       0.0127       1.8122       2.0414
   2601.0107      25.7135    -999.2500      54.9851      43.6205    -999.2500    -999.2500      28.5094      23.8158      21.1055      16.7135       0.1596       0.0122       2.4545       1.9937
   2601.1631      25.7131    -999.2500      59.7689      44.8082    -999.2500    -999.2500      27.7398      22.7471      20.6209      16.6483       0.1646       0.0113       2.8207       2.1260
   2601.3157      28.5658    -999.2500      66.2242      46.0200    -999.2500    -999.2500      26.4854      21.5263      19.9187      16.6097       0.1693       0.0117       3.4683       1.9437
   2601.4680      32.7451    -999.2500      68.6671      49.0091    -999.2500    -999.2500      25.8966      21.1368      20.0916      16.8985       0.1758       0.0132       4.0423       1.8108
   2601.6204      38.0060    -999.2500      65.6982      51.8339    -999.2500    -999.2500      26.2179      21.5437      20.8785      17.5938       0.1813       0.0156       4.5873       1.5395
   2601.7727      40.2141    -999.2500      61.2262      55.4856    -999.2500    -999.2500      29.1917      23.7174      23.2695      20.0857       0.1836       0.0171       4.6027       1.7006
   2601.9253      36.2362    -999.2500      59.0761      56.4669    -999.2500    -999.2500      28.5608      22.8470      21.8429      19.3246       0.1839       0.0165       3.7137       2.2524
   2602.0776      24.9740    -999.2500      55.4879      55.5575    -999.2500    -999.2500      23.7907      18.6968      16.7984      14.6625       0.1698       0.0132       1.8435       3.4050
   2602.2300      18.8617    -999.2500      61.1823      54.0006    -999.2500    -999.2500      22.6327      17.9131      16.3896      14.2405       0.1636       0.0106       1.1322       3.9120
   2602.3823      16.9532    -999.2500      67.2012      52.6452    -999.2500    -999.2500      22.5904      18.3867      16.8673      14.6548       0.1644       0.0095       1.0501       3.9737
   2602.5347      24.5491    -999.2500      69.8900      53.5997    -999.2500    -999.2500      22.6622      18.6742      17.1646      14.9359       0.1665       0.0118       2.2840       3.2343
   2602.6873      34.8393    -999.2500      65.6944      55.7072    -999.2500    -999.2500      23.0208      19.2519      18.1613      15.4226       0.1676       0.0157       3.6484       2.3233
   2602.8396      40.8817    -999.2500      59.0835      57.6100    -999.2500    -999.2500      23.4982      20.4220      19.6933      16.1929       0.1678       0.0187       4.1825       1.8626
   2602.9919      42.4683    -999.2500      56.1145      59.7957    -999.2500    -999.2500      24.3482      21.4617      20.3896      16.7889       0.1548       0.0216       3.4642       1.9292
   2603.1443      40.5666    -999.2500      55.7750      59.8363    -999.2500    -999.2500      25.4491      22.4400      21.5233      18.0438       0.1490       0.0220       2.7905       2.1454
   2603.2969      34.8162    -999.2500      57.9852      57.7449    -999.2500    -999.2500      28.1001      25.5494      25.7434      21.4005       0.1399       0.0194       2.1934       2.5522
   2603.4492      31.6337    -999.2500      55.3101      55.2526    -999.2500    -999.2500      31.0037      28.5116      29.3035      23.5280       0.1314       0.0172       2.1421       2.6296
   2603.6016      24.1566    -999.2500      49.4236      52.5998    -999.2500    -999.2500      33.6077      30.3722      30.9547      24.2703       0.1283       0.0132       1.6263       3.1667
   2603.7539      20.9418    -999.2500      42.1653      51.4610    -999.2500    -999.2500      35.7687      30.9931      29.7224      23.8059       0.1269       0.0114       1.4260       3.3977
   2603.9065      18.5884    -999.2500      38.4466      48.5057    -999.2500    -999.2500      36.1631      31.1762      29.0923      23.5177       0.1188       0.0099       1.3374       3.3308
   2604.0588      16.9351    -999.2500      36.2296      44.9141    -999.2500    -999.2500      36.3047      32.2992      30.1637      24.6863       0.1076       0.0089       1.2557       3.1150
   2604.2112      11.8252    -999.2500      48.6077      38.4818    -999.2500    -999.2500      34.6556      30.7570      27.6754      23.1075       0.0937       0.0074       0.4206       2.9678
   2604.3635      12.1809    -999.2500      67.6070      36.5267    -999.2500    -999.2500      31.8570      27.5822      23.6804      19.3519       0.0927       0.0070       0.6597       2.7105
   2604.5159      15.1317    -999.2500      74.6858      37.9159    -999.2500    -999.2500      35.0517      31.1072      27.2819      21.2588       0.1000       0.0079       1.1450       2.5367
   2604.6685      20.5715    -999.2500      76.4052      45.1403    -999.2500    -999.2500      37.7174      34.2092      30.3873      23.4967       0.1154       0.0116       1.2273       2.7354
   2604.8208      25.5702    -999.2500      75.7076      52.7758    -999.2500    -999.2500      39.6496      36.7779      34.1041      25.5705       0.1387       0.0146       1.4789       3.0307
   2604.9731      32.5661    -999.2500      60.7685      61.2654    -999.2500    -999.2500      41.0729      39.0426      37.1885      28.1033       0.1618       0.0178       2.1847       3.1952
   2605.1255      34.1972    -999.2500      43.6727      62.6511    -999.2500    -999.2500      41.8988      40.5357      38.4715      30.3416       0.1628       0.0181       2.5213       3.1679
   2605.2781      32.1094    -999.2500      29.2160      58.9008    -999.2500    -999.2500      43.6006      42.4670      41.1835      33.8834       0.1555       0.0171       2.3288       2.9822
   2605.4304      25.7139    -999.2500      25.8307      51.0532    -999.2500    -999.2500      45.1895      43.7454      44.0870      35.2547       0.1419       0.0144       1.5805       2.8211
   2605.5828      18.2149    -999.2500      25.0771      39.9378    -999.2500    -999.2500      46.2657      44.3256      45.3691      34.9587       0.1184       0.0110       0.7847       2.4185
   2605.7351      13.5644    -999.2500      25.1685      32.0893    -999.2500    -999.2500      44.7990      43.5057      41.7955      33.4661       0.1082       0.0082       0.5862       2.0618
   2605.8877      10.1720    -999.2500      25.3492      26.1484    -999.2500    -999.2500      42.9547      41.9756      37.9130      32.3886       0.1044       0.0058       0.5786       1.7786
   2606.0400       8.7505    -999.2500      26.5531      24.5272    -999.2500    -999.2500      41.6898      39.3724      36.1754      32.0424       0.1089       0.0050       0.5142       1.7565
   2606.1924       9.0179    -999.2500      29.0800      24.7790    -999.2500    -999.2500      41.5489      38.8544      37.4295      31.7598       0.1146       0.0048       0.6546       1.7547
   2606.3447      11.1550    -999.2500      33.2943      25.4226    -999.2500    -999.2500      42.1094      38.8231      38.2672      30.0652       0.1202       0.0050       1.1844       1.5885
