#------------------------------------------------------------------------------
#
#   Created by  : [OpenWorks] Log Export Utility (LEXP)
#   Created on  : 2016-05-19 10:14:19
#   Project     : CANT971
#   User        : R5K
#   Interpreter : PEP
#
#------------------------------------------------------------------------------
~VERSION INFORMATION
VERS. 2.0 : CWLS Log ASCII Standard - version 2.0
WRAP.  NO : One line per depth step
~WELL INFORMATION
#MNEMONIC   .UNIT                                           VALUE :DESCRIPTION
#------------------------------------------------------------------------------
STRT        .M                                           724.6620 :START DEPTH
STOP        .M                                          3013.5576 :STOP DEPTH
STEP        .M                                             0.1524 :STEP
NULL        .                                           -999.2500 :NULL VALUE
COMP        .                                             UNKNOWN :COMPANY
WELL        .                                                3056 :WELL
FLD         .                                           CANTARELL :FIELD
LOC         .                                             UNKNOWN :LOCATION
CNTY        .                                             UNKNOWN :COUNTY
STAT        .                                             UNKNOWN :STATE
CTRY        .                                              MEXICO :COUNTRY
SRVC        .                                             UNKNOWN :SERVICE COMPANY
DATE        .                                             UNKNOWN :LOG DATE
UWI         .                                                3056 :UNIQUE WELL ID
XCOORD      .                                       501503.280000 :SURFACE X
YCOORD      .                                      2149903.210000 :SURFACE Y
LAT         .                                           19.444680 :LATITUDE
LON         .                                          -92.985679 :LONGITUDE
ELEV        .M                                            30.0000 :SURFACE ELEV
ELEV_TYPE   .                                                  KB :ELEV TYPE
~CURVE INFORMATION
#MNEMONIC.UNIT        API CODE       : CURVE DESCRIPTION
#------------------------------------------------------------------------------
DEPTH    .M                          : Measured Depth
CGR      .API         UNKNOWN        : CGR:Espectroscopia-entubado:r1:0001:v1 
DT       .us/ft       UNKNOWN        : DT:sonico:r1:0001:v1 
GR-LWD   .API         UNKNOWN        : GR-LWD:PETROWORKS:rC:NONE:v1 
GR       .UNKNOWN     UNKNOWN        : GR:PETROWORKS:rC:NONE:v1 
ILD      .ohm.m       UNKNOWN        : ILD:resistivos:r1:0001:v1 
ILM      .ohm.m       UNKNOWN        : ILM:resistivos:r1:0001:v1 
LLD-LWD  .ohm.m       UNKNOWN        : LLD-LWD:PETROWORKS:rC:NONE:v1 
LLM-LWD  .UNKNOWN     UNKNOWN        : LLM-LWD:PETROWORKS:rC:NONE:v1 
LLS-LWD  .ohm.m       UNKNOWN        : LLS-LWD:PETROWORKS:rC:NONE:v1 
MSFL-LWD .ohm.m       UNKNOWN        : MSFL-LWD:PETROWORKS:rC:NONE:v1 
NPHI     .v/v_decimal UNKNOWN        : NPHI:porosidad-entubado:r1:0001:v1 
POTA     .wtpercent   UNKNOWN        : POTA:Espectroscopia-entubado:r1:0001:v2 
THOR     .UNKNOWN     UNKNOWN        : THOR:Espectroscopia-entubado:r1:0001:v1 
URAN     .UNKNOWN     UNKNOWN        : URAN:Espectroscopia-entubado:r1:0001:v1 
~A     DEPTH          CGR           DT       GR-LWD           GR          ILD          ILM      LLD-LWD      LLM-LWD      LLS-LWD     MSFL-LWD         NPHI         POTA         THOR         URAN
# ...
   2555.2908       4.2472    -999.2500      19.8960      23.4016    -999.2500    -999.2500     167.7529     172.8067     154.9042      79.6486       0.0351       0.0029       0.0683       2.1326
   2555.4431       4.9869    -999.2500      18.8477      22.7670    -999.2500    -999.2500     157.1254     162.2595     129.8037      70.2988       0.0346       0.0034       0.0798       1.9795
   2555.5957       6.1536    -999.2500      18.3319      20.4813    -999.2500    -999.2500     149.2404     160.2946     125.4844      68.3398       0.0336       0.0041       0.1241       1.5951
   2555.7480       5.4210    -999.2500      20.9325      21.9176    -999.2500    -999.2500     146.1393     155.3843     128.4674      68.0697       0.0337       0.0036       0.1198       1.8366
   2555.9004       6.8507    -999.2500      24.1981      23.0937    -999.2500    -999.2500     142.4387     140.9003     122.9907      64.7384       0.0346       0.0025       0.9693       1.8084
   2556.0527       6.3804    -999.2500      26.9296      24.5560    -999.2500    -999.2500     146.1259     125.7074     114.9012      60.7341       0.0349       0.0019       1.0510       2.0235
   2556.2051       6.5314    -999.2500      24.5232      24.4719    -999.2500    -999.2500     143.3908     121.3515     106.9179      57.8097       0.0376       0.0030       0.6584       1.9974
   2556.3577       8.4022    -999.2500      21.4907      23.2575    -999.2500    -999.2500     142.9083     132.3333     113.8197      63.6166       0.0378       0.0042       0.7109       1.6538
   2556.5100      10.1839    -999.2500      21.2464      21.3539    -999.2500    -999.2500     124.4180     120.0135     110.0525      68.1629       0.0383       0.0055       0.7055       1.2435
   2556.6624      10.6771    -999.2500      22.2804      20.9606    -999.2500    -999.2500     104.6368     103.8084      98.4913      64.1406       0.0401       0.0060       0.6469       1.1449
   2556.8147      11.7222    -999.2500      24.0748      21.3923    -999.2500    -999.2500      85.5798      81.9320      77.2559      50.8592       0.0422       0.0061       0.9163       1.0767
   2556.9673      11.8132    -999.2500      21.8118      21.8914    -999.2500    -999.2500      82.2535      73.7741      66.0322      43.8782       0.0422       0.0057       1.0751       1.1221
   2557.1196      10.7119    -999.2500      19.9737      22.1455    -999.2500    -999.2500      79.5884      70.4264      60.7491      40.2867       0.0430       0.0054       0.9004       1.2730
   2557.2720       8.8428    -999.2500      19.9198      21.7642    -999.2500    -999.2500      67.6139      62.1602      54.1506      37.9704       0.0431       0.0053       0.4126       1.4385
   2557.4243       8.5013    -999.2500      21.3259      20.9760    -999.2500    -999.2500      59.6338      56.9964      50.9682      38.3443       0.0427       0.0054       0.2559       1.3889
   2557.5769       9.5028    -999.2500      24.8945      21.5813    -999.2500    -999.2500      54.4029      52.8113      48.6385      38.3520       0.0416       0.0052       0.6258       1.3447
   2557.7292      11.8030    -999.2500      40.1807      26.1178    -999.2500    -999.2500      49.5432      47.4792      43.9954      34.3596       0.0416       0.0057       1.0981       1.5944
   2557.8816      15.2852    -999.2500      59.2266      35.8848    -999.2500    -999.2500      44.6156      42.8925      40.4519      30.7811       0.0426       0.0075       1.3497       2.2937
   2558.0339      18.2348    -999.2500      60.3312      44.1075    -999.2500    -999.2500      39.7332      39.3144      38.4776      30.2638       0.0454       0.0099       1.2524       2.8805
   2558.1863      18.5984    -999.2500      54.3730      50.1842    -999.2500    -999.2500      37.4704      37.0917      37.3450      30.5013       0.0484       0.0107       1.0372       3.5165
   2558.3389      17.0686    -999.2500      46.1534      50.0589    -999.2500    -999.2500      35.0013      33.9751      35.6566      31.0169       0.0509       0.0098       0.9483       3.6728
   2558.4912      14.9865    -999.2500      43.3377      46.4855    -999.2500    -999.2500      32.2354      29.3971      31.0254      28.3010       0.0520       0.0088       0.7554       3.5069
   2558.6436      13.4405    -999.2500      49.5541      44.1191    -999.2500    -999.2500      30.5822      25.8120      26.4651      24.6387       0.0525       0.0083       0.5205       3.4156
   2558.7959      15.8428    -999.2500      78.4638      46.5648    -999.2500    -999.2500      27.8158      21.3322      20.6594      19.4811       0.0565       0.0098       0.6171       3.4211
   2558.9485      21.0298    -999.2500     104.4123      54.0830    -999.2500    -999.2500      22.5708      17.0859      15.9459      14.7978       0.0617       0.0114       1.4342       3.6799
   2559.1008      33.0436    -999.2500     117.7205      74.3294    -999.2500    -999.2500      16.5665      13.1801      12.2760      11.0263       0.0720       0.0172       2.5354       4.5965
   2559.2532      39.0503    -999.2500     100.5634      85.9451    -999.2500    -999.2500      15.0210      12.6326      12.0198      10.4833       0.0792       0.0203       3.0372       5.2219
   2559.4055      40.6992    -999.2500      71.7509      93.0074    -999.2500    -999.2500      17.5757      15.5538      15.0140      12.9656       0.0857       0.0220       2.8045       5.8237
   2559.5581      33.6613    -999.2500      52.1176      86.3442    -999.2500    -999.2500      23.1987      22.3098      22.8035      19.9987       0.0792       0.0195       1.8123       5.8654
   2559.7104      19.8654    -999.2500      42.1139      66.4844    -999.2500    -999.2500      27.9995      29.8514      33.1243      28.4593       0.0553       0.0137       0.1936       5.1900
   2559.8628      15.8004    -999.2500      35.1772      54.5572    -999.2500    -999.2500      32.7421      37.9402      44.2087      36.3065       0.0470       0.0111       0.0791       4.3142
   2560.0151      13.1537    -999.2500      33.1191      44.5539    -999.2500    -999.2500      35.5082      42.6220      50.1389      38.1727       0.0430       0.0091       0.1007       3.4959
   2560.1675      11.8676    -999.2500      29.7397      35.7139    -999.2500    -999.2500      36.8673      44.7700      53.3963      40.2816       0.0386       0.0073       0.4633       2.6549
   2560.3201      11.0679    -999.2500      25.4445      31.8655    -999.2500    -999.2500      36.8768      45.8292      56.8668      44.4256       0.0382       0.0059       0.7820       2.3147
   2560.4724       9.1316    -999.2500      23.2243      27.8485    -999.2500    -999.2500      33.6890      44.2164      56.5511      44.2220       0.0384       0.0045       0.8022       2.0839
   2560.6248       7.5114    -999.2500      23.1360      25.8525    -999.2500    -999.2500      30.4991      40.5212      52.4813      41.2171       0.0392       0.0035       0.7405       2.0420
   2560.7771       6.6146    -999.2500      30.9140      24.6322    -999.2500    -999.2500      27.5434      30.6741      39.2111      31.8305       0.0421       0.0032       0.5869       2.0060
   2560.9297       7.3837    -999.2500      38.8420      26.3881    -999.2500    -999.2500      26.1750      25.4466      31.5330      26.4991       0.0449       0.0043       0.3831       2.1159
   2561.0820       9.8044    -999.2500      45.6416      31.5714    -999.2500    -999.2500      25.3600      23.2483      26.8581      23.6395       0.0518       0.0061       0.3657       2.4234
   2561.2344      16.6783    -999.2500      66.5831      41.0003    -999.2500    -999.2500      22.4938      19.6756      20.0761      18.3107       0.0602       0.0098       0.8552       2.7090
   2561.3867      27.2798    -999.2500      83.6302      54.5043    -999.2500    -999.2500      18.3845      16.3057      15.6266      13.9960       0.0697       0.0149       1.8142       3.0312
   2561.5393      34.4462    -999.2500      79.1729      62.7735    -999.2500    -999.2500      15.9982      15.0316      14.2445      12.0119       0.0740       0.0188       2.3218       3.1538
