#------------------------------------------------------------------------------
#
#   Created by  : [OpenWorks] Log Export Utility (LEXP)
#   Created on  : 2016-05-19 10:14:19
#   Project     : CANT971
#   User        : R5K
#   Interpreter : PEP
#
#------------------------------------------------------------------------------
~VERSION INFORMATION
VERS. 2.0 : CWLS Log ASCII Standard - version 2.0
WRAP.  NO : One line per depth step
~WELL INFORMATION
#MNEMONIC   .UNIT                                           VALUE :DESCRIPTION
#------------------------------------------------------------------------------
STRT        .M                                           724.6620 :START DEPTH
STOP        .M                                          3013.5576 :STOP DEPTH
STEP        .M                                             0.1524 :STEP
NULL        .                                           -999.2500 :NULL VALUE
COMP        .                                             UNKNOWN :COMPANY
WELL        .                                                3056 :WELL
FLD         .                                           CANTARELL :FIELD
LOC         .                                             UNKNOWN :LOCATION
CNTY        .                                             UNKNOWN :COUNTY
STAT        .                                             UNKNOWN :STATE
CTRY        .                                              MEXICO :COUNTRY
SRVC        .                                             UNKNOWN :SERVICE COMPANY
DATE        .                                             UNKNOWN :LOG DATE
UWI         .                                                3056 :UNIQUE WELL ID
XCOORD      .                                       501503.280000 :SURFACE X
YCOORD      .                                      2149903.210000 :SURFACE Y
LAT         .                                           19.444680 :LATITUDE
LON         .                                          -92.985679 :LONGITUDE
ELEV        .M                                            30.0000 :SURFACE ELEV
ELEV_TYPE   .                                                  KB :ELEV TYPE
~CURVE INFORMATION
#MNEMONIC.UNIT        API CODE       : CURVE DESCRIPTION
#------------------------------------------------------------------------------
DEPTH    .M                          : Measured Depth
CGR      .API         UNKNOWN        : CGR:Espectroscopia-entubado:r1:0001:v1 
DT       .us/ft       UNKNOWN        : DT:sonico:r1:0001:v1 
GR-LWD   .API         UNKNOWN        : GR-LWD:PETROWORKS:rC:NONE:v1 
GR       .UNKNOWN     UNKNOWN        : GR:PETROWORKS:rC:NONE:v1 
ILD      .ohm.m       UNKNOWN        : ILD:resistivos:r1:0001:v1 
ILM      .ohm.m       UNKNOWN        : ILM:resistivos:r1:0001:v1 
LLD-LWD  .ohm.m       UNKNOWN        : LLD-LWD:PETROWORKS:rC:NONE:v1 
LLM-LWD  .UNKNOWN     UNKNOWN        : LLM-LWD:PETROWORKS:rC:NONE:v1 
LLS-LWD  .ohm.m       UNKNOWN        : LLS-LWD:PETROWORKS:rC:NONE:v1 
MSFL-LWD .ohm.m       UNKNOWN        : MSFL-LWD:PETROWORKS:rC:NONE:v1 
NPHI     .v/v_decimal UNKNOWN        : NPHI:porosidad-entubado:r1:0001:v1 
POTA     .wtpercent   UNKNOWN        : POTA:Espectroscopia-entubado:r1:0001:v2 
THOR     .UNKNOWN     UNKNOWN        : THOR:Espectroscopia-entubado:r1:0001:v1 
URAN     .UNKNOWN     UNKNOWN        : URAN:Espectroscopia-entubado:r1:0001:v1 
~A     DEPTH          CGR           DT       GR-LWD           GR          ILD          ILM      LLD-LWD      LLM-LWD      LLS-LWD     MSFL-LWD         NPHI         POTA         THOR         URAN
# ...
   2414.4731      15.2642    -999.2500      36.3316      38.2172    -999.2500    -999.2500    1113.7517     628.2880     760.8331    1602.9203       0.0714       0.0053       2.2220       2.5555
   2414.6255      16.6299    -999.2500      38.0772      38.6417    -999.2500    -999.2500    1078.0450     602.8414     868.1254    1872.8835       0.0705       0.0056       2.4878       2.4506
   2414.7781      16.3286    -999.2500      37.6487      41.5204    -999.2500    -999.2500    1082.0571     592.5621    1009.3541    1959.8990       0.0708       0.0061       2.2302       2.8047
   2414.9304      14.3697    -999.2500      36.0067      47.7696    -999.2500    -999.2500    1100.5420     598.6457    1006.2261    1885.6840       0.0683       0.0058       1.7710       3.7186
   2415.0828      10.8106    -999.2500      35.0123      57.7535    -999.2500    -999.2500    1087.8010     598.4482     900.2397    1869.7782       0.0642       0.0042       1.3904       5.2264
   2415.2351       9.4938    -999.2500      36.0728      64.2698    -999.2500    -999.2500    1070.8271     596.0976     847.6326    1870.7117       0.0606       0.0030       1.5148       6.0984
   2415.3877       8.7170    -999.2500      39.5375      67.5402    -999.2500    -999.2500    1120.0742     615.6602     898.1624    1825.5732       0.0565       0.0020       1.6658       6.5490
   2415.5400      10.9535    -999.2500      46.0925      65.6485    -999.2500    -999.2500    1228.5037     634.1438     983.9647    1821.3964       0.0556       0.0032       1.8506       6.0894
   2415.6924      15.8316    -999.2500      54.9790      59.0566    -999.2500    -999.2500    1315.4432     636.6948    1020.9705    1820.7329       0.0589       0.0062       2.0212       4.8124
   2415.8447      20.6763    -999.2500      61.7656      54.3339    -999.2500    -999.2500    1306.1967     626.4956    1041.8242    1799.8346       0.0643       0.0087       2.4269       3.7472
   2415.9971      23.0906    -999.2500      62.7909      48.3091    -999.2500    -999.2500    1222.7056     606.9545     985.7470    1816.1160       0.0706       0.0096       2.7554       2.8077
   2416.1497      21.6655    -999.2500      57.8860      46.8669    -999.2500    -999.2500    1154.6040     586.9940     939.0605    1866.3151       0.0747       0.0090       2.5808       2.8058
   2416.3020      17.7290    -999.2500      51.0481      48.5584    -999.2500    -999.2500    1186.8405     557.5150    1022.9448    1784.3816       0.0769       0.0081       1.7960       3.4323
   2416.4543      15.6038    -999.2500      46.5831      51.7896    -999.2500    -999.2500    1098.7461     525.3951    1061.2205    1554.9137       0.0751       0.0082       1.1731       4.0287
   2416.6067      11.0000    -999.2500      44.6406      54.9966    -999.2500    -999.2500     972.0270     500.3162     855.8987    1347.4717       0.0708       0.0073       0.2339       4.8983
   2416.7593       9.1997    -999.2500      45.6540      54.1070    -999.2500    -999.2500     934.5841     480.9996     675.9012    1094.6620       0.0714       0.0058       0.3209       4.9997
   2416.9116       8.9251    -999.2500      50.3533      48.7975    -999.2500    -999.2500    1340.0474     504.7528     784.8654    1260.6605       0.0762       0.0040       0.9303       4.4391
   2417.0640      11.6058    -999.2500      53.7528      45.3272    -999.2500    -999.2500    1499.2008     546.0405     900.7847    1382.5692       0.0826       0.0049       1.3318       3.7543
   2417.2163      15.9790    -999.2500      51.3981      42.7588    -999.2500    -999.2500    1241.6743     525.3662     688.8123    1399.6881       0.0929       0.0060       2.1419       2.9815
   2417.3689      21.4191    -999.2500      48.0018      40.9864    -999.2500    -999.2500    1008.9874     484.1368     544.9391    1384.7992       0.1211       0.0070       3.2825       2.1785
   2417.5212      22.7716    -999.2500      47.4853      40.5578    -999.2500    -999.2500     902.3116     451.9746     527.8786    1249.5051       0.1487       0.0071       3.6546       1.9802
   2417.6736      25.3748    -999.2500      45.3065      41.1611    -999.2500    -999.2500     789.6277     419.2902     497.2541    1071.7898       0.1955       0.0086       3.7829       1.7576
   2417.8259      27.0254    -999.2500      41.8321      42.8754    -999.2500    -999.2500     661.1068     353.7425     416.2724     742.4030       0.2527       0.0100       3.6946       1.7646
   2417.9783      29.0037    -999.2500      37.2786      45.3493    -999.2500    -999.2500     486.6169     272.4293     304.3228     426.9949       0.3518       0.0113       3.7611       1.8198
   2418.1309      27.8036    -999.2500      31.7066      46.6518    -999.2500    -999.2500     329.7444     195.5979     183.5254     215.7043       0.3341       0.0109       3.5693       2.0984
   2418.2832      27.9552    -999.2500      28.7195      47.2534    -999.2500    -999.2500     228.1591     142.3849     106.6662      96.4008       0.2611       0.0106       3.7366       2.1485
   2418.4355      28.7118    -999.2500      28.3178      47.7082    -999.2500    -999.2500     178.6157     108.1930      76.9649      57.0331       0.2116       0.0117       3.5129       2.1150
   2418.5879      27.3628    -999.2500      28.1994      49.3379    -999.2500    -999.2500     187.9216     101.0632      65.9923      41.0669       0.1506       0.0126       2.7695       2.4466
   2418.7405      25.8230    -999.2500      27.3748      51.6503    -999.2500    -999.2500     334.0286     149.4496      79.4741      39.6319       0.1049       0.0127       2.2855       2.8754
   2418.8928      19.5116    -999.2500      27.3892      55.4210    -999.2500    -999.2500     563.3367     221.3721     117.5070      54.8500       0.0699       0.0099       1.6092       3.9979
   2419.0452      13.9822    -999.2500      29.4044      56.1648    -999.2500    -999.2500     735.2752     278.4293     174.8677     103.0089       0.0619       0.0075       0.9906       4.6963
   2419.1975       6.3940    -999.2500      31.8755      53.3645    -999.2500    -999.2500     647.7921     281.1870     207.4097     164.5780       0.0643       0.0036       0.3700       5.2294
   2419.3501       5.0818    -999.2500      34.1318      49.7999    -999.2500    -999.2500     498.7190     239.2973     197.1009     201.5226       0.0735       0.0028       0.3309       4.9786
   2419.5024       6.8045    -999.2500      36.8845      43.0418    -999.2500    -999.2500     428.2380     233.5338     204.3773     254.6305       0.0890       0.0028       0.8011       4.0345
   2419.6548       8.8381    -999.2500      42.4737      39.6575    -999.2500    -999.2500     396.7130     246.7959     224.3307     301.4616       0.0945       0.0039       0.9729       3.4312
   2419.8071      10.6033    -999.2500      51.4551      36.3276    -999.2500    -999.2500     460.6785     265.8373     244.4688     350.9047       0.0881       0.0047       1.1563       2.8640
   2419.9595      10.3788    -999.2500      56.9129      35.7000    -999.2500    -999.2500     619.0724     280.1530     255.9551     380.4386       0.0828       0.0050       0.9550       2.8191
   2420.1121       9.2466    -999.2500      57.1141      36.5765    -999.2500    -999.2500     672.7653     301.9558     286.7311     449.8272       0.0805       0.0050       0.6448       3.0428
   2420.2644       9.9258    -999.2500      55.1400      37.5024    -999.2500    -999.2500     680.0113     327.8221     346.6654     591.6501       0.0829       0.0054       0.6653       3.0702
   2420.4167      12.2754    -999.2500      49.7564      38.4445    -999.2500    -999.2500     701.7789     341.5983     428.3877     795.2021       0.0827       0.0060       1.0918       2.9135
   2420.5691      16.5866    -999.2500      41.4502      38.5042    -999.2500    -999.2500     655.3399     343.4162     480.3005    1129.2976       0.0804       0.0071       1.9043       2.4402
   2420.7217      16.8436    -999.2500      38.7840      38.5826    -999.2500    -999.2500     656.3484     347.6510     472.0786     997.0015       0.0816       0.0070       2.0152       2.4203
