#------------------------------------------------------------------------------
#
#   Created by  : [OpenWorks] Log Export Utility (LEXP)
#   Created on  : 2016-05-19 10:14:19
#   Project     : CANT971
#   User        : R5K
#   Interpreter : PEP
#
#------------------------------------------------------------------------------
~VERSION INFORMATION
VERS. 2.0 : CWLS Log ASCII Standard - version 2.0
WRAP.  NO : One line per depth step
~WELL INFORMATION
#MNEMONIC   .UNIT                                           VALUE :DESCRIPTION
#------------------------------------------------------------------------------
STRT        .M                                           724.6620 :START DEPTH
STOP        .M                                          3013.5576 :STOP DEPTH
STEP        .M                                             0.1524 :STEP
NULL        .                                           -999.2500 :NULL VALUE
COMP        .                                             UNKNOWN :COMPANY
WELL        .                                                3056 :WELL
FLD         .                                           CANTARELL :FIELD
LOC         .                                             UNKNOWN :LOCATION
CNTY        .                                             UNKNOWN :COUNTY
STAT        .                                             UNKNOWN :STATE
CTRY        .                                              MEXICO :COUNTRY
SRVC        .                                             UNKNOWN :SERVICE COMPANY
DATE        .                                             UNKNOWN :LOG DATE
UWI         .                                                3056 :UNIQUE WELL ID
XCOORD      .                                       501503.280000 :SURFACE X
YCOORD      .                                      2149903.210000 :SURFACE Y
LAT         .                                           19.444680 :LATITUDE
LON         .                                          -92.985679 :LONGITUDE
ELEV        .M                                            30.0000 :SURFACE ELEV
ELEV_TYPE   .                                                  KB :ELEV TYPE
~CURVE INFORMATION
#MNEMONIC.UNIT        API CODE       : CURVE DESCRIPTION
#------------------------------------------------------------------------------
DEPTH    .M                          : Measured Depth
CGR      .API         UNKNOWN        : CGR:Espectroscopia-entubado:r1:0001:v1 
DT       .us/ft       UNKNOWN        : DT:sonico:r1:0001:v1 
GR-LWD   .API         UNKNOWN        : GR-LWD:PETROWORKS:rC:NONE:v1 
GR       .UNKNOWN     UNKNOWN        : GR:PETROWORKS:rC:NONE:v1 
ILD      .ohm.m       UNKNOWN        : ILD:resistivos:r1:0001:v1 
ILM      .ohm.m       UNKNOWN        : ILM:resistivos:r1:0001:v1 
LLD-LWD  .ohm.m       UNKNOWN        : LLD-LWD:PETROWORKS:rC:NONE:v1 
LLM-LWD  .UNKNOWN     UNKNOWN        : LLM-LWD:PETROWORKS:rC:NONE:v1 
LLS-LWD  .ohm.m       UNKNOWN        : LLS-LWD:PETROWORKS:rC:NONE:v1 
MSFL-LWD .ohm.m       UNKNOWN        : MSFL-LWD:PETROWORKS:rC:NONE:v1 
NPHI     .v/v_decimal UNKNOWN        : NPHI:porosidad-entubado:r1:0001:v1 
POTA     .wtpercent   UNKNOWN        : POTA:Espectroscopia-entubado:r1:0001:v2 
THOR     .UNKNOWN     UNKNOWN        : THOR:Espectroscopia-entubado:r1:0001:v1 
URAN     .UNKNOWN     UNKNOWN        : URAN:Espectroscopia-entubado:r1:0001:v1 
~A     DEPTH          CGR           DT       GR-LWD           GR          ILD          ILM      LLD-LWD      LLM-LWD      LLS-LWD     MSFL-LWD         NPHI         POTA         THOR         URAN
# ...
   2926.5371      17.5766    -999.2500      38.2960      40.7119    -999.2500    -999.2500      25.6905      25.2767      25.3620      22.0341       0.0769       0.0091       1.3621       2.5758
   2926.6897      20.2216    -999.2500      41.3928      40.8984    -999.2500    -999.2500      27.6328      27.8120      28.1247      23.9649       0.0755       0.0090       2.1768       2.3021
   2926.8420      21.0922    -999.2500      41.2146      41.3765    -999.2500    -999.2500      28.7298      29.3292      29.7506      25.4377       0.0738       0.0089       2.4532       2.2583
   2926.9944      19.9159    -999.2500      36.4239      40.8575    -999.2500    -999.2500      31.1723      32.4372      33.9942      29.9095       0.0642       0.0087       2.1894       2.3315
   2927.1467      20.0739    -999.2500      35.6033      39.6233    -999.2500    -999.2500      34.4048      36.8678      40.8270      36.5461       0.0618       0.0080       2.5215       2.1765
   2927.2991      20.1714    -999.2500      36.3630      38.1017    -999.2500    -999.2500      37.1239      40.6696      46.8146      42.3838       0.0617       0.0080       2.5595       1.9963
   2927.4517      18.6059    -999.2500      41.3759      38.7551    -999.2500    -999.2500      38.4830      41.1979      46.9987      42.2866       0.0628       0.0076       2.2792       2.2433
   2927.6040      19.7306    -999.2500      44.0490      41.5820    -999.2500    -999.2500      38.9802      39.9686      44.2439      38.9032       0.0676       0.0069       2.8550       2.4328
   2927.7563      21.7094    -999.2500      39.1799      42.8270    -999.2500    -999.2500      39.0014      37.7483      40.1237      34.1495       0.0678       0.0065       3.5764       2.3511
   2927.9087      25.0478    -999.2500      37.2564      42.5700    -999.2500    -999.2500      38.3900      36.1027      37.4225      31.7175       0.0701       0.0075       4.1168       1.9508
   2928.0613      26.3534    -999.2500      35.7583      41.7920    -999.2500    -999.2500      37.1834      33.6636      33.9310      28.7211       0.0729       0.0080       4.3077       1.7188
   2928.2136      27.1054    -999.2500      33.2315      39.3887    -999.2500    -999.2500      34.6507      29.7772      28.3115      24.4450       0.0747       0.0089       4.1622       1.3676
   2928.3660      26.9772    -999.2500      32.7168      38.1200    -999.2500    -999.2500      33.7776      28.3904      26.3534      23.1515       0.0743       0.0092       3.9833       1.2406
   2928.5183      26.8815    -999.2500      36.5047      37.3197    -999.2500    -999.2500      31.6109      27.0242      24.6335      21.6117       0.0760       0.0106       3.4301       1.1621
   2928.6709      27.3678    -999.2500      49.3732      39.4279    -999.2500    -999.2500      29.8679      26.1439      24.0133      20.5218       0.0785       0.0137       2.3354       1.3427
   2928.8232      30.6557    -999.2500      55.4451      42.7432    -999.2500    -999.2500      28.9993      25.6485      23.8636      19.7185       0.0829       0.0165       2.1574       1.3457
   2928.9756      32.8216    -999.2500      50.0692      46.6191    -999.2500    -999.2500      29.5897      26.7442      25.3786      20.6492       0.0860       0.0181       2.1468       1.5362
   2929.1279      30.4319    -999.2500      43.0263      46.1192    -999.2500    -999.2500      31.4590      29.4547      29.4689      24.5688       0.0819       0.0170       1.8970       1.7465
   2929.2803      25.8707    -999.2500      37.3582      43.3115    -999.2500    -999.2500      33.7889      32.7702      34.8709      29.9253       0.0756       0.0144       1.6378       1.9418
   2929.4329      24.5672    -999.2500      35.7945      40.5107    -999.2500    -999.2500      36.0661      35.8073      38.8200      34.4597       0.0691       0.0128       1.8707       1.7750
   2929.5852      24.1449    -999.2500      33.8412      37.3930    -999.2500    -999.2500      38.4055      39.1917      42.6296      38.6108       0.0642       0.0111       2.4446       1.4750
   2929.7375      24.1892    -999.2500      29.0322      34.1939    -999.2500    -999.2500      40.1120      41.8415      45.6744      38.8700       0.0592       0.0100       2.8868       1.1138
   2929.8899      21.4567    -999.2500      28.9635      30.8920    -999.2500    -999.2500      41.0624      42.9500      47.2148      39.6691       0.0554       0.0082       2.8488       1.0505
   2930.0425      18.7469    -999.2500      29.3081      29.8319    -999.2500    -999.2500      42.7053      44.6065      49.9494      41.7265       0.0508       0.0078       2.2145       1.2341
   2930.1948      14.6510    -999.2500      29.1842      30.4078    -999.2500    -999.2500      43.6719      44.3419      49.1876      44.7445       0.0472       0.0079       1.0319       1.7543
   2930.3472      15.8294    -999.2500      29.3127      31.7694    -999.2500    -999.2500      43.9788      43.8651      47.9430      44.9874       0.0477       0.0079       1.3698       1.7747
   2930.4995      19.9047    -999.2500      28.9184      33.3167    -999.2500    -999.2500      43.0768      43.4641      47.6150      42.5288       0.0495       0.0084       2.3094       1.4932
   2930.6521      21.7773    -999.2500      29.6239      33.8627    -999.2500    -999.2500      43.5835      43.4482      47.3800      40.7973       0.0514       0.0081       2.9576       1.3455
   2930.8044      22.9305    -999.2500      30.9184      34.5749    -999.2500    -999.2500      44.2200      43.3268      46.8160      39.2055       0.0553       0.0082       3.2697       1.2964
   2930.9568      20.0915    -999.2500      33.9200      35.1140    -999.2500    -999.2500      43.7168      42.0911      44.5755      36.2290       0.0562       0.0080       2.5208       1.6725
   2931.1091      19.2504    -999.2500      35.4664      35.7554    -999.2500    -999.2500      42.1674      40.4123      41.9537      34.6881       0.0603       0.0095       1.6835       1.8376
   2931.2615      19.6052    -999.2500      35.6929      36.0549    -999.2500    -999.2500      39.3923      38.4417      39.3595      34.7710       0.0599       0.0113       1.0729       1.8314
   2931.4141      23.0982    -999.2500      34.3473      35.1757    -999.2500    -999.2500      38.5645      38.1304      39.3447      36.2076       0.0599       0.0131       1.3453       1.3446
   2931.5664      22.5310    -999.2500      31.2980      33.7683    -999.2500    -999.2500      37.6935      37.5752      39.4584      36.7481       0.0581       0.0126       1.3818       1.2511
   2931.7188      18.3867    -999.2500      31.3562      31.9773    -999.2500    -999.2500      37.4863      38.8702      40.0477      34.2878       0.0554       0.0099       1.2995       1.5131
   2931.8711      12.9054    -999.2500      32.4317      30.5529    -999.2500    -999.2500      37.3273      39.3289      39.9141      33.7686       0.0538       0.0062       1.1983       1.9648
   2932.0237      10.5903    -999.2500      34.9969      31.3190    -999.2500    -999.2500      37.1012      39.3565      39.8488      33.7156       0.0558       0.0055       0.8229       2.3078
   2932.1760      15.3255    -999.2500      42.5669      34.3332    -999.2500    -999.2500      35.6380      37.3851      37.3940      29.9795       0.0642       0.0085       0.9932       2.1162
   2932.3284      22.2009    -999.2500      47.8829      38.2466    -999.2500    -999.2500      34.2460      35.5258      35.1368      27.3017       0.0718       0.0122       1.4437       1.7864
   2932.4807      27.3206    -999.2500      54.0276      43.3917    -999.2500    -999.2500      30.5053      30.2768      29.8787      23.5732       0.0816       0.0154       1.6383       1.7893
   2932.6333      25.2278    -999.2500      52.7264      45.6268    -999.2500    -999.2500      28.6332      27.3779      27.9470      23.1015       0.0891       0.0149       1.2477       2.2711
   2932.7856      21.9139    -999.2500      47.9869      45.3695    -999.2500    -999.2500      28.2802      26.6360      28.5270      24.6584       0.0835       0.0135       0.8643       2.6114
