#------------------------------------------------------------------------------
#
#   Created by  : [OpenWorks] Log Export Utility (LEXP)
#   Created on  : 2016-05-19 10:14:19
#   Project     : CANT971
#   User        : R5K
#   Interpreter : PEP
#
#------------------------------------------------------------------------------
~VERSION INFORMATION
VERS. 2.0 : CWLS Log ASCII Standard - version 2.0
WRAP.  NO : One line per depth step
~WELL INFORMATION
#MNEMONIC   .UNIT                                           VALUE :DESCRIPTION
#------------------------------------------------------------------------------
STRT        .M                                           724.6620 :START DEPTH
STOP        .M                                          3013.5576 :STOP DEPTH
STEP        .M                                             0.1524 :STEP
NULL        .                                           -999.2500 :NULL VALUE
COMP        .                                             UNKNOWN :COMPANY
WELL        .                                                3056 :WELL
FLD         .                                           CANTARELL :FIELD
LOC         .                                             UNKNOWN :LOCATION
CNTY        .                                             UNKNOWN :COUNTY
STAT        .                                             UNKNOWN :STATE
CTRY        .                                              MEXICO :COUNTRY
SRVC        .                                             UNKNOWN :SERVICE COMPANY
DATE        .                                             UNKNOWN :LOG DATE
UWI         .                                                3056 :UNIQUE WELL ID
XCOORD      .                                       501503.280000 :SURFACE X
YCOORD      .                                      2149903.210000 :SURFACE Y
LAT         .                                           19.444680 :LATITUDE
LON         .                                          -92.985679 :LONGITUDE
ELEV        .M                                            30.0000 :SURFACE ELEV
ELEV_TYPE   .                                                  KB :ELEV TYPE
~CURVE INFORMATION
#MNEMONIC.UNIT        API CODE       : CURVE DESCRIPTION
#------------------------------------------------------------------------------
DEPTH    .M                          : Measured Depth
CGR      .API         UNKNOWN        : CGR:Espectroscopia-entubado:r1:0001:v1 
DT       .us/ft       UNKNOWN        : DT:sonico:r1:0001:v1 
GR-LWD   .API         UNKNOWN        : GR-LWD:PETROWORKS:rC:NONE:v1 
GR       .UNKNOWN     UNKNOWN        : GR:PETROWORKS:rC:NONE:v1 
ILD      .ohm.m       UNKNOWN        : ILD:resistivos:r1:0001:v1 
ILM      .ohm.m       UNKNOWN        : ILM:resistivos:r1:0001:v1 
LLD-LWD  .ohm.m       UNKNOWN        : LLD-LWD:PETROWORKS:rC:NONE:v1 
LLM-LWD  .UNKNOWN     UNKNOWN        : LLM-LWD:PETROWORKS:rC:NONE:v1 
LLS-LWD  .ohm.m       UNKNOWN        : LLS-LWD:PETROWORKS:rC:NONE:v1 
MSFL-LWD .ohm.m       UNKNOWN        : MSFL-LWD:PETROWORKS:rC:NONE:v1 
NPHI     .v/v_decimal UNKNOWN        : NPHI:porosidad-entubado:r1:0001:v1 
POTA     .wtpercent   UNKNOWN        : POTA:Espectroscopia-entubado:r1:0001:v2 
THOR     .UNKNOWN     UNKNOWN        : THOR:Espectroscopia-entubado:r1:0001:v1 
URAN     .UNKNOWN     UNKNOWN        : URAN:Espectroscopia-entubado:r1:0001:v1 
~A     DEPTH          CGR           DT       GR-LWD           GR          ILD          ILM      LLD-LWD      LLM-LWD      LLS-LWD     MSFL-LWD         NPHI         POTA         THOR         URAN
# ...
   2830.5251       9.8721    -999.2500      29.3123      29.5351    -999.2500    -999.2500      89.8628      82.7263      77.5442      49.8092       0.0402       0.0048       0.8861       2.1892
   2830.6775      13.3893    -999.2500      40.8267      30.7638    -999.2500    -999.2500      87.9191      80.1839      72.0729      46.0225       0.0405       0.0062       1.3525       1.9345
   2830.8301      17.2035    -999.2500      47.3932      34.6820    -999.2500    -999.2500      86.3864      77.7951      69.1178      44.1488       0.0426       0.0081       1.6610       1.9460
   2830.9824      22.6329    -999.2500      54.7443      40.7273    -999.2500    -999.2500      86.4786      74.6074      65.4874      43.0784       0.0452       0.0103       2.3312       2.0145
   2831.1348      25.0458    -999.2500      47.7146      43.7155    -999.2500    -999.2500      83.0878      71.3901      61.3721      41.5096       0.0498       0.0109       2.7655       2.0788
   2831.2871      25.6955    -999.2500      37.0691      43.7906    -999.2500    -999.2500      78.4407      68.1965      57.2127      38.8707       0.0568       0.0104       3.1798       2.0146
   2831.4397      25.5374    -999.2500      33.7038      41.2549    -999.2500    -999.2500      79.9216      68.8534      58.3792      39.7639       0.0583       0.0095       3.4590       1.7499
   2831.5920      24.4653    -999.2500      31.1423      36.4441    -999.2500    -999.2500      81.5868      68.9233      59.9169      41.6814       0.0553       0.0083       3.6492       1.3326
   2831.7444      24.3245    -999.2500      36.2333      34.5915    -999.2500    -999.2500      86.3548      71.2622      65.5019      45.1735       0.0528       0.0087       3.4460       1.1431
   2831.8967      22.3755    -999.2500      37.8039      34.8463    -999.2500    -999.2500      88.2952      73.4699      68.3185      47.8282       0.0488       0.0091       2.7307       1.3884
   2832.0491      21.3926    -999.2500      40.1015      36.0994    -999.2500    -999.2500      87.7856      77.2640      70.5888      51.3446       0.0485       0.0090       2.5094       1.6375
   2832.2017      15.1345    -999.2500      41.8183      38.0744    -999.2500    -999.2500      89.8852      75.6242      67.4956      43.8207       0.0515       0.0068       1.5767       2.5540
   2832.3540      13.0759    -999.2500      42.2342      38.2826    -999.2500    -999.2500      90.3832      74.6374      65.4590      40.5644       0.0523       0.0065       1.1204       2.8064
   2832.5063       9.7207    -999.2500      37.9978      37.3015    -999.2500    -999.2500      86.9897      69.5931      60.4876      38.8425       0.0542       0.0057       0.4956       3.0707
   2832.6587      11.1622    -999.2500      34.3860      36.2650    -999.2500    -999.2500      83.6584      66.8793      57.3874      41.4237       0.0554       0.0062       0.7147       2.7947
   2832.8113      12.0413    -999.2500      33.7279      35.1954    -999.2500    -999.2500      84.6283      69.0738      57.0405      43.4360       0.0601       0.0056       1.1831       2.5778
   2832.9636      11.6935    -999.2500      36.1198      35.1940    -999.2500    -999.2500      95.1519      78.6346      58.0311      41.0540       0.0631       0.0053       1.2057       2.6164
   2833.1160      12.6284    -999.2500      37.1838      35.6469    -999.2500    -999.2500      94.5981      78.2511      57.9651      38.8256       0.0631       0.0052       1.5138       2.5629
   2833.2683      16.0787    -999.2500      36.3740      36.3698    -999.2500    -999.2500      80.5127      66.6437      57.7553      38.7400       0.0567       0.0062       2.0970       2.2591
   2833.4209      18.1336    -999.2500      34.5178      36.0179    -999.2500    -999.2500      82.1592      68.8074      61.3286      42.9911       0.0515       0.0073       2.2656       1.9911
   2833.5732      19.6167    -999.2500      31.1155      34.6655    -999.2500    -999.2500      87.1164      74.6144      67.8554      50.0355       0.0467       0.0077       2.5172       1.6753
   2833.7256      17.6700    -999.2500      31.9805      32.8774    -999.2500    -999.2500      87.2615      75.4502      70.4497      50.2235       0.0436       0.0074       2.0581       1.6931
   2833.8779      15.1551    -999.2500      32.4229      30.5534    -999.2500    -999.2500      87.7918      75.6816      71.3260      50.5564       0.0422       0.0068       1.5863       1.7143
   2834.0303      15.1300    -999.2500      32.2128      29.8361    -999.2500    -999.2500      92.8377      79.9367      75.4315      53.3017       0.0431       0.0068       1.6135       1.6373
   2834.1829      16.6313    -999.2500      35.4273      30.8192    -999.2500    -999.2500      88.5541      76.4734      71.0109      51.2302       0.0439       0.0069       1.9725       1.5796
   2834.3352      18.7814    -999.2500      38.2631      33.6908    -999.2500    -999.2500      85.2254      73.8545      67.8794      50.0412       0.0448       0.0082       2.0600       1.6599
   2834.4875      19.3954    -999.2500      44.3013      37.1268    -999.2500    -999.2500      83.4191      73.2104      66.8771      49.8515       0.0454       0.0091       1.8967       1.9741
   2834.6399      18.6214    -999.2500      38.6368      37.7373    -999.2500    -999.2500      89.6847      77.8541      71.9069      52.0189       0.0471       0.0092       1.6462       2.1282
   2834.7925      17.4980    -999.2500      29.8674      34.5921    -999.2500    -999.2500      97.8536      83.0159      77.1707      54.2969       0.0471       0.0088       1.4841       1.9031
   2834.9448      17.2353    -999.2500      29.9906      32.3363    -999.2500    -999.2500      97.6736      82.3017      74.5507      53.3828       0.0464       0.0082       1.6504       1.6813
   2835.0972      19.5571    -999.2500      34.4296      33.3267    -999.2500    -999.2500      97.1139      82.0314      72.6192      52.0790       0.0479       0.0076       2.5135       1.5334
   2835.2495      21.3611    -999.2500      48.4195      37.2623    -999.2500    -999.2500     102.2091      86.2344      76.2459      51.2822       0.0502       0.0081       2.8380       1.7704
   2835.4021      22.1094    -999.2500      51.3423      44.5388    -999.2500    -999.2500     103.6875      86.6107      75.1334      49.8585       0.0545       0.0092       2.6391       2.4971
   2835.5544      20.2857    -999.2500      51.4556      46.4910    -999.2500    -999.2500     105.2846      85.2454      69.8698      46.2160       0.0582       0.0094       2.0094       2.9177
   2835.7068      16.1140    -999.2500      47.3299      46.3340    -999.2500    -999.2500     107.5738      85.1327      64.1442      41.1768       0.0611       0.0085       1.2092       3.3645
   2835.8591      16.7154    -999.2500      45.7455      45.3843    -999.2500    -999.2500     107.1811      83.4656      60.9505      38.5776       0.0621       0.0081       1.5428       3.1918
   2836.0115      18.5784    -999.2500      43.5684      44.5610    -999.2500    -999.2500     126.2027      90.9681      58.0125      38.9517       0.0617       0.0078       2.1904       2.8928
   2836.1641      16.6891    -999.2500      41.5053      43.6997    -999.2500    -999.2500     117.5279      85.1085      53.2214      33.7086       0.0607       0.0072       1.8767       3.0071
   2836.3164      11.6840    -999.2500      40.3427      42.1179    -999.2500    -999.2500     107.7093      80.0893      52.4107      30.9511       0.0611       0.0061       0.8842       3.3883
   2836.4688      10.9617    -999.2500      39.6537      39.8480    -999.2500    -999.2500     106.0341      80.6814      60.0337      34.9555       0.0597       0.0052       1.0652       3.2160
   2836.6211      12.5947    -999.2500      39.8627      39.3707    -999.2500    -999.2500     104.0654      76.4956      58.6564      35.1804       0.0584       0.0048       1.6562       2.9811
   2836.7737      13.0436    -999.2500      40.6644      39.8017    -999.2500    -999.2500      97.3879      66.1428      48.3713      31.2366       0.0550       0.0050       1.7349       2.9791
