#------------------------------------------------------------------------------
#
#   Created by  : [OpenWorks] Log Export Utility (LEXP)
#   Created on  : 2016-05-19 10:15:25
#   Project     : CANT971
#   User        : R5K
#   Interpreter : PEP
#
#------------------------------------------------------------------------------
~VERSION INFORMATION
VERS. 2.0 : CWLS Log ASCII Standard - version 2.0
WRAP.  NO : One line per depth step
~WELL INFORMATION
#MNEMONIC   .UNIT                                           VALUE :DESCRIPTION
#------------------------------------------------------------------------------
STRT        .M                                           740.7456 :START DEPTH
STOP        .M                                          2958.0132 :STOP DEPTH
STEP        .M                                             0.1524 :STEP
NULL        .                                           -999.2500 :NULL VALUE
COMP        .                                             UNKNOWN :COMPANY
WELL        .                                                3060 :WELL
FLD         .                                             UNKNOWN :FIELD
LOC         .                                             UNKNOWN :LOCATION
CNTY        .                                             UNKNOWN :COUNTY
STAT        .                                             UNKNOWN :STATE
CTRY        .                                             UNKNOWN :COUNTRY
SRVC        .                                             UNKNOWN :SERVICE COMPANY
DATE        .                                             UNKNOWN :LOG DATE
UWI         .                                                3060 :UNIQUE WELL ID
XCOORD      .                                       601505.010000 :SURFACE X
YCOORD      .                                      2149907.440000 :SURFACE Y
LAT         .                                           19.442142 :LATITUDE
LON         .                                          -92.033049 :LONGITUDE
ELEV        .M                                             0.0000 :SURFACE ELEV
ELEV_TYPE   .                                                  KB :ELEV TYPE
~CURVE INFORMATION
#MNEMONIC.UNIT        API CODE       : CURVE DESCRIPTION
#------------------------------------------------------------------------------
DEPTH    .M                          : Measured Depth
CGR      .API         UNKNOWN        : CGR:Espectroscopia-entubado:r1:0002:v1 
DT       .us/ft       UNKNOWN        : DT:sonico:r1:0001:v1 
GR-LWD   .API         UNKNOWN        : GR-LWD:registros-LWD:r1:0002:v1 
GR       .API         UNKNOWN        : GR:GR-entubado:r2:0001:v1 
LLD-LWD  .ohm.m       UNKNOWN        : LLD-LWD:registros-LWD:r1:0002:v1 
LLS-LWD  .ohm.m       UNKNOWN        : LLS-LWD:registros-LWD:r1:0002:v1 
MSFL-LWD .ohm.m       UNKNOWN        : MSFL-LWD:registros-LWD:r1:0002:v1 
NPHI     .UNKNOWN     UNKNOWN        : NPHI:porosidad-entubado:r2:0001:v1 
POTA     .wtpercent   UNKNOWN        : POTA:Espectroscopia-entubado:r1:0002:v1 
SIGM     .cu          UNKNOWN        : SIGM:TMDL:r1:0001:v1 
THOR     .ppm         UNKNOWN        : THOR:Espectroscopia-entubado:r1:0002:v1 
URAN     .ppm         UNKNOWN        : URAN:Espectroscopia-entubado:r1:0002:v1 
~A     DEPTH          CGR           DT       GR-LWD           GR      LLD-LWD      LLS-LWD     MSFL-LWD         NPHI         POTA         SIGM         THOR         URAN
# ...
   2920.6753      27.6450    -999.2500      58.8043      51.7072      33.5174      39.1161      36.3758       0.0755       0.0037    -999.2500       6.3648       2.6789
   2920.8276      23.3368    -999.2500      57.9363      58.6379      33.7418      38.4409      35.4299       0.0824       0.0030    -999.2500       5.4170       3.9302
   2920.9800      18.7687    -999.2500      63.2875      64.8544      33.5990      37.3253      34.4020       0.0875       0.0029    -999.2500       4.1974       5.1309
   2921.1323      16.0514    -999.2500      70.8085      67.6903      33.2403      36.5199      33.6385       0.0896       0.0032    -999.2500       3.2778       5.7491
   2921.2849      16.7164    -999.2500      73.3213      66.8437      33.1187      36.6563      33.6072       0.0884       0.0031    -999.2500       3.4935       5.5809
   2921.4373      23.3499    -999.2500      69.9569      65.3354      33.2276      37.4333      34.1783       0.0841       0.0034    -999.2500       5.2670       4.6744
   2921.5896      34.7899    -999.2500      68.6735      65.5362      33.2274      38.2050      34.9752       0.0811       0.0054    -999.2500       7.7294       3.4231
   2921.7419      45.4226    -999.2500      74.8791      66.6032      33.2744      39.3079      36.3110       0.0815       0.0083    -999.2500       9.5782       2.3582
   2921.8943      48.0499    -999.2500      81.0705      66.1208      33.7222      40.6471      37.9290       0.0823       0.0102    -999.2500       9.5930       2.0119
   2922.0469      43.6997    -999.2500      76.7158      64.5037      34.3816      41.3736      39.1666       0.0820       0.0105    -999.2500       8.2252       2.3162
   2922.1992      37.9195    -999.2500      64.1447      65.1987      34.6389      40.9244      39.4305       0.0825       0.0096    -999.2500       6.9438       3.0371
   2922.3516      36.8837    -999.2500      56.5016      68.0719      34.4296      39.3351      38.0882       0.0854       0.0085    -999.2500       7.0882       3.4723
   2922.5039      39.6489    -999.2500      62.4210      69.6792      34.1046      37.1520      35.5744       0.0884       0.0065    -999.2500       8.6845       3.3434
   2922.6565      40.7496    -999.2500      76.5372      66.6683      33.4828      34.8274      32.7229       0.0883       0.0038    -999.2500      10.0778       2.8856
   2922.8088      37.3800    -999.2500      87.1794      60.3235      32.3871      32.6284      29.8509       0.0855       0.0019    -999.2500       9.8631       2.5544
   2922.9612      29.9267    -999.2500      87.3220      55.1664      31.5721      30.9362      27.6963       0.0826       0.0012    -999.2500       8.0172       2.8100
   2923.1135      22.6007    -999.2500      87.6462      54.4262      31.4793      30.1341      27.1048       0.0815       0.0010    -999.2500       6.0103       3.5432
   2923.2661      19.8384    -999.2500      99.2896      57.2457      31.8801      30.2853      27.6623       0.0829       0.0010    -999.2500       5.2425       4.1647
   2923.4185      24.1149    -999.2500     105.2298      59.9993      32.6060      31.1777      28.6238       0.0855       0.0010    -999.2500       6.4375       3.9951
   2923.5708      31.7773    -999.2500      92.6293      60.6457      33.2730      32.3987      29.4993       0.0867       0.0010    -999.2500       8.6083       3.2140
   2923.7231      36.8810    -999.2500      74.5047      59.6430      33.3501      33.4874      30.1191       0.0857       0.0010    -999.2500      10.0696       2.5342
   2923.8755      35.3537    -999.2500      62.1678      59.1091      33.0130      34.0101      30.6527       0.0832       0.0010    -999.2500       9.6470       2.6448
   2924.0281      28.6856    -999.2500      54.8575      58.6062      33.0063      34.4859      31.6048       0.0812       0.0010    -999.2500       7.7587       3.3312
   2924.1804      23.4250    -999.2500      50.6838      56.0421      33.3857      35.7451      33.2247       0.0803       0.0021    -999.2500       5.8475       3.6314
   2924.3328      25.0258    -999.2500      49.2500      52.4606      34.4045      37.3494      34.5392       0.0785       0.0053    -999.2500       5.0215       3.0544
   2924.4851      30.5709    -999.2500      49.8509      50.6671      36.1423      38.5596      35.0355       0.0751       0.0084    -999.2500       5.3486       2.2374
   2924.6377      35.0918    -999.2500      53.2246      53.0263      37.5813      39.0368      35.0290       0.0737       0.0088    -999.2500       6.4567       1.9967
   2924.7900      38.4925    -999.2500      58.3925      59.8834      38.1316      38.9338      34.6212       0.0772       0.0071    -999.2500       8.0938       2.3816
   2924.9424      40.9006    -999.2500      61.9107      67.7554      38.0700      38.8071      33.5114       0.0852       0.0054    -999.2500       9.4822       2.9898
   2925.0947      39.7090    -999.2500      63.1034      72.8048      38.4684      38.9183      32.2772       0.0942       0.0048    -999.2500       9.3648       3.6846
   2925.2473      30.8639    -999.2500      63.8435      73.8845      39.2642      39.5100      32.4132       0.0994       0.0048    -999.2500       6.8466       4.7896
   2925.3997      17.5704    -999.2500      64.0367      71.7381      39.9090      41.0765      34.8057       0.0994       0.0053    -999.2500       2.8710       6.0307
   2925.5520    -999.2500    -999.2500      59.7287    -999.2500      40.8696      43.6739      38.7281    -999.2500    -999.2500    -999.2500    -999.2500    -999.2500
   2925.7043    -999.2500    -999.2500      54.2964    -999.2500      42.1511      47.4718      43.1142    -999.2500    -999.2500    -999.2500    -999.2500    -999.2500
   2925.8567    -999.2500    -999.2500      57.1270    -999.2500      43.0895      51.8059      46.7452    -999.2500    -999.2500    -999.2500    -999.2500    -999.2500
   2926.0093    -999.2500    -999.2500      68.5671    -999.2500      43.2641      54.5269      48.3515    -999.2500    -999.2500    -999.2500    -999.2500    -999.2500
   2926.1616    -999.2500    -999.2500      89.5876    -999.2500      43.5567      56.5315      49.9930    -999.2500    -999.2500    -999.2500    -999.2500    -999.2500
   2926.3140    -999.2500    -999.2500     114.8394    -999.2500      44.4869      60.1013      54.2894    -999.2500    -999.2500    -999.2500    -999.2500    -999.2500
   2926.4663    -999.2500    -999.2500     116.4392    -999.2500      45.6946      63.4706      59.2139    -999.2500    -999.2500    -999.2500    -999.2500    -999.2500
   2926.6189    -999.2500    -999.2500      78.7151    -999.2500      46.8099      64.4133      61.0991    -999.2500    -999.2500    -999.2500    -999.2500    -999.2500
   2926.7712    -999.2500    -999.2500      53.7587    -999.2500      46.9927      62.6593      58.3824    -999.2500    -999.2500    -999.2500    -999.2500    -999.2500
   2926.9236    -999.2500    -999.2500      57.7204    -999.2500      45.9916      58.7598      53.2488    -999.2500    -999.2500    -999.2500    -999.2500    -999.2500
   2927.0759    -999.2500    -999.2500      82.2388    -999.2500      43.7917      54.9026      48.2493    -999.2500    -999.2500    -999.2500    -999.2500    -999.2500
   2927.2285    -999.2500    -999.2500     138.9478    -999.2500      41.3158      51.5829      44.6638    -999.2500    -999.2500    -999.2500    -999.2500    -999.2500
   2927.3809    -999.2500    -999.2500     223.3357    -999.2500      39.1261      49.7171      44.1022    -999.2500    -999.2500    -999.2500    -999.2500    -999.2500
   2927.5332    -999.2500    -999.2500     278.9705    -999.2500      37.3503      49.1175      45.9390    -999.2500    -999.2500    -999.2500    -999.2500    -999.2500
   2927.6855    -999.2500    -999.2500     231.6748    -999.2500      37.2062      49.0132      48.2350    -999.2500    -999.2500    -999.2500    -999.2500    -999.2500
   2927.8379    -999.2500    -999.2500     123.6465    -999.2500      37.5804      48.4568      48.2839    -999.2500    -999.2500    -999.2500    -999.2500    -999.2500
