#------------------------------------------------------------------------------
#
#   Created by  : [OpenWorks] Log Export Utility (LEXP)
#   Created on  : 2016-05-19 10:15:25
#   Project     : CANT971
#   User        : R5K
#   Interpreter : PEP
#
#------------------------------------------------------------------------------
~VERSION INFORMATION
VERS. 2.0 : CWLS Log ASCII Standard - version 2.0
WRAP.  NO : One line per depth step
~WELL INFORMATION
#MNEMONIC   .UNIT                                           VALUE :DESCRIPTION
#------------------------------------------------------------------------------
STRT        .M                                           740.7456 :START DEPTH
STOP        .M                                          2958.0132 :STOP DEPTH
STEP        .M                                             0.1524 :STEP
NULL        .                                           -999.2500 :NULL VALUE
COMP        .                                             UNKNOWN :COMPANY
WELL        .                                                3060 :WELL
FLD         .                                             UNKNOWN :FIELD
LOC         .                                             UNKNOWN :LOCATION
CNTY        .                                             UNKNOWN :COUNTY
STAT        .                                             UNKNOWN :STATE
CTRY        .                                             UNKNOWN :COUNTRY
SRVC        .                                             UNKNOWN :SERVICE COMPANY
DATE        .                                             UNKNOWN :LOG DATE
UWI         .                                                3060 :UNIQUE WELL ID
XCOORD      .                                       601505.010000 :SURFACE X
YCOORD      .                                      2149907.440000 :SURFACE Y
LAT         .                                           19.442142 :LATITUDE
LON         .                                          -92.033049 :LONGITUDE
ELEV        .M                                             0.0000 :SURFACE ELEV
ELEV_TYPE   .                                                  KB :ELEV TYPE
~CURVE INFORMATION
#MNEMONIC.UNIT        API CODE       : CURVE DESCRIPTION
#------------------------------------------------------------------------------
DEPTH    .M                          : Measured Depth
CGR      .API         UNKNOWN        : CGR:Espectroscopia-entubado:r1:0002:v1 
DT       .us/ft       UNKNOWN        : DT:sonico:r1:0001:v1 
GR-LWD   .API         UNKNOWN        : GR-LWD:registros-LWD:r1:0002:v1 
GR       .API         UNKNOWN        : GR:GR-entubado:r2:0001:v1 
LLD-LWD  .ohm.m       UNKNOWN        : LLD-LWD:registros-LWD:r1:0002:v1 
LLS-LWD  .ohm.m       UNKNOWN        : LLS-LWD:registros-LWD:r1:0002:v1 
MSFL-LWD .ohm.m       UNKNOWN        : MSFL-LWD:registros-LWD:r1:0002:v1 
NPHI     .UNKNOWN     UNKNOWN        : NPHI:porosidad-entubado:r2:0001:v1 
POTA     .wtpercent   UNKNOWN        : POTA:Espectroscopia-entubado:r1:0002:v1 
SIGM     .cu          UNKNOWN        : SIGM:TMDL:r1:0001:v1 
THOR     .ppm         UNKNOWN        : THOR:Espectroscopia-entubado:r1:0002:v1 
URAN     .ppm         UNKNOWN        : URAN:Espectroscopia-entubado:r1:0002:v1 
~A     DEPTH          CGR           DT       GR-LWD           GR      LLD-LWD      LLS-LWD     MSFL-LWD         NPHI         POTA         SIGM         THOR         URAN
# ...
   2613.4368      42.7001    -999.2500     167.8672     110.1407      72.9587      85.7665      67.1388       0.1490       0.0039    -999.2500      10.5416       7.5084
   2613.5891      47.3009    -999.2500     156.2199     118.2617      71.6550      89.9761      71.2348       0.1779       0.0075    -999.2500      10.4452       7.9004
   2613.7417      39.5710    -999.2500     111.4376     105.2895      73.3198     103.7587      84.5437       0.1810       0.0088    -999.2500       7.7373       7.3167
   2613.8940      23.5824    -999.2500      67.6595      78.0017      78.5752     121.6684     101.9124       0.1554       0.0067    -999.2500       4.0456       6.0587
   2614.0464      10.4006    -999.2500      41.9808      50.9164      83.5401     127.9285     111.5778       0.1235       0.0039    -999.2500       1.3786       4.5108
   2614.1987       7.4944    -999.2500      32.8179      35.6340      87.0628     122.3533     107.9561       0.1014       0.0028    -999.2500       1.0187       3.1329
   2614.3513       9.5659    -999.2500      35.0032      33.2618      88.8435     111.9726      94.5771       0.0914       0.0022    -999.2500       1.8212       2.6381
   2614.5037      13.9828    -999.2500      47.6425      41.3095      87.1878     100.1417      78.9723       0.0912       0.0014    -999.2500       3.4307       3.0423
   2614.6560      19.0272    -999.2500      61.9425      51.7745      81.2233      87.6170      66.4729       0.0947       0.0009    -999.2500       5.0313       3.6458
   2614.8083      21.0983    -999.2500      64.2384      56.7158      74.7689      82.5493      64.2644       0.0957       0.0010    -999.2500       5.6075       3.9654
   2614.9607      19.9323    -999.2500      60.7081      56.8874      74.0209      92.8158      74.6074       0.0930       0.0011    -999.2500       5.2522       4.1143
   2615.1133      17.6463    -999.2500      67.4556      57.5733      78.0592     108.8719      87.7678       0.0896       0.0019    -999.2500       4.2787       4.4453
   2615.2656      17.2816    -999.2500      76.6556      59.0220      81.8456     118.6738      96.2192       0.0900       0.0035    -999.2500       3.5360       4.6472
   2615.4180      17.0802    -999.2500      69.7724      56.7772      83.8791     119.4561      99.0460       0.0923       0.0048    -999.2500       2.9244       4.4196
   2615.5703      14.2951    -999.2500      53.4078      52.3475      84.0184     112.7537      94.6378       0.0885       0.0054    -999.2500       1.9336       4.2365
   2615.7229      11.0485    -999.2500      52.5601      50.9215      82.1181     102.0430      83.4653       0.0792       0.0044    -999.2500       1.3908       4.4392
   2615.8752      17.6345    -999.2500      71.2829      54.9496      79.5966      90.3491      71.9974       0.0756       0.0035    -999.2500       3.6196       4.1544
   2616.0276      31.1238    -999.2500      86.2431      61.7552      78.8107      82.2312      67.1187       0.0825       0.0041    -999.2500       7.2074       3.4103
   2616.1799      40.2513    -999.2500      90.2657      67.6866      80.3119      79.6088      66.9371       0.0905       0.0062    -999.2500       8.9555       3.0545
   2616.3325      39.7502    -999.2500      92.9447      72.3924      82.1140      78.7495      64.2296       0.0900       0.0075    -999.2500       8.2994       3.6341
   2616.4849      34.9338    -999.2500      92.3667      75.4526      82.2424      77.0591      58.4778       0.0851       0.0070    -999.2500       7.1462       4.5111
   2616.6372      32.6385    -999.2500      89.1004      74.9970      79.1218      73.9890      54.7911       0.0829       0.0053    -999.2500       7.1591       4.7160
   2616.7896      28.2837    -999.2500      77.9362      66.7670      75.6449      77.7963      60.6059       0.0817       0.0038    -999.2500       6.5040       4.2845
   2616.9419      20.0633    -999.2500      53.2295      51.8348      78.4121      99.7293      78.5320       0.0795       0.0026    -999.2500       4.6782       3.5372
   2617.0945      12.9557    -999.2500      34.0373      36.8488      87.0176     130.5018      97.6281       0.0774       0.0014    -999.2500       3.1485       2.6601
   2617.2468      10.4799    -999.2500      30.9851      27.6051      95.2862     151.9183     107.2903       0.0762       0.0008    -999.2500       2.6456       1.9066
   2617.3992      10.5094    -999.2500      30.9230      24.3301     100.1472     163.6532     111.3107       0.0777       0.0007    -999.2500       2.6811       1.5387
   2617.5515      11.4218    -999.2500      26.3311      22.9139     103.4992     175.7296     118.1015       0.0830       0.0007    -999.2500       2.9654       1.2794
   2617.7041      14.2711    -999.2500      21.5987      20.6740     105.4654     184.2140     122.5341       0.0901       0.0008    -999.2500       3.7219       0.7128
   2617.8564      17.0117    -999.2500      19.8440      20.0084     103.8185     181.7351     121.0884       0.0940       0.0011    -999.2500       4.3904       0.3336
   2618.0088      15.0293    -999.2500      20.3547      20.4704     100.1065     174.4012     120.0551       0.0917       0.0008    -999.2500       3.9299       0.6057
   2618.1611      11.7935    -999.2500      22.6411      21.3176      97.2315     168.3595     121.3419       0.0864       0.0007    -999.2500       3.0606       1.0603
   2618.3137      12.7067    -999.2500      27.9921      23.5409      94.4878     157.9743     117.6986       0.0808       0.0011    -999.2500       3.1657       1.2062
   2618.4661      14.2538    -999.2500      34.4214      27.0890      90.5434     139.8854     107.9650       0.0746       0.0012    -999.2500       3.5382       1.4290
   2618.6184      11.1859    -999.2500      45.6419      32.0951      86.7374     121.1806      98.8843       0.0669       0.0010    -999.2500       2.7625       2.3279
   2618.7708       5.2601    -999.2500      64.7286      41.6904      84.0163     106.1999      88.6343       0.0601       0.0011    -999.2500       1.0530       4.0559
   2618.9231       3.6653    -999.2500      72.1113      51.1990      79.2254      90.6117      74.1416       0.0591       0.0018    -999.2500       0.3210       5.2921
   2619.0757       7.9316    -999.2500      66.1545      56.8561      71.6957      75.2587      61.5430       0.0662       0.0018    -999.2500       1.5109       5.4469
   2619.2280      12.7690    -999.2500      68.3726      61.7316      66.4681      69.0728      56.4041       0.0788       0.0013    -999.2500       3.0981       5.4512
   2619.3804      11.7886    -999.2500      76.5562      66.1496      65.2707      69.6150      55.3579       0.0888       0.0011    -999.2500       2.9038       6.0522
   2619.5327       7.0202    -999.2500      79.6473      69.4951      64.6735      67.2996      54.1300       0.0906       0.0011    -999.2500       1.5457       6.9556
   2619.6853       7.4763    -999.2500      82.1794      70.2037      63.6464      62.2595      52.5015       0.0867       0.0012    -999.2500       1.6610       6.9837
   2619.8376      10.5404    -999.2500      84.6873      70.6934      64.1761      60.3953      51.7053       0.0816       0.0012    -999.2500       2.5150       6.6971
   2619.9900       8.9090    -999.2500      81.0217      72.3207      64.8444      59.7899      49.7788       0.0779       0.0012    -999.2500       2.0449       7.0598
   2620.1423       9.2379    -999.2500      70.4100      76.5019      64.4431      58.0093      46.8519       0.0786       0.0012    -999.2500       2.1444       7.4888
   2620.2949      13.9594    -999.2500      58.0869      76.6286      62.4496      56.5144      44.9646       0.0844       0.0011    -999.2500       3.5007       6.9772
   2620.4473      18.0544    -999.2500      49.5846      69.0833      61.4954      61.0544      49.3829       0.0912       0.0011    -999.2500       4.6840       5.6813
   2620.5996      17.5487    -999.2500      42.5900      56.4013      64.2029      71.8961      59.6546       0.0951       0.0010    -999.2500       4.5645       4.3256
