#------------------------------------------------------------------------------
#
#   Created by  : [OpenWorks] Log Export Utility (LEXP)
#   Created on  : 2016-05-19 10:15:25
#   Project     : CANT971
#   User        : R5K
#   Interpreter : PEP
#
#------------------------------------------------------------------------------
~VERSION INFORMATION
VERS. 2.0 : CWLS Log ASCII Standard - version 2.0
WRAP.  NO : One line per depth step
~WELL INFORMATION
#MNEMONIC   .UNIT                                           VALUE :DESCRIPTION
#------------------------------------------------------------------------------
STRT        .M                                           740.7456 :START DEPTH
STOP        .M                                          2958.0132 :STOP DEPTH
STEP        .M                                             0.1524 :STEP
NULL        .                                           -999.2500 :NULL VALUE
COMP        .                                             UNKNOWN :COMPANY
WELL        .                                                3060 :WELL
FLD         .                                             UNKNOWN :FIELD
LOC         .                                             UNKNOWN :LOCATION
CNTY        .                                             UNKNOWN :COUNTY
STAT        .                                             UNKNOWN :STATE
CTRY        .                                             UNKNOWN :COUNTRY
SRVC        .                                             UNKNOWN :SERVICE COMPANY
DATE        .                                             UNKNOWN :LOG DATE
UWI         .                                                3060 :UNIQUE WELL ID
XCOORD      .                                       601505.010000 :SURFACE X
YCOORD      .                                      2149907.440000 :SURFACE Y
LAT         .                                           19.442142 :LATITUDE
LON         .                                          -92.033049 :LONGITUDE
ELEV        .M                                             0.0000 :SURFACE ELEV
ELEV_TYPE   .                                                  KB :ELEV TYPE
~CURVE INFORMATION
#MNEMONIC.UNIT        API CODE       : CURVE DESCRIPTION
#------------------------------------------------------------------------------
DEPTH    .M                          : Measured Depth
CGR      .API         UNKNOWN        : CGR:Espectroscopia-entubado:r1:0002:v1 
DT       .us/ft       UNKNOWN        : DT:sonico:r1:0001:v1 
GR-LWD   .API         UNKNOWN        : GR-LWD:registros-LWD:r1:0002:v1 
GR       .API         UNKNOWN        : GR:GR-entubado:r2:0001:v1 
LLD-LWD  .ohm.m       UNKNOWN        : LLD-LWD:registros-LWD:r1:0002:v1 
LLS-LWD  .ohm.m       UNKNOWN        : LLS-LWD:registros-LWD:r1:0002:v1 
MSFL-LWD .ohm.m       UNKNOWN        : MSFL-LWD:registros-LWD:r1:0002:v1 
NPHI     .UNKNOWN     UNKNOWN        : NPHI:porosidad-entubado:r2:0001:v1 
POTA     .wtpercent   UNKNOWN        : POTA:Espectroscopia-entubado:r1:0002:v1 
SIGM     .cu          UNKNOWN        : SIGM:TMDL:r1:0001:v1 
THOR     .ppm         UNKNOWN        : THOR:Espectroscopia-entubado:r1:0002:v1 
URAN     .ppm         UNKNOWN        : URAN:Espectroscopia-entubado:r1:0002:v1 
~A     DEPTH          CGR           DT       GR-LWD           GR      LLD-LWD      LLS-LWD     MSFL-LWD         NPHI         POTA         SIGM         THOR         URAN
# ...
   2869.4688       4.5310    -999.2500      42.5606      31.2321      72.4824      99.8886      79.3964       0.0688       0.0023    -999.2500       0.3846       2.9727
   2869.6211       3.6998    -999.2500      38.8601      29.3487      76.6720     114.7682      92.9974       0.0666       0.0009    -999.2500       0.6806       2.8556
   2869.7737       5.6918    -999.2500      32.2085      28.9622      82.1962     122.6861     104.0781       0.0622       0.0007    -999.2500       1.3353       2.5908
   2869.9260       7.1129    -999.2500      28.2698      29.7649      85.7541     120.9674     105.9149       0.0572       0.0006    -999.2500       1.7564       2.5220
   2870.0784       8.1251    -999.2500      28.5435      29.4516      87.5673     115.1311      97.5849       0.0530       0.0007    -999.2500       2.0447       2.3743
   2870.2307       8.3039    -999.2500      32.9308      27.3213      85.8310     106.1966      83.3815       0.0511       0.0007    -999.2500       2.0842       2.1173
   2870.3833       6.0726    -999.2500      37.6388      26.0343      81.3147      93.9477      72.1776       0.0517       0.0007    -999.2500       1.4451       2.2224
   2870.5356       2.6960    -999.2500      38.2925      25.9734      75.7394      85.5054      69.1365       0.0534       0.0007    -999.2500       0.4817       2.5916
   2870.6880       2.2728    -999.2500      33.9807      26.1705      74.4181      89.0959      74.0149       0.0533       0.0007    -999.2500       0.3520       2.6606
   2870.8403       6.5967    -999.2500      30.3858      26.3792      77.1062      99.9372      80.4593       0.0510       0.0011    -999.2500       1.4541       2.2024
   2870.9929       9.2012    -999.2500      30.1376      26.8458      78.7106     105.9377      84.7148       0.0487       0.0018    -999.2500       1.9186       1.9644
   2871.1453       6.7677    -999.2500      30.6127      27.1351      77.8380     105.5509      86.0680       0.0481       0.0022    -999.2500       1.0474       2.2676
   2871.2976       3.4256    -999.2500      31.5293      28.5624      75.7218     106.3484      87.2151       0.0494       0.0016    -999.2500       0.3528       2.7986
   2871.4500       1.8499    -999.2500      31.9037      32.7129      74.2309     110.1261      92.2536       0.0512       0.0009    -999.2500       0.1808       3.4361
   2871.6023       1.5354    -999.2500      32.3060      37.0383      73.8874     110.3182      97.3945       0.0520       0.0007    -999.2500       0.1456       3.9527
   2871.7549       1.5614    -999.2500      33.9338      40.2049      73.5870     103.1043      94.2389       0.0519       0.0008    -999.2500       0.1470       4.3023
   2871.9072       1.6161    -999.2500      35.4531      40.6795      72.0807      92.3567      82.0505       0.0521       0.0008    -999.2500       0.1481       4.3491
   2872.0596       1.5863    -999.2500      39.3147      38.3360      68.8369      82.7377      69.5049       0.0536       0.0008    -999.2500       0.1396       4.0915
   2872.2119       1.4316    -999.2500      44.6938      36.1255      63.8234      74.7111      60.7088       0.0557       0.0007    -999.2500       0.1057       3.8626
   2872.3645       1.3144    -999.2500      45.3403      36.0600      57.5330      68.1753      56.2574       0.0570       0.0007    -999.2500       0.0815       3.8683
   2872.5168       1.2754    -999.2500      40.3767      34.6908      52.4219      66.2592      57.4137       0.0562       0.0007    -999.2500       0.0785       3.7203
   2872.6692       2.1773    -999.2500      37.4649      29.8308      50.9099      68.1115      61.1084       0.0527       0.0007    -999.2500       0.3364       3.0788
   2872.8215       4.5437    -999.2500      36.5765      25.5424      50.8205      69.3288      63.8853       0.0483       0.0007    -999.2500       1.0048       2.3379
   2872.9741       7.1901    -999.2500      34.6624      24.5673      49.2052      67.1805      64.0009       0.0460       0.0013    -999.2500       1.5212       1.9347
   2873.1265       8.2146    -999.2500      34.5281      25.4478      46.5636      61.5920      60.3980       0.0463       0.0022    -999.2500       1.4686       1.9186
   2873.2788       8.1546    -999.2500      38.0750      26.0658      44.1605      55.2849      54.1559       0.0486       0.0031    -999.2500       1.0586       1.9941
   2873.4312       8.8302    -999.2500      41.1256      25.7940      41.4801      49.3752      46.5575       0.0516       0.0048    -999.2500       0.6133       1.8886
   2873.5835      11.6740    -999.2500      42.7317      25.3865      37.4171      43.8488      39.5443       0.0540       0.0062    -999.2500       0.8600       1.5267
   2873.7361      13.5281    -999.2500      45.2894      26.1169      33.0041      40.3304      35.5192       0.0565       0.0058    -999.2500       1.5536       1.4016
   2873.8884      12.0278    -999.2500      47.1078      28.4614      30.2789      39.4909      35.2309       0.0595       0.0035    -999.2500       2.0323       1.8296
   2874.0408      11.4258    -999.2500      47.5412      31.3864      28.7312      39.0350      36.4630       0.0620       0.0022    -999.2500       2.3701       2.2223
   2874.1931      14.3669    -999.2500      45.6056      33.8627      27.5577      37.4541      37.2114       0.0633       0.0032    -999.2500       2.8192       2.1705
   2874.3457      17.9029    -999.2500      43.9698      34.6574      26.8466      34.1041      35.4710       0.0640       0.0047    -999.2500       3.2086       1.8653
   2874.4980      17.0366    -999.2500      46.4088      33.6000      25.8221      29.9865      31.4095       0.0640       0.0048    -999.2500       2.9390       1.8441
   2874.6504      12.2244    -999.2500      52.3728      32.0684      23.9848      25.0350      25.6358       0.0635       0.0040    -999.2500       1.8745       2.2093
   2874.8027       8.4747    -999.2500      59.1995      32.1594      22.0941      20.7244      20.6282       0.0631       0.0033    -999.2500       1.1044       2.6369
   2874.9553      10.2453    -999.2500      64.4500      33.7768      20.5517      18.2381      17.7837       0.0629       0.0029    -999.2500       1.7787       2.6199
   2875.1077      16.8028    -999.2500      67.5051      35.5459      18.9237      16.7435      15.8350       0.0635       0.0036    -999.2500       3.3334       2.0867
   2875.2600      25.6017    -999.2500      70.4938      36.3345      17.2957      15.8591      14.6309       0.0661       0.0057    -999.2500       5.0052       1.1949
   2875.4124      33.2585    -999.2500      73.2847      37.5704      16.3249      15.8549      14.7299       0.0710       0.0074    -999.2500       6.4941       0.4801
   2875.5647      33.9418    -999.2500      74.5844      37.9430      16.3724      17.0266      16.1039       0.0754       0.0072    -999.2500       6.7749       0.4455
   2875.7173      27.2448    -999.2500      73.5609      38.9965      17.1630      19.5116      18.5534       0.0760       0.0052    -999.2500       5.6515       1.3084
   2875.8696      18.8145    -999.2500      72.8081      40.4489      18.1111      22.5775      21.7422       0.0737       0.0036    -999.2500       3.9180       2.4086
   2876.0220      13.0722    -999.2500      74.2214      40.0843      18.9588      25.7003      25.5818       0.0694       0.0036    -999.2500       2.2722       3.0074
   2876.1743      15.1542    -999.2500      69.4164      39.5053      19.9181      28.9146      29.7988       0.0634       0.0053    -999.2500       2.2118       2.7111
   2876.3269      24.8740    -999.2500      61.0414      41.2565      20.6894      31.0375      32.2395       0.0593       0.0076    -999.2500       4.0612       1.8239
   2876.4792      33.7480    -999.2500      59.6887      45.8004      20.8619      30.8728      31.1919       0.0609       0.0093    -999.2500       5.8716       1.3418
   2876.6316      35.3120    -999.2500      65.5113      51.3722      20.0104      27.8552      27.4890       0.0669       0.0095    -999.2500       6.2182       1.7880
