#------------------------------------------------------------------------------
#
#   Created by  : [OpenWorks] Log Export Utility (LEXP)
#   Created on  : 2016-05-19 10:15:25
#   Project     : CANT971
#   User        : R5K
#   Interpreter : PEP
#
#------------------------------------------------------------------------------
~VERSION INFORMATION
VERS. 2.0 : CWLS Log ASCII Standard - version 2.0
WRAP.  NO : One line per depth step
~WELL INFORMATION
#MNEMONIC   .UNIT                                           VALUE :DESCRIPTION
#------------------------------------------------------------------------------
STRT        .M                                           740.7456 :START DEPTH
STOP        .M                                          2958.0132 :STOP DEPTH
STEP        .M                                             0.1524 :STEP
NULL        .                                           -999.2500 :NULL VALUE
COMP        .                                             UNKNOWN :COMPANY
WELL        .                                                3060 :WELL
FLD         .                                             UNKNOWN :FIELD
LOC         .                                             UNKNOWN :LOCATION
CNTY        .                                             UNKNOWN :COUNTY
STAT        .                                             UNKNOWN :STATE
CTRY        .                                             UNKNOWN :COUNTRY
SRVC        .                                             UNKNOWN :SERVICE COMPANY
DATE        .                                             UNKNOWN :LOG DATE
UWI         .                                                3060 :UNIQUE WELL ID
XCOORD      .                                       601505.010000 :SURFACE X
YCOORD      .                                      2149907.440000 :SURFACE Y
LAT         .                                           19.442142 :LATITUDE
LON         .                                          -92.033049 :LONGITUDE
ELEV        .M                                             0.0000 :SURFACE ELEV
ELEV_TYPE   .                                                  KB :ELEV TYPE
~CURVE INFORMATION
#MNEMONIC.UNIT        API CODE       : CURVE DESCRIPTION
#------------------------------------------------------------------------------
DEPTH    .M                          : Measured Depth
CGR      .API         UNKNOWN        : CGR:Espectroscopia-entubado:r1:0002:v1 
DT       .us/ft       UNKNOWN        : DT:sonico:r1:0001:v1 
GR-LWD   .API         UNKNOWN        : GR-LWD:registros-LWD:r1:0002:v1 
GR       .API         UNKNOWN        : GR:GR-entubado:r2:0001:v1 
LLD-LWD  .ohm.m       UNKNOWN        : LLD-LWD:registros-LWD:r1:0002:v1 
LLS-LWD  .ohm.m       UNKNOWN        : LLS-LWD:registros-LWD:r1:0002:v1 
MSFL-LWD .ohm.m       UNKNOWN        : MSFL-LWD:registros-LWD:r1:0002:v1 
NPHI     .UNKNOWN     UNKNOWN        : NPHI:porosidad-entubado:r2:0001:v1 
POTA     .wtpercent   UNKNOWN        : POTA:Espectroscopia-entubado:r1:0002:v1 
SIGM     .cu          UNKNOWN        : SIGM:TMDL:r1:0001:v1 
THOR     .ppm         UNKNOWN        : THOR:Espectroscopia-entubado:r1:0002:v1 
URAN     .ppm         UNKNOWN        : URAN:Espectroscopia-entubado:r1:0002:v1 
~A     DEPTH          CGR           DT       GR-LWD           GR      LLD-LWD      LLS-LWD     MSFL-LWD         NPHI         POTA         SIGM         THOR         URAN
# ...
   2664.6433      21.3827    -999.2500      55.0375      55.6549     146.5834     164.5073     107.5385       0.0884       0.0012    -999.2500       5.5942       3.8156
   2664.7957      23.6807    -999.2500      80.8659      60.6011     147.6773     151.1506      93.8470       0.1064       0.0027    -999.2500       5.6442       4.1105
   2664.9480      22.3356    -999.2500      85.1877      57.3868     149.6474     152.2554      83.2622       0.1218       0.0036    -999.2500       4.8978       3.9023
   2665.1003      16.4375    -999.2500      59.6879      47.1906     143.4688     148.1656      73.4091       0.1250       0.0027    -999.2500       3.6094       3.4238
   2665.2527       8.8288    -999.2500      35.5613      37.7181     126.6764     123.7897      62.2102       0.1223       0.0015    -999.2500       1.9262       3.2163
   2665.4053       4.2968    -999.2500      28.7191      35.8490     113.0585     101.9901      57.0143       0.1199       0.0016    -999.2500       0.6070       3.5128
   2665.5576       3.9337    -999.2500      29.1154      36.7337     112.0626     101.6199      62.7501       0.1114       0.0024    -999.2500       0.1740       3.6517
   2665.7100       4.3095    -999.2500      29.7706      35.3183     119.4882     119.8785      78.6681       0.0938       0.0027    -999.2500       0.1469       3.4523
   2665.8623       2.8759    -999.2500      31.3311      30.9613     126.8660     137.5317      93.3271       0.0757       0.0016    -999.2500       0.1628       3.1269
   2666.0149       1.5648    -999.2500      34.6938      29.2502     133.6095     145.6561      98.9802       0.0647       0.0008    -999.2500       0.1174       3.0823
   2666.1672       1.3346    -999.2500      36.0852      29.4518     137.5484     149.5679     100.2951       0.0595       0.0008    -999.2500       0.0775       3.1304
   2666.3196       1.3467    -999.2500      33.6987      29.6945     136.5146     151.1887     100.7226       0.0565       0.0008    -999.2500       0.0819       3.1561
   2666.4719       1.8965    -999.2500      30.6073      31.1530     134.0983     148.3855     100.5117       0.0540       0.0008    -999.2500       0.2323       3.2573
   2666.6245       4.5480    -999.2500      29.6408      33.6688     133.8655     145.8628      99.9365       0.0521       0.0008    -999.2500       0.9697       3.2422
   2666.7769       9.0173    -999.2500      34.1354      37.0153     136.9852     151.5127     102.7703       0.0518       0.0013    -999.2500       2.0391       3.1172
   2666.9292      15.3877    -999.2500      43.5822      39.7542     138.8202     160.8898     106.3085       0.0525       0.0025    -999.2500       3.3498       2.7128
   2667.0815      17.1946    -999.2500      47.7615      38.8520     134.0230     156.7072     104.2753       0.0527       0.0036    -999.2500       3.4643       2.4112
   2667.2339      12.7504    -999.2500      41.6190      33.8087     131.4156     156.1546     107.1205       0.0506       0.0037    -999.2500       2.1228       2.3445
   2667.3865       7.2350    -999.2500      32.6881      27.7620     139.3058     166.6310     115.4041       0.0457       0.0034    -999.2500       0.7056       2.2853
   2667.5388       4.4078    -999.2500      28.0840      23.9338     150.7258     178.8312     121.1958       0.0407       0.0023    -999.2500       0.3594       2.1739
   2667.6912       6.9356    -999.2500      25.7291      23.7143     152.3129     191.9981     123.7777       0.0388       0.0011    -999.2500       1.5406       1.8681
   2667.8435      13.1059    -999.2500      24.3257      25.5491     152.1856     193.9219     128.5225       0.0395       0.0006    -999.2500       3.4663       1.3854
   2667.9961      15.8460    -999.2500      24.6293      26.3999     156.4968     188.2309     129.0358       0.0414       0.0006    -999.2500       4.2655       1.1750
   2668.1484      12.2067    -999.2500      26.0710      25.6480     157.1739     194.0838     125.7808       0.0434       0.0006    -999.2500       3.2285       1.4965
   2668.3008       5.7548    -999.2500      26.1108      24.9186     155.7048     202.0862     128.4431       0.0447       0.0006    -999.2500       1.3895       2.1336
   2668.4531       3.6347    -999.2500      24.8289      26.1182     161.6933     211.5070     139.0646       0.0454       0.0006    -999.2500       0.7813       2.5032
   2668.6057       2.9066    -999.2500      25.0342      30.0846     172.3137     233.2808     148.9008       0.0446       0.0007    -999.2500       0.5678       3.0258
   2668.7581       2.6135    -999.2500      25.2321      30.5471     185.9221     260.1504     156.2127       0.0417       0.0007    -999.2500       0.4794       3.1100
   2668.9104       7.7812    -999.2500      24.3555      28.1778     195.4242     290.8885     170.7438       0.0380       0.0007    -999.2500       1.9473       2.2709
   2669.0627      13.7781    -999.2500      25.1513      26.6304     194.6212     320.3655     180.7268       0.0354       0.0006    -999.2500       3.6541       1.4309
   2669.2151      14.1113    -999.2500      26.1532      24.6643     195.7927     347.8805     186.8086       0.0345       0.0007    -999.2500       3.7454       1.1749
   2669.3677       9.8095    -999.2500      24.6042      22.5420     194.0699     352.5755     190.1297       0.0347       0.0009    -999.2500       2.4238       1.4176
   2669.5200       4.1225    -999.2500      23.5637      22.3695     193.6747     343.8124     191.3999       0.0353       0.0009    -999.2500       0.8289       2.0315
   2669.6724       1.5261    -999.2500      24.9783      24.4040     205.0861     361.2882     193.3822       0.0362       0.0008    -999.2500       0.1421       2.5471
   2669.8247       1.3934    -999.2500      26.9096      26.4315     206.2697     391.5431     194.4000       0.0377       0.0008    -999.2500       0.0906       2.7876
   2669.9773       1.5094    -999.2500      29.8219      25.8853     201.8873     409.6373     194.8744       0.0390       0.0008    -999.2500       0.1206       2.7138
   2670.1296       4.2655    -999.2500      30.6492      23.6986     205.2756     417.9481     196.5733       0.0390       0.0009    -999.2500       0.8593       2.1636
   2670.2820       8.6217    -999.2500      28.3078      22.7851     214.8558     446.6379     202.4090       0.0368       0.0008    -999.2500       2.1333       1.5769
   2670.4343       6.8451    -999.2500      25.8564      23.6942     223.9855     503.8880     213.2152       0.0337       0.0006    -999.2500       1.6870       1.8759
   2670.5869       2.6192    -999.2500      26.5393      28.5358     236.9072     546.9202     223.2878       0.0316       0.0006    -999.2500       0.4931       2.8854
   2670.7393       1.3907    -999.2500      27.7998      31.8061     235.5202     565.9032     221.2278       0.0307       0.0006    -999.2500       0.1411       3.3863
   2670.8916       4.3567    -999.2500      25.7828      28.8724     229.1867     575.9170     220.6074       0.0311       0.0006    -999.2500       0.9850       2.7295
   2671.0439       9.7200    -999.2500      21.5399      25.7315     240.4641     563.0237     231.0929       0.0320       0.0006    -999.2500       2.5119       1.7826
   2671.1963      11.1738    -999.2500      20.3979      24.7970     245.1812     534.0204     240.2278       0.0333       0.0006    -999.2500       2.9222       1.5167
   2671.3489       8.6150    -999.2500      21.3176      24.0995     236.2746     521.9443     232.6971       0.0347       0.0007    -999.2500       2.1855       1.7239
   2671.5012       5.1395    -999.2500      22.6354      24.1461     234.8342     532.0475     223.4105       0.0369       0.0007    -999.2500       1.1916       2.1160
   2671.6536       2.4760    -999.2500      24.9554      24.4932     239.8333     491.6367     207.6911       0.0408       0.0006    -999.2500       0.4423       2.4513
   2671.8059       1.3119    -999.2500      24.8857      22.4256     228.9749     431.8715     183.8447       0.0463       0.0006    -999.2500       0.1343       2.3507
