#------------------------------------------------------------------------------
#
#   Created by  : [OpenWorks] Log Export Utility (LEXP)
#   Created on  : 2016-05-19 10:15:25
#   Project     : CANT971
#   User        : R5K
#   Interpreter : PEP
#
#------------------------------------------------------------------------------
~VERSION INFORMATION
VERS. 2.0 : CWLS Log ASCII Standard - version 2.0
WRAP.  NO : One line per depth step
~WELL INFORMATION
#MNEMONIC   .UNIT                                           VALUE :DESCRIPTION
#------------------------------------------------------------------------------
STRT        .M                                           740.7456 :START DEPTH
STOP        .M                                          2958.0132 :STOP DEPTH
STEP        .M                                             0.1524 :STEP
NULL        .                                           -999.2500 :NULL VALUE
COMP        .                                             UNKNOWN :COMPANY
WELL        .                                                3060 :WELL
FLD         .                                             UNKNOWN :FIELD
LOC         .                                             UNKNOWN :LOCATION
CNTY        .                                             UNKNOWN :COUNTY
STAT        .                                             UNKNOWN :STATE
CTRY        .                                             UNKNOWN :COUNTRY
SRVC        .                                             UNKNOWN :SERVICE COMPANY
DATE        .                                             UNKNOWN :LOG DATE
UWI         .                                                3060 :UNIQUE WELL ID
XCOORD      .                                       601505.010000 :SURFACE X
YCOORD      .                                      2149907.440000 :SURFACE Y
LAT         .                                           19.442142 :LATITUDE
LON         .                                          -92.033049 :LONGITUDE
ELEV        .M                                             0.0000 :SURFACE ELEV
ELEV_TYPE   .                                                  KB :ELEV TYPE
~CURVE INFORMATION
#MNEMONIC.UNIT        API CODE       : CURVE DESCRIPTION
#------------------------------------------------------------------------------
DEPTH    .M                          : Measured Depth
CGR      .API         UNKNOWN        : CGR:Espectroscopia-entubado:r1:0002:v1 
DT       .us/ft       UNKNOWN        : DT:sonico:r1:0001:v1 
GR-LWD   .API         UNKNOWN        : GR-LWD:registros-LWD:r1:0002:v1 
GR       .API         UNKNOWN        : GR:GR-entubado:r2:0001:v1 
LLD-LWD  .ohm.m       UNKNOWN        : LLD-LWD:registros-LWD:r1:0002:v1 
LLS-LWD  .ohm.m       UNKNOWN        : LLS-LWD:registros-LWD:r1:0002:v1 
MSFL-LWD .ohm.m       UNKNOWN        : MSFL-LWD:registros-LWD:r1:0002:v1 
NPHI     .UNKNOWN     UNKNOWN        : NPHI:porosidad-entubado:r2:0001:v1 
POTA     .wtpercent   UNKNOWN        : POTA:Espectroscopia-entubado:r1:0002:v1 
SIGM     .cu          UNKNOWN        : SIGM:TMDL:r1:0001:v1 
THOR     .ppm         UNKNOWN        : THOR:Espectroscopia-entubado:r1:0002:v1 
URAN     .ppm         UNKNOWN        : URAN:Espectroscopia-entubado:r1:0002:v1 
~A     DEPTH          CGR           DT       GR-LWD           GR      LLD-LWD      LLS-LWD     MSFL-LWD         NPHI         POTA         SIGM         THOR         URAN
# ...
   2159.8943       9.9078      95.4010    -999.2500      21.3719    -999.2500    -999.2500    -999.2500       0.5352       0.0050    -999.2500       0.8327       1.2764
   2160.0469      10.8468      95.4593    -999.2500      20.1236    -999.2500    -999.2500    -999.2500       0.5316       0.0032    -999.2500       1.7901       1.0328
   2160.1992      10.8655      95.0654    -999.2500      18.8507    -999.2500    -999.2500    -999.2500       0.5054       0.0021    -999.2500       2.2264       0.8890
   2160.3516      10.3316      94.1216    -999.2500      18.5434    -999.2500    -999.2500    -999.2500       0.4814       0.0019    -999.2500       2.1815       0.9142
   2160.5039      11.5946      94.8249    -999.2500      19.8279    -999.2500    -999.2500    -999.2500       0.4782       0.0024    -999.2500       2.3624       0.9166
   2160.6565      15.0821      95.7102    -999.2500      21.5747    -999.2500    -999.2500    -999.2500       0.4864       0.0029    -999.2500       3.1437       0.7228
   2160.8088      18.7116     100.3261    -999.2500      22.3366    -999.2500    -999.2500    -999.2500       0.4937       0.0036    -999.2500       3.8729       0.4036
   2160.9612      19.4978     102.9886    -999.2500      21.7718    -999.2500    -999.2500    -999.2500       0.4930       0.0046    -999.2500       3.7195       0.2531
   2161.1135      14.6439     100.9592    -999.2500      20.5653    -999.2500    -999.2500    -999.2500       0.4906       0.0053    -999.2500       2.0718       0.6592
   2161.2661       9.6985      99.6711    -999.2500      23.0121    -999.2500    -999.2500    -999.2500       0.4955       0.0056    -999.2500       0.5413       1.4822
   2161.4185       7.2791      99.3654    -999.2500      25.9161    -999.2500    -999.2500    -999.2500       0.5129       0.0048    -999.2500       0.1679       2.0749
   2161.5708       7.0117      99.2581    -999.2500      24.3869    -999.2500    -999.2500    -999.2500       0.5317       0.0028    -999.2500       0.8854       1.9344
   2161.7231      10.7936      99.1036    -999.2500      22.9693    -999.2500    -999.2500    -999.2500       0.5321       0.0013    -999.2500       2.5571       1.3556
   2161.8755      16.2355      99.1438    -999.2500      22.6613    -999.2500    -999.2500    -999.2500       0.5096       0.0014    -999.2500       4.0445       0.7154
   2162.0281      19.9114      99.2009    -999.2500      22.9135    -999.2500    -999.2500    -999.2500       0.4782       0.0027    -999.2500       4.5907       0.3342
   2162.1804      21.1552      99.2420    -999.2500      23.3562    -999.2500    -999.2500    -999.2500       0.4568       0.0034    -999.2500       4.6456       0.2450
   2162.3328      19.4035      99.3167    -999.2500      21.4145    -999.2500    -999.2500    -999.2500       0.4582       0.0034    -999.2500       4.1511       0.2238
   2162.4851      16.7382      99.3671    -999.2500      18.8910    -999.2500    -999.2500    -999.2500       0.4866       0.0033    -999.2500       3.4255       0.2397
   2162.6377      17.6682      99.3671    -999.2500      19.7486    -999.2500    -999.2500    -999.2500       0.5233       0.0038    -999.2500       3.4922       0.2316
   2162.7900      19.3809      99.3671    -999.2500      21.3328    -999.2500    -999.2500    -999.2500       0.5314       0.0043    -999.2500       3.7762       0.2173
   2162.9424      17.6686      99.3671    -999.2500      21.6675    -999.2500    -999.2500    -999.2500       0.5107       0.0042    -999.2500       3.3212       0.4452
   2163.0947      12.8558      99.3671    -999.2500      22.3053    -999.2500    -999.2500    -999.2500       0.5088       0.0037    -999.2500       2.1533       1.0520
   2163.2473      14.2416      99.3671    -999.2500      23.2853    -999.2500    -999.2500    -999.2500       0.5362       0.0037    -999.2500       2.5506       1.0069
   2163.3997      19.8044      99.3671    -999.2500      24.0810    -999.2500    -999.2500    -999.2500       0.5508       0.0050    -999.2500       3.6494       0.4761
   2163.5520      22.1454      99.3671    -999.2500      24.8916    -999.2500    -999.2500    -999.2500       0.5349       0.0063    -999.2500       3.8002       0.3057
   2163.7043      15.4765      99.3671    -999.2500      23.8283    -999.2500    -999.2500    -999.2500       0.5087       0.0064    -999.2500       1.8549       0.9298
   2163.8567       8.6838      99.1384    -999.2500      23.5266    -999.2500    -999.2500    -999.2500       0.4982       0.0054    -999.2500       0.3168       1.6525
   2164.0093       6.7406      98.7278    -999.2500      24.5072    -999.2500    -999.2500    -999.2500       0.5015       0.0045    -999.2500       0.1446       1.9780
   2164.1616       5.6906      98.6900    -999.2500      25.6807    -999.2500    -999.2500    -999.2500       0.4988       0.0037    -999.2500       0.1452       2.2256
   2164.3140       4.9051      98.7657    -999.2500      26.8715    -999.2500    -999.2500    -999.2500       0.4910       0.0032    -999.2500       0.1459       2.4456
   2164.4663       4.2029      99.3555    -999.2500      27.7115    -999.2500    -999.2500    -999.2500       0.4837       0.0026    -999.2500       0.1459       2.6173
   2164.6189       2.7315      99.6170    -999.2500      28.1197    -999.2500    -999.2500    -999.2500       0.4773       0.0016    -999.2500       0.1449       2.8265
   2164.7712       2.2868      99.3671    -999.2500      27.1796    -999.2500    -999.2500    -999.2500       0.4741       0.0008    -999.2500       0.3265       2.7714
   2164.9236       3.4622     -18.2722    -999.2500      26.0590    -999.2500    -999.2500    -999.2500       0.4710       0.0007    -999.2500       0.7179       2.5158
   2165.0759       5.0150    -999.2500    -999.2500      23.6238    -999.2500    -999.2500    -999.2500       0.4706       0.0008    -999.2500       1.1297       2.0718
   2165.2285       7.1977    -999.2500    -999.2500      21.1816    -999.2500    -999.2500    -999.2500       0.4764       0.0013    -999.2500       1.5052       1.5569
   2165.3809       7.4945    -999.2500    -999.2500      20.3062    -999.2500    -999.2500    -999.2500       0.4832       0.0018    -999.2500       1.4112       1.4264
   2165.5332       8.4185      99.3671    -999.2500      19.9650    -999.2500    -999.2500    -999.2500       0.4951       0.0029    -999.2500       1.2561       1.2856
   2165.6855      13.2983      99.3671    -999.2500      20.0854    -999.2500    -999.2500    -999.2500       0.5102       0.0046    -999.2500       1.9469       0.7557
   2165.8379      19.4821      99.3671    -999.2500      22.4377    -999.2500    -999.2500    -999.2500       0.5078       0.0062    -999.2500       3.0508       0.3291
   2165.9905      20.4500      99.3671    -999.2500      22.9803    -999.2500    -999.2500    -999.2500       0.4930       0.0058    -999.2500       3.5214       0.2817
   2166.1428      16.5871      99.3671    -999.2500      22.6307    -999.2500    -999.2500    -999.2500       0.4904       0.0042    -999.2500       3.0473       0.6729
   2166.2952      11.0467     -18.2982    -999.2500      24.3305    -999.2500    -999.2500    -999.2500       0.5038       0.0034    -999.2500       1.7689       1.4789
   2166.4475      10.1750    -999.2500    -999.2500      27.5782    -999.2500    -999.2500    -999.2500       0.5188       0.0040    -999.2500       1.2891       1.9376
   2166.6001      11.3328    -999.2500    -999.2500      33.5415    -999.2500    -999.2500    -999.2500       0.5258       0.0059    -999.2500       0.8952       2.4726
   2166.7524      10.5525    -999.2500    -999.2500      43.3329    -999.2500    -999.2500    -999.2500       0.5275       0.0067    -999.2500       0.3345       3.6496
   2166.9048      11.1771      99.3671      50.1215      46.8102    1375.9023      14.6759       1.4333       0.5150       0.0053    -999.2500       1.0862       3.9672
   2167.0571      16.9446      99.3671      47.8909      45.8926    1067.4841       3.2384       1.7203       0.4932       0.0030    -999.2500       3.6218       3.2229
