#------------------------------------------------------------------------------
#
#   Created by  : [OpenWorks] Log Export Utility (LEXP)
#   Created on  : 2016-05-19 10:15:25
#   Project     : CANT971
#   User        : R5K
#   Interpreter : PEP
#
#------------------------------------------------------------------------------
~VERSION INFORMATION
VERS. 2.0 : CWLS Log ASCII Standard - version 2.0
WRAP.  NO : One line per depth step
~WELL INFORMATION
#MNEMONIC   .UNIT                                           VALUE :DESCRIPTION
#------------------------------------------------------------------------------
STRT        .M                                           740.7456 :START DEPTH
STOP        .M                                          2958.0132 :STOP DEPTH
STEP        .M                                             0.1524 :STEP
NULL        .                                           -999.2500 :NULL VALUE
COMP        .                                             UNKNOWN :COMPANY
WELL        .                                                3060 :WELL
FLD         .                                             UNKNOWN :FIELD
LOC         .                                             UNKNOWN :LOCATION
CNTY        .                                             UNKNOWN :COUNTY
STAT        .                                             UNKNOWN :STATE
CTRY        .                                             UNKNOWN :COUNTRY
SRVC        .                                             UNKNOWN :SERVICE COMPANY
DATE        .                                             UNKNOWN :LOG DATE
UWI         .                                                3060 :UNIQUE WELL ID
XCOORD      .                                       601505.010000 :SURFACE X
YCOORD      .                                      2149907.440000 :SURFACE Y
LAT         .                                           19.442142 :LATITUDE
LON         .                                          -92.033049 :LONGITUDE
ELEV        .M                                             0.0000 :SURFACE ELEV
ELEV_TYPE   .                                                  KB :ELEV TYPE
~CURVE INFORMATION
#MNEMONIC.UNIT        API CODE       : CURVE DESCRIPTION
#------------------------------------------------------------------------------
DEPTH    .M                          : Measured Depth
CGR      .API         UNKNOWN        : CGR:Espectroscopia-entubado:r1:0002:v1 
DT       .us/ft       UNKNOWN        : DT:sonico:r1:0001:v1 
GR-LWD   .API         UNKNOWN        : GR-LWD:registros-LWD:r1:0002:v1 
GR       .API         UNKNOWN        : GR:GR-entubado:r2:0001:v1 
LLD-LWD  .ohm.m       UNKNOWN        : LLD-LWD:registros-LWD:r1:0002:v1 
LLS-LWD  .ohm.m       UNKNOWN        : LLS-LWD:registros-LWD:r1:0002:v1 
MSFL-LWD .ohm.m       UNKNOWN        : MSFL-LWD:registros-LWD:r1:0002:v1 
NPHI     .UNKNOWN     UNKNOWN        : NPHI:porosidad-entubado:r2:0001:v1 
POTA     .wtpercent   UNKNOWN        : POTA:Espectroscopia-entubado:r1:0002:v1 
SIGM     .cu          UNKNOWN        : SIGM:TMDL:r1:0001:v1 
THOR     .ppm         UNKNOWN        : THOR:Espectroscopia-entubado:r1:0002:v1 
URAN     .ppm         UNKNOWN        : URAN:Espectroscopia-entubado:r1:0002:v1 
~A     DEPTH          CGR           DT       GR-LWD           GR      LLD-LWD      LLS-LWD     MSFL-LWD         NPHI         POTA         SIGM         THOR         URAN
# ...
   2415.9265       2.7037    -999.2500      55.9209      58.2351     126.0316     186.6542     123.8170       0.0761       0.0011    -999.2500       0.3474       6.1825
   2416.0789       6.6385    -999.2500      64.4143      63.1110     126.0148     177.4360     123.8170       0.0715       0.0011    -999.2500       1.4622       6.2873
   2416.2312      14.3239    -999.2500      72.3774      65.8457     125.4257     175.9227     123.8170       0.0701       0.0011    -999.2500       3.6421       5.7361
   2416.3835      20.4333    -999.2500      73.5889      64.6630     122.4647     179.0293     123.8170       0.0753       0.0011    -999.2500       5.3772       4.9242
   2416.5359      21.3870    -999.2500      68.8331      59.3538     116.5074     179.2150     123.6532       0.0860       0.0010    -999.2500       5.6522       4.2270
   2416.6885      19.7145    -999.2500      65.8590      53.2962     109.4280     173.8973     121.2307       0.0980       0.0010    -999.2500       5.1859       3.7388
   2416.8408      18.8636    -999.2500      62.9593      48.6046     104.7386     163.8882     114.2659       0.1060       0.0014    -999.2500       4.8049       3.3112
   2416.9932      19.9143    -999.2500      55.1126      46.1391     102.4628     154.1913     113.6838       0.1056       0.0024    -999.2500       4.6826       2.9197
   2417.1455      24.5245    -999.2500      53.1663      45.8431     100.3183     150.5148     120.0227       0.0981       0.0034    -999.2500       5.5981       2.3735
   2417.2981      26.6495    -999.2500      56.5083      47.5859      97.7748     145.9392     123.4902       0.0886       0.0025    -999.2500       6.5587       2.3309
   2417.4504      23.0879    -999.2500      59.1904      52.1410      95.9445     143.9529     124.3332       0.0808       0.0013    -999.2500       6.0388       3.2346
   2417.6028      20.1221    -999.2500      60.7176      57.9239      95.8456     149.7240     124.9781       0.0761       0.0010    -999.2500       5.3131       4.2086
   2417.7551      19.1568    -999.2500      61.1170      61.2106      96.0790     148.4595     124.1452       0.0743       0.0010    -999.2500       5.0446       4.6820
   2417.9077      19.4670    -999.2500      62.2944      62.0326      96.9358     137.5153     117.1205       0.0753       0.0010    -999.2500       5.1278       4.7390
   2418.0601      19.7729    -999.2500      63.1465      62.6145      99.6613     123.4969     104.8043       0.0787       0.0010    -999.2500       5.2035       4.7697
   2418.2124      17.7009    -999.2500      62.4644      64.2107     100.8266     111.3728      95.5629       0.0825       0.0010    -999.2500       4.6110       5.1781
   2418.3647      14.4051    -999.2500      65.0436      63.0810     104.0237      96.3763      85.4259       0.0854       0.0010    -999.2500       3.6735       5.4193
   2418.5171      11.9852    -999.2500      70.1852      58.6566     104.7716      78.6673      71.8016       0.0879       0.0011    -999.2500       2.9830       5.1961
   2418.6697      15.3328    -999.2500      68.0151      57.0883      95.0410      66.5614      59.9341       0.0917       0.0015    -999.2500       3.7464       4.6489
   2418.8220      19.4997    -999.2500      60.9239      60.8415      83.5318      59.7527      47.1442       0.0958       0.0014    -999.2500       4.9661       4.6028
   2418.9744      23.4341    -999.2500      64.3751      66.9016      80.9437      54.7820      38.3521       0.0990       0.0011    -999.2500       6.2004       4.8394
   2419.1267      27.7732    -999.2500      75.6467      74.4649      80.1606      47.9188      31.3224       0.1056       0.0012    -999.2500       7.4251       5.1984
   2419.2793      27.5449    -999.2500      85.3438      79.8351      78.8101      44.7222      25.8686       0.1185       0.0012    -999.2500       7.3528       5.8217
   2419.4316      22.7384    -999.2500      93.4934      79.6515      77.9734      44.7317      24.2653       0.1320       0.0011    -999.2500       5.9934       6.3364
   2419.5840      19.9106    -999.2500      93.4930      70.5888      75.0581      42.3880      23.8697       0.1377       0.0011    -999.2500       5.2033       5.6422
   2419.7363      18.1849    -999.2500      81.5650      57.7165      73.3716      40.1715      23.7757       0.1315       0.0012    -999.2500       4.6877       4.4012
   2419.8889      15.4715    -999.2500      66.8483      50.7578      73.7979      48.5274      33.0566       0.1141       0.0023    -999.2500       3.4616       3.9285
   2420.0413      11.3602    -999.2500      56.6721      49.9239      77.3346      74.1707      58.2472       0.0959       0.0019    -999.2500       2.4648       4.2934
   2420.1936      12.4771    -999.2500      55.7479      53.8425      87.3867     109.7152      85.5642       0.0867       0.0010    -999.2500       3.1293       4.6054
   2420.3459      16.4745    -999.2500      61.4001      57.1227      97.4450     137.5615      99.0588       0.0837       0.0010    -999.2500       4.2825       4.5255
   2420.4983      17.5810    -999.2500      59.4506      56.4799     100.1883     148.2572     100.9624       0.0823       0.0009    -999.2500       4.6177       4.3308
   2420.6509      18.6028    -999.2500      50.8637      53.6028      98.5306     144.6009     103.3083       0.0820       0.0009    -999.2500       4.9287       3.8967
   2420.8032      21.3097    -999.2500      47.6945      50.7095      96.3885     135.9735     111.8611       0.0821       0.0009    -999.2500       5.7052       3.2732
   2420.9556      25.1441    -999.2500      47.8414      48.0124      96.1314     131.6606     120.2984       0.0832       0.0009    -999.2500       6.7870       2.5460
   2421.1079      28.0458    -999.2500      48.1363      47.2509      95.8529     138.2548     114.8673       0.0892       0.0010    -999.2500       7.5885       2.1382
   2421.2605      29.2477    -999.2500      50.4934      49.6205      94.2683     153.0798     104.0736       0.1031       0.0010    -999.2500       7.9104       2.2682
   2421.4128      28.7442    -999.2500      52.9533      54.2881      93.4769     180.2174     100.3828       0.1202       0.0010    -999.2500       7.7538       2.8439
   2421.5652      26.6276    -999.2500      56.6125      57.8301      94.1359     187.1008      97.4817       0.1310       0.0011    -999.2500       7.1395       3.4739
   2421.7175      25.3171    -999.2500      61.0166      58.7735      97.0408     145.9647      85.2368       0.1308       0.0025    -999.2500       6.2209       3.7248
   2421.8701      26.4723    -999.2500      66.2444      58.9620      97.6919     116.6712      78.3703       0.1220       0.0053    -999.2500       5.4270       3.6172
   2422.0225      25.4264    -999.2500      68.7243      57.8337      92.6757     111.0251      83.5225       0.1120       0.0064    -999.2500       4.6609       3.6080
   2422.1748      21.4412    -999.2500      63.5859      54.9399      87.3437     106.3093      86.4890       0.1076       0.0044    -999.2500       4.3305       3.7295
   2422.3271      19.4185    -999.2500      56.1682      53.2292      80.1253      92.8251      75.3064       0.1097       0.0019    -999.2500       4.7420       3.7643
   2422.4795      20.4531    -999.2500      53.2143      57.3619      75.9247      83.5220      68.3702       0.1152       0.0011    -999.2500       5.3666       4.1092
   2422.6321      18.9737    -999.2500      60.4592      65.9075      75.5640      80.6656      70.9131       0.1228       0.0011    -999.2500       4.9421       5.2254
   2422.7844      16.0747    -999.2500      73.9643      75.5209      73.6145      75.9915      67.4139       0.1366       0.0012    -999.2500       4.0956       6.6183
   2422.9368      15.6151    -999.2500      84.6731      81.3769      69.4917      68.6223      56.2339       0.1634       0.0012    -999.2500       3.9541       7.3215
   2423.0891      18.9335    -999.2500      81.1600      78.2815      79.0396      63.4772      47.7904       0.2047       0.0011    -999.2500       4.9172       6.6074
