#------------------------------------------------------------------------------
#
#   Created by  : [OpenWorks] Log Export Utility (LEXP)
#   Created on  : 2016-05-19 10:15:25
#   Project     : CANT971
#   User        : R5K
#   Interpreter : PEP
#
#------------------------------------------------------------------------------
~VERSION INFORMATION
VERS. 2.0 : CWLS Log ASCII Standard - version 2.0
WRAP.  NO : One line per depth step
~WELL INFORMATION
#MNEMONIC   .UNIT                                           VALUE :DESCRIPTION
#------------------------------------------------------------------------------
STRT        .M                                           740.7456 :START DEPTH
STOP        .M                                          2958.0132 :STOP DEPTH
STEP        .M                                             0.1524 :STEP
NULL        .                                           -999.2500 :NULL VALUE
COMP        .                                             UNKNOWN :COMPANY
WELL        .                                                3060 :WELL
FLD         .                                             UNKNOWN :FIELD
LOC         .                                             UNKNOWN :LOCATION
CNTY        .                                             UNKNOWN :COUNTY
STAT        .                                             UNKNOWN :STATE
CTRY        .                                             UNKNOWN :COUNTRY
SRVC        .                                             UNKNOWN :SERVICE COMPANY
DATE        .                                             UNKNOWN :LOG DATE
UWI         .                                                3060 :UNIQUE WELL ID
XCOORD      .                                       601505.010000 :SURFACE X
YCOORD      .                                      2149907.440000 :SURFACE Y
LAT         .                                           19.442142 :LATITUDE
LON         .                                          -92.033049 :LONGITUDE
ELEV        .M                                             0.0000 :SURFACE ELEV
ELEV_TYPE   .                                                  KB :ELEV TYPE
~CURVE INFORMATION
#MNEMONIC.UNIT        API CODE       : CURVE DESCRIPTION
#------------------------------------------------------------------------------
DEPTH    .M                          : Measured Depth
CGR      .API         UNKNOWN        : CGR:Espectroscopia-entubado:r1:0002:v1 
DT       .us/ft       UNKNOWN        : DT:sonico:r1:0001:v1 
GR-LWD   .API         UNKNOWN        : GR-LWD:registros-LWD:r1:0002:v1 
GR       .API         UNKNOWN        : GR:GR-entubado:r2:0001:v1 
LLD-LWD  .ohm.m       UNKNOWN        : LLD-LWD:registros-LWD:r1:0002:v1 
LLS-LWD  .ohm.m       UNKNOWN        : LLS-LWD:registros-LWD:r1:0002:v1 
MSFL-LWD .ohm.m       UNKNOWN        : MSFL-LWD:registros-LWD:r1:0002:v1 
NPHI     .UNKNOWN     UNKNOWN        : NPHI:porosidad-entubado:r2:0001:v1 
POTA     .wtpercent   UNKNOWN        : POTA:Espectroscopia-entubado:r1:0002:v1 
SIGM     .cu          UNKNOWN        : SIGM:TMDL:r1:0001:v1 
THOR     .ppm         UNKNOWN        : THOR:Espectroscopia-entubado:r1:0002:v1 
URAN     .ppm         UNKNOWN        : URAN:Espectroscopia-entubado:r1:0002:v1 
~A     DEPTH          CGR           DT       GR-LWD           GR      LLD-LWD      LLS-LWD     MSFL-LWD         NPHI         POTA         SIGM         THOR         URAN
# ...
   2818.2625       4.6592    -999.2500      39.4512      35.2688      89.4847      97.8691      71.9752       0.0372       0.0029       8.3873       0.1638       3.4079
   2818.4148       2.7675    -999.2500      40.0668      32.6045      91.4014     106.1982      79.1653       0.0374       0.0014       8.4187       0.2206       3.3219
   2818.5671       2.1987    -999.2500      37.2573      30.4818      93.6341     113.8916      86.9513       0.0375       0.0011       8.4330       0.1989       3.1488
   2818.7197       2.9578    -999.2500      34.9600      31.1227      94.1603     115.9614      92.1129       0.0371       0.0018       8.3880       0.1063       3.1357
   2818.8721       3.8471    -999.2500      34.6924      32.2347      94.2102     117.2998      95.6300       0.0366       0.0025       8.3660       0.1006       3.1605
   2819.0244       3.1716    -999.2500      34.9838      33.1657      94.9450     122.2752      96.0923       0.0367       0.0018       8.3924       0.1983       3.3394
   2819.1768       2.3132    -999.2500      34.9967      37.1966      97.3068     132.5959      93.9408       0.0380       0.0010       8.5013       0.2625       3.8837
   2819.3291       2.2799    -999.2500      33.4334      39.3377     101.7722     144.0839      90.4747       0.0401       0.0008       8.5941       0.3122       4.1258
   2819.4817       4.4669    -999.2500      30.7051      36.5499      96.4666     126.4349      81.6913       0.0435       0.0008       8.6588       0.9447       3.5719
   2819.6340       7.5941    -999.2500      29.1593      33.0110      90.7830     109.0595      82.8463       0.0482       0.0008       8.7169       1.8433       2.8297
   2819.7864      10.3328    -999.2500      29.3009      31.2825      93.7680     114.4959      91.9172       0.0533       0.0017       8.8157       2.2556       2.3324
   2819.9387      11.5628    -999.2500      29.5781      31.0728      98.8283     149.1637      95.7277       0.0579       0.0028       8.9154       2.1749       2.1721
   2820.0913      11.8549    -999.2500      28.0263      31.9593     108.3962     311.5803     104.1790       0.0583       0.0023       8.9732       2.4294       2.2383
   2820.2437      11.8457    -999.2500      25.1297      33.6529     113.8448     498.5097     109.1274       0.0524       0.0013       8.9314       2.8576       2.4279
   2820.3960       9.3827    -999.2500      21.8543      34.8271      90.4734     298.6753      88.8220       0.0453       0.0009       8.8452       2.3191       2.8328
   2820.5483       4.2887    -999.2500      20.8375      31.9902      76.6446     134.5223      92.4793       0.0423       0.0010       8.7069       0.8480       3.0841
   2820.7007       3.8183    -999.2500      21.9003      27.6876      78.3546     139.3127     104.0974       0.0416       0.0021       8.6770       0.2522       2.6575
   2820.8533       8.6173    -999.2500      22.7966      26.0189      77.3189     119.9609      96.9886       0.0417       0.0036       8.6265       1.0140       1.9374
   2821.0056      12.0133    -999.2500      24.3099      26.9275      77.5765     107.1208      89.2917       0.0434       0.0027       8.6101       2.3491       1.6605
   2821.1580      13.1227    -999.2500      24.1405      29.8702      76.1908     100.3045      82.7283       0.0465       0.0012       8.6129       3.2542       1.8645
   2821.3103      10.8313    -999.2500      24.2145      31.1142      72.2536      90.3347      74.4261       0.0502       0.0008       8.6527       2.7480       2.2581
   2821.4629       5.2063    -999.2500      24.7355      30.6648      68.6017      81.0183      67.3574       0.0546       0.0010       8.6696       1.0781       2.8343
   2821.6152       3.4827    -999.2500      27.7698      30.2974      65.1067      73.9469      62.4804       0.0578       0.0018       8.6056       0.2615       2.9854
   2821.7676       4.8760    -999.2500      33.3085      29.0314      61.5757      68.2250      59.0279       0.0556       0.0019       8.4222       0.6044       2.6893
   2821.9199       6.2383    -999.2500      37.1182      28.3771      59.4094      64.3766      56.5902       0.0508       0.0011       8.3629       1.3145       2.4648
   2822.0725       8.2541    -999.2500      38.3646      28.8547      60.4883      61.0249      54.3043       0.0511       0.0006       8.4572       2.0696       2.2935
   2822.2249       8.2152    -999.2500      42.3879      28.3805      67.3843      54.5591      49.1946       0.0569       0.0006       8.5960       2.0942       2.2451
   2822.3772       6.3198    -999.2500      52.1669      28.4802      75.9635      47.9371      42.9974       0.0648       0.0005       8.6602       1.6078       2.4672
   2822.5295       8.0609    -999.2500      62.4354      29.6630      79.7151      43.3888      38.3371       0.0690       0.0003       8.5492       2.1609       2.4050
   2822.6819      12.2403    -999.2500      68.8509      28.3311      73.7458      39.0688      34.3598       0.0623       0.0004       8.3137       3.3276       1.7914
   2822.8345      13.3894    -999.2500      73.0144      25.9007      62.4305      34.9028      30.4438       0.0503       0.0005       8.2032       3.5909       1.3929
   2822.9868       8.5637    -999.2500      76.3902      24.6639      50.8670      31.1904      26.7706       0.0439       0.0007       8.2182       2.1789       1.7925
   2823.1392       3.3618    -999.2500      77.6752      24.8275      42.8588      28.3311      24.0230       0.0434       0.0007       8.3125       0.6864       2.3898
   2823.2915       8.3982    -999.2500      74.6873      27.0148      39.7725      25.8591      22.0094       0.0451       0.0007       8.4570       2.1062       2.0726
   2823.4441      16.7465    -999.2500      71.0048      30.9888      38.1376      22.9490      19.8540       0.0468       0.0007       8.6607       4.4669       1.5856
   2823.5964      21.5090    -999.2500      70.4602      34.2188      37.3894      19.6774      17.3082       0.0471       0.0008       8.8136       5.8065       1.4151
   2823.7488      20.0702    -999.2500      72.0910      34.6068      38.0850      16.4309      14.4137       0.0465       0.0008       8.9657       5.3735       1.6184
   2823.9011      14.7616    -999.2500      76.1135      34.1669      38.7741      13.5364      11.5413       0.0462       0.0015       9.0058       3.5740       2.1605
   2824.0537      14.9387    -999.2500      81.1485      35.6310      35.4313      10.9658       9.1214       0.0466       0.0031       8.9770       3.0208       2.3037
   2824.2061      23.7176    -999.2500      83.6299      40.9429      28.1341       8.6628       7.2351       0.0474       0.0052       8.9639       4.6690       1.9177
   2824.3584      31.0289    -999.2500      83.3698      48.8205      22.1227       7.0774       6.0348       0.0486       0.0063       9.0810       6.3078       1.9808
   2824.5107      30.8731    -999.2500      79.6112      56.3247      18.6171       6.1246       5.3382       0.0506       0.0052       9.2982       6.7078       2.8336
   2824.6631      22.9107    -999.2500      73.2457      61.9227      17.2272       5.7338       5.0605       0.0539       0.0025       9.8273       5.5214       4.3433
   2824.8157      12.3951    -999.2500      70.8672      64.7277      16.6897       5.7092       5.0449       0.0583       0.0011      10.2479       3.0693       5.8264
   2824.9680       8.2118    -999.2500      72.0229      62.7954      15.9230       5.8530       5.1247       0.0634       0.0019      10.7987       1.6001       6.0770
   2825.1204      17.2707    -999.2500      72.5051      61.3808      15.1506       6.2478       5.3586       0.0683       0.0053      11.0732       2.7925       4.9109
   2825.2727      33.8895    -999.2500      72.1600      62.9309      14.4838       6.9077       5.7872       0.0724       0.0090      11.3846       6.0573       3.2333
   2825.4253      44.8759    -999.2500      71.1619      64.9962      14.0662       7.7106       6.3742       0.0753       0.0093      11.6444       9.0315       2.2400
