#------------------------------------------------------------------------------
#
#   Created by  : [OpenWorks] Log Export Utility (LEXP)
#   Created on  : 2016-05-19 10:15:25
#   Project     : CANT971
#   User        : R5K
#   Interpreter : PEP
#
#------------------------------------------------------------------------------
~VERSION INFORMATION
VERS. 2.0 : CWLS Log ASCII Standard - version 2.0
WRAP.  NO : One line per depth step
~WELL INFORMATION
#MNEMONIC   .UNIT                                           VALUE :DESCRIPTION
#------------------------------------------------------------------------------
STRT        .M                                           740.7456 :START DEPTH
STOP        .M                                          2958.0132 :STOP DEPTH
STEP        .M                                             0.1524 :STEP
NULL        .                                           -999.2500 :NULL VALUE
COMP        .                                             UNKNOWN :COMPANY
WELL        .                                                3060 :WELL
FLD         .                                             UNKNOWN :FIELD
LOC         .                                             UNKNOWN :LOCATION
CNTY        .                                             UNKNOWN :COUNTY
STAT        .                                             UNKNOWN :STATE
CTRY        .                                             UNKNOWN :COUNTRY
SRVC        .                                             UNKNOWN :SERVICE COMPANY
DATE        .                                             UNKNOWN :LOG DATE
UWI         .                                                3060 :UNIQUE WELL ID
XCOORD      .                                       601505.010000 :SURFACE X
YCOORD      .                                      2149907.440000 :SURFACE Y
LAT         .                                           19.442142 :LATITUDE
LON         .                                          -92.033049 :LONGITUDE
ELEV        .M                                             0.0000 :SURFACE ELEV
ELEV_TYPE   .                                                  KB :ELEV TYPE
~CURVE INFORMATION
#MNEMONIC.UNIT        API CODE       : CURVE DESCRIPTION
#------------------------------------------------------------------------------
DEPTH    .M                          : Measured Depth
CGR      .API         UNKNOWN        : CGR:Espectroscopia-entubado:r1:0002:v1 
DT       .us/ft       UNKNOWN        : DT:sonico:r1:0001:v1 
GR-LWD   .API         UNKNOWN        : GR-LWD:registros-LWD:r1:0002:v1 
GR       .API         UNKNOWN        : GR:GR-entubado:r2:0001:v1 
LLD-LWD  .ohm.m       UNKNOWN        : LLD-LWD:registros-LWD:r1:0002:v1 
LLS-LWD  .ohm.m       UNKNOWN        : LLS-LWD:registros-LWD:r1:0002:v1 
MSFL-LWD .ohm.m       UNKNOWN        : MSFL-LWD:registros-LWD:r1:0002:v1 
NPHI     .UNKNOWN     UNKNOWN        : NPHI:porosidad-entubado:r2:0001:v1 
POTA     .wtpercent   UNKNOWN        : POTA:Espectroscopia-entubado:r1:0002:v1 
SIGM     .cu          UNKNOWN        : SIGM:TMDL:r1:0001:v1 
THOR     .ppm         UNKNOWN        : THOR:Espectroscopia-entubado:r1:0002:v1 
URAN     .ppm         UNKNOWN        : URAN:Espectroscopia-entubado:r1:0002:v1 
~A     DEPTH          CGR           DT       GR-LWD           GR      LLD-LWD      LLS-LWD     MSFL-LWD         NPHI         POTA         SIGM         THOR         URAN
# ...
   2562.2305       2.0474    -999.2500      21.1178      21.4042     117.9445     208.3508     142.9889       0.0772       0.0013    -999.2500       0.0664       2.1551
   2562.3828       1.5601    -999.2500      18.3268      19.1084     125.3581     221.5740     142.6305       0.0736       0.0005    -999.2500       0.2293       1.9537
   2562.5352       4.4670    -999.2500      16.0814      17.2359     131.3657     234.5919     143.8354       0.0696       0.0006    -999.2500       1.0532       1.4216
   2562.6875       6.9533    -999.2500      15.0465      16.0427     137.7841     253.5567     156.0213       0.0660       0.0005    -999.2500       1.7554       1.0120
   2562.8401       6.2613    -999.2500      15.5333      16.9690     142.2318     269.9797     163.4691       0.0612       0.0005    -999.2500       1.5726       1.1921
   2562.9924       5.0546    -999.2500      15.5949      20.5499     151.0978     278.0773     165.1612       0.0571       0.0004    -999.2500       1.2629       1.7252
   2563.1448       3.1498    -999.2500      15.9932      22.9510     162.6967     268.5788     162.1321       0.0568       0.0004    -999.2500       0.7434       2.2045
   2563.2971       1.3157    -999.2500      16.8924      20.4985     166.9874     249.5575     153.3979       0.0593       0.0004    -999.2500       0.2131       2.1357
   2563.4497       2.5890    -999.2500      16.7339      16.8795     163.8826     229.7572     139.6753       0.0616       0.0017    -999.2500       0.0667       1.5910
   2563.6021       4.8787    -999.2500      15.9698      15.4049     154.7773     201.7887     121.1917       0.0643       0.0034    -999.2500       0.0652       1.1719
   2563.7544       4.6708    -999.2500      15.8376      15.0412     145.3781     182.8121     112.6691       0.0685       0.0032    -999.2500       0.0661       1.1546
   2563.9067       2.2733    -999.2500      16.1007      15.0730     145.6083     195.4325     125.2818       0.0719       0.0014    -999.2500       0.0891       1.4250
   2564.0593       1.3472    -999.2500      15.6358      14.9623     156.6363     228.5920     144.7723       0.0709       0.0007    -999.2500       0.1151       1.5158
   2564.2117       1.8902    -999.2500      15.5252      15.9448     168.9514     258.6957     157.7180       0.0663       0.0006    -999.2500       0.2885       1.5647
   2564.3640       2.8841    -999.2500      16.2747      17.8385     177.1933     274.0892     164.8711       0.0626       0.0004    -999.2500       0.6319       1.6649
   2564.5164       2.2668    -999.2500      17.2723      18.7573     178.7628     281.0482     166.3839       0.0606       0.0005    -999.2500       0.4496       1.8360
   2564.6687       1.6218    -999.2500      17.5657      18.1630     181.1076     298.0891     175.5936       0.0588       0.0007    -999.2500       0.1636       1.8416
   2564.8213       1.4507    -999.2500      17.0906      18.0399     185.6538     320.9039     178.6038       0.0577       0.0007    -999.2500       0.1285       1.8470
   2564.9736       1.1787    -999.2500      16.4726      19.5623     191.1049     338.9401     178.7735       0.0585       0.0005    -999.2500       0.1301       2.0467
   2565.1260       0.9878    -999.2500      16.7777      21.3594     195.3610     348.8842     185.7461       0.0597       0.0004    -999.2500       0.1033       2.2681
   2565.2783       0.8792    -999.2500      17.3406      22.2212     198.2600     350.9712     187.1480       0.0600       0.0004    -999.2500       0.0780       2.3761
   2565.4309       0.9117    -999.2500      17.7491      21.1818     203.3423     354.3249     182.8906       0.0598       0.0005    -999.2500       0.0744       2.2567
   2565.5833       2.2768    -999.2500      17.0702      19.0660     205.7117     352.5832     182.2992       0.0604       0.0005    -999.2500       0.4441       1.8692
   2565.7356       3.8258    -999.2500      17.0756      18.1306     197.3020     330.1339     183.1597       0.0610       0.0006    -999.2500       0.8709       1.5926
   2565.8879       2.5551    -999.2500      17.9203      19.7382     189.2328     323.5472     183.3214       0.0607       0.0006    -999.2500       0.4993       1.9131
   2566.0405       1.4265    -999.2500      18.1799      21.7209     189.0527     338.7536     177.4772       0.0599       0.0007    -999.2500       0.1433       2.2595
   2566.1929       1.5908    -999.2500      17.8809      22.4905     193.9280     330.2273     167.4564       0.0587       0.0008    -999.2500       0.1345       2.3268
   2566.3452       1.4789    -999.2500      17.7975      22.3884     197.8489     305.5794     164.0898       0.0586       0.0007    -999.2500       0.1350       2.3279
   2566.4976       2.4614    -999.2500      17.2964      20.6046     198.4774     290.8364     169.9972       0.0599       0.0006    -999.2500       0.4619       2.0199
   2566.6499       7.1702    -999.2500      16.0659      18.1988     195.7320     291.8250     172.8109       0.0605       0.0005    -999.2500       1.8166       1.2279
   2566.8025       7.7265    -999.2500      15.0371      16.7566     193.4688     297.4289     172.7837       0.0603       0.0005    -999.2500       1.9930       1.0054
   2566.9548       3.1461    -999.2500      15.9537      16.1858     195.2528     300.5015     172.9128       0.0604       0.0005    -999.2500       0.6998       1.4518
   2567.1072       0.9875    -999.2500      17.9917      17.3469     198.7826     302.0802     174.6001       0.0609       0.0005    -999.2500       0.0832       1.8213
   2567.2595       0.9908    -999.2500      18.1059      18.6806     200.6845     302.9713     177.3990       0.0617       0.0005    -999.2500       0.0749       1.9694
   2567.4121       1.2060    -999.2500      16.9932      19.0563     201.4770     300.7878     174.5029       0.0630       0.0005    -999.2500       0.1332       1.9873
   2567.5645       3.8085    -999.2500      16.7930      19.2089     201.1011     292.0728     164.1028       0.0645       0.0005    -999.2500       0.8808       1.7146
   2567.7168       8.2491    -999.2500      16.8710      18.3235     199.3143     286.6562     161.4520       0.0668       0.0005    -999.2500       2.1480       1.1216
   2567.8691      11.3676    -999.2500      16.5690      16.4177     200.0718     299.5808     173.0374       0.0699       0.0005    -999.2500       3.0280       0.5622
   2568.0215       9.5753    -999.2500      16.0842      14.9413     201.2564     316.6821     179.7223       0.0705       0.0005    -999.2500       2.5132       0.5975
   2568.1741       4.4258    -999.2500      16.1315      16.1581     195.7450     312.4404     175.1412       0.0690       0.0005    -999.2500       1.0574       1.3062
   2568.3264       1.3962    -999.2500      17.5562      18.1222     187.8853     304.1472     173.8769       0.0691       0.0005    -999.2500       0.2087       1.8622
   2568.4788       0.9412    -999.2500      18.4559      19.4462     183.1807     313.1859     174.0921       0.0699       0.0005    -999.2500       0.0714       2.0603
   2568.6311       1.2528    -999.2500      17.6434      18.6930     181.8793     330.0685     175.1141       0.0698       0.0006    -999.2500       0.1387       1.9417
   2568.7837       3.5994    -999.2500      16.7554      16.7180     185.3843     337.4491     181.1454       0.0695       0.0006    -999.2500       0.7772       1.4606
   2568.9360       9.3283    -999.2500      16.4463      15.8038     190.2728     339.7235     183.8433       0.0704       0.0009    -999.2500       2.2874       0.7209
   2569.0884      14.9745    -999.2500      17.2583      17.4594     197.9069     345.2817     180.4958       0.0731       0.0008    -999.2500       3.9294       0.2766
   2569.2407      14.6543    -999.2500      17.9183      18.9163     208.3025     341.2238     173.2120       0.0773       0.0006    -999.2500       3.9140       0.4745
   2569.3933      10.3621    -999.2500      18.1397      20.0936     213.0493     335.6023     158.8430       0.0814       0.0007    -999.2500       2.6849       1.0835
