#------------------------------------------------------------------------------
#
#   Created by  : [OpenWorks] Log Export Utility (LEXP)
#   Created on  : 2016-05-19 10:15:25
#   Project     : CANT971
#   User        : R5K
#   Interpreter : PEP
#
#------------------------------------------------------------------------------
~VERSION INFORMATION
VERS. 2.0 : CWLS Log ASCII Standard - version 2.0
WRAP.  NO : One line per depth step
~WELL INFORMATION
#MNEMONIC   .UNIT                                           VALUE :DESCRIPTION
#------------------------------------------------------------------------------
STRT        .M                                           740.7456 :START DEPTH
STOP        .M                                          2958.0132 :STOP DEPTH
STEP        .M                                             0.1524 :STEP
NULL        .                                           -999.2500 :NULL VALUE
COMP        .                                             UNKNOWN :COMPANY
WELL        .                                                3060 :WELL
FLD         .                                             UNKNOWN :FIELD
LOC         .                                             UNKNOWN :LOCATION
CNTY        .                                             UNKNOWN :COUNTY
STAT        .                                             UNKNOWN :STATE
CTRY        .                                             UNKNOWN :COUNTRY
SRVC        .                                             UNKNOWN :SERVICE COMPANY
DATE        .                                             UNKNOWN :LOG DATE
UWI         .                                                3060 :UNIQUE WELL ID
XCOORD      .                                       601505.010000 :SURFACE X
YCOORD      .                                      2149907.440000 :SURFACE Y
LAT         .                                           19.442142 :LATITUDE
LON         .                                          -92.033049 :LONGITUDE
ELEV        .M                                             0.0000 :SURFACE ELEV
ELEV_TYPE   .                                                  KB :ELEV TYPE
~CURVE INFORMATION
#MNEMONIC.UNIT        API CODE       : CURVE DESCRIPTION
#------------------------------------------------------------------------------
DEPTH    .M                          : Measured Depth
CGR      .API         UNKNOWN        : CGR:Espectroscopia-entubado:r1:0002:v1 
DT       .us/ft       UNKNOWN        : DT:sonico:r1:0001:v1 
GR-LWD   .API         UNKNOWN        : GR-LWD:registros-LWD:r1:0002:v1 
GR       .API         UNKNOWN        : GR:GR-entubado:r2:0001:v1 
LLD-LWD  .ohm.m       UNKNOWN        : LLD-LWD:registros-LWD:r1:0002:v1 
LLS-LWD  .ohm.m       UNKNOWN        : LLS-LWD:registros-LWD:r1:0002:v1 
MSFL-LWD .ohm.m       UNKNOWN        : MSFL-LWD:registros-LWD:r1:0002:v1 
NPHI     .UNKNOWN     UNKNOWN        : NPHI:porosidad-entubado:r2:0001:v1 
POTA     .wtpercent   UNKNOWN        : POTA:Espectroscopia-entubado:r1:0002:v1 
SIGM     .cu          UNKNOWN        : SIGM:TMDL:r1:0001:v1 
THOR     .ppm         UNKNOWN        : THOR:Espectroscopia-entubado:r1:0002:v1 
URAN     .ppm         UNKNOWN        : URAN:Espectroscopia-entubado:r1:0002:v1 
~A     DEPTH          CGR           DT       GR-LWD           GR      LLD-LWD      LLS-LWD     MSFL-LWD         NPHI         POTA         SIGM         THOR         URAN
# ...
   2518.3391       1.6006    -999.2500      35.8402      36.5115     188.0577     307.6754     171.8597       0.0535       0.0007    -999.2500       0.1558       3.8867
   2518.4917       2.5513    -999.2500      34.8263      35.4477     192.6610     300.0954     169.2428       0.0525       0.0015    -999.2500       0.1436       3.6624
   2518.6440       5.2911    -999.2500      35.5246      29.8287     189.6093     299.8226     166.0379       0.0530       0.0031    -999.2500       0.2938       2.7318
   2518.7964       7.9144    -999.2500      35.8981      26.7178     188.6345     299.7575     160.5614       0.0543       0.0039    -999.2500       0.6840       2.0934
   2518.9487       5.7894    -999.2500      34.2262      26.9853     185.3572     287.8242     157.5035       0.0544       0.0031    -999.2500       0.4229       2.3598
   2519.1013       2.2932    -999.2500      31.8801      28.5804     182.4874     283.0139     160.9899       0.0524       0.0014    -999.2500       0.0961       2.9267
   2519.2537       1.2388    -999.2500      30.7294      30.4508     181.5752     292.0701     169.3163       0.0497       0.0007    -999.2500       0.0835       3.2523
   2519.4060       1.4875    -999.2500      29.3376      31.7268     189.4520     294.9927     175.9612       0.0472       0.0007    -999.2500       0.1579       3.3667
   2519.5583       3.2413    -999.2500      27.7153      31.1307     196.8513     300.8479     175.9758       0.0454       0.0007    -999.2500       0.6410       3.1050
   2519.7107       5.6148    -999.2500      29.0468      29.3439     192.0253     307.2525     172.4111       0.0451       0.0008    -999.2500       1.2977       2.6418
   2519.8633       6.0873    -999.2500      32.1405      27.5331     185.7626     300.1825     164.7049       0.0461       0.0008    -999.2500       1.4265       2.3876
   2520.0156       3.4689    -999.2500      33.6803      29.8687     185.2237     295.9412     157.7877       0.0474       0.0007    -999.2500       0.6909       2.9392
   2520.1680       1.8928    -999.2500      33.4193      33.6803     184.7293     297.4863     154.2106       0.0479       0.0007    -999.2500       0.2552       3.5390
   2520.3203       1.6115    -999.2500      32.4161      37.8262     181.2583     292.2609     154.5598       0.0482       0.0007    -999.2500       0.1788       4.0319
   2520.4729       2.9800    -999.2500      32.4081      40.2882     177.9720     283.9527     155.8121       0.0498       0.0008    -999.2500       0.5541       4.1536
   2520.6252       6.0923    -999.2500      33.9423      37.7259     174.8569     278.1053     155.9296       0.0528       0.0008    -999.2500       1.4136       3.5219
   2520.7776       8.8047    -999.2500      34.2313      33.4719     177.0749     275.9289     155.9296       0.0554       0.0008    -999.2500       2.1751       2.7463
   2520.9299       9.7932    -999.2500      33.6219      30.1411     182.5707     273.1403     155.9296       0.0564       0.0008    -999.2500       2.4648       2.2654
   2521.0825       8.4560    -999.2500      33.4136      27.7871     182.3331     276.1865     155.6780       0.0559       0.0007    -999.2500       2.1088       2.1522
   2521.2349       4.0286    -999.2500      32.3748      26.1800     177.1335     284.9606     154.4851       0.0552       0.0007    -999.2500       0.8650       2.4662
   2521.3872       2.5380    -999.2500      31.0478      25.5418     172.7704     290.9643     153.8774       0.0559       0.0015    -999.2500       0.1501       2.5611
   2521.5396       4.3183    -999.2500      30.4348      25.7335     171.3745     300.4237     156.7849       0.0583       0.0028    -999.2500       0.1231       2.3842
   2521.6919       6.2989    -999.2500      30.0598      26.4328     173.8339     305.3518     160.6078       0.0605       0.0030    -999.2500       0.6130       2.2416
   2521.8445       7.4180    -999.2500      30.1963      27.6907     177.1761     301.0811     160.9290       0.0616       0.0016    -999.2500       1.4800       2.2570
   2521.9968      10.5142    -999.2500      30.8279      29.1693     181.4649     298.3051     161.1539       0.0634       0.0008    -999.2500       2.6666       2.0770
   2522.1492      12.9173    -999.2500      31.5270      29.2728     184.2476     297.7758     161.5239       0.0670       0.0008    -999.2500       3.3438       1.8210
   2522.3015      10.8288    -999.2500      32.3225      29.7815     184.5199     297.5881     159.9274       0.0711       0.0009    -999.2500       2.7404       2.1101
   2522.4541       7.9566    -999.2500      33.3316      33.3499     185.1079     301.5880     158.4490       0.0749       0.0009    -999.2500       1.9130       2.8271
   2522.6064       8.5056    -999.2500      35.7982      38.8855     185.0384     320.5110     159.6243       0.0787       0.0009    -999.2500       2.0610       3.3823
   2522.7588      11.8305    -999.2500      40.1168      41.7023     183.1093     334.9113     160.3729       0.0818       0.0009    -999.2500       3.0060       3.3257
   2522.9111      14.9041    -999.2500      44.9703      39.9455     177.0918     299.3636     151.5625       0.0835       0.0008    -999.2500       3.8942       2.7879
   2523.0637      13.3117    -999.2500      46.7168      35.5406     170.1433     249.5334     140.2109       0.0830       0.0008    -999.2500       3.4612       2.4748
   2523.2161       6.5302    -999.2500      42.7967      32.8830     169.7125     245.1484     142.2918       0.0793       0.0008    -999.2500       1.5437       2.9339
   2523.3684       2.2376    -999.2500      37.0859      33.9193     171.4661     264.4324     151.1804       0.0741       0.0008    -999.2500       0.3178       3.5272
   2523.5208       2.1286    -999.2500      34.3741      35.3592     171.4818     274.3511     156.3469       0.0693       0.0012    -999.2500       0.1503       3.6996
   2523.6731       4.1485    -999.2500      34.5176      34.6455     173.5814     276.1484     159.8273       0.0659       0.0022    -999.2500       0.2897       3.3953
   2523.8257      10.9048    -999.2500      35.0166      32.1832     174.8056     277.6403     162.5838       0.0645       0.0034    -999.2500       1.7401       2.3690
   2523.9780      17.2335    -999.2500      34.9522      30.9510     170.9817     279.5418     163.7287       0.0639       0.0034    -999.2500       3.5161       1.5273
   2524.1304      16.9520    -999.2500      34.6519      31.0417     167.9429     277.5163     163.6729       0.0639       0.0027    -999.2500       3.7440       1.5687
   2524.2827      10.2352    -999.2500      35.1834      32.1009     167.4479     279.0317     165.9344       0.0658       0.0015    -999.2500       2.2975       2.4344
   2524.4353       4.5052    -999.2500      37.1341      34.7531     167.6809     287.3396     168.8068       0.0681       0.0009    -999.2500       0.9283       3.3676
   2524.5876       6.6248    -999.2500      37.7252      36.7156     167.0077     292.3470     169.1604       0.0693       0.0008    -999.2500       1.5518       3.3501
   2524.7400      12.6507    -999.2500      37.1060      35.1663     163.4143     290.6872     167.6637       0.0713       0.0009    -999.2500       3.2426       2.5068
   2524.8923      17.2384    -999.2500      37.8492      33.4125     163.2038     286.6226     161.2020       0.0741       0.0018    -999.2500       4.1895       1.8007
   2525.0449      15.6086    -999.2500      38.6385      33.7745     165.0064     286.0002     158.8668       0.0740       0.0023    -999.2500       3.5312       2.0225
   2525.1973      10.6419    -999.2500      38.7367      34.8557     164.1454     291.5176     165.0366       0.0690       0.0018    -999.2500       2.2801       2.6958
   2525.3496      10.5571    -999.2500      40.1907      35.5985     164.6858     289.2095     166.6084       0.0628       0.0025    -999.2500       2.0036       2.7879
   2525.5020      15.7862    -999.2500      42.2529      35.2369     167.2777     271.9933     162.7469       0.0596       0.0043    -999.2500       2.7490       2.1655
