#------------------------------------------------------------------------------
#
#   Created by  : [OpenWorks] Log Export Utility (LEXP)
#   Created on  : 2016-05-19 10:15:25
#   Project     : CANT971
#   User        : R5K
#   Interpreter : PEP
#
#------------------------------------------------------------------------------
~VERSION INFORMATION
VERS. 2.0 : CWLS Log ASCII Standard - version 2.0
WRAP.  NO : One line per depth step
~WELL INFORMATION
#MNEMONIC   .UNIT                                           VALUE :DESCRIPTION
#------------------------------------------------------------------------------
STRT        .M                                           740.7456 :START DEPTH
STOP        .M                                          2958.0132 :STOP DEPTH
STEP        .M                                             0.1524 :STEP
NULL        .                                           -999.2500 :NULL VALUE
COMP        .                                             UNKNOWN :COMPANY
WELL        .                                                3060 :WELL
FLD         .                                             UNKNOWN :FIELD
LOC         .                                             UNKNOWN :LOCATION
CNTY        .                                             UNKNOWN :COUNTY
STAT        .                                             UNKNOWN :STATE
CTRY        .                                             UNKNOWN :COUNTRY
SRVC        .                                             UNKNOWN :SERVICE COMPANY
DATE        .                                             UNKNOWN :LOG DATE
UWI         .                                                3060 :UNIQUE WELL ID
XCOORD      .                                       601505.010000 :SURFACE X
YCOORD      .                                      2149907.440000 :SURFACE Y
LAT         .                                           19.442142 :LATITUDE
LON         .                                          -92.033049 :LONGITUDE
ELEV        .M                                             0.0000 :SURFACE ELEV
ELEV_TYPE   .                                                  KB :ELEV TYPE
~CURVE INFORMATION
#MNEMONIC.UNIT        API CODE       : CURVE DESCRIPTION
#------------------------------------------------------------------------------
DEPTH    .M                          : Measured Depth
CGR      .API         UNKNOWN        : CGR:Espectroscopia-entubado:r1:0002:v1 
DT       .us/ft       UNKNOWN        : DT:sonico:r1:0001:v1 
GR-LWD   .API         UNKNOWN        : GR-LWD:registros-LWD:r1:0002:v1 
GR       .API         UNKNOWN        : GR:GR-entubado:r2:0001:v1 
LLD-LWD  .ohm.m       UNKNOWN        : LLD-LWD:registros-LWD:r1:0002:v1 
LLS-LWD  .ohm.m       UNKNOWN        : LLS-LWD:registros-LWD:r1:0002:v1 
MSFL-LWD .ohm.m       UNKNOWN        : MSFL-LWD:registros-LWD:r1:0002:v1 
NPHI     .UNKNOWN     UNKNOWN        : NPHI:porosidad-entubado:r2:0001:v1 
POTA     .wtpercent   UNKNOWN        : POTA:Espectroscopia-entubado:r1:0002:v1 
SIGM     .cu          UNKNOWN        : SIGM:TMDL:r1:0001:v1 
THOR     .ppm         UNKNOWN        : THOR:Espectroscopia-entubado:r1:0002:v1 
URAN     .ppm         UNKNOWN        : URAN:Espectroscopia-entubado:r1:0002:v1 
~A     DEPTH          CGR           DT       GR-LWD           GR      LLD-LWD      LLS-LWD     MSFL-LWD         NPHI         POTA         SIGM         THOR         URAN
# ...
   2313.5137      15.9199    -999.2500      58.7333      44.2851     120.4551     110.5888      59.4925       0.0105       0.0022    -999.2500       3.6579       3.1580
   2313.6660      15.1164    -999.2500      54.9724      50.0463     100.6142      80.8944      44.2911       0.0140       0.0012    -999.2500       3.8234       3.8888
   2313.8184      11.1501    -999.2500      52.0082      57.2711      89.0612      54.8445      32.1484       0.0220       0.0011    -999.2500       2.7450       5.1348
   2313.9707       5.6795    -999.2500      50.9715      64.0342      83.2727      42.7901      27.7760       0.0303       0.0011    -999.2500       1.1673       6.4969
   2314.1233       2.7107    -999.2500      50.8753      75.3961      78.7477      39.5842      27.8065       0.0342       0.0012    -999.2500       0.3105       8.0924
   2314.2756       2.6510    -999.2500      50.7835      77.1621      74.4515      40.5327      30.8269       0.0339       0.0012    -999.2500       0.2934       8.2956
   2314.4280       7.1255    -999.2500      49.9140      68.9707      72.8601      43.3425      34.8117       0.0320       0.0011    -999.2500       1.5761       6.8855
   2314.5803      15.5783    -999.2500      48.5811      63.2055      77.3477      49.9332      41.8618       0.0307       0.0010    -999.2500       3.9957       5.3025
   2314.7329      20.5094    -999.2500      47.9727      59.6742      84.8490      58.0294      50.2392       0.0302       0.0010    -999.2500       5.4109       4.3604
   2314.8853      19.3438    -999.2500      47.4986      54.6033      91.4903      63.7819      56.3151       0.0300       0.0010    -999.2500       5.0855       3.9256
   2315.0376      16.4905    -999.2500      46.9298      48.6905      95.9778      66.9328      60.0440       0.0293       0.0010    -999.2500       4.2805       3.5849
   2315.1899      14.9608    -999.2500      46.2853      45.4431     101.5152      69.6669      64.4030       0.0279       0.0016    -999.2500       3.6065       3.3937
   2315.3423      14.4870    -999.2500      45.4934      45.5619     105.3132      70.7736      66.7233       0.0266       0.0024    -999.2500       3.1675       3.4597
   2315.4949      11.4483    -999.2500      44.6553      46.9132     107.5519      70.7874      66.9479       0.0261       0.0020    -999.2500       2.4652       3.9484
   2315.6472       7.9833    -999.2500      44.2522      49.4888     109.9465      71.6843      67.6387       0.0265       0.0013    -999.2500       1.7671       4.6210
   2315.7996       6.3287    -999.2500      44.6485      51.6241     108.9326      73.0557      67.6326       0.0273       0.0011    -999.2500       1.3707       5.0429
   2315.9519       4.2336    -999.2500      45.3644      51.1129     105.3854      73.6156      66.4940       0.0281       0.0010    -999.2500       0.7843       5.2192
   2316.1045       6.2579    -999.2500      46.5086      49.7087     101.0753      72.8371      64.6598       0.0284       0.0010    -999.2500       1.3796       4.8375
   2316.2568      14.7390    -999.2500      48.7221      52.5385      98.4302      72.1335      63.8407       0.0282       0.0009    -999.2500       3.8101       4.2083
   2316.4092      25.4604    -999.2500      54.8857      59.1166      94.8784      69.9173      62.3997       0.0273       0.0009    -999.2500       6.8567       3.7470
   2316.5615      32.8602    -999.2500      59.3019      64.2217      95.6903      71.5019      65.7438       0.0255       0.0010    -999.2500       8.9351       3.4916
   2316.7141      34.1179    -999.2500      58.7209      66.9628      98.4422      74.1347      69.1655       0.0237       0.0010    -999.2500       9.2721       3.6568
   2316.8665      29.8321    -999.2500      56.8156      68.3701     103.3236      77.5189      73.6516       0.0229       0.0010    -999.2500       8.0540       4.2906
   2317.0188      24.5876    -999.2500      55.5584      68.1273     109.8724      84.1845      80.6824       0.0226       0.0011    -999.2500       6.5622       4.8475
   2317.1711      23.2363    -999.2500      52.7567      65.8302     115.0926      89.3565      82.7754       0.0217       0.0011    -999.2500       6.1600       4.7421
   2317.3235      24.5439    -999.2500      51.6626      62.3667     118.9827      92.3485      86.7663       0.0205       0.0011    -999.2500       6.5156       4.2109
   2317.4761      23.3700    -999.2500      52.3312      59.1886     121.5543      97.1256      96.9702       0.0212       0.0011    -999.2500       6.1877       3.9878
   2317.6284      18.0947    -999.2500      52.0879      55.5735     118.8409      97.1169      98.5614       0.0242       0.0010    -999.2500       4.7122       4.1727
   2317.7808      12.1829    -999.2500      52.8789      53.2363     117.4529      92.7365      94.2558       0.0276       0.0010    -999.2500       3.0606       4.5706
   2317.9331       6.6763    -999.2500      56.8667      50.9376     123.8709      91.5009      95.7819       0.0296       0.0010    -999.2500       1.5127       4.9277
   2318.0857       2.7688    -999.2500      60.5893      47.6121     124.8348      89.2753      95.5205       0.0309       0.0009    -999.2500       0.4082       4.9925
   2318.2380       1.6891    -999.2500      60.7191      44.1393     116.7743      81.3891      84.1559       0.0320       0.0009    -999.2500       0.1029       4.7261
   2318.3904       1.7274    -999.2500      60.7175      43.1398     110.8192      75.5614      75.8896       0.0314       0.0009    -999.2500       0.1165       4.6106
   2318.5427       1.7768    -999.2500      62.5409      44.4155     108.5358      75.2282      75.3529       0.0291       0.0010    -999.2500       0.1236       4.7471
   2318.6953       2.9542    -999.2500      61.4352      46.2400     108.4057      77.3461      75.8647       0.0255       0.0010    -999.2500       0.4440       4.8192
   2318.8477       8.1357    -999.2500      55.6899      46.1959     108.6284      79.3272      74.0103       0.0203       0.0011    -999.2500       1.8801       4.2374
   2319.0000      13.2030    -999.2500      55.3049      45.4587     106.4829      77.9359      71.3552       0.0153       0.0015    -999.2500       3.1664       3.5912
   2319.1523      15.4684    -999.2500      57.9096      45.1527     105.3418      78.9167      74.2864       0.0136       0.0013    -999.2500       3.8871       3.3049
   2319.3047      16.9973    -999.2500      56.1211      44.9486     109.7904      85.6334      84.2033       0.0147       0.0009    -999.2500       4.4458       3.1120
   2319.4573      17.0154    -999.2500      52.9295      42.4250     114.0559      89.1361      90.8172       0.0162       0.0011    -999.2500       4.3972       2.8290
   2319.6096      16.5266    -999.2500      51.8443      37.7112     113.5250      87.9888      90.4120       0.0209       0.0024    -999.2500       3.7467       2.3585
   2319.7620      13.1126    -999.2500      51.4584      33.2012     118.1670      89.2806      91.0035       0.0328       0.0044    -999.2500       1.9738       2.2365
   2319.9143       9.2441    -999.2500      55.0063      31.4425     129.1218      91.9936      91.2255       0.0452       0.0054    -999.2500       0.4868       2.4714
   2320.0669       6.2284    -999.2500      61.1498      31.1219     134.2615      92.1568      88.8591       0.0480       0.0041    -999.2500       0.1456       2.7714
   2320.2192       2.9997    -999.2500      64.6174      32.4518     134.8907      93.2956      87.8171       0.0421       0.0018    -999.2500       0.1439       3.2790
   2320.3716       1.6587    -999.2500      61.7526      34.1363     142.5927     101.6800      94.6231       0.0358       0.0008    -999.2500       0.1692       3.6159
   2320.5239       4.7979    -999.2500      48.7247      30.9531     153.8182     118.4676     107.9410       0.0338       0.0007    -999.2500       1.0807       2.9120
   2320.6765      11.6920    -999.2500      36.1640      27.2465     166.7380     139.3665     125.9819       0.0354       0.0008    -999.2500       3.0251       1.7317
