#------------------------------------------------------------------------------
#
#   Created by  : [OpenWorks] Log Export Utility (LEXP)
#   Created on  : 2016-05-19 10:15:25
#   Project     : CANT971
#   User        : R5K
#   Interpreter : PEP
#
#------------------------------------------------------------------------------
~VERSION INFORMATION
VERS. 2.0 : CWLS Log ASCII Standard - version 2.0
WRAP.  NO : One line per depth step
~WELL INFORMATION
#MNEMONIC   .UNIT                                           VALUE :DESCRIPTION
#------------------------------------------------------------------------------
STRT        .M                                           740.7456 :START DEPTH
STOP        .M                                          2958.0132 :STOP DEPTH
STEP        .M                                             0.1524 :STEP
NULL        .                                           -999.2500 :NULL VALUE
COMP        .                                             UNKNOWN :COMPANY
WELL        .                                                3060 :WELL
FLD         .                                             UNKNOWN :FIELD
LOC         .                                             UNKNOWN :LOCATION
CNTY        .                                             UNKNOWN :COUNTY
STAT        .                                             UNKNOWN :STATE
CTRY        .                                             UNKNOWN :COUNTRY
SRVC        .                                             UNKNOWN :SERVICE COMPANY
DATE        .                                             UNKNOWN :LOG DATE
UWI         .                                                3060 :UNIQUE WELL ID
XCOORD      .                                       601505.010000 :SURFACE X
YCOORD      .                                      2149907.440000 :SURFACE Y
LAT         .                                           19.442142 :LATITUDE
LON         .                                          -92.033049 :LONGITUDE
ELEV        .M                                             0.0000 :SURFACE ELEV
ELEV_TYPE   .                                                  KB :ELEV TYPE
~CURVE INFORMATION
#MNEMONIC.UNIT        API CODE       : CURVE DESCRIPTION
#------------------------------------------------------------------------------
DEPTH    .M                          : Measured Depth
CGR      .API         UNKNOWN        : CGR:Espectroscopia-entubado:r1:0002:v1 
DT       .us/ft       UNKNOWN        : DT:sonico:r1:0001:v1 
GR-LWD   .API         UNKNOWN        : GR-LWD:registros-LWD:r1:0002:v1 
GR       .API         UNKNOWN        : GR:GR-entubado:r2:0001:v1 
LLD-LWD  .ohm.m       UNKNOWN        : LLD-LWD:registros-LWD:r1:0002:v1 
LLS-LWD  .ohm.m       UNKNOWN        : LLS-LWD:registros-LWD:r1:0002:v1 
MSFL-LWD .ohm.m       UNKNOWN        : MSFL-LWD:registros-LWD:r1:0002:v1 
NPHI     .UNKNOWN     UNKNOWN        : NPHI:porosidad-entubado:r2:0001:v1 
POTA     .wtpercent   UNKNOWN        : POTA:Espectroscopia-entubado:r1:0002:v1 
SIGM     .cu          UNKNOWN        : SIGM:TMDL:r1:0001:v1 
THOR     .ppm         UNKNOWN        : THOR:Espectroscopia-entubado:r1:0002:v1 
URAN     .ppm         UNKNOWN        : URAN:Espectroscopia-entubado:r1:0002:v1 
~A     DEPTH          CGR           DT       GR-LWD           GR      LLD-LWD      LLS-LWD     MSFL-LWD         NPHI         POTA         SIGM         THOR         URAN
# ...
   2262.3071      19.9439    -999.2500      52.7304      35.3719       5.8819       6.1171       6.4079       0.1112       0.0019    -999.2500       4.8975       1.7177
   2262.4597      23.2307    -999.2500      53.3501      36.1665       5.9428       6.2552       6.5464       0.1130       0.0028    -999.2500       5.4957       1.4402
   2262.6121      23.5471    -999.2500      54.0741      35.8600       6.0053       6.3591       6.6434       0.1123       0.0038    -999.2500       5.1536       1.3708
   2262.7644      18.3505    -999.2500      53.2935      35.2666       6.0534       6.4359       6.7215       0.1099       0.0046    -999.2500       3.3900       1.8833
   2262.9167      11.4614    -999.2500      51.0134      34.5622       6.0596       6.4862       6.7932       0.1093       0.0052    -999.2500       1.1829       2.5719
   2263.0691      11.3617    -999.2500      50.6368      33.5485       6.0414       6.5030       6.7831       0.1116       0.0077    -999.2500       0.1772       2.4701
   2263.2217      11.7907    -999.2500      52.6632      32.2409       6.0590       6.5067       6.7179       0.1157       0.0068    -999.2500       0.6350       2.2768
   2263.3740      12.4999    -999.2500      54.5327      31.0923       6.1256       6.5275       6.6873       0.1185       0.0041    -999.2500       1.9117       2.0700
   2263.5264      14.7852    -999.2500      54.0313      30.4563       6.2325       6.6013       6.7359       0.1184       0.0023    -999.2500       3.2575       1.7447
   2263.6787      15.6520    -999.2500      51.6188      30.8059       6.3830       6.7443       6.8897       0.1188       0.0011    -999.2500       3.9927       1.6872
   2263.8313      16.1832    -999.2500      50.4292      31.9455       6.5309       6.9188       7.1224       0.1214       0.0008    -999.2500       4.2819       1.7549
   2263.9836      15.9996    -999.2500      52.6503      33.6123       6.6161       7.0800       7.3284       0.1243       0.0008    -999.2500       4.2191       1.9609
   2264.1360      14.1249    -999.2500      54.5610      35.4962       6.6915       7.2177       7.4869       0.1252       0.0008    -999.2500       3.6786       2.3793
   2264.2883      10.3732    -999.2500      52.7047      36.8685       6.7661       7.3527       7.6242       0.1229       0.0008    -999.2500       2.6110       2.9498
   2264.4409       4.7778    -999.2500      50.2330      38.7668       6.8007       7.4944       7.7452       0.1210       0.0008    -999.2500       1.0267       3.7841
   2264.5933       1.9569    -999.2500      50.2160      41.5579       6.8070       7.5510       7.7930       0.1232       0.0008    -999.2500       0.2334       4.4090
   2264.7456       4.2011    -999.2500      51.0821      43.5986       6.8070       7.5187       7.7321       0.1254       0.0008    -999.2500       0.8805       4.3863
   2264.8979       8.5672    -999.2500      52.1513      43.1509       6.8070       7.4691       7.6382       0.1242       0.0008    -999.2500       2.1205       3.8503
   2265.0503      12.9452    -999.2500      52.7816      40.6753       6.8070       7.4039       7.5531       0.1237       0.0008    -999.2500       3.3524       3.0873
   2265.2029      13.4002    -999.2500      51.8020      38.9299       6.8070       7.3236       7.4696       0.1271       0.0008    -999.2500       3.4744       2.8423
   2265.3552       9.6563    -999.2500      52.9685      39.1713       6.8065       7.2661       7.4014       0.1317       0.0008    -999.2500       2.4139       3.2860
   2265.5076       4.8194    -999.2500      54.9463      40.4652       6.7966       7.2227       7.3121       0.1362       0.0008    -999.2500       1.0429       3.9685
   2265.6599       2.2489    -999.2500      53.7815      43.0779       6.7636       7.1438       7.2111       0.1425       0.0009    -999.2500       0.3024       4.5456
   2265.8125       7.3209    -999.2500      50.9056      40.2546       6.7307       7.0769       7.1129       0.1489       0.0009    -999.2500       1.7191       3.6666
   2265.9648      19.2746    -999.2500      49.6518      36.6503       6.7843       7.0613       7.0416       0.1505       0.0020    -999.2500       4.6676       1.9345
   2266.1172      27.3544    -999.2500      50.5881      35.8766       6.8924       7.1014       7.0588       0.1474       0.0046    -999.2500       5.9442       0.9488
   2266.2695      29.3293    -999.2500      52.6350      35.9449       6.9786       7.1989       7.1435       0.1424       0.0064    -999.2500       5.7908       0.7366
   2266.4221      26.9386    -999.2500      53.5580      37.1471       7.0355       7.3122       7.2509       0.1349       0.0062    -999.2500       5.2013       1.1365
   2266.5745      20.8927    -999.2500      52.8084      38.7741       7.0494       7.3561       7.3413       0.1266       0.0048    -999.2500       4.0369       1.9908
   2266.7268      16.1898    -999.2500      52.7399      40.4529       7.0585       7.3726       7.3865       0.1212       0.0036    -999.2500       3.1850       2.7013
   2266.8792      16.7768    -999.2500      53.3708      42.2990       7.0863       7.4145       7.3925       0.1164       0.0031    -999.2500       3.5224       2.8415
   2267.0315      20.6165    -999.2500      52.7097      44.3399       7.1076       7.4402       7.3569       0.1079       0.0032    -999.2500       4.5853       2.6412
   2267.1841      21.5247    -999.2500      52.2522      45.3800       7.1599       7.4204       7.3241       0.0969       0.0034    -999.2500       4.7800       2.6559
   2267.3364      19.5187    -999.2500      53.1162      45.0926       7.2935       7.4228       7.3621       0.0874       0.0036    -999.2500       4.1163       2.8472
   2267.4888      16.8106    -999.2500      54.8387      43.8222       7.4793       7.5226       7.4514       0.0803       0.0043    -999.2500       3.0541       3.0073
   2267.6411      11.5817    -999.2500      55.7858      43.1066       7.6682       7.6766       7.6142       0.0735       0.0052    -999.2500       1.2566       3.5098
   2267.7937       9.8778    -999.2500      55.5871      44.1905       7.8656       7.8271       7.8384       0.0648       0.0053    -999.2500       0.6864       3.8202
   2267.9460      14.8366    -999.2500      55.3921      44.0323       8.1211       8.0827       8.0974       0.0561       0.0043    -999.2500       2.4972       3.2505
   2268.0984      21.5219    -999.2500      53.9390      42.7732       8.5463       8.5058       8.4697       0.0513       0.0032    -999.2500       4.8277       2.3660
   2268.2507      26.0531    -999.2500      50.9669      41.7675       9.0509       9.0786       9.0733       0.0523       0.0038    -999.2500       5.8631       1.7495
   2268.4033      30.0441    -999.2500      51.0762      40.7413       9.4980       9.7435       9.8572       0.0556       0.0063    -999.2500       6.0182       1.1909
   2268.5557      33.4299    -999.2500      54.9098      40.1702       9.8489      10.2918      10.5054       0.0571       0.0089    -999.2500       5.9579       0.7504
   2268.7080      34.8472    -999.2500      57.6006      40.4240      10.1675      10.6865      10.9418       0.0578       0.0097    -999.2500       6.0566       0.6208
   2268.8604      32.5729    -999.2500      56.4046      41.5497      10.5789      11.1355      11.3569       0.0621       0.0083    -999.2500       5.9571       0.9993
   2269.0127      29.1817    -999.2500      54.4883      42.8656      11.2645      11.8822      12.0174       0.0715       0.0055    -999.2500       6.0956       1.5234
   2269.1653      26.9907    -999.2500      54.4691      43.8858      11.9711      12.6393      12.7210       0.0820       0.0028    -999.2500       6.5279       1.8810
   2269.3176      24.9730    -999.2500      52.8224      44.7067      12.5462      13.2607      13.3188       0.0873       0.0014    -999.2500       6.5491       2.1970
   2269.4700      19.7606    -999.2500      50.2467      47.0423      13.0315      13.9387      14.0139       0.0869       0.0010    -999.2500       5.2256       3.0374
