#------------------------------------------------------------------------------
#
#   Created by  : [OpenWorks] Log Export Utility (LEXP)
#   Created on  : 2016-05-19 10:15:25
#   Project     : CANT971
#   User        : R5K
#   Interpreter : PEP
#
#------------------------------------------------------------------------------
~VERSION INFORMATION
VERS. 2.0 : CWLS Log ASCII Standard - version 2.0
WRAP.  NO : One line per depth step
~WELL INFORMATION
#MNEMONIC   .UNIT                                           VALUE :DESCRIPTION
#------------------------------------------------------------------------------
STRT        .M                                           740.7456 :START DEPTH
STOP        .M                                          2958.0132 :STOP DEPTH
STEP        .M                                             0.1524 :STEP
NULL        .                                           -999.2500 :NULL VALUE
COMP        .                                             UNKNOWN :COMPANY
WELL        .                                                3060 :WELL
FLD         .                                             UNKNOWN :FIELD
LOC         .                                             UNKNOWN :LOCATION
CNTY        .                                             UNKNOWN :COUNTY
STAT        .                                             UNKNOWN :STATE
CTRY        .                                             UNKNOWN :COUNTRY
SRVC        .                                             UNKNOWN :SERVICE COMPANY
DATE        .                                             UNKNOWN :LOG DATE
UWI         .                                                3060 :UNIQUE WELL ID
XCOORD      .                                       601505.010000 :SURFACE X
YCOORD      .                                      2149907.440000 :SURFACE Y
LAT         .                                           19.442142 :LATITUDE
LON         .                                          -92.033049 :LONGITUDE
ELEV        .M                                             0.0000 :SURFACE ELEV
ELEV_TYPE   .                                                  KB :ELEV TYPE
~CURVE INFORMATION
#MNEMONIC.UNIT        API CODE       : CURVE DESCRIPTION
#------------------------------------------------------------------------------
DEPTH    .M                          : Measured Depth
CGR      .API         UNKNOWN        : CGR:Espectroscopia-entubado:r1:0002:v1 
DT       .us/ft       UNKNOWN        : DT:sonico:r1:0001:v1 
GR-LWD   .API         UNKNOWN        : GR-LWD:registros-LWD:r1:0002:v1 
GR       .API         UNKNOWN        : GR:GR-entubado:r2:0001:v1 
LLD-LWD  .ohm.m       UNKNOWN        : LLD-LWD:registros-LWD:r1:0002:v1 
LLS-LWD  .ohm.m       UNKNOWN        : LLS-LWD:registros-LWD:r1:0002:v1 
MSFL-LWD .ohm.m       UNKNOWN        : MSFL-LWD:registros-LWD:r1:0002:v1 
NPHI     .UNKNOWN     UNKNOWN        : NPHI:porosidad-entubado:r2:0001:v1 
POTA     .wtpercent   UNKNOWN        : POTA:Espectroscopia-entubado:r1:0002:v1 
SIGM     .cu          UNKNOWN        : SIGM:TMDL:r1:0001:v1 
THOR     .ppm         UNKNOWN        : THOR:Espectroscopia-entubado:r1:0002:v1 
URAN     .ppm         UNKNOWN        : URAN:Espectroscopia-entubado:r1:0002:v1 
~A     DEPTH          CGR           DT       GR-LWD           GR      LLD-LWD      LLS-LWD     MSFL-LWD         NPHI         POTA         SIGM         THOR         URAN
# ...
   2211.1008      16.6384    -999.2500      60.7754      37.5631       1.9115       1.8380       1.8617       0.1700       0.0071    -999.2500       1.8924       2.3296
   2211.2532      11.3421    -999.2500      64.9116      41.1456       1.9033       1.8796       1.9670       0.1761       0.0074    -999.2500       0.2787       3.3181
   2211.4055      10.7205    -999.2500      71.2250      42.1795       1.7964       1.8214       1.9486       0.1805       0.0073    -999.2500       0.1581       3.5024
   2211.5581       8.3029    -999.2500      76.5301      43.3226       1.6417       1.7103       1.7954       0.1811       0.0055    -999.2500       0.1575       3.8988
   2211.7104       5.0615    -999.2500      76.5552      45.6210       1.4853       1.5671       1.6013       0.1789       0.0032    -999.2500       0.1568       4.5156
   2211.8628       6.0380    -999.2500      73.2472      43.0524       1.3600       1.4279       1.4544       0.1762       0.0030    -999.2500       0.5208       4.1209
   2212.0151      14.0353    -999.2500      70.5885      40.6072       1.2167       1.2371       1.2696       0.1775       0.0060    -999.2500       1.6003       2.9584
   2212.1677      24.5865    -999.2500      69.9170      40.3596       1.1380       1.1004       1.1241       0.1833       0.0090    -999.2500       3.3844       1.7560
   2212.3201      30.4402    -999.2500      71.0380      40.6477       1.2012       1.1287       1.1411       0.1880       0.0084    -999.2500       5.2937       1.1364
   2212.4724      30.2011    -999.2500      72.7473      41.7897       1.2693       1.1868       1.2174       0.1877       0.0053    -999.2500       6.4527       1.2902
   2212.6248      27.1474    -999.2500      72.1362      43.1185       1.2507       1.1886       1.2633       0.1825       0.0026    -999.2500       6.6601       1.7781
   2212.7771      27.1587    -999.2500      68.9726      42.9755       1.2481       1.2193       1.2933       0.1771       0.0027    -999.2500       6.6393       1.7609
   2212.9297      29.9317    -999.2500      67.0791      41.2569       1.3068       1.2947       1.3390       0.1769       0.0055    -999.2500       6.3300       1.2609
   2213.0820      35.5030    -999.2500      66.7194      40.9208       1.3686       1.3594       1.3998       0.1787       0.0100    -999.2500       6.0947       0.6031
   2213.2344      39.0154    -999.2500      66.9807      41.6932       1.4132       1.4067       1.4594       0.1779       0.0143    -999.2500       5.3821       0.2981
   2213.3867      35.6229    -999.2500      69.1264      39.7123       1.4411       1.4321       1.4827       0.1765       0.0173    -999.2500       3.2471       0.4553
   2213.5393      28.1570    -999.2500      69.1692      40.0947       1.4527       1.4330       1.4746       0.1774       0.0177    -999.2500       0.9794       1.3291
   2213.6917      21.0394    -999.2500      63.5750      40.8429       1.4646       1.4235       1.4593       0.1787       0.0144    -999.2500       0.2275       2.2048
   2213.8440      14.6811    -999.2500      52.8992      36.7806       1.5033       1.4207       1.4468       0.1722       0.0091    -999.2500       0.5435       2.4604
   2213.9963      13.3198    -999.2500      52.0029      33.3073       1.5745       1.4557       1.4719       0.1571       0.0046    -999.2500       1.9331       2.2251
   2214.1489      16.4924    -999.2500      62.0301      32.0703       1.6548       1.5280       1.5425       0.1447       0.0034    -999.2500       3.3453       1.7343
   2214.3013      22.1872    -999.2500      70.1517      32.3874       1.6919       1.5863       1.6119       0.1432       0.0056    -999.2500       4.0644       1.1356
   2214.4536      29.2573    -999.2500      72.5620      34.2961       1.6988       1.6310       1.6678       0.1533       0.0092    -999.2500       4.6299       0.5610
   2214.6060      34.0302    -999.2500      71.2454      36.7575       1.6854       1.6532       1.7004       0.1705       0.0118    -999.2500       4.9787       0.3036
   2214.7583      32.6720    -999.2500      72.7851      37.5487       1.6325       1.6414       1.7009       0.1835       0.0127    -999.2500       4.2386       0.5429
   2214.9109      24.9510    -999.2500      77.0970      37.3148       1.5404       1.5958       1.6477       0.1852       0.0120    -999.2500       2.2982       1.3765
   2215.0632      17.2170    -999.2500      77.0932      40.2859       1.4507       1.5280       1.5632       0.1817       0.0107    -999.2500       0.6483       2.5683
   2215.2156      13.6624    -999.2500      75.9089      42.1047       1.3939       1.4471       1.4743       0.1809       0.0092    -999.2500       0.2208       3.1666
   2215.3679      16.9905    -999.2500      76.2654      41.6017       1.3789       1.3883       1.4075       0.1813       0.0082    -999.2500       1.5600       2.7401
   2215.5205      23.9441    -999.2500      74.4934      41.8080       1.3999       1.3786       1.3938       0.1806       0.0079    -999.2500       3.6545       1.9889
   2215.6729      28.6755    -999.2500      71.6555      41.6860       1.4205       1.4000       1.4249       0.1790       0.0074    -999.2500       5.1868       1.4485
   2215.8252      27.9074    -999.2500      73.4355      41.4669       1.3995       1.4114       1.4610       0.1763       0.0057    -999.2500       5.6580       1.5096
   2215.9775      22.5477    -999.2500      77.5485      42.6782       1.3182       1.3508       1.4254       0.1729       0.0029    -999.2500       5.2596       2.2412
   2216.1301      17.3415    -999.2500      79.6937      45.7459       1.2522       1.2473       1.3171       0.1726       0.0012    -999.2500       4.4253       3.1624
   2216.2825      14.9620    -999.2500      78.3510      46.2057       1.3324       1.2300       1.2671       0.1790       0.0018    -999.2500       3.5406       3.4785
   2216.4348      16.5162    -999.2500      74.9096      44.9430       1.5671       1.3374       1.3572       0.1823       0.0049    -999.2500       2.7346       3.1649
   2216.5872      21.2719    -999.2500      72.9356      44.5259       1.8398       1.5285       1.5533       0.1762       0.0080    -999.2500       2.8670       2.5889
   2216.7395      27.6459    -999.2500      74.2123      44.5046       2.0272       1.7345       1.7590       0.1709       0.0098    -999.2500       3.9621       1.8769
   2216.8921      33.4304    -999.2500      77.8179      44.2316       2.0626       1.8402       1.8506       0.1703       0.0113    -999.2500       4.9905       1.2025
   2217.0444      37.4968    -999.2500      81.7522      42.9598       2.0033       1.8294       1.8132       0.1706       0.0134    -999.2500       5.3440       0.6083
   2217.1968      37.5320    -999.2500      84.5168      41.3374       1.9472       1.7830       1.7500       0.1734       0.0155    -999.2500       4.5055       0.4237
   2217.3491      34.4089    -999.2500      84.5591      40.6150       1.8845       1.7122       1.6980       0.1759       0.0162    -999.2500       3.3130       0.6910
   2217.5017      32.4095    -999.2500      81.8035      41.0220       1.7962       1.6225       1.6408       0.1742       0.0157    -999.2500       2.9388       0.9589
   2217.6541      30.6602    -999.2500      77.9786      41.4217       1.7237       1.5846       1.6149       0.1721       0.0151    -999.2500       2.6873       1.1981
   2217.8064      27.2500    -999.2500      75.3169      41.0676       1.6351       1.5788       1.6036       0.1724       0.0143    -999.2500       2.0561       1.5383
   2217.9587      27.1655    -999.2500      75.9597      40.8474       1.4683       1.4822       1.5062       0.1754       0.0120    -999.2500       2.9280       1.5233
   2218.1111      26.4760    -999.2500      79.5776      41.1166       1.3033       1.3275       1.3472       0.1791       0.0083    -999.2500       4.2093       1.6300
   2218.2637      26.5447    -999.2500      83.3646      41.8589       1.2056       1.2074       1.2224       0.1801       0.0061    -999.2500       5.0898       1.7050
