#------------------------------------------------------------------------------
#
#   Created by  : [OpenWorks] Log Export Utility (LEXP)
#   Created on  : 2016-05-19 10:15:25
#   Project     : CANT971
#   User        : R5K
#   Interpreter : PEP
#
#------------------------------------------------------------------------------
~VERSION INFORMATION
VERS. 2.0 : CWLS Log ASCII Standard - version 2.0
WRAP.  NO : One line per depth step
~WELL INFORMATION
#MNEMONIC   .UNIT                                           VALUE :DESCRIPTION
#------------------------------------------------------------------------------
STRT        .M                                           740.7456 :START DEPTH
STOP        .M                                          2958.0132 :STOP DEPTH
STEP        .M                                             0.1524 :STEP
NULL        .                                           -999.2500 :NULL VALUE
COMP        .                                             UNKNOWN :COMPANY
WELL        .                                                3060 :WELL
FLD         .                                             UNKNOWN :FIELD
LOC         .                                             UNKNOWN :LOCATION
CNTY        .                                             UNKNOWN :COUNTY
STAT        .                                             UNKNOWN :STATE
CTRY        .                                             UNKNOWN :COUNTRY
SRVC        .                                             UNKNOWN :SERVICE COMPANY
DATE        .                                             UNKNOWN :LOG DATE
UWI         .                                                3060 :UNIQUE WELL ID
XCOORD      .                                       601505.010000 :SURFACE X
YCOORD      .                                      2149907.440000 :SURFACE Y
LAT         .                                           19.442142 :LATITUDE
LON         .                                          -92.033049 :LONGITUDE
ELEV        .M                                             0.0000 :SURFACE ELEV
ELEV_TYPE   .                                                  KB :ELEV TYPE
~CURVE INFORMATION
#MNEMONIC.UNIT        API CODE       : CURVE DESCRIPTION
#------------------------------------------------------------------------------
DEPTH    .M                          : Measured Depth
CGR      .API         UNKNOWN        : CGR:Espectroscopia-entubado:r1:0002:v1 
DT       .us/ft       UNKNOWN        : DT:sonico:r1:0001:v1 
GR-LWD   .API         UNKNOWN        : GR-LWD:registros-LWD:r1:0002:v1 
GR       .API         UNKNOWN        : GR:GR-entubado:r2:0001:v1 
LLD-LWD  .ohm.m       UNKNOWN        : LLD-LWD:registros-LWD:r1:0002:v1 
LLS-LWD  .ohm.m       UNKNOWN        : LLS-LWD:registros-LWD:r1:0002:v1 
MSFL-LWD .ohm.m       UNKNOWN        : MSFL-LWD:registros-LWD:r1:0002:v1 
NPHI     .UNKNOWN     UNKNOWN        : NPHI:porosidad-entubado:r2:0001:v1 
POTA     .wtpercent   UNKNOWN        : POTA:Espectroscopia-entubado:r1:0002:v1 
SIGM     .cu          UNKNOWN        : SIGM:TMDL:r1:0001:v1 
THOR     .ppm         UNKNOWN        : THOR:Espectroscopia-entubado:r1:0002:v1 
URAN     .ppm         UNKNOWN        : URAN:Espectroscopia-entubado:r1:0002:v1 
~A     DEPTH          CGR           DT       GR-LWD           GR      LLD-LWD      LLS-LWD     MSFL-LWD         NPHI         POTA         SIGM         THOR         URAN
# ...
   2364.7200      20.6551    -999.2500      43.2487      96.5617     121.3851     190.5276     123.8170       0.0479       0.0012    -999.2500       5.3811       8.4510
   2364.8723      17.2188    -999.2500      38.2358     100.9731     125.1347     197.3092     124.5832       0.0468       0.0012    -999.2500       4.3954       9.3246
   2365.0249      16.5844    -999.2500      33.0722      97.6329     129.4019     205.7923     133.1158       0.0464       0.0012    -999.2500       4.2189       9.0234
   2365.1772      17.7759    -999.2500      28.0711      92.3461     136.7360     220.8120     152.1810       0.0460       0.0012    -999.2500       4.5626       8.3022
   2365.3296      20.3051    -999.2500      24.8181      87.7232     145.6161     239.0423     175.7111       0.0453       0.0012    -999.2500       5.2809       7.5059
   2365.4819      21.8398    -999.2500      24.2699      82.2890     150.9728     250.3348     189.9043       0.0454       0.0012    -999.2500       5.7173       6.7300
   2365.6345      20.1041    -999.2500      25.1123      74.7367     150.5410     253.3388     188.7482       0.0464       0.0012    -999.2500       5.2303       6.0824
   2365.7869      16.6945    -999.2500      26.1925      67.8592     146.6256     253.6556     178.3477       0.0475       0.0012    -999.2500       4.2712       5.6964
   2365.9392      15.1058    -999.2500      27.2840      65.9254     141.7907     253.6556     165.5061       0.0490       0.0014    -999.2500       3.7541       5.6580
   2366.0916      17.7529    -999.2500      28.6165      68.4603     139.7039     250.6420     156.0736       0.0513       0.0025    -999.2500       4.0571       5.6455
   2366.2439      22.2518    -999.2500      29.8130      70.3652     141.7373     240.4300     148.2937       0.0533       0.0035    -999.2500       4.9253       5.3567
   2366.3965      25.9653    -999.2500      29.9414      67.6717     145.3779     226.5546     140.0540       0.0523       0.0046    -999.2500       5.5238       4.6433
   2366.5488      27.3603    -999.2500      29.0362      61.6908     149.0785     212.6114     131.8862       0.0463       0.0051    -999.2500       5.7510       3.8221
   2366.7012      24.6087    -999.2500      27.8158      56.7400     151.8566     202.2008     125.7992       0.0375       0.0043    -999.2500       5.2740       3.5772
   2366.8535      18.9026    -999.2500      26.5869      54.6273     152.7343     202.7945     126.9282       0.0341       0.0029    -999.2500       4.2146       3.9773
   2367.0061      14.4524    -999.2500      25.3570      54.1229     152.7343     214.4668     136.1033       0.0399       0.0026    -999.2500       3.0569       4.4166
   2367.1584      14.7499    -999.2500      24.1264      53.7606     152.7343     229.7164     148.0906       0.0484       0.0032    -999.2500       2.9219       4.3432
   2367.3108      17.0341    -999.2500      22.9208      53.4364     152.7343     244.9713     160.0819       0.0533       0.0023    -999.2500       3.9332       4.0528
   2367.4631      16.7954    -999.2500      22.0437      53.7879     152.7343     260.2090     172.0598       0.0551       0.0013    -999.2500       4.2682       4.1186
   2367.6157      13.9375    -999.2500      21.7467      52.0979     152.7343     274.9932     183.6812       0.0551       0.0010    -999.2500       3.5458       4.2483
   2367.7681       9.5734    -999.2500      21.6777      46.6850     152.7343     285.5983     192.0175       0.0528       0.0009    -999.2500       2.3542       4.1318
   2367.9204       5.0053    -999.2500      21.5900      39.9016     152.7343     288.8489     194.5727       0.0485       0.0008    -999.2500       1.1119       3.8851
   2368.0728       5.2811    -999.2500      21.5016      34.5180     152.7343     288.8489     194.5727       0.0436       0.0007    -999.2500       1.2232       3.2551
   2368.2251       9.2288    -999.2500      21.4174      31.8414     152.7343     288.8489     194.5727       0.0405       0.0007    -999.2500       2.3512       2.5175
   2368.3777       8.9135    -999.2500      21.3580      31.2161     152.7343     288.8489     194.5727       0.0392       0.0007    -999.2500       2.2654       2.4831
   2368.5300       4.5291    -999.2500      21.3340      29.4848     152.7343     288.8489     194.5727       0.0384       0.0006    -999.2500       1.0262       2.7785
   2368.6824       2.0600    -999.2500      21.3121      27.0037     152.7343     288.8489     194.5727       0.0378       0.0007    -999.2500       0.3263       2.7771
   2368.8347       1.5492    -999.2500      21.2889      24.8939     152.7060     288.7804     194.4974       0.0381       0.0007    -999.2500       0.1802       2.5991
   2368.9873       2.1951    -999.2500      21.2705      22.3275     152.1888     287.5293     193.1237       0.0397       0.0012    -999.2500       0.1440       2.2414
   2369.1396       2.8235    -999.2500      21.2523      20.7439     150.7145     283.9631     189.2079       0.0411       0.0010    -999.2500       0.3925       1.9951
   2369.2920       8.1966    -999.2500      21.3137      20.5174     148.6821     279.0470     183.8099       0.0403       0.0006    -999.2500       2.0828       1.3717
   2369.4443      16.2112    -999.2500      21.7451      21.2274     146.5697     273.9372     178.1993       0.0384       0.0006    -999.2500       4.3629       0.5586
   2369.5969      19.8977    -999.2500      23.2280      22.1913     144.4593     268.8322     172.5940       0.0372       0.0007    -999.2500       5.3886       0.2554
   2369.7493      17.9057    -999.2500      25.2926      21.9554     142.3488     263.7270     166.9883       0.0370       0.0007    -999.2500       4.7987       0.4508
   2369.9016      15.7015    -999.2500      27.2703      21.0132     140.3272     258.8368     161.6186       0.0377       0.0010    -999.2500       4.0454       0.5913
   2370.0540      15.1691    -999.2500      28.8730      20.1209     138.6840     254.4222     157.2554       0.0388       0.0014    -999.2500       3.7468       0.5513
   2370.2063      14.1325    -999.2500      30.2742      19.6108     137.1905     245.1411     153.3014       0.0399       0.0011    -999.2500       3.5761       0.6099
   2370.3589      11.9313    -999.2500      32.3971      20.1684     134.8698     225.5882     147.1694       0.0405       0.0007    -999.2500       3.1135       0.9171
   2370.5112       8.7297    -999.2500      35.1364      20.1570     131.8740     200.2272     139.2540       0.0402       0.0006    -999.2500       2.2314       1.2722
   2370.6636       5.0611    -999.2500      37.8494      18.6783     128.9071     175.1101     131.4146       0.0390       0.0006    -999.2500       1.1839       1.5160
   2370.8159       3.3912    -999.2500      39.5077      17.8048     126.7242     157.4474     125.6821       0.0379       0.0008    -999.2500       0.6531       1.6047
   2370.9685       5.1141    -999.2500      38.3840      18.3376     125.3106     151.3267     122.1986       0.0376       0.0009    -999.2500       1.1009       1.4722
   2371.1208       7.7830    -999.2500      32.5338      20.2790     122.9577     150.7674     116.8146       0.0378       0.0007    -999.2500       1.9302       1.3912
   2371.2732       9.3920    -999.2500      25.7450      21.5181     120.2957     150.7674     110.7506       0.0389       0.0005    -999.2500       2.4505       1.3501
   2371.4255       9.7567    -999.2500      21.2745      20.4742     118.1053     150.7674     105.7608       0.0410       0.0005    -999.2500       2.5630       1.1930
   2371.5781       8.9761    -999.2500      20.9160      18.5505     116.4925     150.8418     102.2310       0.0435       0.0006    -999.2500       2.3341       1.0658
   2371.7305       8.3900    -999.2500      24.7230      18.1676     115.3873     151.9110     101.7843       0.0453       0.0006    -999.2500       2.1518       1.0885
   2371.8828       7.5992    -999.2500      30.4328      19.8010     114.0471     154.9984     104.7119       0.0457       0.0006    -999.2500       1.9122       1.3584
