#------------------------------------------------------------------------------
#
#   Created by  : [OpenWorks] Log Export Utility (LEXP)
#   Created on  : 2016-05-19 10:15:25
#   Project     : CANT971
#   User        : R5K
#   Interpreter : PEP
#
#------------------------------------------------------------------------------
~VERSION INFORMATION
VERS. 2.0 : CWLS Log ASCII Standard - version 2.0
WRAP.  NO : One line per depth step
~WELL INFORMATION
#MNEMONIC   .UNIT                                           VALUE :DESCRIPTION
#------------------------------------------------------------------------------
STRT        .M                                           740.7456 :START DEPTH
STOP        .M                                          2958.0132 :STOP DEPTH
STEP        .M                                             0.1524 :STEP
NULL        .                                           -999.2500 :NULL VALUE
COMP        .                                             UNKNOWN :COMPANY
WELL        .                                                3060 :WELL
FLD         .                                             UNKNOWN :FIELD
LOC         .                                             UNKNOWN :LOCATION
CNTY        .                                             UNKNOWN :COUNTY
STAT        .                                             UNKNOWN :STATE
CTRY        .                                             UNKNOWN :COUNTRY
SRVC        .                                             UNKNOWN :SERVICE COMPANY
DATE        .                                             UNKNOWN :LOG DATE
UWI         .                                                3060 :UNIQUE WELL ID
XCOORD      .                                       601505.010000 :SURFACE X
YCOORD      .                                      2149907.440000 :SURFACE Y
LAT         .                                           19.442142 :LATITUDE
LON         .                                          -92.033049 :LONGITUDE
ELEV        .M                                             0.0000 :SURFACE ELEV
ELEV_TYPE   .                                                  KB :ELEV TYPE
~CURVE INFORMATION
#MNEMONIC.UNIT        API CODE       : CURVE DESCRIPTION
#------------------------------------------------------------------------------
DEPTH    .M                          : Measured Depth
CGR      .API         UNKNOWN        : CGR:Espectroscopia-entubado:r1:0002:v1 
DT       .us/ft       UNKNOWN        : DT:sonico:r1:0001:v1 
GR-LWD   .API         UNKNOWN        : GR-LWD:registros-LWD:r1:0002:v1 
GR       .API         UNKNOWN        : GR:GR-entubado:r2:0001:v1 
LLD-LWD  .ohm.m       UNKNOWN        : LLD-LWD:registros-LWD:r1:0002:v1 
LLS-LWD  .ohm.m       UNKNOWN        : LLS-LWD:registros-LWD:r1:0002:v1 
MSFL-LWD .ohm.m       UNKNOWN        : MSFL-LWD:registros-LWD:r1:0002:v1 
NPHI     .UNKNOWN     UNKNOWN        : NPHI:porosidad-entubado:r2:0001:v1 
POTA     .wtpercent   UNKNOWN        : POTA:Espectroscopia-entubado:r1:0002:v1 
SIGM     .cu          UNKNOWN        : SIGM:TMDL:r1:0001:v1 
THOR     .ppm         UNKNOWN        : THOR:Espectroscopia-entubado:r1:0002:v1 
URAN     .ppm         UNKNOWN        : URAN:Espectroscopia-entubado:r1:0002:v1 
~A     DEPTH          CGR           DT       GR-LWD           GR      LLD-LWD      LLS-LWD     MSFL-LWD         NPHI         POTA         SIGM         THOR         URAN
# ...
   2767.0559      21.8808    -999.2500      21.1972      47.1737      90.3478     109.9466      81.2875       0.0512       0.0015       9.2128       5.6254       2.8159
   2767.2085      25.1654    -999.2500      20.7639      47.0680      90.0602     104.2609      80.4689       0.0566       0.0029       9.3157       6.0188       2.4385
   2767.3608      22.1503    -999.2500      21.4506      46.5953      91.0433      98.1931      79.8849       0.0604       0.0036       9.3705       4.8550       2.7215
   2767.5132      16.5587    -999.2500      23.0075      46.8586      88.1429      91.2570      76.6213       0.0623       0.0032       9.3771       3.4280       3.3734
   2767.6655      10.5367    -999.2500      23.0056      47.5256      84.2687      82.0786      70.7729       0.0622       0.0026       9.3782       1.9547       4.1181
   2767.8181       6.0986    -999.2500      21.5624      47.2427      81.3769      70.0225      61.0752       0.0614       0.0027       9.4218       0.6566       4.5807
   2767.9705       5.3042    -999.2500      22.0214      46.5729      77.2342      59.1098      49.8479       0.0615       0.0033       9.5893       0.2084       4.5946
   2768.1228       5.6653    -999.2500      25.0402      47.4379      68.7047      50.8102      41.0741       0.0621       0.0033       9.7666       0.2850       4.6507
   2768.2751       4.5786    -999.2500      25.5103      55.9510      59.6585      45.4665      37.2656       0.0607       0.0026       9.9860       0.2575       5.7195
   2768.4275       2.8257    -999.2500      21.3850      64.9044      58.9737      48.6065      41.3592       0.0580       0.0016      10.0942       0.1848       6.9115
   2768.5801       2.1032    -999.2500      19.1825      67.0176      62.1754      57.4767      48.9802       0.0566       0.0010      10.0033       0.1836       7.2272
   2768.7324       2.4959    -999.2500      21.2498      59.7968      62.9792      64.7907      54.6274       0.0565       0.0009       9.8716       0.3233       6.3796
   2768.8848       7.6738    -999.2500      24.4639      54.7145      64.1226      72.2055      60.7214       0.0578       0.0010       9.7456       1.7999       5.2373
   2769.0371      15.8654    -999.2500      26.5281      56.8893      67.5733      82.6711      69.2082       0.0624       0.0010       9.7604       4.1123       4.5673
   2769.1897      22.1171    -999.2500      24.7585      58.8791      70.4637      93.0583      77.1942       0.0707       0.0010       9.8861       5.8683       4.0929
   2769.3420      25.6340    -999.2500      20.2936      55.2165      71.0832      99.7150      82.4477       0.0785       0.0011       9.9313       6.8571       3.2936
   2769.4944      26.0435    -999.2500      16.7208      47.1570      71.3290     101.1525      84.7675       0.0784       0.0017       9.7614       6.7224       2.3506
   2769.6467      21.4185    -999.2500      14.9528      39.3141      71.7376      98.3694      85.2396       0.0688       0.0031       9.4209       4.8396       1.9923
   2769.7993      14.4035    -999.2500      14.6372      34.2576      71.0804      91.1210      81.8441       0.0569       0.0032       9.1591       2.8058       2.2104
   2769.9517       9.1390    -999.2500      14.9290      32.6646      69.6771      79.3866      72.3905       0.0492       0.0016       8.8652       1.9426       2.6192
   2770.1040       6.3689    -999.2500      16.5829      36.1961      67.5901      66.2209      59.0113       0.0463       0.0008       8.8735       1.4796       3.3208
   2770.2563       5.9572    -999.2500      21.0792      42.8999      63.4463      54.9949      46.7905       0.0456       0.0009       9.2404       1.3452       4.1130
   2770.4087       6.5321    -999.2500      28.6156      50.5528      56.4092      46.8025      38.6206       0.0477       0.0010       9.6552       1.4771       4.9010
   2770.5613       7.0737    -999.2500      33.9368      58.7673      50.2573      41.7109      34.4815       0.0531       0.0011      10.3944       1.5954       5.7552
   2770.7136       9.7716    -999.2500      32.9128      66.9776      48.1746      40.1600      34.4168       0.0597       0.0011      10.7777       2.3296       6.3689
   2770.8660      14.2301    -999.2500      32.3360      72.6754      48.2599      40.9463      36.3079       0.0651       0.0012      10.9678       3.5726       6.5069
   2771.0183      19.9918    -999.2500      37.4929      73.9079      48.5212      42.3648      38.1407       0.0685       0.0012      10.9033       5.1905       6.0027
   2771.1709      26.7191    -999.2500      42.8948      73.8966      49.7605      43.7634      38.9602       0.0688       0.0013      10.7153       7.0826       5.2525
   2771.3232      32.1619    -999.2500      43.6567      77.0819      53.2894      45.1393      38.6775       0.0679       0.0013      10.6240       8.6074       5.0011
   2771.4756      36.2897    -999.2500      40.8101      82.7001      55.6543      45.6225      38.0139       0.0714       0.0015      10.7080       9.6719       5.1670
   2771.6279      37.6451    -999.2500      37.8767      86.4660      55.5362      46.5461      38.7336       0.0796       0.0020      10.8483       9.8800       5.4354
   2771.7805      34.2602    -999.2500      36.7505      84.9069      56.2183      47.9707      40.4778       0.0890       0.0025      11.1205       8.7277       5.6387
   2771.9329      27.6710    -999.2500      36.6669      80.1942      57.9947      48.4327      40.8560       0.0961       0.0025      11.3333       6.8388       5.8477
   2772.0852      20.3285    -999.2500      38.2943      77.3048      59.0450      47.1827      39.2327       0.0978       0.0018      11.5046       5.0349       6.3434
   2772.2375      16.6753    -999.2500      42.3595      77.7986      58.1631      45.1614      37.3441       0.0968       0.0014      11.6217       4.1739       6.8051
   2772.3899      21.3714    -999.2500      44.3392      80.6131      55.5722      43.9576      36.3262       0.0978       0.0028      11.7737       4.9734       6.5956
   2772.5425      31.5066    -999.2500      45.2266      84.0413      52.5190      44.1458      36.0710       0.1007       0.0055      11.9146       6.7624       5.8489
   2772.6948      39.0756    -999.2500      44.8436      86.7101      50.3158      44.7517      36.8295       0.1046       0.0080      12.0635       7.9021       5.3034
   2772.8472      37.9769    -999.2500      41.0813      86.9058      49.3118      46.7216      40.0564       0.1079       0.0097      12.0972       6.9263       5.4475
   2772.9995      28.6501    -999.2500      33.5437      81.9791      50.6058      51.0899      46.3366       0.1077       0.0116      11.9304       3.5230       5.9373
   2773.1521      19.9724    -999.2500      25.1356      76.6311      55.1664      55.8017      52.4869       0.1016       0.0122      11.1593       0.8261       6.3080
   2773.3044      15.8101    -999.2500      19.0512      62.0577      59.8488      57.7468      53.8152       0.0886       0.0097      10.5378       0.6248       5.1489
   2773.4568      16.6328    -999.2500      16.8453      45.6226      60.0724      56.3984      50.5904       0.0734       0.0066       9.6347       2.0993       3.2275
   2773.6091      15.3195    -999.2500      18.0870      38.2912      57.6049      52.9156      45.7903       0.0622       0.0037       9.2467       2.8569       2.5575
   2773.7617      11.8361    -999.2500      20.0320      38.5365      55.8077      48.8219      41.1496       0.0569       0.0016       9.1356       2.7301       2.9726
   2773.9141      11.8744    -999.2500      21.5315      41.9018      54.2230      47.3241      39.3462       0.0565       0.0010       9.2863       2.9973       3.3430
   2774.0664      13.1144    -999.2500      21.4892      43.8701      54.4146      49.6391      41.4420       0.0592       0.0012       9.6659       3.2722       3.4241
   2774.2188      13.8042    -999.2500      19.4300      43.6528      57.8451      55.1353      47.3811       0.0638       0.0016       9.8611       3.2987       3.3232
