#------------------------------------------------------------------------------
#
#   Created by  : [OpenWorks] Log Export Utility (LEXP)
#   Created on  : 2016-05-19 10:15:25
#   Project     : CANT971
#   User        : R5K
#   Interpreter : PEP
#
#------------------------------------------------------------------------------
~VERSION INFORMATION
VERS. 2.0 : CWLS Log ASCII Standard - version 2.0
WRAP.  NO : One line per depth step
~WELL INFORMATION
#MNEMONIC   .UNIT                                           VALUE :DESCRIPTION
#------------------------------------------------------------------------------
STRT        .M                                           740.7456 :START DEPTH
STOP        .M                                          2958.0132 :STOP DEPTH
STEP        .M                                             0.1524 :STEP
NULL        .                                           -999.2500 :NULL VALUE
COMP        .                                             UNKNOWN :COMPANY
WELL        .                                                3060 :WELL
FLD         .                                             UNKNOWN :FIELD
LOC         .                                             UNKNOWN :LOCATION
CNTY        .                                             UNKNOWN :COUNTY
STAT        .                                             UNKNOWN :STATE
CTRY        .                                             UNKNOWN :COUNTRY
SRVC        .                                             UNKNOWN :SERVICE COMPANY
DATE        .                                             UNKNOWN :LOG DATE
UWI         .                                                3060 :UNIQUE WELL ID
XCOORD      .                                       601505.010000 :SURFACE X
YCOORD      .                                      2149907.440000 :SURFACE Y
LAT         .                                           19.442142 :LATITUDE
LON         .                                          -92.033049 :LONGITUDE
ELEV        .M                                             0.0000 :SURFACE ELEV
ELEV_TYPE   .                                                  KB :ELEV TYPE
~CURVE INFORMATION
#MNEMONIC.UNIT        API CODE       : CURVE DESCRIPTION
#------------------------------------------------------------------------------
DEPTH    .M                          : Measured Depth
CGR      .API         UNKNOWN        : CGR:Espectroscopia-entubado:r1:0002:v1 
DT       .us/ft       UNKNOWN        : DT:sonico:r1:0001:v1 
GR-LWD   .API         UNKNOWN        : GR-LWD:registros-LWD:r1:0002:v1 
GR       .API         UNKNOWN        : GR:GR-entubado:r2:0001:v1 
LLD-LWD  .ohm.m       UNKNOWN        : LLD-LWD:registros-LWD:r1:0002:v1 
LLS-LWD  .ohm.m       UNKNOWN        : LLS-LWD:registros-LWD:r1:0002:v1 
MSFL-LWD .ohm.m       UNKNOWN        : MSFL-LWD:registros-LWD:r1:0002:v1 
NPHI     .UNKNOWN     UNKNOWN        : NPHI:porosidad-entubado:r2:0001:v1 
POTA     .wtpercent   UNKNOWN        : POTA:Espectroscopia-entubado:r1:0002:v1 
SIGM     .cu          UNKNOWN        : SIGM:TMDL:r1:0001:v1 
THOR     .ppm         UNKNOWN        : THOR:Espectroscopia-entubado:r1:0002:v1 
URAN     .ppm         UNKNOWN        : URAN:Espectroscopia-entubado:r1:0002:v1 
~A     DEPTH          CGR           DT       GR-LWD           GR      LLD-LWD      LLS-LWD     MSFL-LWD         NPHI         POTA         SIGM         THOR         URAN
# ...
   2715.8496       8.0465    -999.2500      35.5970      29.9785      97.8156     164.5916     123.3001       0.0701       0.0018       8.1251       1.5613       2.4418
   2716.0020      15.1162    -999.2500      37.7475      32.6570      94.2385     159.5191     119.6218       0.0704       0.0032       8.0813       3.0087       1.9528
   2716.1543      20.6154    -999.2500      42.3099      36.0880      87.6439     148.0878     109.7991       0.0699       0.0046       8.1718       4.0151       1.7226
   2716.3069      21.7998    -999.2500      47.7196      39.6419      79.3506     137.6616     101.4549       0.0710       0.0052       8.3110       4.1252       1.9864
   2716.4592      20.0403    -999.2500      51.7005      42.7518      73.7577     133.5009      99.8435       0.0725       0.0047       8.4943       3.8393       2.5285
   2716.6116      19.5077    -999.2500      50.9330      44.7254      68.5982     140.4874     104.2947       0.0732       0.0039       8.5662       4.0024       2.8076
   2716.7639      19.9320    -999.2500      48.2205      44.5063      63.1029     148.6538     114.8988       0.0736       0.0035       8.5344       4.2524       2.7359
   2716.9165      21.6744    -999.2500      47.3382      42.0609      58.5302     149.2403     122.1124       0.0730       0.0037       8.4220       4.6793       2.2697
   2717.0688      23.2499    -999.2500      41.2193      38.1494      53.4679     142.7947     122.3527       0.0704       0.0036       8.1918       5.1517       1.6588
   2717.2212      23.6792    -999.2500      34.3773      33.7105      46.6870     130.4019     115.9715       0.0656       0.0033       7.9983       5.4126       1.1168
   2717.3735      21.8770    -999.2500      33.0508      29.4371      39.1728     113.8872     104.5749       0.0594       0.0030       7.7859       4.9883       0.8417
   2717.5261      18.1814    -999.2500      32.5658      26.4019      32.4298      94.4050      94.3247       0.0541       0.0034       7.7274       3.8138       0.9152
   2717.6785      15.0176    -999.2500      31.4904      25.8882      27.0048      73.7729      82.2190       0.0511       0.0038       7.7569       2.7280       1.2103
   2717.8308      14.4190    -999.2500      33.4811      28.0687      23.3477      56.3237      66.9484       0.0508       0.0046       7.8572       2.2578       1.5197
   2717.9832      17.3736    -999.2500      37.9821      32.2832      21.7971      41.3757      51.2966       0.0526       0.0058       8.2232       2.6165       1.6599
   2718.1355      23.5377    -999.2500      45.2501      38.0155      21.5122      28.2005      36.6500       0.0549       0.0085       8.6320       3.3346       1.6119
   2718.2881      30.9645    -999.2500      59.1014      47.3381      20.8638      18.7080      23.7591       0.0580       0.0120       9.2471       4.0142       1.8229
   2718.4404      36.8312    -999.2500      88.8300      63.3737      19.3254      13.2407      14.2208       0.0644       0.0148      10.3006       4.5821       2.9550
   2718.5928      40.7094    -999.2500     147.9927      86.5576      16.2540      10.4491       9.2988       0.0767       0.0157      11.4215       5.3304       5.1044
   2718.7451      41.5093    -999.2500     192.3055     108.1978      13.2450       9.7761       8.6485       0.0942       0.0147      12.6378       5.9439       7.4247
   2718.8977      36.4860    -999.2500     158.0425     114.1733      14.1755      13.9825      13.7664       0.1130       0.0117      12.6822       5.7355       8.6492
   2719.0500      27.7332    -999.2500      89.4374     100.7775      18.1305      22.4736      22.8830       0.1228       0.0073      11.4297       4.9796       8.1323
   2719.2024      20.6117    -999.2500      51.6803      76.6084      24.0815      37.3532      36.9309       0.1112       0.0039      10.2617       4.3111       6.2343
   2719.3547      18.2242    -999.2500      38.9254      54.2782      31.1373      57.1654      54.0675       0.0860       0.0034       8.8224       3.8108       4.0120
   2719.5073      18.2564    -999.2500      31.9788      39.9119      37.2399      75.6555      68.8663       0.0660       0.0040       8.2750       3.5911       2.4101
   2719.6597      16.8832    -999.2500      29.6891      31.8485      42.3207      91.3589      80.8880       0.0554       0.0034       7.8009       3.4346       1.6662
   2719.8120      13.8461    -999.2500      31.3309      27.7698      46.5233     102.6497      88.4886       0.0506       0.0020       7.6773       3.1289       1.5502
   2719.9644      12.1536    -999.2500      32.4979      26.8573      49.2317     109.8795      93.8949       0.0495       0.0011       7.6295       3.0153       1.6370
   2720.1167      12.1649    -999.2500      33.5263      28.1171      49.7499     111.1428      97.6149       0.0511       0.0008       7.6324       3.1259       1.7760
   2720.2693      11.0248    -999.2500      38.5329      29.7791      48.0872     103.1420      91.4662       0.0532       0.0008       7.7610       2.8204       2.0879
   2720.4216      10.6055    -999.2500      48.9950      32.0519      44.8515      92.6210      78.1986       0.0549       0.0012       7.9301       2.5273       2.3877
   2720.5740      14.3890    -999.2500      58.6699      36.5627      41.1723      85.3764      69.6111       0.0570       0.0037       8.1815       2.6255       2.4687
   2720.7263      21.4051    -999.2500      58.4584      42.6299      37.1953      77.7693      66.0090       0.0588       0.0074       8.3883       3.1464       2.3631
   2720.8789      27.5832    -999.2500      49.1504      46.1901      33.6749      73.1843      66.7242       0.0594       0.0097       8.3693       3.9759       2.0716
   2721.0312      29.1585    -999.2500      40.0818      44.8493      30.8754      71.2069      69.2724       0.0594       0.0091       8.1688       4.6694       1.7469
   2721.1836      25.1439    -999.2500      36.7572      39.2939      28.1440      63.0207      65.7597       0.0581       0.0068       7.8696       4.4206       1.5754
   2721.3359      16.2648    -999.2500      40.1269      33.6247      25.5539      49.4194      55.7127       0.0555       0.0039       7.6872       3.0743       1.9327
   2721.4885       7.3472    -999.2500      49.6889      32.4800      23.0201      36.8927      42.9265       0.0539       0.0015       7.7966       1.4779       2.7981
   2721.6409       4.3228    -999.2500      64.5303      36.3988      20.3566      27.6741      30.4569       0.0551       0.0021       8.1077       0.4002       3.5711
   2721.7932       9.7862    -999.2500      91.9737      46.7594      16.9795      21.2013      20.8710       0.0603       0.0054       8.8805       0.6308       4.1163
   2721.9456      23.2925    -999.2500     130.5247      64.2170      13.2705      16.4971      14.7741       0.0705       0.0099       9.8015       2.6650       4.5563
   2722.0979      35.9355    -999.2500     146.1694      86.3068      12.2641      15.0523      13.5298       0.0859       0.0116      10.5235       5.5797       5.6080
   2722.2505      41.7656    -999.2500     122.5406     103.6219      15.1865      17.8726      17.6428       0.1046       0.0098      11.1128       7.9713       6.8867
   2722.4028      42.6607    -999.2500      86.6890     105.6072      19.9633      21.9998      23.4616       0.1243       0.0075      10.9381       9.1379       7.0081
   2722.5552      45.0446    -999.2500      65.7362      91.7234      24.9415      24.0315      25.9638       0.1374       0.0085      10.3390       9.3949       5.1969
   2722.7075      50.0663    -999.2500      70.6982      74.1374      28.3644      22.4385      22.3825       0.1342       0.0110      10.1173       9.8317       2.6799
   2722.8601      48.3726    -999.2500      98.2179      66.6370      28.5711      19.0088      16.4139       0.1216       0.0115      10.3295       9.1573       2.0334
   2723.0125      37.8451    -999.2500     131.8154      75.2686      28.6881      15.7487      11.9243       0.1157       0.0105      10.9064       6.5627       4.1665
