#------------------------------------------------------------------------------
#
#   Created by  : [OpenWorks] Log Export Utility (LEXP)
#   Created on  : 2016-05-19 10:15:25
#   Project     : CANT971
#   User        : R5K
#   Interpreter : PEP
#
#------------------------------------------------------------------------------
~VERSION INFORMATION
VERS. 2.0 : CWLS Log ASCII Standard - version 2.0
WRAP.  NO : One line per depth step
~WELL INFORMATION
#MNEMONIC   .UNIT                                           VALUE :DESCRIPTION
#------------------------------------------------------------------------------
STRT        .M                                           740.7456 :START DEPTH
STOP        .M                                          2958.0132 :STOP DEPTH
STEP        .M                                             0.1524 :STEP
NULL        .                                           -999.2500 :NULL VALUE
COMP        .                                             UNKNOWN :COMPANY
WELL        .                                                3060 :WELL
FLD         .                                             UNKNOWN :FIELD
LOC         .                                             UNKNOWN :LOCATION
CNTY        .                                             UNKNOWN :COUNTY
STAT        .                                             UNKNOWN :STATE
CTRY        .                                             UNKNOWN :COUNTRY
SRVC        .                                             UNKNOWN :SERVICE COMPANY
DATE        .                                             UNKNOWN :LOG DATE
UWI         .                                                3060 :UNIQUE WELL ID
XCOORD      .                                       601505.010000 :SURFACE X
YCOORD      .                                      2149907.440000 :SURFACE Y
LAT         .                                           19.442142 :LATITUDE
LON         .                                          -92.033049 :LONGITUDE
ELEV        .M                                             0.0000 :SURFACE ELEV
ELEV_TYPE   .                                                  KB :ELEV TYPE
~CURVE INFORMATION
#MNEMONIC.UNIT        API CODE       : CURVE DESCRIPTION
#------------------------------------------------------------------------------
DEPTH    .M                          : Measured Depth
CGR      .API         UNKNOWN        : CGR:Espectroscopia-entubado:r1:0002:v1 
DT       .us/ft       UNKNOWN        : DT:sonico:r1:0001:v1 
GR-LWD   .API         UNKNOWN        : GR-LWD:registros-LWD:r1:0002:v1 
GR       .API         UNKNOWN        : GR:GR-entubado:r2:0001:v1 
LLD-LWD  .ohm.m       UNKNOWN        : LLD-LWD:registros-LWD:r1:0002:v1 
LLS-LWD  .ohm.m       UNKNOWN        : LLS-LWD:registros-LWD:r1:0002:v1 
MSFL-LWD .ohm.m       UNKNOWN        : MSFL-LWD:registros-LWD:r1:0002:v1 
NPHI     .UNKNOWN     UNKNOWN        : NPHI:porosidad-entubado:r2:0001:v1 
POTA     .wtpercent   UNKNOWN        : POTA:Espectroscopia-entubado:r1:0002:v1 
SIGM     .cu          UNKNOWN        : SIGM:TMDL:r1:0001:v1 
THOR     .ppm         UNKNOWN        : THOR:Espectroscopia-entubado:r1:0002:v1 
URAN     .ppm         UNKNOWN        : URAN:Espectroscopia-entubado:r1:0002:v1 
~A     DEPTH          CGR           DT       GR-LWD           GR      LLD-LWD      LLS-LWD     MSFL-LWD         NPHI         POTA         SIGM         THOR         URAN
# ...
   2467.1328       7.5178    -999.2500      39.7183      32.9854     191.6243     309.7146     167.7552       0.0658       0.0008    -999.2500       1.7881       2.8354
   2467.2852       9.7573    -999.2500      37.8711      35.4781     190.5824     323.3690     175.8949       0.0661       0.0008    -999.2500       2.4452       2.8636
   2467.4375      11.4203    -999.2500      37.8198      38.1718     189.4135     343.4743     182.7210       0.0666       0.0008    -999.2500       2.9215       2.9783
   2467.5901      13.1191    -999.2500      43.5803      38.9570     191.3523     344.2076     185.7835       0.0658       0.0009    -999.2500       3.3914       2.8767
   2467.7424      14.6309    -999.2500      48.9034      39.7034     187.0274     315.0538     179.5364       0.0638       0.0009    -999.2500       3.8013       2.7914
   2467.8948      12.1028    -999.2500      50.9192      42.3620     180.8825     282.6683     166.7900       0.0614       0.0009    -999.2500       3.0706       3.3689
   2468.0471       7.5144    -999.2500      50.0193      45.7967     181.3134     267.9842     158.8081       0.0589       0.0009    -999.2500       1.7647       4.2621
   2468.1997       3.7575    -999.2500      47.3409      49.4354     179.5479     260.0837     156.3003       0.0582       0.0009    -999.2500       0.7067       5.0855
   2468.3521       2.0323    -999.2500      46.0213      51.7198     173.7213     253.7995     154.7459       0.0612       0.0009    -999.2500       0.2146       5.5319
   2468.5044       2.6033    -999.2500      44.5997      49.6576     172.7474     248.8730     150.8466       0.0672       0.0015    -999.2500       0.1518       5.2388
   2468.6567       4.3832    -999.2500      43.4170      45.4931     174.8263     234.2478     141.4524       0.0723       0.0027    -999.2500       0.1610       4.5769
   2468.8093       4.2775    -999.2500      42.7714      40.8740     183.0578     212.9708     130.7892       0.0720       0.0021    -999.2500       0.3705       4.0744
   2468.9617       5.5238    -999.2500      41.5169      39.5478     193.5060     201.6414     121.8774       0.0650       0.0011    -999.2500       1.1447       3.7880
   2469.1140       8.7544    -999.2500      42.3009      40.9779     197.4371     201.0378     112.7001       0.0565       0.0013    -999.2500       1.9893       3.5876
   2469.2664      10.0889    -999.2500      48.6570      44.3341     186.3930     184.2693     103.4616       0.0518       0.0019    -999.2500       2.1247       3.8127
   2469.4187       9.1935    -999.2500      62.0935      49.9721     162.3386     145.4665      92.1158       0.0502       0.0019    -999.2500       1.8363       4.5400
   2469.5713       8.9390    -999.2500      76.8147      55.3543     142.6061     125.1189      81.4409       0.0498       0.0014    -999.2500       1.9674       5.1676
   2469.7236      12.8428    -999.2500      84.1222      57.3886     142.8966     141.7181      85.7475       0.0510       0.0014    -999.2500       3.0715       4.9595
   2469.8760      18.8610    -999.2500      76.2363      55.1586     153.9411     178.9865     105.1413       0.0538       0.0018    -999.2500       4.6272       4.0412
   2470.0283      21.8575    -999.2500      59.8912      51.5778     163.5884     222.6870     129.2153       0.0576       0.0015    -999.2500       5.6373       3.3089
   2470.1809      23.3453    -999.2500      54.0077      51.0660     173.5223     250.0735     148.2807       0.0615       0.0010    -999.2500       6.2173       3.0862
   2470.3333      25.2609    -999.2500      60.1498      53.0202     188.6689     260.5210     158.7624       0.0650       0.0010    -999.2500       6.7598       3.0906
   2470.4856      27.6753    -999.2500      66.2016      53.0770     194.9846     269.6488     162.2136       0.0686       0.0010    -999.2500       7.4391       2.8281
   2470.6379      28.8089    -999.2500      63.9902      49.6365     189.7628     276.3099     162.0820       0.0722       0.0010    -999.2500       7.7772       2.3188
   2470.7905      25.6346    -999.2500      55.6672      44.1376     188.2801     278.2742     159.5375       0.0751       0.0009    -999.2500       6.9136       2.0600
   2470.9429      19.2708    -999.2500      46.6151      40.4116     194.2647     274.5999     157.0209       0.0783       0.0008    -999.2500       5.1425       2.3537
   2471.0952      13.9327    -999.2500      38.3807      38.0103     196.8250     278.2980     157.7338       0.0828       0.0008    -999.2500       3.6452       2.6806
   2471.2476      10.4507    -999.2500      33.4747      34.9718     200.9613     299.5312     162.2312       0.0860       0.0008    -999.2500       2.6588       2.7300
   2471.3999       9.8819    -999.2500      31.9402      32.0058     207.7554     316.2213     166.3178       0.0839       0.0008    -999.2500       2.4913       2.4631
   2471.5525      11.9725    -999.2500      31.2305      30.6102     206.2251     321.2555     168.2244       0.0788       0.0008    -999.2500       3.0784       2.0750
   2471.7048      13.6173    -999.2500      30.5240      32.0369     200.0051     323.9551     169.2034       0.0748       0.0008    -999.2500       3.5512       2.0507
   2471.8572      11.4271    -999.2500      30.8951      34.1641     200.9135     318.6922     167.3629       0.0727       0.0007    -999.2500       2.9444       2.5314
   2472.0095       6.1056    -999.2500      31.0913      34.1645     202.0645     311.0120     166.4882       0.0723       0.0007    -999.2500       1.4459       3.1240
   2472.1621       2.4785    -999.2500      30.5740      32.1751     196.5769     317.3403     168.2520       0.0743       0.0007    -999.2500       0.4166       3.3063
   2472.3145       2.5249    -999.2500      30.3344      30.0752     192.6699     329.8848     170.4339       0.0776       0.0008    -999.2500       0.4209       3.0673
   2472.4668       5.2115    -999.2500      32.5647      28.8949     192.4123     332.7961     175.9124       0.0786       0.0008    -999.2500       1.1698       2.6368
   2472.6191       8.0826    -999.2500      35.7505      28.9882     193.8530     332.8814     179.3641       0.0763       0.0008    -999.2500       1.9714       2.3275
   2472.7715       9.8082    -999.2500      39.8428      31.8159     196.7553     339.5347     175.2474       0.0732       0.0011    -999.2500       2.3417       2.4502
   2472.9241      13.3153    -999.2500      47.7334      37.8687     197.7869     347.1472     172.2624       0.0705       0.0019    -999.2500       3.0351       2.7336
   2473.0764      17.3975    -999.2500      57.0222      45.9581     199.3754     352.0597     178.7746       0.0673       0.0017    -999.2500       4.2675       3.1797
   2473.2288      18.9112    -999.2500      65.4300      54.3751     204.3971     358.4780     188.6488       0.0631       0.0012    -999.2500       4.9099       3.9483
   2473.3811      15.9674    -999.2500      68.2649      60.1341     206.3936     364.3802     188.6691       0.0582       0.0010    -999.2500       4.1213       4.9173
   2473.5337      12.9874    -999.2500      63.4223      60.7681     201.2520     369.7631     187.0672       0.0527       0.0009    -999.2500       3.3022       5.3196
   2473.6860      14.8749    -999.2500      54.0856      56.5221     196.1831     371.0145     189.7214       0.0482       0.0008    -999.2500       3.8705       4.6367
   2473.8384      18.5786    -999.2500      44.5098      49.2198     200.0411     367.3119     183.4239       0.0466       0.0008    -999.2500       4.9474       3.4114
   2473.9907      17.7196    -999.2500      38.9971      40.8269     207.4168     363.4630     174.2314       0.0470       0.0010    -999.2500       4.6210       2.5726
   2474.1433      12.7403    -999.2500      37.0655      34.8858     210.1157     356.6189     175.9546       0.0479       0.0021    -999.2500       2.7569       2.4655
   2474.2957       8.3030    -999.2500      37.4797      33.3352     208.0824     352.1656     181.1339       0.0478       0.0032    -999.2500       1.0621       2.7870
