#------------------------------------------------------------------------------
#
#   Created by  : [OpenWorks] Log Export Utility (LEXP)
#   Created on  : 2016-05-11 12:25:29
#   Project     : CANT971
#   User        : R5K
#   Interpreter : PEP
#
#------------------------------------------------------------------------------
~VERSION INFORMATION
VERS. 2.0 : CWLS Log ASCII Standard - version 2.0
WRAP.  NO : One line per depth step
~WELL INFORMATION
#MNEMONIC   .UNIT                                           VALUE :DESCRIPTION
#------------------------------------------------------------------------------
STRT        .M                                           770.8625 :START DEPTH
STOP        .M                                          2968.3181 :STOP DEPTH
STEP        .M                                             0.1524 :STEP
NULL        .                                           -999.2500 :NULL VALUE
COMP        .                                   PEMEX EXPL & PROD :COMPANY
WELL        .                                                3083 :WELL
FLD         .                                           CANTARELL :FIELD
LOC         .                                             UNKNOWN :LOCATION
CNTY        .                                             UNKNOWN :COUNTY
STAT        .                                            CAMPECHE :STATE
CTRY        .                                              MEXICO :COUNTRY
SRVC        .                                             UNKNOWN :SERVICE COMPANY
DATE        .                                             UNKNOWN :LOG DATE
UWI         .                                                3083 :UNIQUE WELL ID
XCOORD      .                                       597325.730000 :SURFACE X
YCOORD      .                                      2152070.080000 :SURFACE Y
LAT         .                                           19.461893 :LATITUDE
LON         .                                          -92.072746 :LONGITUDE
ELEV        .M                                            30.0000 :SURFACE ELEV
ELEV_TYPE   .                                                  KB :ELEV TYPE
~CURVE INFORMATION
#MNEMONIC.UNIT        API CODE       : CURVE DESCRIPTION
#------------------------------------------------------------------------------
DEPTH    .M                          : Measured Depth
CALI     .inches      UNKNOWN        : CALI:Import:rC:NONE:v0 (auto-composite)
CGR      .API         UNKNOWN        : CGR:Import:rC:NONE:v0 (auto-composite)
DRHO     .g/cm3       UNKNOWN        : DRHO:Import:rC:NONE:v0 (auto-composite)
DT       .us/ft       UNKNOWN        : DT:Import:rC:NONE:v0 (auto-composite)
GR       .API         UNKNOWN        : GR:Import:rC:NONE:v0 (auto-composite)
GR-LWD   .API         UNKNOWN        : GR-LWD:Import:rC:NONE:v0 (auto-composite)
LLD      .ohm.m       UNKNOWN        : LLD:Import:rC:NONE:v0 (auto-composite)
LLD-LWD  .ohm.m       UNKNOWN        : LLD-LWD:Import:rC:NONE:v0 (auto-composite)
LLS      .ohm.m       UNKNOWN        : LLS:Import:rC:NONE:v0 (auto-composite)
LLS-LWD  .ohm.m       UNKNOWN        : LLS-LWD:Import:rC:NONE:v0 (auto-composite)
MSFL     .ohm.m       UNKNOWN        : MSFL:Import:rC:NONE:v0 (auto-composite)
MSFL-LWD .ohm.m       UNKNOWN        : MSFL-LWD:Import:rC:NONE:v0 (auto-composite)
NPHI     .v/v_decimal UNKNOWN        : NPHI:Import:rC:NONE:v0 (auto-composite)
PEF      .b/elec      UNKNOWN        : PEF:Import:rC:NONE:v0 (auto-composite)
POTA     .wtpercent   UNKNOWN        : POTA:Import:rC:NONE:v0 (auto-composite)
RHOB     .g/cm3       UNKNOWN        : RHOB:Import:rC:NONE:v0 (auto-composite)
THOR     .ppm         UNKNOWN        : THOR:Import:rC:NONE:v0 (auto-composite)
URAN     .ppm         UNKNOWN        : URAN:Import:rC:NONE:v0 (auto-composite)
~A     DEPTH         CALI          CGR         DRHO           DT           GR       GR-LWD          LLD      LLD-LWD          LLS      LLS-LWD         MSFL     MSFL-LWD         NPHI          PEF         POTA         RHOB         THOR         URAN
# ...
   2933.4185    -999.2500      12.7009    -999.2500    -999.2500      50.0490      50.0486      40.4190      40.4187      49.6630      51.1343      52.6590      54.9492       0.0798    -999.2500       0.0011    -999.2500       2.8562       1.9849
   2933.5708    -999.2500      12.7009    -999.2500    -999.2500      50.8800      50.8802      41.0010      41.0012      51.1340      51.7412      54.9490      57.5400       0.0767    -999.2500       0.0011    -999.2500       2.8562       1.9849
   2933.7234    -999.2500      12.7009    -999.2500    -999.2500      54.4390      54.4392      40.0960      40.0960      51.7410      50.8186      57.5400      58.1841       0.0748    -999.2500       0.0011    -999.2500       2.8562       1.9849
   2933.8757    -999.2500      12.7009    -999.2500    -999.2500      60.7440      60.7438      38.2670      38.2666      50.8190      49.0046      58.1840      55.6520       0.0747    -999.2500       0.0011    -999.2500       2.8562       1.9849
   2934.0281    -999.2500      12.7009    -999.2500    -999.2500      65.2040      65.2036      35.8790      35.8792      49.0050      45.3847      55.6520      50.3451       0.0747    -999.2500       0.0011    -999.2500       2.8562       1.9849
   2934.1804    -999.2500      12.7009    -999.2500    -999.2500      65.8210      65.8209      33.7030      33.7030      45.3850      40.8248      50.3450      44.7662       0.0747    -999.2500       0.0011    -999.2500       2.8562       1.9849
   2934.3330    -999.2500      12.7009    -999.2500    -999.2500      62.7840      62.7842      31.8530      31.8527      40.8250      36.1729      44.7660      38.6561       0.0747    -999.2500       0.0011    -999.2500       2.8562       1.9849
   2934.4854    -999.2500      12.7009    -999.2500    -999.2500      57.5760      57.5755      29.9620      29.9621      36.1730      30.7591      38.6560      31.4664       0.0747    -999.2500       0.0011    -999.2500       2.8562       1.9849
   2934.6377    -999.2500      12.7009    -999.2500    -999.2500      54.1960      54.1956      29.4960      29.4960      30.7590      28.6119      31.4660      28.1945       0.0747    -999.2500       0.0011    -999.2500       2.8562       1.9849
   2934.7900    -999.2500      12.7009    -999.2500    -999.2500      53.4890      53.4887      29.9540      29.9544      28.6120      29.0689      28.1940      29.3913       0.0747    -999.2500       0.0011    -999.2500       2.8562       1.9849
   2934.9424    -999.2500    -999.2500    -999.2500    -999.2500      52.0810      52.0805      29.7050      29.7054      29.0690      29.3790      29.3910      31.3248    -999.2500    -999.2500    -999.2500    -999.2500    -999.2500    -999.2500
   2935.0950    -999.2500    -999.2500    -999.2500    -999.2500      49.5100      49.5103      29.2680      29.2684      29.3790      29.4150      31.3250      32.5219    -999.2500    -999.2500    -999.2500    -999.2500    -999.2500    -999.2500
   2935.2473    -999.2500    -999.2500    -999.2500    -999.2500      46.9290      46.9286      29.0670      29.0675      29.4150      30.2005      32.5220      32.9943    -999.2500    -999.2500    -999.2500    -999.2500    -999.2500    -999.2500
   2935.3997    -999.2500    -999.2500    -999.2500    -999.2500      42.9320      42.9322      28.6920      28.6925      30.2010      31.2900      32.9940      33.0950    -999.2500    -999.2500    -999.2500    -999.2500    -999.2500    -999.2500
   2935.5520    -999.2500    -999.2500    -999.2500    -999.2500      38.1050      38.1049      29.1800      29.1799      31.2900      32.6353      33.0950      34.4024    -999.2500    -999.2500    -999.2500    -999.2500    -999.2500    -999.2500
   2935.7046    -999.2500    -999.2500    -999.2500    -999.2500      34.6650      34.6651      31.8080      31.8077      32.6350      35.3377      34.4020      37.5703    -999.2500    -999.2500    -999.2500    -999.2500    -999.2500    -999.2500
   2935.8569    -999.2500    -999.2500    -999.2500    -999.2500      32.4430      32.4425      33.8820      33.8821      35.3380      38.3252      37.5700      40.9936    -999.2500    -999.2500    -999.2500    -999.2500    -999.2500    -999.2500
   2936.0093    -999.2500    -999.2500    -999.2500    -999.2500      31.2120      31.2115      35.0700      35.0696      38.3250      41.2163      40.9940      45.0448    -999.2500    -999.2500    -999.2500    -999.2500    -999.2500    -999.2500
   2936.1616    -999.2500    -999.2500    -999.2500    -999.2500      31.0430      31.0433      36.5660      36.5662      41.2160      45.2262      45.0450      51.1516    -999.2500    -999.2500    -999.2500    -999.2500    -999.2500    -999.2500
   2936.3142    -999.2500    -999.2500    -999.2500    -999.2500      29.9410      29.9412      38.3890      38.3891      45.2260      50.1709      51.1520      57.2575    -999.2500    -999.2500    -999.2500    -999.2500    -999.2500    -999.2500
   2936.4666    -999.2500    -999.2500    -999.2500    -999.2500      27.2990      27.2989      42.4830      42.4829      50.1710      60.7089      57.2570      78.4378    -999.2500    -999.2500    -999.2500    -999.2500    -999.2500    -999.2500
   2936.6189    -999.2500    -999.2500    -999.2500    -999.2500      24.7650      24.7650      49.4110      49.4115      60.7090      79.6827      78.4380     120.4599    -999.2500    -999.2500    -999.2500    -999.2500    -999.2500    -999.2500
   2936.7712    -999.2500    -999.2500    -999.2500    -999.2500      23.1730      23.1727      54.4140      54.4136      79.6830      90.0742     120.4600     143.1630    -999.2500    -999.2500    -999.2500    -999.2500    -999.2500    -999.2500
   2936.9236    -999.2500    -999.2500    -999.2500    -999.2500      22.4320      22.4324      57.3040      57.3036      90.0740      93.1199     143.1630     145.1773    -999.2500    -999.2500    -999.2500    -999.2500    -999.2500    -999.2500
   2937.0762    -999.2500    -999.2500    -999.2500    -999.2500      22.0160      22.0157      59.0850      59.0852      93.1200      92.0290     145.1770     124.2494    -999.2500    -999.2500    -999.2500    -999.2500    -999.2500    -999.2500
   2937.2285    -999.2500    -999.2500    -999.2500    -999.2500      21.6790      21.6791      60.2290      60.2295      92.0290      88.5383     124.2490      99.2042    -999.2500    -999.2500    -999.2500    -999.2500    -999.2500    -999.2500
   2937.3809    -999.2500    -999.2500    -999.2500    -999.2500      22.2300      22.2305      61.2090      61.2092      88.5380      87.3585      99.2040      87.8074    -999.2500    -999.2500    -999.2500    -999.2500    -999.2500    -999.2500
   2937.5332    -999.2500    -999.2500    -999.2500    -999.2500      23.9070      23.9068      63.9040      63.9039      87.3580      86.0874      87.8070      83.0649    -999.2500    -999.2500    -999.2500    -999.2500    -999.2500    -999.2500
   2937.6858    -999.2500    -999.2500    -999.2500    -999.2500      25.3230      25.3226      66.7910      66.7909      86.0870      84.7988      83.0650      79.4733    -999.2500    -999.2500    -999.2500    -999.2500    -999.2500    -999.2500
   2937.8381    -999.2500    -999.2500    -999.2500    -999.2500      25.5140      25.5139      70.5270      70.5267      84.7990      87.9910      79.4730      78.2344    -999.2500    -999.2500    -999.2500    -999.2500    -999.2500    -999.2500
   2937.9905    -999.2500    -999.2500    -999.2500    -999.2500      25.2160      25.2159      74.3250      74.3253      87.9910      92.4395      78.2340      79.2242    -999.2500    -999.2500    -999.2500    -999.2500    -999.2500    -999.2500
   2938.1428    -999.2500    -999.2500    -999.2500    -999.2500      24.9860      24.9865      76.8160      76.8162      92.4390      93.0794      79.2240      79.1006    -999.2500    -999.2500    -999.2500    -999.2500    -999.2500    -999.2500
   2938.2952    -999.2500    -999.2500    -999.2500    -999.2500      24.9160      24.9161      78.8470      78.8468      93.0790      92.2531      79.1010      79.3820    -999.2500    -999.2500    -999.2500    -999.2500    -999.2500    -999.2500
