#------------------------------------------------------------------------------
#
#   Created by  : [OpenWorks] Log Export Utility (LEXP)
#   Created on  : 2016-05-11 12:25:29
#   Project     : CANT971
#   User        : R5K
#   Interpreter : PEP
#
#------------------------------------------------------------------------------
~VERSION INFORMATION
VERS. 2.0 : CWLS Log ASCII Standard - version 2.0
WRAP.  NO : One line per depth step
~WELL INFORMATION
#MNEMONIC   .UNIT                                           VALUE :DESCRIPTION
#------------------------------------------------------------------------------
STRT        .M                                           770.8625 :START DEPTH
STOP        .M                                          2968.3181 :STOP DEPTH
STEP        .M                                             0.1524 :STEP
NULL        .                                           -999.2500 :NULL VALUE
COMP        .                                   PEMEX EXPL & PROD :COMPANY
WELL        .                                                3083 :WELL
FLD         .                                           CANTARELL :FIELD
LOC         .                                             UNKNOWN :LOCATION
CNTY        .                                             UNKNOWN :COUNTY
STAT        .                                            CAMPECHE :STATE
CTRY        .                                              MEXICO :COUNTRY
SRVC        .                                             UNKNOWN :SERVICE COMPANY
DATE        .                                             UNKNOWN :LOG DATE
UWI         .                                                3083 :UNIQUE WELL ID
XCOORD      .                                       597325.730000 :SURFACE X
YCOORD      .                                      2152070.080000 :SURFACE Y
LAT         .                                           19.461893 :LATITUDE
LON         .                                          -92.072746 :LONGITUDE
ELEV        .M                                            30.0000 :SURFACE ELEV
ELEV_TYPE   .                                                  KB :ELEV TYPE
~CURVE INFORMATION
#MNEMONIC.UNIT        API CODE       : CURVE DESCRIPTION
#------------------------------------------------------------------------------
DEPTH    .M                          : Measured Depth
CALI     .inches      UNKNOWN        : CALI:Import:rC:NONE:v0 (auto-composite)
CGR      .API         UNKNOWN        : CGR:Import:rC:NONE:v0 (auto-composite)
DRHO     .g/cm3       UNKNOWN        : DRHO:Import:rC:NONE:v0 (auto-composite)
DT       .us/ft       UNKNOWN        : DT:Import:rC:NONE:v0 (auto-composite)
GR       .API         UNKNOWN        : GR:Import:rC:NONE:v0 (auto-composite)
GR-LWD   .API         UNKNOWN        : GR-LWD:Import:rC:NONE:v0 (auto-composite)
LLD      .ohm.m       UNKNOWN        : LLD:Import:rC:NONE:v0 (auto-composite)
LLD-LWD  .ohm.m       UNKNOWN        : LLD-LWD:Import:rC:NONE:v0 (auto-composite)
LLS      .ohm.m       UNKNOWN        : LLS:Import:rC:NONE:v0 (auto-composite)
LLS-LWD  .ohm.m       UNKNOWN        : LLS-LWD:Import:rC:NONE:v0 (auto-composite)
MSFL     .ohm.m       UNKNOWN        : MSFL:Import:rC:NONE:v0 (auto-composite)
MSFL-LWD .ohm.m       UNKNOWN        : MSFL-LWD:Import:rC:NONE:v0 (auto-composite)
NPHI     .v/v_decimal UNKNOWN        : NPHI:Import:rC:NONE:v0 (auto-composite)
PEF      .b/elec      UNKNOWN        : PEF:Import:rC:NONE:v0 (auto-composite)
POTA     .wtpercent   UNKNOWN        : POTA:Import:rC:NONE:v0 (auto-composite)
RHOB     .g/cm3       UNKNOWN        : RHOB:Import:rC:NONE:v0 (auto-composite)
THOR     .ppm         UNKNOWN        : THOR:Import:rC:NONE:v0 (auto-composite)
URAN     .ppm         UNKNOWN        : URAN:Import:rC:NONE:v0 (auto-composite)
~A     DEPTH         CALI          CGR         DRHO           DT           GR       GR-LWD          LLD      LLD-LWD          LLS      LLS-LWD         MSFL     MSFL-LWD         NPHI          PEF         POTA         RHOB         THOR         URAN
# ...
   2274.5933    -999.2500       4.6905    -999.2500    -999.2500      33.6650      33.6650      87.6480      87.6484      62.4530      56.9730      54.0740      49.1762       0.1225    -999.2500       0.0022    -999.2500       0.3966       2.2862
   2274.7456    -999.2500       1.4851    -999.2500    -999.2500      33.2830      33.2825      75.7220      75.7222      56.9730      46.5042      49.1760      36.0596       0.1214    -999.2500       0.0020    -999.2500       0.3976       2.2617
   2274.8982    -999.2500       1.0327    -999.2500    -999.2500      34.9420      34.9422      76.9750      76.9750      46.5040      43.9425      36.0600      29.4175       0.1173    -999.2500       0.0011    -999.2500      -0.0715       2.0531
   2275.0505    -999.2500       1.4822    -999.2500    -999.2500      36.6530      36.6525      88.7980      88.7978      43.9430      51.3115      29.4170      31.2848       0.1167    -999.2500       0.0010    -999.2500      -0.1316       2.0117
   2275.2029    -999.2500       1.6428    -999.2500    -999.2500      37.1090      37.1089      97.9520      97.9517      51.3120      56.1579      31.2850      34.3430       0.1237    -999.2500       0.0013    -999.2500      -0.1645       2.0390
   2275.3552    -999.2500       1.6017    -999.2500    -999.2500      36.3770      36.3767      93.0260      93.0258      56.1580      50.5459      34.3430      34.2692       0.1340    -999.2500       0.0012    -999.2500      -0.0821       2.1754
   2275.5076    -999.2500       1.7878    -999.2500    -999.2500      36.3830      36.3832      90.0020      90.0015      50.5460      45.2779      34.2690      33.7789       0.1444    -999.2500      -0.0000    -999.2500       0.4062       2.7356
   2275.6602    -999.2500       0.9543    -999.2500    -999.2500      37.7640      37.7645      91.6200      91.6205      45.2780      43.7914      33.7790      34.0367       0.1452    -999.2500      -0.0002    -999.2500       0.5226       2.7955
   2275.8125    -999.2500       1.2207    -999.2500    -999.2500      40.0090      40.0088      94.2490      94.2493      43.7910      43.8788      34.0370      34.7129       0.1476    -999.2500      -0.0005    -999.2500       0.4478       2.7246
   2275.9648    -999.2500       0.8405    -999.2500    -999.2500      42.2300      42.2303      93.7040      93.7044      43.8790      45.0016      34.7130      34.8391       0.1543    -999.2500      -0.0002    -999.2500       0.3970       2.6433
   2276.1172    -999.2500       2.2380    -999.2500    -999.2500      41.9370      41.9370      89.4590      89.4586      45.0020      47.8044      34.8390      35.6659       0.1561    -999.2500       0.0013    -999.2500      -0.3503       2.1587
   2276.2698    -999.2500       3.6843    -999.2500    -999.2500      39.4310      39.4307      85.7930      85.7926      47.8040      50.9544      35.6660      38.6213       0.1415    -999.2500       0.0020    -999.2500      -0.2901       2.2313
   2276.4221    -999.2500       2.3302    -999.2500    -999.2500      38.4990      38.4987      85.8730      85.8728      50.9540      53.7772      38.6210      42.0687       0.1300    -999.2500       0.0027    -999.2500      -0.2095       2.3449
   2276.5745    -999.2500       1.8969    -999.2500    -999.2500      39.5730      39.5733      83.3350      83.3350      53.7770      53.1410      42.0690      42.0180       0.1305    -999.2500       0.0023    -999.2500      -0.3723       2.2837
   2276.7268    -999.2500       0.3523    -999.2500    -999.2500      40.9740      40.9742      76.7820      76.7824      53.1410      48.6923      42.0180      38.4198       0.1483    -999.2500       0.0019    -999.2500      -0.3333       2.3441
   2276.8794    -999.2500       0.2261    -999.2500    -999.2500      42.2300      42.2305      76.2110      76.2111      48.6920      45.5829      38.4200      34.8021       0.1672    -999.2500       0.0013    -999.2500      -0.4695       2.3994
   2277.0317    -999.2500      -1.1358    -999.2500    -999.2500      43.2150      43.2146      82.6910      82.6915      45.5830      46.3794      34.8020      33.5534       0.1727    -999.2500       0.0007    -999.2500      -0.2448       2.7398
   2277.1841    -999.2500      -0.7972    -999.2500    -999.2500      44.5880      44.5882      92.6580      92.6577      46.3790      49.5814      33.5530      34.8548       0.1680    -999.2500       0.0001    -999.2500      -0.3607       2.7650
   2277.3364    -999.2500      -1.7837    -999.2500    -999.2500      45.8220      45.8219     104.7460     104.7460      49.5810      54.6396      34.8550      37.8052       0.1615    -999.2500       0.0002    -999.2500      -0.2809       2.8631
   2277.4888    -999.2500      -1.5124    -999.2500    -999.2500      45.6630      45.6630     104.0070     104.0071      54.6400      56.2562      37.8050      38.9139       0.1635    -999.2500      -0.0004    -999.2500      -0.2861       2.9031
   2277.6414    -999.2500      -1.3361    -999.2500    -999.2500      43.9300      43.9299      97.1460      97.1464      56.2560      52.3410      38.9140      38.1145       0.1667    -999.2500      -0.0004    -999.2500      -0.2345       2.9987
   2277.7937    -999.2500       0.9602    -999.2500    -999.2500      41.9250      41.9249      87.9870      87.9867      52.3410      46.4431      38.1140      35.1461       0.1663    -999.2500      -0.0002    -999.2500      -0.2672       3.0236
   2277.9460    -999.2500       3.5048    -999.2500    -999.2500      41.7140      41.7143      76.6580      76.6576      46.4430      40.5446      35.1460      30.6148       0.1560    -999.2500       0.0006    -999.2500      -0.0136       3.1549
   2278.0984    -999.2500       3.3213    -999.2500    -999.2500      42.6770      42.6767      67.1370      67.1375      40.5450      36.4100      30.6150      28.1975       0.1469    -999.2500       0.0009    -999.2500       0.5504       3.3074
   2278.2510    -999.2500       2.7547    -999.2500    -999.2500      43.1340      43.1338      61.0260      61.0263      36.4100      32.6801      28.1980      26.4917       0.1461    -999.2500       0.0008    -999.2500       0.5395       3.2434
   2278.4033    -999.2500       1.5855    -999.2500    -999.2500      43.0980      43.0977      60.0180      60.0182      32.6800      30.7307      26.4920      25.1910       0.1576    -999.2500       0.0007    -999.2500       0.4301       3.0842
   2278.5557    -999.2500       2.7188    -999.2500    -999.2500      42.3360      42.3357      58.3370      58.3374      30.7310      30.1802      25.1910      25.6130       0.1834    -999.2500      -0.0001    -999.2500       0.4824       2.7330
   2278.7080    -999.2500       3.4812    -999.2500    -999.2500      40.1000      40.0999      54.3550      54.3551      30.1800      28.9712      25.6130      26.2892       0.2096    -999.2500       0.0004    -999.2500       0.5365       2.7065
   2278.8606    -999.2500       3.7164    -999.2500    -999.2500      37.6790      37.6786      50.5210      50.5205      28.9710      27.1928      26.2890      24.4735       0.2095    -999.2500       0.0012    -999.2500       0.4169       2.6284
   2279.0129    -999.2500       2.9634    -999.2500    -999.2500      37.6030      37.6031      50.1230      50.1229      27.1930      26.3248      24.4730      22.8337       0.1919    -999.2500       0.0015    -999.2500       0.3125       2.5274
   2279.1653    -999.2500       3.4650    -999.2500    -999.2500      38.8190      38.8191      53.3660      53.3659      26.3250      26.7961      22.8340      23.0443       0.1702    -999.2500       0.0016    -999.2500       0.0757       2.3410
   2279.3176    -999.2500       3.4619    -999.2500    -999.2500      39.6190      39.6188      57.0730      57.0728      26.7960      28.1206      23.0440      23.8597       0.1504    -999.2500       0.0017    -999.2500       0.1758       2.3104
   2279.4700    -999.2500       3.2991    -999.2500    -999.2500      40.4080      40.4076      62.5560      62.5560      28.1210      30.4465      23.8600      25.9834       0.1430    -999.2500       0.0017    -999.2500       0.1681       2.2295
