#------------------------------------------------------------------------------
#
#   Created by  : [OpenWorks] Log Export Utility (LEXP)
#   Created on  : 2016-05-11 12:25:30
#   Project     : CANT971
#   User        : R5K
#   Interpreter : PEP
#
#------------------------------------------------------------------------------
~VERSION INFORMATION
VERS. 2.0 : CWLS Log ASCII Standard - version 2.0
WRAP. YES : Mulitple lines per depth step
~WELL INFORMATION
#MNEMONIC   .UNIT                                           VALUE :DESCRIPTION
#------------------------------------------------------------------------------
STRT        .M                                          2157.2351 :START DEPTH
STOP        .M                                          3233.6362 :STOP DEPTH
STEP        .M                                             0.1524 :STEP
NULL        .                                           -999.2500 :NULL VALUE
COMP        .                                             UNKNOWN :COMPANY
WELL        .                                              3083-V :WELL
FLD         .                                             UNKNOWN :FIELD
LOC         .                                             UNKNOWN :LOCATION
CNTY        .                                             UNKNOWN :COUNTY
STAT        .                                             UNKNOWN :STATE
CTRY        .                                             UNKNOWN :COUNTRY
SRVC        .                                             UNKNOWN :SERVICE COMPANY
DATE        .                                             UNKNOWN :LOG DATE
UWI         .                                              3083-V :UNIQUE WELL ID
XCOORD      .                                            0.000000 :SURFACE X
YCOORD      .                                            0.000000 :SURFACE Y
LAT         .                                            0.000000 :LATITUDE
LON         .                                            0.000000 :LONGITUDE
ELEV        .M                                             0.0000 :SURFACE ELEV
ELEV_TYPE   .                                                  KB :ELEV TYPE
~CURVE INFORMATION
#MNEMONIC.UNIT        API CODE       : CURVE DESCRIPTION
#------------------------------------------------------------------------------
DEPTH    .M                          : Measured Depth
CALI     .inches      UNKNOWN        : CALI:LDL-CNL:rC:NONE:v0 (auto-composite)
CGR      .API         UNKNOWN        : CGR:Espectrometria:rC:NONE:v0 (auto-composite)
DRHO     .g/cm3       UNKNOWN        : DRHO:LDL-CNL:rC:NONE:v0 (auto-composite)
DRHO-LWD .g/cm3       UNKNOWN        : DRHO-LWD:registros-LWD:rC:NONE:v0 (auto-composite)
DT       .us/ft       UNKNOWN        : DT:Sonico:rC:NONE:v0 (auto-composite)
DT-LWD   .UNKNOWN     UNKNOWN        : DT-LWD:registros-LWD:rC:NONE:v0 (auto-composite)
GR       .API         UNKNOWN        : GR:Espectrometria:rC:NONE:v0 (auto-composite)
GR-LWD   .API         UNKNOWN        : GR-LWD:PETROWORKS:rC:NONE:v1 
ILD-LWD  .ohm.m       UNKNOWN        : ILD-LWD:PETROWORKS:rC:NONE:v1 
ILM-LWD  .ohm.m       UNKNOWN        : ILM-LWD:PETROWORKS:rC:NONE:v1 
LLD      .ohm.m       UNKNOWN        : LLD:resistivos:rC:NONE:v0 (auto-composite)
LLS      .ohm.m       UNKNOWN        : LLS:resistivos:rC:NONE:v0 (auto-composite)
MSFL     .ohm.m       UNKNOWN        : MSFL:resistivos:rC:NONE:v0 (auto-composite)
NPHI     .v/v_decimal UNKNOWN        : NPHI:LDL-CNL:rC:NONE:v0 (auto-composite)
NPHI-LWD .v/v_decimal UNKNOWN        : NPHI-LWD:registros-LWD:rC:NONE:v0 (auto-composite)
PEF      .UNKNOWN     UNKNOWN        : PEF:LDL-CNL:rC:NONE:v0 (auto-composite)
PEF-LWD  .UNKNOWN     UNKNOWN        : PEF-LWD:registros-LWD:rC:NONE:v0 (auto-composite)
POTA     .UNKNOWN     UNKNOWN        : POTA:Espectrometria:rC:NONE:v0 (auto-composite)
RHOB     .g/cm3       UNKNOWN        : RHOB:LDL-CNL:rC:NONE:v0 (auto-composite)
RHOB-LWD .g/cm3       UNKNOWN        : RHOB-LWD:registros-LWD:rC:NONE:v0 (auto-composite)
THOR     .ppm         UNKNOWN        : THOR:Espectrometria:rC:NONE:v0 (auto-composite)
URAN     .ppm         UNKNOWN        : URAN:Espectrometria:rC:NONE:v0 (auto-composite)
~A
# ...
   2782.6848
       8.4219      15.4875       0.0088    -999.2500      55.3334    -999.2500
      47.6083      56.0897      44.8576      43.2384      54.1977      50.8772
      11.9167       0.0460    -999.2500       3.0938    -999.2500       0.0046
       2.7375    -999.2500       2.2580       4.2012
   2782.8372
       8.4802      14.3107       0.0069    -999.2500      55.5949    -999.2500
      42.2422      51.0401      46.3548      45.0320      56.8862      53.6782
      13.1234       0.0490    -999.2500       3.1173    -999.2500       0.0044
       2.7329    -999.2500       1.9886       3.6352
   2782.9895
       8.4685      12.9473       0.0069    -999.2500      52.7621    -999.2500
      38.4652      45.3942      47.0924      46.1869      75.8463      70.5408
      15.5732       0.0540    -999.2500       3.0782    -999.2500       0.0043
       2.7329    -999.2500       1.6084       3.3079
   2783.1418
       8.4695      13.1706       0.0138    -999.2500      53.6996    -999.2500
      37.3365      43.1903      46.9061      46.6901     101.0701      94.0731
      18.8429       0.0530    -999.2500       2.9056    -999.2500       0.0046
       2.7499    -999.2500       1.5414       3.1517
   2783.2942
       8.4657      17.6971       0.0136    -999.2500      53.3350    -999.2500
      44.8591      49.5510      44.6455      45.0832     120.1244     111.9240
      11.8201       0.0475    -999.2500       3.0628    -999.2500       0.0066
       2.7656    -999.2500       1.7612       3.4956
   2783.4468
       8.4678      23.6277       0.0120    -999.2500      51.0427    -999.2500
      52.3896      60.0204      42.4247      43.2692     184.0650     168.6976
      31.2932       0.0399    -999.2500       3.0924    -999.2500       0.0095
       2.7761    -999.2500       1.9973       3.7190
   2783.5991
       8.4694      28.1245       0.0135    -999.2500      49.4823    -999.2500
      60.6478      68.8403      40.6485      41.0613     125.5701     116.6485
      33.2614       0.0353    -999.2500       3.1392    -999.2500       0.0118
       2.7908    -999.2500       2.1004       4.2984
   2783.7515
       8.5513      29.1903       0.0138    -999.2500      49.7668    -999.2500
      62.1984      71.6815      39.4075      39.0449      64.0261      61.6828
      28.3265       0.0299    -999.2500       3.2443    -999.2500       0.0128
       2.7934    -999.2500       1.8855       4.3907
   2783.9038
       8.5335      31.7510       0.0091    -999.2500      51.5969    -999.2500
      66.0917      71.2979      38.0020      37.5658      49.6083      47.7449
      18.9153       0.0382    -999.2500       3.2101    -999.2500       0.0137
       2.7811    -999.2500       2.1343       4.6189
   2784.0564
       8.5403      33.7836       0.0105    -999.2500      49.8350    -999.2500
      68.8219      74.7516      36.2615      35.6535      44.6990      42.8128
      16.5464       0.0488    -999.2500       3.2815    -999.2500       0.0146
       2.7679    -999.2500       2.2760       4.7453
   2784.2087
       8.5446      33.2955       0.0132    -999.2500      52.7910    -999.2500
      68.7471      80.0407      35.3205      34.0599      48.1928      46.5592
      17.6953       0.0639    -999.2500       3.0738    -999.2500       0.0146
       2.7650    -999.2500       2.1202       4.8146
   2784.3611
       8.5922      31.0940       0.0142    -999.2500      54.0835    -999.2500
      64.6230      78.9734      36.9719      34.9817      36.0095      35.2061
      20.9264       0.0666    -999.2500       3.1007    -999.2500       0.0137
       2.7570    -999.2500       1.9283       4.5205
   2784.5134
       8.5414      28.2907       0.0200    -999.2500      54.4076    -999.2500
      60.5880      71.7845      37.0689      35.2706      28.8259      28.5245
      14.6224       0.0755    -999.2500       3.0807    -999.2500       0.0127
       2.7530    -999.2500       1.5948       4.3138
   2784.6660
       8.5446      27.0933       0.0295    -999.2500      56.1122    -999.2500
      59.1581      67.0592      35.8523      34.3905      39.1797      39.7917
      16.4360       0.0747    -999.2500       3.1379    -999.2500       0.0120
       2.7479    -999.2500       1.6433       4.2544
   2784.8184
       8.5465      26.5750       0.0384    -999.2500      56.1471    -999.2500
      60.9748      67.9252      34.2313      32.7431      55.2634      56.1595
      17.3981       0.0772    -999.2500       3.0464    -999.2500       0.0117
       2.7523    -999.2500       1.6272       4.5383
   2784.9707
       8.5386      25.4704       0.0531    -999.2500      58.1523    -999.2500
      60.5669      68.5469      34.8477      33.0216      69.7141      69.4928
      18.6774       0.0736    -999.2500       3.0534    -999.2500       0.0108
       2.7683    -999.2500       1.8391       4.6578
   2785.1230
       8.5589      23.2131       0.0526    -999.2500      55.7699    -999.2500
      59.3371      65.0548      37.3053      35.3213      51.7106      51.7071
      18.1096       0.0729    -999.2500       3.1169    -999.2500       0.0096
       2.7737    -999.2500       1.8347       4.7575
   2785.2754
       8.5798      21.4174       0.0360    -999.2500      55.6432    -999.2500
      56.1125      62.4913      38.8818      37.1365      45.8114      44.9621
      18.9211       0.0672    -999.2500       3.1605    -999.2500       0.0082
       2.7623    -999.2500       2.0320       4.4523
   2785.4280
       8.5781      21.1950       0.0291    -999.2500      54.9701    -999.2500
      55.6949      63.5779      39.6401      38.0940      50.0407      48.8454
      26.4386       0.0538    -999.2500       3.1688    -999.2500       0.0077
       2.7658    -999.2500       2.2555       4.3512
   2785.5803
       8.6044      20.5884       0.0258    -999.2500      52.5124    -999.2500
      56.6167      67.9941      39.4937      38.7547      65.1767      62.2853
      26.6797       0.0440    -999.2500       2.9968    -999.2500       0.0076
       2.7756    -999.2500       2.1164       4.4453
   2785.7327
       8.7060      21.1921       0.0137    -999.2500      52.5112    -999.2500
      56.3469      70.9861      39.2382      38.8276      71.7497      68.4797
      21.5263       0.0365    -999.2500       3.1222    -999.2500       0.0076
       2.7644    -999.2500       2.3350       4.3357
   2785.8850
       8.6459      20.6373       0.0126    -999.2500      49.9854    -999.2500
      55.4179      67.2943      37.4859      37.2885     107.1112     101.2550
      25.6598       0.0397    -999.2500       3.2052    -999.2500       0.0071
       2.7552    -999.2500       2.4221       4.2306
   2786.0376
       8.6135      19.5165       0.0162    -999.2500      50.6765    -999.2500
      52.7309      63.4243      36.9221      36.7626     131.9436     125.5538
      26.7594       0.0413    -999.2500       3.4100    -999.2500       0.0066
       2.7446    -999.2500       2.3901       3.9887
   2786.1899
       8.6144      19.4821       0.0212    -999.2500      50.5650    -999.2500
      52.2557      63.3295      37.4828      37.9524      50.9173      50.3935
      28.4040       0.0471    -999.2500       3.1445    -999.2500       0.0063
       2.7110    -999.2500       2.5778       3.9591
   2786.3423
       8.6541      19.1651       0.0150    -999.2500      53.4217    -999.2500
      50.7288      63.9587      35.7482      35.9371      45.1795      44.8541
      25.7883       0.0584    -999.2500       3.0314    -999.2500       0.0059
       2.6492    -999.2500       2.6902       3.7594
   2786.4946
       8.6587      20.2030       0.0180    -999.2500      54.0277    -999.2500
      50.3687      62.6951      35.5411      35.6164      63.8452      63.6989
       2.9900       0.0750    -999.2500       2.8994    -999.2500       0.0064
       2.6299    -999.2500       2.7237       3.5827
   2786.6472
       8.6480      18.4981       0.0393    -999.2500      54.8040    -999.2500
      48.5448      60.0223      36.2492      36.2758      45.9857      45.5743
       7.7328       0.0797    -999.2500       3.0475    -999.2500       0.0061
       2.6588    -999.2500       2.3454       3.5093
