#------------------------------------------------------------------------------
#
#   Created by  : [OpenWorks] Log Export Utility (LEXP)
#   Created on  : 2016-05-11 12:25:30
#   Project     : CANT971
#   User        : R5K
#   Interpreter : PEP
#
#------------------------------------------------------------------------------
~VERSION INFORMATION
VERS. 2.0 : CWLS Log ASCII Standard - version 2.0
WRAP. YES : Mulitple lines per depth step
~WELL INFORMATION
#MNEMONIC   .UNIT                                           VALUE :DESCRIPTION
#------------------------------------------------------------------------------
STRT        .M                                          2157.2351 :START DEPTH
STOP        .M                                          3233.6362 :STOP DEPTH
STEP        .M                                             0.1524 :STEP
NULL        .                                           -999.2500 :NULL VALUE
COMP        .                                             UNKNOWN :COMPANY
WELL        .                                              3083-V :WELL
FLD         .                                             UNKNOWN :FIELD
LOC         .                                             UNKNOWN :LOCATION
CNTY        .                                             UNKNOWN :COUNTY
STAT        .                                             UNKNOWN :STATE
CTRY        .                                             UNKNOWN :COUNTRY
SRVC        .                                             UNKNOWN :SERVICE COMPANY
DATE        .                                             UNKNOWN :LOG DATE
UWI         .                                              3083-V :UNIQUE WELL ID
XCOORD      .                                            0.000000 :SURFACE X
YCOORD      .                                            0.000000 :SURFACE Y
LAT         .                                            0.000000 :LATITUDE
LON         .                                            0.000000 :LONGITUDE
ELEV        .M                                             0.0000 :SURFACE ELEV
ELEV_TYPE   .                                                  KB :ELEV TYPE
~CURVE INFORMATION
#MNEMONIC.UNIT        API CODE       : CURVE DESCRIPTION
#------------------------------------------------------------------------------
DEPTH    .M                          : Measured Depth
CALI     .inches      UNKNOWN        : CALI:LDL-CNL:rC:NONE:v0 (auto-composite)
CGR      .API         UNKNOWN        : CGR:Espectrometria:rC:NONE:v0 (auto-composite)
DRHO     .g/cm3       UNKNOWN        : DRHO:LDL-CNL:rC:NONE:v0 (auto-composite)
DRHO-LWD .g/cm3       UNKNOWN        : DRHO-LWD:registros-LWD:rC:NONE:v0 (auto-composite)
DT       .us/ft       UNKNOWN        : DT:Sonico:rC:NONE:v0 (auto-composite)
DT-LWD   .UNKNOWN     UNKNOWN        : DT-LWD:registros-LWD:rC:NONE:v0 (auto-composite)
GR       .API         UNKNOWN        : GR:Espectrometria:rC:NONE:v0 (auto-composite)
GR-LWD   .API         UNKNOWN        : GR-LWD:PETROWORKS:rC:NONE:v1 
ILD-LWD  .ohm.m       UNKNOWN        : ILD-LWD:PETROWORKS:rC:NONE:v1 
ILM-LWD  .ohm.m       UNKNOWN        : ILM-LWD:PETROWORKS:rC:NONE:v1 
LLD      .ohm.m       UNKNOWN        : LLD:resistivos:rC:NONE:v0 (auto-composite)
LLS      .ohm.m       UNKNOWN        : LLS:resistivos:rC:NONE:v0 (auto-composite)
MSFL     .ohm.m       UNKNOWN        : MSFL:resistivos:rC:NONE:v0 (auto-composite)
NPHI     .v/v_decimal UNKNOWN        : NPHI:LDL-CNL:rC:NONE:v0 (auto-composite)
NPHI-LWD .v/v_decimal UNKNOWN        : NPHI-LWD:registros-LWD:rC:NONE:v0 (auto-composite)
PEF      .UNKNOWN     UNKNOWN        : PEF:LDL-CNL:rC:NONE:v0 (auto-composite)
PEF-LWD  .UNKNOWN     UNKNOWN        : PEF-LWD:registros-LWD:rC:NONE:v0 (auto-composite)
POTA     .UNKNOWN     UNKNOWN        : POTA:Espectrometria:rC:NONE:v0 (auto-composite)
RHOB     .g/cm3       UNKNOWN        : RHOB:LDL-CNL:rC:NONE:v0 (auto-composite)
RHOB-LWD .g/cm3       UNKNOWN        : RHOB-LWD:registros-LWD:rC:NONE:v0 (auto-composite)
THOR     .ppm         UNKNOWN        : THOR:Espectrometria:rC:NONE:v0 (auto-composite)
URAN     .ppm         UNKNOWN        : URAN:Espectrometria:rC:NONE:v0 (auto-composite)
~A
# ...
   2449.3860
       8.7781       3.5474       0.0025    -999.2500      68.2498    -999.2500
      34.3484      41.9793      62.9214      57.2255      72.3220      43.7870
      15.7435       0.0567    -999.2500       2.8598    -999.2500       0.0016
       2.7157    -999.2500       0.2190       3.7606
   2449.5383
       8.8736       3.4853       0.0049    -999.2500      67.2891    -999.2500
      35.8554      41.6291      63.7660      57.5547      74.3465      44.4432
      18.4091       0.0539    -999.2500       2.8939    -999.2500       0.0016
       2.7409    -999.2500       0.2133       3.9929
   2449.6907
       8.9704       3.2290       0.0057    -999.2500      64.2610    -999.2500
      37.3876      40.7997      69.6781      62.3634      71.6746      42.7334
      17.9549       0.0545    -999.2500       3.0397    -999.2500       0.0014
       2.7372    -999.2500       0.2228       4.2313
   2449.8430
       8.9252       2.8861       0.0041    -999.2500      66.5669    -999.2500
      36.6692      40.1403      77.9767      70.4426      64.9322      38.3879
      13.5995       0.0614    -999.2500       3.2226    -999.2500       0.0012
       2.6842    -999.2500       0.2088       4.2112
   2449.9956
       8.9636       2.4561       0.0044    -999.2500      66.4184    -999.2500
      35.7402      39.2504      82.1330      73.2921      47.2509      27.7525
      10.8735       0.0681    -999.2500       2.9833    -999.2500       0.0010
       2.6588    -999.2500       0.2063       4.1871
   2450.1479
       8.9159       2.4811       0.0081    -999.2500      68.0401    -999.2500
      34.4861      38.2230      86.1489      76.9747     112.0143      65.8208
      17.1539       0.0760    -999.2500       2.9547    -999.2500       0.0010
       2.6722    -999.2500       0.1930       4.0274
   2450.3003
       8.7221       3.0315       0.0151    -999.2500      63.0988    -999.2500
      33.6160      36.8580      86.3499      77.8979     117.7511      69.2378
      20.5526       0.0737    -999.2500       2.9884    -999.2500       0.0012
       2.6990    -999.2500       0.2885       3.8574
   2450.4526
       8.6936       3.0033       0.0269    -999.2500      61.0864    -999.2500
      32.0733      36.5920      84.1151      76.7279     137.8134      80.1314
      21.5973       0.0668    -999.2500       3.0449    -999.2500       0.0010
       2.7149    -999.2500       0.3574       3.7037
   2450.6052
       8.7761       3.0429       0.0136    -999.2500      63.8253    -999.2500
      30.7467      41.5058      83.7459      77.0660     185.7093     106.8699
      21.1410       0.0546    -999.2500       3.0731    -999.2500       0.0011
       2.6977    -999.2500       0.3303       3.5105
   2450.7576
       8.6888       3.5758       0.0083    -999.2500      62.6111    -999.2500
      31.1283      50.4417      81.9124      75.6705     234.7209     134.2243
      19.9914       0.0498    -999.2500       3.0828    -999.2500       0.0015
       2.6953    -999.2500       0.2955       3.4826
   2450.9099
       8.6581       3.6031       0.0027    -999.2500      68.2783    -999.2500
      35.9135      56.4532      81.4411      75.4069     249.3585     142.1833
      25.5342       0.0465    -999.2500       3.0380    -999.2500       0.0014
       2.6825    -999.2500       0.3171       4.1080
   2451.0623
       8.6498       4.5051       0.0005    -999.2500      67.3562    -999.2500
      45.4781      67.2838      80.4439      74.9793     235.4572     133.4818
      12.1122       0.0485    -999.2500       3.1384    -999.2500       0.0018
       2.6718    -999.2500       0.3457       5.2163
   2451.2146
       8.6248       5.5655      -0.0040    -999.2500      71.3241    -999.2500
      55.0437      73.0949      77.6210      71.8812     100.0767      54.0881
      10.3181       0.0531    -999.2500       3.1842    -999.2500       0.0022
       2.6359    -999.2500       0.4456       6.2588
   2451.3672
       8.6082       6.6807      -0.0019    -999.2500      69.0341    -999.2500
      61.4561      68.8664      75.8680      67.7716     108.8239      57.9552
      11.1799       0.0763    -999.2500       3.1537    -999.2500       0.0027
       2.6148    -999.2500       0.5283       6.9117
   2451.5195
       8.6097       7.2689       0.0053    -999.2500      63.2144    -999.2500
      59.7161      59.5943      78.0413      68.1974     111.6247      59.5705
      12.4533       0.0919    -999.2500       2.8810    -999.2500       0.0029
       2.6008    -999.2500       0.6081       6.5607
   2451.6719
       8.6120       6.9150       0.0241    -999.2500      62.1082    -999.2500
      55.9109      55.8382      78.2376      68.0680     114.9756      62.4104
      12.0898       0.1076    -999.2500       2.6331    -999.2500       0.0028
       2.6173    -999.2500       0.5877       6.1041
   2451.8242
       8.5956       5.9619       0.0320    -999.2500      63.1479    -999.2500
      50.6200      58.0539      75.8937      65.3369     128.8097      74.1067
      13.6807       0.0961    -999.2500       2.6281    -999.2500       0.0024
       2.6605    -999.2500       0.5423       5.5400
   2451.9768
       8.5790       5.0651       0.0291    -999.2500      62.8817    -999.2500
      50.7211      62.5609      76.0742      65.4997     141.3768      83.9997
      12.3895       0.0866    -999.2500       2.6123    -999.2500       0.0021
       2.6797    -999.2500       0.3711       5.6817
   2452.1292
       8.5857       4.8310       0.0378    -999.2500      65.1131    -999.2500
      55.3803      70.5353      75.6168      65.9342     140.3703      85.4151
      17.1372       0.0758    -999.2500       2.7313    -999.2500       0.0022
       2.7121    -999.2500       0.2687       6.3469
   2452.2815
       8.7066       5.0002       0.0216    -999.2500      71.6816    -999.2500
      60.7765      78.4365      73.0646      64.0835     116.0012      76.8603
      15.4146       0.0711    -999.2500       2.7931    -999.2500       0.0023
       2.6747    -999.2500       0.2635       7.0334
   2452.4338
       8.6855       4.7563       0.0053    -999.2500      76.1706    -999.2500
      62.4388      80.3309      69.3922      60.8358     111.3402      78.2568
      15.9896       0.0717    -999.2500       2.9469    -999.2500       0.0021
       2.6445    -999.2500       0.3017       7.2749
   2452.5864
       8.6877       5.6502       0.0053    -999.2500      76.2647    -999.2500
      69.1241      82.6299      67.1068      59.0745     110.5402      77.8499
      22.5244       0.0726    -999.2500       2.9799    -999.2500       0.0026
       2.6386    -999.2500       0.3328       7.9687
   2452.7388
       8.6960       7.0159       0.0081    -999.2500      77.7240    -999.2500
      86.1053      95.8162      70.6962      61.0589     114.0156      79.8625
      32.1580       0.0727    -999.2500       2.9612    -999.2500       0.0031
       2.6413    -999.2500       0.4193       9.9671
   2452.8911
       8.7331       6.8696       0.0105    -999.2500      76.7487    -999.2500
      93.6307     105.5947      82.4689      69.3094     117.5990      80.4414
      26.2139       0.0750    -999.2500       2.9506    -999.2500       0.0031
       2.6440    -999.2500       0.4019      11.0287
   2453.0435
       8.6600       5.6831       0.0162    -999.2500      73.3138    -999.2500
      83.6446      91.4443     105.9408      87.7048      93.8212      63.3044
      12.9099       0.0731    -999.2500       2.9131    -999.2500       0.0025
       2.6414    -999.2500       0.3451       9.8932
   2453.1958
       8.6388       3.5746       0.0183    -999.2500      70.1239    -999.2500
      61.1157      65.1264     125.2351     104.7597      88.3575      59.4868
      20.5245       0.0846    -999.2500       3.0946    -999.2500       0.0018
       2.6440    -999.2500       0.1403       7.3404
   2453.3484
       8.6065       2.6397       0.0194    -999.2500      59.0563    -999.2500
      46.3090      48.4422     128.4870     111.5488     131.5395      85.5736
      31.9463       0.0787    -999.2500       3.2775    -999.2500       0.0013
       2.6704    -999.2500       0.0737       5.5758
