#------------------------------------------------------------------------------
#
#   Created by  : [OpenWorks] Log Export Utility (LEXP)
#   Created on  : 2016-05-11 12:25:29
#   Project     : CANT971
#   User        : R5K
#   Interpreter : PEP
#
#------------------------------------------------------------------------------
~VERSION INFORMATION
VERS. 2.0 : CWLS Log ASCII Standard - version 2.0
WRAP.  NO : One line per depth step
~WELL INFORMATION
#MNEMONIC   .UNIT                                           VALUE :DESCRIPTION
#------------------------------------------------------------------------------
STRT        .M                                           770.8625 :START DEPTH
STOP        .M                                          2968.3181 :STOP DEPTH
STEP        .M                                             0.1524 :STEP
NULL        .                                           -999.2500 :NULL VALUE
COMP        .                                   PEMEX EXPL & PROD :COMPANY
WELL        .                                                3083 :WELL
FLD         .                                           CANTARELL :FIELD
LOC         .                                             UNKNOWN :LOCATION
CNTY        .                                             UNKNOWN :COUNTY
STAT        .                                            CAMPECHE :STATE
CTRY        .                                              MEXICO :COUNTRY
SRVC        .                                             UNKNOWN :SERVICE COMPANY
DATE        .                                             UNKNOWN :LOG DATE
UWI         .                                                3083 :UNIQUE WELL ID
XCOORD      .                                       597325.730000 :SURFACE X
YCOORD      .                                      2152070.080000 :SURFACE Y
LAT         .                                           19.461893 :LATITUDE
LON         .                                          -92.072746 :LONGITUDE
ELEV        .M                                            30.0000 :SURFACE ELEV
ELEV_TYPE   .                                                  KB :ELEV TYPE
~CURVE INFORMATION
#MNEMONIC.UNIT        API CODE       : CURVE DESCRIPTION
#------------------------------------------------------------------------------
DEPTH    .M                          : Measured Depth
CALI     .inches      UNKNOWN        : CALI:Import:rC:NONE:v0 (auto-composite)
CGR      .API         UNKNOWN        : CGR:Import:rC:NONE:v0 (auto-composite)
DRHO     .g/cm3       UNKNOWN        : DRHO:Import:rC:NONE:v0 (auto-composite)
DT       .us/ft       UNKNOWN        : DT:Import:rC:NONE:v0 (auto-composite)
GR       .API         UNKNOWN        : GR:Import:rC:NONE:v0 (auto-composite)
GR-LWD   .API         UNKNOWN        : GR-LWD:Import:rC:NONE:v0 (auto-composite)
LLD      .ohm.m       UNKNOWN        : LLD:Import:rC:NONE:v0 (auto-composite)
LLD-LWD  .ohm.m       UNKNOWN        : LLD-LWD:Import:rC:NONE:v0 (auto-composite)
LLS      .ohm.m       UNKNOWN        : LLS:Import:rC:NONE:v0 (auto-composite)
LLS-LWD  .ohm.m       UNKNOWN        : LLS-LWD:Import:rC:NONE:v0 (auto-composite)
MSFL     .ohm.m       UNKNOWN        : MSFL:Import:rC:NONE:v0 (auto-composite)
MSFL-LWD .ohm.m       UNKNOWN        : MSFL-LWD:Import:rC:NONE:v0 (auto-composite)
NPHI     .v/v_decimal UNKNOWN        : NPHI:Import:rC:NONE:v0 (auto-composite)
PEF      .b/elec      UNKNOWN        : PEF:Import:rC:NONE:v0 (auto-composite)
POTA     .wtpercent   UNKNOWN        : POTA:Import:rC:NONE:v0 (auto-composite)
RHOB     .g/cm3       UNKNOWN        : RHOB:Import:rC:NONE:v0 (auto-composite)
THOR     .ppm         UNKNOWN        : THOR:Import:rC:NONE:v0 (auto-composite)
URAN     .ppm         UNKNOWN        : URAN:Import:rC:NONE:v0 (auto-composite)
~A     DEPTH         CALI          CGR         DRHO           DT           GR       GR-LWD          LLD      LLD-LWD          LLS      LLS-LWD         MSFL     MSFL-LWD         NPHI          PEF         POTA         RHOB         THOR         URAN
# ...
   2194.1260      16.2790      24.8807       0.0610    -999.2500      77.3970      77.3974       4.3570       4.3570       4.0750       3.9137       3.1270       3.0837       0.1524       3.2080       0.0108       2.4270       1.6638       2.1706
   2194.2786      16.3240      26.1177       0.0770    -999.2500      77.0460      77.0464       4.1880       4.1877       3.9140       3.7844       3.0840       3.0367       0.1226       3.3380       0.0110       2.5850       1.8063       2.2372
   2194.4309      16.8960      24.0176       0.0600    -999.2500      77.1390      77.1388       3.8170       3.8171       3.7840       3.5134       3.0370       2.8942       0.1099       3.4410       0.0114       2.6080       1.9677       2.3490
   2194.5833      16.9420      23.5629       0.0450    -999.2500      77.0220      77.0225       3.4640       3.4642       3.5130       3.2656       2.8940       2.7085       0.1132       3.4450       0.0106       2.5660       1.7680       2.2465
   2194.7356      18.4860      24.3610       0.0640    -999.2500      76.2210      76.2207       3.0690       3.0695       3.2660       3.0027       2.7080       2.4628       0.1163       3.4090       0.0104       2.5450       1.7111       2.2522
   2194.8882      16.7590      23.1073       0.0830    -999.2500      73.7880      73.7880       2.6060       2.6061       3.0030       2.5827       2.4630       2.0961       0.1282       3.3950       0.0106       2.4800       1.8375       2.3089
   2195.0405      16.9420      19.2615       0.0940    -999.2500      70.9790      70.9794       2.2940       2.2937       2.5830       2.2405       2.0960       1.7709       0.1646       3.3780       0.0101       2.4190       1.7317       2.2014
   2195.1929      17.1250      15.3330       0.1000    -999.2500      69.9620      69.9615       2.2110       2.2114       2.2400       2.1440       1.7710       1.6127       0.2102       3.3710       0.0077       2.3830       1.7646       2.0494
   2195.3452      16.9420      14.1230       0.1060    -999.2500      68.9110      68.9110       2.1220       2.1218       2.1440       2.0204       1.6130       1.4631       0.2426       3.3990       0.0051       2.3950       1.8125       1.9630
   2195.4978      17.9260      13.6528       0.1360    -999.2500      66.1610      66.1611       2.0160       2.0161       2.0200       1.8102       1.4630       1.3093       0.2819       3.4360       0.0045       2.4310       1.7551       1.9348
   2195.6501      17.9490      12.7618       0.1670    -999.2500      64.2400      64.2396       2.1170       2.1167       1.8100       1.8429       1.3090       1.2951       0.3275       3.4100       0.0044       2.4110       1.6804       1.8731
   2195.8025      18.2690      14.1326       0.1940    -999.2500      64.5010      64.5010       2.3860       2.3859       1.8430       2.1037       1.2950       1.3983       0.3745       3.2690       0.0040       2.3470       1.6462       1.7958
   2195.9548      19.4360      15.1236       0.2200    -999.2500      65.8440      65.8438       2.6790       2.6791       2.1040       2.4038       1.3980       1.5839       0.3547       3.0750       0.0044       2.3170       1.8321       1.9037
   2196.1072      19.4360      17.4695       0.2340    -999.2500      68.0900      68.0895       2.8220       2.8223       2.4040       2.5484       1.5840       1.7727       0.3127       2.9760       0.0049       2.3840       1.8859       2.0247
   2196.2598      19.4360      21.9577       0.2240    -999.2500      71.7630      71.7629       2.8550       2.8545       2.5480       2.5855       1.7730       1.9035       0.2581       3.0380       0.0063       2.5070       1.8843       2.1381
   2196.4121      18.8870      21.0957       0.1580    -999.2500      72.7850      72.7848       2.8890       2.8891       2.5860       2.5384       1.9030       1.9347       0.2268       3.1940       0.0093       2.5440       1.7718       2.4247
   2196.5645      19.3900      20.4575       0.0910    -999.2500      69.8920      69.8918       3.2420       3.2422       2.5380       2.7195       1.9350       1.9859       0.2204       3.3180       0.0091       2.5140       1.6365       2.3254
   2196.7168      18.3830      18.7660       0.0550    -999.2500      66.6620      66.6617       4.0370       4.0368       2.7200       3.4367       1.9860       2.2733       0.2094       3.3740       0.0088       2.4730       1.6053       2.2795
   2196.8694      18.5660      19.1769       0.0670    -999.2500      64.1460      64.1458       4.8880       4.8884       3.4370       4.4596       2.2730       2.7416       0.1816       3.4250       0.0081       2.4970       1.4297       2.2040
   2197.0217      18.5210      18.8052       0.0930    -999.2500      63.1960      63.1961       5.4060       5.4060       4.4600       5.1502       2.7420       3.1645       0.1479       3.5090       0.0081       2.5500       1.5254       2.2559
   2197.1741      18.2120      19.0167       0.1100    -999.2500      62.2470      62.2468       5.5940       5.5938       5.1500       5.2501       3.1640       3.4758       0.1259       3.5850       0.0083       2.6020       1.3553       2.1972
   2197.3264      17.7540      19.8427       0.1170    -999.2500      60.9000      60.9003       5.7240       5.7240       5.2500       5.2885       3.4760       3.7119       0.1183       3.6320       0.0085       2.6210       1.3589       2.1865
   2197.4790      16.8960      18.8533       0.1110    -999.2500      60.5070      60.5067       5.7740       5.7744       5.2880       5.3642       3.7120       3.8952       0.1154       3.6250       0.0091       2.6180       1.3357       2.2043
   2197.6313      16.9420      20.7564       0.1090    -999.2500      59.3670      59.3667       5.8040       5.8041       5.3640       5.3517       3.8950       4.0221       0.0994       3.5650       0.0089       2.6170       1.1270       2.0852
   2197.7837      16.8730      21.1889       0.1040    -999.2500      59.4890      59.4891       5.9090       5.9093       5.3520       5.4801       4.0220       4.0784       0.0874       3.4640       0.0099       2.6160       1.2084       2.1387
   2197.9360      16.8730      21.3536       0.1000    -999.2500      61.5860      61.5863       5.7650       5.7654       5.4800       5.7182       4.0780       4.1500       0.0697       3.3640       0.0103       2.6100       1.1570       2.1128
   2198.0884      16.7360      19.1858       0.1050    -999.2500      61.4860      61.4856       5.0430       5.0432       5.7180       5.1236       4.1500       3.8043       0.0721       3.3010       0.0103       2.5760       1.2107       2.0796
   2198.2410      16.3930      20.4381       0.1100    -999.2500      61.2830      61.2831       4.0210       4.0207       5.1240       3.9867       3.8040       3.0934       0.1172       3.2630       0.0095       2.4610       0.9569       1.8408
   2198.3933      16.6900      20.4908       0.1290    -999.2500      64.0160      64.0158       3.2050       3.2054       3.9870       2.9897       3.0930       2.3901       0.1807       3.1820       0.0100       2.3270       1.0783       1.8765
   2198.5457      17.0450      19.1130       0.1640    -999.2500      67.8060      67.8057       2.8470       2.8467       2.9900       2.5261       2.3900       1.9373       0.2569       3.0820       0.0099       2.2480       1.1150       1.8721
   2198.6980      18.5430      15.8303       0.2200    -999.2500      70.5710      70.5711       2.5500       2.5500       2.5260       2.2175       1.9370       1.6175       0.2981       3.0130       0.0093       2.2710       1.0538       1.8272
   2198.8506      18.7040      15.1164       0.2800    -999.2500      71.4200      71.4197       2.1780       2.1784       2.2170       1.8585       1.6170       1.3540       0.3167       2.9680       0.0079       2.3370       0.7688       1.8231
   2199.0029      18.7720      11.2188       0.3150    -999.2500      70.4230      70.4228       1.8460       1.8464       1.8590       1.5593       1.3540       1.1711       0.3369       2.8970       0.0075       2.3710       0.7865       1.9089
