#------------------------------------------------------------------------------
#
#   Created by  : [OpenWorks] Log Export Utility (LEXP)
#   Created on  : 2016-05-11 12:25:30
#   Project     : CANT971
#   User        : R5K
#   Interpreter : PEP
#
#------------------------------------------------------------------------------
~VERSION INFORMATION
VERS. 2.0 : CWLS Log ASCII Standard - version 2.0
WRAP. YES : Mulitple lines per depth step
~WELL INFORMATION
#MNEMONIC   .UNIT                                           VALUE :DESCRIPTION
#------------------------------------------------------------------------------
STRT        .M                                          2157.2351 :START DEPTH
STOP        .M                                          3233.6362 :STOP DEPTH
STEP        .M                                             0.1524 :STEP
NULL        .                                           -999.2500 :NULL VALUE
COMP        .                                             UNKNOWN :COMPANY
WELL        .                                              3083-V :WELL
FLD         .                                             UNKNOWN :FIELD
LOC         .                                             UNKNOWN :LOCATION
CNTY        .                                             UNKNOWN :COUNTY
STAT        .                                             UNKNOWN :STATE
CTRY        .                                             UNKNOWN :COUNTRY
SRVC        .                                             UNKNOWN :SERVICE COMPANY
DATE        .                                             UNKNOWN :LOG DATE
UWI         .                                              3083-V :UNIQUE WELL ID
XCOORD      .                                            0.000000 :SURFACE X
YCOORD      .                                            0.000000 :SURFACE Y
LAT         .                                            0.000000 :LATITUDE
LON         .                                            0.000000 :LONGITUDE
ELEV        .M                                             0.0000 :SURFACE ELEV
ELEV_TYPE   .                                                  KB :ELEV TYPE
~CURVE INFORMATION
#MNEMONIC.UNIT        API CODE       : CURVE DESCRIPTION
#------------------------------------------------------------------------------
DEPTH    .M                          : Measured Depth
CALI     .inches      UNKNOWN        : CALI:LDL-CNL:rC:NONE:v0 (auto-composite)
CGR      .API         UNKNOWN        : CGR:Espectrometria:rC:NONE:v0 (auto-composite)
DRHO     .g/cm3       UNKNOWN        : DRHO:LDL-CNL:rC:NONE:v0 (auto-composite)
DRHO-LWD .g/cm3       UNKNOWN        : DRHO-LWD:registros-LWD:rC:NONE:v0 (auto-composite)
DT       .us/ft       UNKNOWN        : DT:Sonico:rC:NONE:v0 (auto-composite)
DT-LWD   .UNKNOWN     UNKNOWN        : DT-LWD:registros-LWD:rC:NONE:v0 (auto-composite)
GR       .API         UNKNOWN        : GR:Espectrometria:rC:NONE:v0 (auto-composite)
GR-LWD   .API         UNKNOWN        : GR-LWD:PETROWORKS:rC:NONE:v1 
ILD-LWD  .ohm.m       UNKNOWN        : ILD-LWD:PETROWORKS:rC:NONE:v1 
ILM-LWD  .ohm.m       UNKNOWN        : ILM-LWD:PETROWORKS:rC:NONE:v1 
LLD      .ohm.m       UNKNOWN        : LLD:resistivos:rC:NONE:v0 (auto-composite)
LLS      .ohm.m       UNKNOWN        : LLS:resistivos:rC:NONE:v0 (auto-composite)
MSFL     .ohm.m       UNKNOWN        : MSFL:resistivos:rC:NONE:v0 (auto-composite)
NPHI     .v/v_decimal UNKNOWN        : NPHI:LDL-CNL:rC:NONE:v0 (auto-composite)
NPHI-LWD .v/v_decimal UNKNOWN        : NPHI-LWD:registros-LWD:rC:NONE:v0 (auto-composite)
PEF      .UNKNOWN     UNKNOWN        : PEF:LDL-CNL:rC:NONE:v0 (auto-composite)
PEF-LWD  .UNKNOWN     UNKNOWN        : PEF-LWD:registros-LWD:rC:NONE:v0 (auto-composite)
POTA     .UNKNOWN     UNKNOWN        : POTA:Espectrometria:rC:NONE:v0 (auto-composite)
RHOB     .g/cm3       UNKNOWN        : RHOB:LDL-CNL:rC:NONE:v0 (auto-composite)
RHOB-LWD .g/cm3       UNKNOWN        : RHOB-LWD:registros-LWD:rC:NONE:v0 (auto-composite)
THOR     .ppm         UNKNOWN        : THOR:Espectrometria:rC:NONE:v0 (auto-composite)
URAN     .ppm         UNKNOWN        : URAN:Espectrometria:rC:NONE:v0 (auto-composite)
~A
# ...
   2198.3831
       8.3171      12.8479      -1.0194    -999.2500      56.2488    -999.2500
      29.7523    -999.2500    -999.2500    -999.2500    -999.2500    -999.2500
    -999.2500       0.4970    -999.2500      20.0294    -999.2500       0.0048
       1.9972    -999.2500       1.3214       2.1963
   2198.5354
       8.3136      12.1380      -1.0188    -999.2500      56.2546    -999.2500
      27.8977    -999.2500    -999.2500    -999.2500    -999.2500    -999.2500
    -999.2500       0.5286    -999.2500      27.3938    -999.2500       0.0047
       2.0275    -999.2500       1.1430       2.0790
   2198.6880
       8.3148      10.9763      -1.0208    -999.2500      56.3800    -999.2500
      27.4293    -999.2500    -999.2500    -999.2500    -999.2500    -999.2500
    -999.2500       0.5109    -999.2500      21.9013    -999.2500       0.0042
       2.0517    -999.2500       1.0385       2.1855
   2198.8403
       8.3036      10.8725      -1.0011    -999.2500      56.4539    -999.2500
      27.5807    -999.2500    -999.2500    -999.2500    -999.2500    -999.2500
    -999.2500       0.5039    -999.2500      21.2172    -999.2500       0.0043
       2.0640    -999.2500       0.9868       2.1939
   2198.9927
       8.3130      10.9725      -0.9990    -999.2500      56.1969    -999.2500
      27.4600    -999.2500    -999.2500    -999.2500    -999.2500    -999.2500
    -999.2500       0.4548    -999.2500      19.3771    -999.2500       0.0043
       2.0756    -999.2500       0.9763       2.1597
   2199.1450
       8.3086      11.3886      -0.9925    -999.2500      56.1719    -999.2500
      27.5893    -999.2500    -999.2500    -999.2500    -999.2500    -999.2500
    -999.2500       0.4388    -999.2500      21.8633    -999.2500       0.0046
       2.0763    -999.2500       0.9516       2.1243
   2199.2976
       8.3117      11.5373      -0.9813    -999.2500      56.1971    -999.2500
      28.4255    -999.2500    -999.2500    -999.2500    -999.2500    -999.2500
    -999.2500       0.4203    -999.2500      26.3659    -999.2500       0.0046
       2.0886    -999.2500       1.0125       2.2418
   2199.4500
       8.3089      11.8535      -0.9718    -999.2500      56.4431    -999.2500
      29.3960    -999.2500    -999.2500    -999.2500    -999.2500    -999.2500
    -999.2500       0.4313    -999.2500      35.4562    -999.2500       0.0046
       2.0886    -999.2500       1.0824       2.3510
   2199.6023
       8.3052      11.7341      -0.9785    -999.2500      56.3375    -999.2500
      29.8591    -999.2500    -999.2500    -999.2500    -999.2500    -999.2500
    -999.2500       0.4133    -999.2500     104.2693    -999.2500       0.0047
       2.0922    -999.2500       0.9948       2.4178
   2199.7546
       8.3108      12.3499      -0.9842    -999.2500      56.4750    -999.2500
      31.3919    -999.2500    -999.2500    -999.2500    -999.2500    -999.2500
    -999.2500       0.3988    -999.2500     129.4601    -999.2500       0.0048
       2.0946    -999.2500       1.1045       2.5157
   2199.9072
       8.3103      12.9356      -0.9787    -999.2500      56.4617    -999.2500
      32.1155    -999.2500    -999.2500    -999.2500    -999.2500    -999.2500
    -999.2500       0.3589    -999.2500      83.6506    -999.2500       0.0052
       2.1339    -999.2500       1.0612       2.4617
   2200.0596
       8.3049      12.9993      -0.9725    -999.2500      56.7529    -999.2500
      33.7255    -999.2500    -999.2500    -999.2500       0.0051       0.0133
       1.9696       0.3461    -999.2500      34.5202    -999.2500       0.0056
       2.1640    -999.2500       0.9128       2.6552
   2200.2119
       8.3078      12.8692      -0.9669    -999.2500      56.7339    -999.2500
      33.7363    -999.2500    -999.2500    -999.2500       0.0051       0.0133
       1.6922       0.3246    -999.2500      63.4367    -999.2500       0.0055
       2.2105    -999.2500       0.8866       2.6965
   2200.3643
       8.3129      12.9661      -0.9756    -999.2500      56.7003    -999.2500
      33.9442    -999.2500    -999.2500    -999.2500       0.0050       0.0132
       1.8490       0.3250    -999.2500      62.7735    -999.2500       0.0058
       2.1936    -999.2500       0.7943       2.7045
   2200.5166
       8.3073      11.9093      -0.9716    -999.2500      56.8763    -999.2500
      33.4407    -999.2500    -999.2500    -999.2500       0.0059       0.0143
       7.6341       0.3064    -999.2500      48.7118    -999.2500       0.0054
       2.2191    -999.2500       0.6572       2.8030
   2200.6692
       8.3146      11.5441      -0.9603    -999.2500      57.0827    -999.2500
      32.2097    -999.2500    -999.2500    -999.2500       0.0086       0.0177
       4.2798       0.2903    -999.2500      17.1377    -999.2500       0.0053
       2.2627    -999.2500       0.6182       2.6747
   2200.8215
       8.3939      11.0276      -0.9479    -999.2500      56.9718    -999.2500
      30.8074    -999.2500    -999.2500    -999.2500       0.0062       0.0148
      12.1955       0.2629    -999.2500      19.9382    -999.2500       0.0049
       2.3019    -999.2500       0.7021       2.5121
   2200.9739
       8.4126      10.5904      -0.9387    -999.2500      57.2231    -999.2500
      29.9028    -999.2500    -999.2500    -999.2500       0.0054       0.0135
       1.8087       0.2544    -999.2500      26.4113    -999.2500       0.0047
       2.3089    -999.2500       0.6793       2.4614
   2201.1262
       8.4234       9.8147      -0.9483    -999.2500      57.5504    -999.2500
      29.4983    -999.2500    -999.2500    -999.2500       0.0047       0.0126
       6.1570       0.2454    -999.2500      33.2650    -999.2500       0.0044
       2.2627    -999.2500       0.5651       2.4951
   2201.2788
       8.4149       9.3007      -0.9430    -999.2500      57.3135    -999.2500
      28.7724    -999.2500    -999.2500    -999.2500       0.0070       0.0159
      23.0413       0.2388    -999.2500      25.8014    -999.2500       0.0041
       2.2671    -999.2500       0.5955       2.4750
   2201.4312
       8.4201       8.7607      -0.9261    -999.2500      57.2238    -999.2500
      27.4828    -999.2500    -999.2500    -999.2500       0.0061       0.0145
     205.0123       0.2333    -999.2500      20.1084    -999.2500       0.0039
       2.2946    -999.2500       0.4888       2.4038
   2201.5835
       8.4052       7.5903      -0.9208    -999.2500      56.9730    -999.2500
      25.4695    -999.2500    -999.2500    -999.2500       0.0055       0.0139
    1832.3960       0.2235    -999.2500      16.5974    -999.2500       0.0032
       2.3101    -999.2500       0.5524       2.3424
   2201.7358
       8.4159       6.8926      -0.9270    -999.2500      56.8822    -999.2500
      25.1679    -999.2500    -999.2500    -999.2500       0.0062       0.0147
      57.8904       0.2190    -999.2500      17.6907    -999.2500       0.0028
       2.3013    -999.2500       0.5591       2.4223
   2201.8884
       8.4094       6.5621      -0.9232    -999.2500      57.0195    -999.2500
      25.4590    -999.2500    -999.2500    -999.2500       0.0063       0.0148
      15.3918       0.2229    -999.2500      20.3573    -999.2500       0.0026
       2.3111    -999.2500       0.5831       2.4599
   2202.0408
       8.4117       6.1686      -0.9235    -999.2500      56.9759    -999.2500
      25.7195    -999.2500    -999.2500    -999.2500       0.0061       0.0148
       9.0946       0.2206    -999.2500      27.0372    -999.2500       0.0024
       2.3145    -999.2500       0.5898       2.5365
   2202.1931
       8.4120       6.2396      -0.9434    -999.2500      56.7805    -999.2500
      25.2432    -999.2500    -999.2500    -999.2500       0.0068       0.0155
       8.5739       0.2253    -999.2500      29.7978    -999.2500       0.0024
       2.2666    -999.2500       0.6207       2.4375
   2202.3455
       8.4149       6.0537      -0.9548    -999.2500      56.7883    -999.2500
      24.3424    -999.2500    -999.2500    -999.2500       0.0135       0.0242
      17.0400       0.2263    -999.2500      23.0481    -999.2500       0.0020
       2.2034    -999.2500       0.7517       2.3580
