#------------------------------------------------------------------------------
#
#   Created by  : [OpenWorks] Log Export Utility (LEXP)
#   Created on  : 2016-05-11 12:25:30
#   Project     : CANT971
#   User        : R5K
#   Interpreter : PEP
#
#------------------------------------------------------------------------------
~VERSION INFORMATION
VERS. 2.0 : CWLS Log ASCII Standard - version 2.0
WRAP. YES : Mulitple lines per depth step
~WELL INFORMATION
#MNEMONIC   .UNIT                                           VALUE :DESCRIPTION
#------------------------------------------------------------------------------
STRT        .M                                          2157.2351 :START DEPTH
STOP        .M                                          3233.6362 :STOP DEPTH
STEP        .M                                             0.1524 :STEP
NULL        .                                           -999.2500 :NULL VALUE
COMP        .                                             UNKNOWN :COMPANY
WELL        .                                              3083-V :WELL
FLD         .                                             UNKNOWN :FIELD
LOC         .                                             UNKNOWN :LOCATION
CNTY        .                                             UNKNOWN :COUNTY
STAT        .                                             UNKNOWN :STATE
CTRY        .                                             UNKNOWN :COUNTRY
SRVC        .                                             UNKNOWN :SERVICE COMPANY
DATE        .                                             UNKNOWN :LOG DATE
UWI         .                                              3083-V :UNIQUE WELL ID
XCOORD      .                                            0.000000 :SURFACE X
YCOORD      .                                            0.000000 :SURFACE Y
LAT         .                                            0.000000 :LATITUDE
LON         .                                            0.000000 :LONGITUDE
ELEV        .M                                             0.0000 :SURFACE ELEV
ELEV_TYPE   .                                                  KB :ELEV TYPE
~CURVE INFORMATION
#MNEMONIC.UNIT        API CODE       : CURVE DESCRIPTION
#------------------------------------------------------------------------------
DEPTH    .M                          : Measured Depth
CALI     .inches      UNKNOWN        : CALI:LDL-CNL:rC:NONE:v0 (auto-composite)
CGR      .API         UNKNOWN        : CGR:Espectrometria:rC:NONE:v0 (auto-composite)
DRHO     .g/cm3       UNKNOWN        : DRHO:LDL-CNL:rC:NONE:v0 (auto-composite)
DRHO-LWD .g/cm3       UNKNOWN        : DRHO-LWD:registros-LWD:rC:NONE:v0 (auto-composite)
DT       .us/ft       UNKNOWN        : DT:Sonico:rC:NONE:v0 (auto-composite)
DT-LWD   .UNKNOWN     UNKNOWN        : DT-LWD:registros-LWD:rC:NONE:v0 (auto-composite)
GR       .API         UNKNOWN        : GR:Espectrometria:rC:NONE:v0 (auto-composite)
GR-LWD   .API         UNKNOWN        : GR-LWD:PETROWORKS:rC:NONE:v1 
ILD-LWD  .ohm.m       UNKNOWN        : ILD-LWD:PETROWORKS:rC:NONE:v1 
ILM-LWD  .ohm.m       UNKNOWN        : ILM-LWD:PETROWORKS:rC:NONE:v1 
LLD      .ohm.m       UNKNOWN        : LLD:resistivos:rC:NONE:v0 (auto-composite)
LLS      .ohm.m       UNKNOWN        : LLS:resistivos:rC:NONE:v0 (auto-composite)
MSFL     .ohm.m       UNKNOWN        : MSFL:resistivos:rC:NONE:v0 (auto-composite)
NPHI     .v/v_decimal UNKNOWN        : NPHI:LDL-CNL:rC:NONE:v0 (auto-composite)
NPHI-LWD .v/v_decimal UNKNOWN        : NPHI-LWD:registros-LWD:rC:NONE:v0 (auto-composite)
PEF      .UNKNOWN     UNKNOWN        : PEF:LDL-CNL:rC:NONE:v0 (auto-composite)
PEF-LWD  .UNKNOWN     UNKNOWN        : PEF-LWD:registros-LWD:rC:NONE:v0 (auto-composite)
POTA     .UNKNOWN     UNKNOWN        : POTA:Espectrometria:rC:NONE:v0 (auto-composite)
RHOB     .g/cm3       UNKNOWN        : RHOB:LDL-CNL:rC:NONE:v0 (auto-composite)
RHOB-LWD .g/cm3       UNKNOWN        : RHOB-LWD:registros-LWD:rC:NONE:v0 (auto-composite)
THOR     .ppm         UNKNOWN        : THOR:Espectrometria:rC:NONE:v0 (auto-composite)
URAN     .ppm         UNKNOWN        : URAN:Espectrometria:rC:NONE:v0 (auto-composite)
~A
# ...
   2367.0898
       9.5549       1.8000       0.0111    -999.2500      55.0084    -999.2500
      16.3977    -999.2500    -999.2500    -999.2500     946.1893     466.1118
      17.2828       0.1092    -999.2500       2.9127    -999.2500       0.0004
       2.6673    -999.2500       0.3207       1.6983
   2367.2422
       9.4991       2.0735       0.0075    -999.2500      63.9686    -999.2500
      16.6566    -999.2500    -999.2500    -999.2500     729.8876     342.0088
      13.4452       0.1050    -999.2500       2.9258    -999.2500       0.0005
       2.6576    -999.2500       0.3445       1.6858
   2367.3948
       9.3543       2.6279       0.0088    -999.2500      67.9969    -999.2500
      17.2852    -999.2500    -999.2500    -999.2500     746.9526     350.5072
      13.2727       0.1054    -999.2500       3.0179    -999.2500       0.0005
       2.6401    -999.2500       0.5389       1.7147
   2367.5471
       9.3750       2.4044       0.0050    -999.2500      68.1161    -999.2500
      18.4447    -999.2500    -999.2500    -999.2500    1488.5714     665.7006
      18.8700       0.0961    -999.2500       3.1033    -999.2500       0.0004
       2.6236    -999.2500       0.5254       1.9079
   2367.6995
       9.3743       2.0489       0.0041    -999.2500      71.0094    -999.2500
      19.1180    -999.2500    -999.2500    -999.2500    1221.4183     568.6106
      16.3015       0.0758    -999.2500       3.0719    -999.2500       0.0003
       2.6364    -999.2500       0.4881       2.0287
   2367.8518
       9.3682       1.9105       0.0043    -999.2500      70.1344    -999.2500
      17.6967    -999.2500    -999.2500    -999.2500    2174.7756    1002.4158
      23.8038       0.0494    -999.2500       2.9602    -999.2500       0.0003
       2.6703    -999.2500       0.4571       1.8766
   2368.0044
       9.2722       1.8135       0.0056    -999.2500      69.9085    -999.2500
      15.4063    -999.2500    -999.2500    -999.2500    2607.2576    1162.8397
      24.5142       0.0316    -999.2500       2.9315    -999.2500       0.0003
       2.7094    -999.2500       0.3913       1.5877
   2368.1567
       9.2684       1.7760       0.0038    -999.2500      69.1593    -999.2500
      14.3896    -999.2500    -999.2500    -999.2500    1852.8729     846.1483
      24.9642       0.0309    -999.2500       2.9808    -999.2500       0.0004
       2.7329    -999.2500       0.3567       1.4519
   2368.3091
       9.2814       1.8424       0.0034    -999.2500      68.5242    -999.2500
      15.1500    -999.2500    -999.2500    -999.2500    1087.6620     518.2823
      22.7475       0.0373    -999.2500       3.0985    -999.2500       0.0004
       2.7261    -999.2500       0.3565       1.5333
   2368.4614
       9.3959       2.5294       0.0031    -999.2500      65.5905    -999.2500
      17.4565    -999.2500    -999.2500    -999.2500     903.4401     436.6589
      20.9484       0.0428    -999.2500       3.1552    -999.2500       0.0006
       2.7003    -999.2500       0.4686       1.6924
   2368.6140
       9.5203       2.4741       0.0048    -999.2500      65.8687    -999.2500
      19.8873    -999.2500    -999.2500    -999.2500     828.6509     400.9228
      21.1219       0.0439    -999.2500       3.2846    -999.2500       0.0007
       2.6798    -999.2500       0.3533       1.9967
   2368.7664
       9.5690       3.1481       0.0043    -999.2500      65.2234    -999.2500
      23.0181    -999.2500    -999.2500    -999.2500     845.0965     418.5346
      17.6253       0.0445    -999.2500       3.2332    -999.2500       0.0011
       2.6666    -999.2500       0.3564       2.3247
   2368.9187
       9.5459       3.0105       0.0038    -999.2500      67.3543    -999.2500
      25.7372    -999.2500    -999.2500    -999.2500     479.2689     252.5351
      11.5812       0.0409    -999.2500       3.1322    -999.2500       0.0011
       2.6686    -999.2500       0.3447       2.7253
   2369.0710
       9.3527       2.3623       0.0095    -999.2500      67.0560    -999.2500
      27.2817    -999.2500    -999.2500    -999.2500     586.7731     316.6165
      22.5153       0.0395    -999.2500       2.9403    -999.2500       0.0011
       2.6815    -999.2500       0.1314       2.9613
   2369.2234
       9.3412       2.5279       0.0192    -999.2500      70.2241    -999.2500
      27.6672    -999.2500    -999.2500    -999.2500     696.1249     383.4935
      15.8199       0.0307    -999.2500       2.9435    -999.2500       0.0011
       2.7080    -999.2500       0.1513       2.9761
   2369.3760
       9.3480       3.3624       0.0341    -999.2500      68.6254    -999.2500
      28.6850    -999.2500    -999.2500    -999.2500     627.3410     362.1518
      29.6121       0.0316    -999.2500       3.0484    -999.2500       0.0013
       2.7290    -999.2500       0.3015       3.0149
   2369.5283
       9.3440       3.5103       0.0358    -999.2500      70.5570    -999.2500
      28.7493    -999.2500    -999.2500    -999.2500     524.6895     301.4943
      20.3831       0.0409    -999.2500       3.1008    -999.2500       0.0015
       2.7161    -999.2500       0.2882       3.0182
   2369.6807
       9.3041       2.7763       0.0338    -999.2500      67.1432    -999.2500
      27.7905    -999.2500    -999.2500    -999.2500     502.4839     283.6126
      20.2555       0.0550    -999.2500       3.0370    -999.2500       0.0010
       2.7110    -999.2500       0.3030       3.0803
   2369.8330
       9.2995       2.3640       0.0247    -999.2500      68.9811    -999.2500
      25.1927    -999.2500    -999.2500    -999.2500     465.7639     222.8936
      21.4134       0.0555    -999.2500       2.8740    -999.2500       0.0008
       2.7036    -999.2500       0.2782       2.8526
   2369.9856
       9.3538       2.1096       0.0138    -999.2500      65.8905    -999.2500
      22.7586    -999.2500    -999.2500    -999.2500     392.7603     147.2070
      21.4656       0.0426    -999.2500       2.8899    -999.2500       0.0005
       2.7115    -999.2500       0.3993       2.6164
   2370.1379
       9.3780       1.4177       0.0098    -999.2500      65.2242    -999.2500
      20.6597    -999.2500    -999.2500    -999.2500     306.5258     106.9831
      20.0693       0.0306    -999.2500       2.8411    -999.2500       0.0003
       2.7282    -999.2500       0.2732       2.4832
   2370.2903
       9.5996       1.3495       0.0158    -999.2500      62.0219    -999.2500
      18.9660    -999.2500    -999.2500    -999.2500     345.6394     117.7987
      29.8337       0.0227    -999.2500       3.0809    -999.2500       0.0003
       2.7711    -999.2500       0.2474       2.3163
   2370.4426
       9.8656       0.9148       0.0315    -999.2500      61.5623    -999.2500
      17.4901    -999.2500    -999.2500    -999.2500     421.0585     142.6721
      24.4566       0.0216    -999.2500       3.0524    -999.2500       0.0001
       2.8043    -999.2500       0.2385       2.1992
   2370.5952
       9.9074       0.8239       0.0304    -999.2500      61.8657    -999.2500
      16.6582    -999.2500    -999.2500    -999.2500     695.0131     231.3736
      25.2989       0.0244    -999.2500       3.0773    -999.2500       0.0000
       2.8030    -999.2500       0.2521       2.0966
   2370.7476
       9.7006       0.8469       0.0164    -999.2500      62.6827    -999.2500
      16.3800    -999.2500    -999.2500    -999.2500     873.3444     275.1236
      34.4041       0.0337    -999.2500       3.0299    -999.2500       0.0001
       2.7538    -999.2500       0.2366       2.0643
   2370.8999
       9.5040       0.8915       0.0136    -999.2500      63.5730    -999.2500
      17.2619    -999.2500    -999.2500    -999.2500    1068.0154     322.7133
      38.9253       0.0392    -999.2500       3.1201    -999.2500       0.0001
       2.7358    -999.2500       0.2106       2.2085
   2371.0522
       9.7520       0.8202       0.0121    -999.2500      63.5189    -999.2500
      19.2879    -999.2500    -999.2500    -999.2500     933.9508     296.4151
      33.3082       0.0357    -999.2500       3.2382    -999.2500       0.0001
       2.7126    -999.2500       0.1997       2.4651
