#------------------------------------------------------------------------------
#
#   Created by  : [OpenWorks] Log Export Utility (LEXP)
#   Created on  : 2016-05-11 12:25:30
#   Project     : CANT971
#   User        : R5K
#   Interpreter : PEP
#
#------------------------------------------------------------------------------
~VERSION INFORMATION
VERS. 2.0 : CWLS Log ASCII Standard - version 2.0
WRAP. YES : Mulitple lines per depth step
~WELL INFORMATION
#MNEMONIC   .UNIT                                           VALUE :DESCRIPTION
#------------------------------------------------------------------------------
STRT        .M                                          2157.2351 :START DEPTH
STOP        .M                                          3233.6362 :STOP DEPTH
STEP        .M                                             0.1524 :STEP
NULL        .                                           -999.2500 :NULL VALUE
COMP        .                                             UNKNOWN :COMPANY
WELL        .                                              3083-V :WELL
FLD         .                                             UNKNOWN :FIELD
LOC         .                                             UNKNOWN :LOCATION
CNTY        .                                             UNKNOWN :COUNTY
STAT        .                                             UNKNOWN :STATE
CTRY        .                                             UNKNOWN :COUNTRY
SRVC        .                                             UNKNOWN :SERVICE COMPANY
DATE        .                                             UNKNOWN :LOG DATE
UWI         .                                              3083-V :UNIQUE WELL ID
XCOORD      .                                            0.000000 :SURFACE X
YCOORD      .                                            0.000000 :SURFACE Y
LAT         .                                            0.000000 :LATITUDE
LON         .                                            0.000000 :LONGITUDE
ELEV        .M                                             0.0000 :SURFACE ELEV
ELEV_TYPE   .                                                  KB :ELEV TYPE
~CURVE INFORMATION
#MNEMONIC.UNIT        API CODE       : CURVE DESCRIPTION
#------------------------------------------------------------------------------
DEPTH    .M                          : Measured Depth
CALI     .inches      UNKNOWN        : CALI:LDL-CNL:rC:NONE:v0 (auto-composite)
CGR      .API         UNKNOWN        : CGR:Espectrometria:rC:NONE:v0 (auto-composite)
DRHO     .g/cm3       UNKNOWN        : DRHO:LDL-CNL:rC:NONE:v0 (auto-composite)
DRHO-LWD .g/cm3       UNKNOWN        : DRHO-LWD:registros-LWD:rC:NONE:v0 (auto-composite)
DT       .us/ft       UNKNOWN        : DT:Sonico:rC:NONE:v0 (auto-composite)
DT-LWD   .UNKNOWN     UNKNOWN        : DT-LWD:registros-LWD:rC:NONE:v0 (auto-composite)
GR       .API         UNKNOWN        : GR:Espectrometria:rC:NONE:v0 (auto-composite)
GR-LWD   .API         UNKNOWN        : GR-LWD:PETROWORKS:rC:NONE:v1 
ILD-LWD  .ohm.m       UNKNOWN        : ILD-LWD:PETROWORKS:rC:NONE:v1 
ILM-LWD  .ohm.m       UNKNOWN        : ILM-LWD:PETROWORKS:rC:NONE:v1 
LLD      .ohm.m       UNKNOWN        : LLD:resistivos:rC:NONE:v0 (auto-composite)
LLS      .ohm.m       UNKNOWN        : LLS:resistivos:rC:NONE:v0 (auto-composite)
MSFL     .ohm.m       UNKNOWN        : MSFL:resistivos:rC:NONE:v0 (auto-composite)
NPHI     .v/v_decimal UNKNOWN        : NPHI:LDL-CNL:rC:NONE:v0 (auto-composite)
NPHI-LWD .v/v_decimal UNKNOWN        : NPHI-LWD:registros-LWD:rC:NONE:v0 (auto-composite)
PEF      .UNKNOWN     UNKNOWN        : PEF:LDL-CNL:rC:NONE:v0 (auto-composite)
PEF-LWD  .UNKNOWN     UNKNOWN        : PEF-LWD:registros-LWD:rC:NONE:v0 (auto-composite)
POTA     .UNKNOWN     UNKNOWN        : POTA:Espectrometria:rC:NONE:v0 (auto-composite)
RHOB     .g/cm3       UNKNOWN        : RHOB:LDL-CNL:rC:NONE:v0 (auto-composite)
RHOB-LWD .g/cm3       UNKNOWN        : RHOB-LWD:registros-LWD:rC:NONE:v0 (auto-composite)
THOR     .ppm         UNKNOWN        : THOR:Espectrometria:rC:NONE:v0 (auto-composite)
URAN     .ppm         UNKNOWN        : URAN:Espectrometria:rC:NONE:v0 (auto-composite)
~A
# ...
   2741.5366
       8.5816      25.2596       0.0287    -999.2500      58.9992    -999.2500
      60.1104      71.6628      27.6515      25.5356      67.6850      47.9675
      14.0989       0.0790    -999.2500       2.9307    -999.2500       0.0095
       2.7702    -999.2500       2.5636       4.2095
   2741.6892
       8.5825      23.1845       0.0377    -999.2500      58.5188    -999.2500
      60.7475      72.3663      25.5094      23.4942      67.2989      47.7783
      20.1338       0.0711    -999.2500       2.9422    -999.2500       0.0091
       2.7884    -999.2500       2.1393       4.6107
   2741.8416
       8.5648      21.7246       0.0278    -999.2500      59.5863    -999.2500
      59.0171      68.5953      25.7736      23.9697      60.3767      43.6033
      11.3575       0.0762    -999.2500       3.0264    -999.2500       0.0086
       2.7627    -999.2500       1.9164       4.6594
   2741.9939
       8.5574      19.5409       0.0222    -999.2500      59.4040    -999.2500
      56.4590      64.3916      26.6402      24.8128      40.0151      29.4756
      10.5304       0.0975    -999.2500       3.0353    -999.2500       0.0079
       2.7496    -999.2500       1.6299       4.6975
   2742.1462
       8.5918      20.6282       0.0237    -999.2500      60.7104    -999.2500
      55.2528      62.6880      26.3465      24.2815      30.5746      22.4889
       9.3538       0.1165    -999.2500       2.9876    -999.2500       0.0079
       2.7538    -999.2500       1.9400       4.4456
   2742.2988
       8.6158      19.1275       0.0240    -999.2500      60.7265    -999.2500
      52.8883      62.1157      25.0750      23.1911      32.1262      23.3518
      19.6258       0.1245    -999.2500       3.1473    -999.2500       0.0074
       2.7722    -999.2500       1.8161       4.2462
   2742.4512
       8.6175      19.2324       0.0155    -999.2500      60.1270    -999.2500
      53.1100      61.6972      23.5206      21.8130      34.2094      24.8767
      23.4897       0.1125    -999.2500       3.2602    -999.2500       0.0071
       2.7554    -999.2500       2.0044       4.2599
   2742.6035
       8.6299      17.8460       0.0129    -999.2500      57.5803    -999.2500
      51.2313      59.8022      22.7726      20.8999      47.6460      33.6926
      18.9699       0.0993    -999.2500       3.2961    -999.2500       0.0065
       2.7415    -999.2500       1.8756       4.2064
   2742.7559
       8.5750      16.1365       0.0158    -999.2500      56.5491    -999.2500
      50.0176      54.1913      22.7109      20.7173      50.8130      35.5983
       9.1027       0.0883    -999.2500       3.0935    -999.2500       0.0058
       2.7370    -999.2500       1.7800       4.3025
   2742.9082
       8.6117      14.5683       0.0285    -999.2500      56.9998    -999.2500
      46.3719      47.1571      22.2517      20.2448      43.4578      30.9413
      14.4790       0.0798    -999.2500       3.0369    -999.2500       0.0057
       2.7590    -999.2500       1.3355       4.1051
   2743.0608
       8.6138      12.8498       0.0440    -999.2500      56.9897    -999.2500
      42.5836      42.1299      22.1329      19.9612      39.3062      28.1374
      13.3974       0.0827    -999.2500       3.0633    -999.2500       0.0055
       2.7603    -999.2500       0.9206       3.8633
   2743.2131
       8.5690      12.2474       0.0441    -999.2500      57.4986    -999.2500
      38.1502      38.1078      22.7548      20.1871      35.7713      26.0160
       9.0338       0.0879    -999.2500       3.1143    -999.2500       0.0050
       2.7337    -999.2500       1.0057       3.3527
   2743.3655
       8.4014      12.5446       0.0431    -999.2500      58.2977    -999.2500
      35.0111      37.1000      23.3062      20.4862      41.5592      31.4969
       9.3975       0.0963    -999.2500       3.0460    -999.2500       0.0047
       2.6982    -999.2500       1.2548       2.8484
   2743.5178
       8.3936      13.5613       0.0278    -999.2500      59.2539    -999.2500
      34.8117      42.1073      23.8058      20.9128      42.1087      32.9456
       9.7555       0.0955    -999.2500       3.0551    -999.2500       0.0051
       2.6801    -999.2500       1.4045       2.6309
   2743.6704
       8.3620      15.5751       0.0153    -999.2500      59.5408    -999.2500
      37.5938      52.1002      24.3213      21.5752      41.0906      32.6296
       9.6394       0.0876    -999.2500       3.1991    -999.2500       0.0057
       2.6741    -999.2500       1.6800       2.6741
   2743.8228
       8.3880      17.5598       0.0046    -999.2500      63.7205    -999.2500
      41.9148      61.7968      25.7265      22.9545      38.1231      30.5422
       8.6382       0.0841    -999.2500       3.2202    -999.2500       0.0065
       2.6857    -999.2500       1.7803       2.9256
   2743.9751
       8.3908      20.5314       0.0020    -999.2500      62.8604    -999.2500
      46.7112      64.0709      27.6462      24.7473      30.3528      24.3715
      10.0343       0.0790    -999.2500       3.2520    -999.2500       0.0079
       2.6989    -999.2500       1.9400       3.1252
   2744.1274
       8.3919      22.7238      -0.0018    -999.2500      62.0217    -999.2500
      50.6534      57.7050      29.7837      26.9927      29.3201      23.3621
      16.3721       0.0824    -999.2500       3.2184    -999.2500       0.0087
       2.7045    -999.2500       2.2086       3.3717
   2744.2800
       8.4286      22.9151       0.0019    -999.2500      57.8845    -999.2500
      49.8578      49.3033      33.1589      30.7821      31.3292      24.8220
      14.4667       0.0819    -999.2500       3.2596    -999.2500       0.0083
       2.7066    -999.2500       2.4678       3.3312
   2744.4324
       8.4116      19.5986       0.0037    -999.2500      58.6252    -999.2500
      44.9112      44.9764      36.0517      34.0451      32.2936      25.5205
      14.2323       0.0889    -999.2500       3.1537    -999.2500       0.0071
       2.7007    -999.2500       2.1719       3.0970
   2744.5847
       8.3595      15.2679       0.0074    -999.2500      57.7625    -999.2500
      37.6968      45.0386      36.8581      35.0499      28.9188      22.9356
      15.7019       0.0894    -999.2500       3.0818    -999.2500       0.0054
       2.7021    -999.2500       1.7596       2.7193
   2744.7371
       8.3592      12.1634       0.0092    -999.2500      57.6440    -999.2500
      33.7722      46.8087      36.5165      34.6460      39.7000      31.7953
      17.2199       0.0906    -999.2500       3.0460    -999.2500       0.0042
       2.7106    -999.2500       1.4512       2.6279
   2744.8894
       8.3611      11.4450       0.0108    -999.2500      56.9378    -999.2500
      32.5775      47.7477      37.1647      35.1563      74.5264      60.8375
      20.0091       0.0784    -999.2500       3.0291    -999.2500       0.0039
       2.7300    -999.2500       1.3867       2.5033
   2745.0420
       8.3989      12.5019       0.0103    -999.2500      59.8163    -999.2500
      35.5420      49.5768      38.2217      36.4168      72.3088      59.4736
      15.6891       0.0661    -999.2500       2.9586    -999.2500       0.0043
       2.7458    -999.2500       1.4861       2.7438
   2745.1943
       8.4031      13.2363       0.0099    -999.2500      59.1802    -999.2500
      38.1074      54.6800      39.6990      37.9386      65.9618      52.8229
      16.1746       0.0584    -999.2500       2.8893    -999.2500       0.0043
       2.7528    -999.2500       1.7118       3.0253
   2745.3467
       8.4325      14.4047       0.0083    -999.2500      58.4487    -999.2500
      43.4833      62.0292      41.0730      39.5448      47.2881      37.6562
      12.1243       0.0560    -999.2500       2.9923    -999.2500       0.0046
       2.7557    -999.2500       1.9495       3.5140
   2745.4990
       8.4287      15.0178       0.0071    -999.2500      58.4642    -999.2500
      50.3626      66.8396      42.0453      40.5236      33.6298      26.4049
      10.5666       0.0584    -999.2500       3.1316    -999.2500       0.0044
       2.7470    -999.2500       2.2282       4.3233
