#------------------------------------------------------------------------------
#
#   Created by  : [OpenWorks] Log Export Utility (LEXP)
#   Created on  : 2016-05-11 12:25:30
#   Project     : CANT971
#   User        : R5K
#   Interpreter : PEP
#
#------------------------------------------------------------------------------
~VERSION INFORMATION
VERS. 2.0 : CWLS Log ASCII Standard - version 2.0
WRAP. YES : Mulitple lines per depth step
~WELL INFORMATION
#MNEMONIC   .UNIT                                           VALUE :DESCRIPTION
#------------------------------------------------------------------------------
STRT        .M                                          2157.2351 :START DEPTH
STOP        .M                                          3233.6362 :STOP DEPTH
STEP        .M                                             0.1524 :STEP
NULL        .                                           -999.2500 :NULL VALUE
COMP        .                                             UNKNOWN :COMPANY
WELL        .                                              3083-V :WELL
FLD         .                                             UNKNOWN :FIELD
LOC         .                                             UNKNOWN :LOCATION
CNTY        .                                             UNKNOWN :COUNTY
STAT        .                                             UNKNOWN :STATE
CTRY        .                                             UNKNOWN :COUNTRY
SRVC        .                                             UNKNOWN :SERVICE COMPANY
DATE        .                                             UNKNOWN :LOG DATE
UWI         .                                              3083-V :UNIQUE WELL ID
XCOORD      .                                            0.000000 :SURFACE X
YCOORD      .                                            0.000000 :SURFACE Y
LAT         .                                            0.000000 :LATITUDE
LON         .                                            0.000000 :LONGITUDE
ELEV        .M                                             0.0000 :SURFACE ELEV
ELEV_TYPE   .                                                  KB :ELEV TYPE
~CURVE INFORMATION
#MNEMONIC.UNIT        API CODE       : CURVE DESCRIPTION
#------------------------------------------------------------------------------
DEPTH    .M                          : Measured Depth
CALI     .inches      UNKNOWN        : CALI:LDL-CNL:rC:NONE:v0 (auto-composite)
CGR      .API         UNKNOWN        : CGR:Espectrometria:rC:NONE:v0 (auto-composite)
DRHO     .g/cm3       UNKNOWN        : DRHO:LDL-CNL:rC:NONE:v0 (auto-composite)
DRHO-LWD .g/cm3       UNKNOWN        : DRHO-LWD:registros-LWD:rC:NONE:v0 (auto-composite)
DT       .us/ft       UNKNOWN        : DT:Sonico:rC:NONE:v0 (auto-composite)
DT-LWD   .UNKNOWN     UNKNOWN        : DT-LWD:registros-LWD:rC:NONE:v0 (auto-composite)
GR       .API         UNKNOWN        : GR:Espectrometria:rC:NONE:v0 (auto-composite)
GR-LWD   .API         UNKNOWN        : GR-LWD:PETROWORKS:rC:NONE:v1 
ILD-LWD  .ohm.m       UNKNOWN        : ILD-LWD:PETROWORKS:rC:NONE:v1 
ILM-LWD  .ohm.m       UNKNOWN        : ILM-LWD:PETROWORKS:rC:NONE:v1 
LLD      .ohm.m       UNKNOWN        : LLD:resistivos:rC:NONE:v0 (auto-composite)
LLS      .ohm.m       UNKNOWN        : LLS:resistivos:rC:NONE:v0 (auto-composite)
MSFL     .ohm.m       UNKNOWN        : MSFL:resistivos:rC:NONE:v0 (auto-composite)
NPHI     .v/v_decimal UNKNOWN        : NPHI:LDL-CNL:rC:NONE:v0 (auto-composite)
NPHI-LWD .v/v_decimal UNKNOWN        : NPHI-LWD:registros-LWD:rC:NONE:v0 (auto-composite)
PEF      .UNKNOWN     UNKNOWN        : PEF:LDL-CNL:rC:NONE:v0 (auto-composite)
PEF-LWD  .UNKNOWN     UNKNOWN        : PEF-LWD:registros-LWD:rC:NONE:v0 (auto-composite)
POTA     .UNKNOWN     UNKNOWN        : POTA:Espectrometria:rC:NONE:v0 (auto-composite)
RHOB     .g/cm3       UNKNOWN        : RHOB:LDL-CNL:rC:NONE:v0 (auto-composite)
RHOB-LWD .g/cm3       UNKNOWN        : RHOB-LWD:registros-LWD:rC:NONE:v0 (auto-composite)
THOR     .ppm         UNKNOWN        : THOR:Espectrometria:rC:NONE:v0 (auto-composite)
URAN     .ppm         UNKNOWN        : URAN:Espectrometria:rC:NONE:v0 (auto-composite)
~A
# ...
   2408.2378
       9.1179       6.7181      -0.0284    -999.2500      67.0568    -999.2500
      34.7724      39.5369      33.5781      32.0968     144.3830      58.8474
      13.0864       0.0950    -999.2500       2.7144    -999.2500       0.0018
       2.4009    -999.2500       1.1191       3.4135
   2408.3904
       9.1219       6.3146      -0.0278    -999.2500      63.8204    -999.2500
      33.5676      38.6512      32.6879      30.8414     219.5889      92.8665
      26.4076       0.0922    -999.2500       2.7955    -999.2500       0.0015
       2.4349    -999.2500       1.1626       3.3319
   2408.5427
       9.1736       6.1997      -0.0157    -999.2500      64.0801    -999.2500
      31.2135      36.4978      32.9128      30.5332     278.1938     119.2910
      29.2011       0.0821    -999.2500       2.9363    -999.2500       0.0016
       2.5019    -999.2500       1.0574       3.0996
   2408.6951
       9.1708       6.2366      -0.0058    -999.2500      62.2197    -999.2500
      31.7587      35.7403      32.3462      29.8100     289.4512     124.6992
      27.0534       0.0774    -999.2500       2.7984    -999.2500       0.0017
       2.5634    -999.2500       0.9987       3.2002
   2408.8474
       9.2591       6.8781       0.0033    -999.2500      64.0841    -999.2500
      32.9567      37.2803      27.7762      26.5357     248.9688     108.2262
      13.2550       0.0780    -999.2500       2.7229    -999.2500       0.0019
       2.5894    -999.2500       1.0969       3.2280
   2409.0000
       9.2547       7.4793       0.0123    -999.2500      64.7792    -999.2500
      36.6115      40.7050      27.6879      25.9240      92.8276      40.1709
       8.4530       0.0898    -999.2500       2.7775    -999.2500       0.0020
       2.5926    -999.2500       1.2051       3.6139
   2409.1523
       9.1574       8.1436       0.0164    -999.2500      63.0885    -999.2500
      43.7664      47.3812      30.8149      29.0561      99.5257      41.3586
      16.8045       0.0916    -999.2500       3.0399    -999.2500       0.0022
       2.6367    -999.2500       1.3079       4.4835
   2409.3047
       9.1594       8.5425       0.0218    -999.2500      63.2460    -999.2500
      53.9059      57.6637      36.3831      35.4667     101.5475      41.9825
      21.4233       0.0810    -999.2500       3.2391    -999.2500       0.0024
       2.6740    -999.2500       1.3255       5.7630
   2409.4570
       9.0121       9.4024       0.0299    -999.2500      65.2810    -999.2500
      62.9065      66.8974      41.3587      40.0513     125.2370      49.5114
      15.5318       0.0689    -999.2500       3.1855    -999.2500       0.0028
       2.7185    -999.2500       1.3727       6.8052
   2409.6096
       8.8837       9.1105       0.0221    -999.2500      66.9486    -999.2500
      69.7586      74.7883      46.0404      44.1829     257.6156      92.7193
      18.6836       0.0697    -999.2500       3.1137    -999.2500       0.0027
       2.7099    -999.2500       1.3099       7.7039
   2409.7620
       8.7885       9.4140       0.0140    -999.2500      62.6103    -999.2500
      78.3382      83.8402      49.2782      47.0396     254.1177      91.8302
      26.6181       0.0755    -999.2500       2.9941    -999.2500       0.0027
       2.7183    -999.2500       1.4309       8.7338
   2409.9143
       8.8547       8.3114       0.0145    -999.2500      61.0764    -999.2500
      84.7597      91.7113      51.0808      49.7685     254.8858      92.7854
      25.4484       0.0786    -999.2500       3.0648    -999.2500       0.0026
       2.7286    -999.2500       1.1079       9.6717
   2410.0667
       8.8323       8.2265       0.0108    -999.2500      57.4121    -999.2500
      90.6412      99.0678      51.5827      51.7034     263.6561      98.6751
      18.3702       0.0775    -999.2500       3.1465    -999.2500       0.0027
       2.7149    -999.2500       1.0590      10.3893
   2410.2190
       8.8388       7.7068       0.0041    -999.2500      56.0531    -999.2500
      94.2399     110.2933      50.2698      51.1935     308.4013     112.3412
      22.3020       0.0829    -999.2500       3.3321    -999.2500       0.0024
       2.6882    -999.2500       1.0542      10.8659
   2410.3716
       8.8664       7.4560       0.0053    -999.2500      58.3304    -999.2500
      98.1131     112.7826      51.6990      53.2254     372.5979     132.1704
      28.1265       0.0876    -999.2500       3.1948    -999.2500       0.0023
       2.6778    -999.2500       1.0910      11.4407
   2410.5239
       8.9752       5.8380       0.0084    -999.2500      57.8361    -999.2500
      92.3531      98.7259      52.1054      53.8494     388.9738     134.0966
      30.0718       0.0910    -999.2500       3.1129    -999.2500       0.0017
       2.6938    -999.2500       0.8495      10.9883
   2410.6763
       9.0432       4.1606       0.0109    -999.2500      59.4347    -999.2500
      79.2596      75.6916      46.1729      46.9530     336.5723     103.6439
      28.5735       0.0836    -999.2500       3.1640    -999.2500       0.0012
       2.7029    -999.2500       0.6421       9.5439
   2410.8286
       8.8730       3.5382       0.0091    -999.2500      67.1458    -999.2500
      63.5828      59.9334      40.3204      40.0381     188.9213      60.2010
      13.7780       0.0839    -999.2500       3.1666    -999.2500       0.0011
       2.7002    -999.2500       0.5192       7.6009
   2410.9812
       8.9028       3.4127       0.0057    -999.2500      66.6274    -999.2500
      55.5556      59.6107      36.9369      36.6569     179.5294      57.5969
       5.5958       0.0873    -999.2500       2.9952    -999.2500       0.0010
       2.6570    -999.2500       0.4753       6.6128
   2411.1335
       9.2490       3.9568       0.0002    -999.2500      71.5266    -999.2500
      52.9241      61.9018      34.7009      35.0799     116.2579      40.6993
       6.7847       0.0973    -999.2500       2.9541    -999.2500       0.0014
       2.6226    -999.2500       0.4535       6.1836
   2411.2859
       9.3844       5.6478      -0.0062    -999.2500      65.5249    -999.2500
      51.4623      57.3682      29.0039      28.7689     102.2624      42.5980
      15.1027       0.1079    -999.2500       2.9866    -999.2500       0.0023
       2.5903    -999.2500       0.4943       5.7876
   2411.4382
       9.4427       6.7287      -0.0088    -999.2500      72.4885    -999.2500
      49.2625      52.6844      23.4017      22.4176     120.5176      55.4064
      23.4473       0.1021    -999.2500       3.1876    -999.2500       0.0030
       2.5897    -999.2500       0.4161       5.4022
   2411.5908
       9.4205       7.1103      -0.0071    -999.2500      70.4498    -999.2500
      49.7791      56.5989      23.1754      21.3921     129.6804      60.6145
      45.2386       0.0949    -999.2500       3.2410    -999.2500       0.0032
       2.5907    -999.2500       0.4354       5.4431
   2411.7432
       9.3624       8.5265      -0.0050    -999.2500      68.5406    -999.2500
      56.2338      74.4650      23.0546      20.9160     153.1857      76.9615
      20.8024       0.0832    -999.2500       3.2244    -999.2500       0.0039
       2.5875    -999.2500       0.4789       6.1145
   2411.8955
       9.6951      11.0933      -0.0034    -999.2500      69.3820    -999.2500
      69.2298      87.4648      22.1552      20.1653      69.5967      48.4687
       9.9133       0.0764    -999.2500       3.1244    -999.2500       0.0049
       2.5909    -999.2500       0.7172       7.4195
   2412.0479
       9.7243      13.7889       0.0077    -999.2500      69.8276    -999.2500
      82.7012     104.0589      19.3689      18.2275      81.8099      59.1070
      12.4267       0.0957    -999.2500       3.0294    -999.2500       0.0059
       2.5968    -999.2500       0.9687       8.7326
   2412.2002
       9.1475      15.2354       0.0290    -999.2500      71.6586    -999.2500
      93.5580     104.5941      21.9059      19.8614      81.1968      58.4883
      10.6793       0.1249    -999.2500       2.9887    -999.2500       0.0064
       2.6090    -999.2500       1.0876       9.9078
