#------------------------------------------------------------------------------
#
#   Created by  : [OpenWorks] Log Export Utility (LEXP)
#   Created on  : 2016-05-11 12:25:30
#   Project     : CANT971
#   User        : R5K
#   Interpreter : PEP
#
#------------------------------------------------------------------------------
~VERSION INFORMATION
VERS. 2.0 : CWLS Log ASCII Standard - version 2.0
WRAP. YES : Mulitple lines per depth step
~WELL INFORMATION
#MNEMONIC   .UNIT                                           VALUE :DESCRIPTION
#------------------------------------------------------------------------------
STRT        .M                                          2157.2351 :START DEPTH
STOP        .M                                          3233.6362 :STOP DEPTH
STEP        .M                                             0.1524 :STEP
NULL        .                                           -999.2500 :NULL VALUE
COMP        .                                             UNKNOWN :COMPANY
WELL        .                                              3083-V :WELL
FLD         .                                             UNKNOWN :FIELD
LOC         .                                             UNKNOWN :LOCATION
CNTY        .                                             UNKNOWN :COUNTY
STAT        .                                             UNKNOWN :STATE
CTRY        .                                             UNKNOWN :COUNTRY
SRVC        .                                             UNKNOWN :SERVICE COMPANY
DATE        .                                             UNKNOWN :LOG DATE
UWI         .                                              3083-V :UNIQUE WELL ID
XCOORD      .                                            0.000000 :SURFACE X
YCOORD      .                                            0.000000 :SURFACE Y
LAT         .                                            0.000000 :LATITUDE
LON         .                                            0.000000 :LONGITUDE
ELEV        .M                                             0.0000 :SURFACE ELEV
ELEV_TYPE   .                                                  KB :ELEV TYPE
~CURVE INFORMATION
#MNEMONIC.UNIT        API CODE       : CURVE DESCRIPTION
#------------------------------------------------------------------------------
DEPTH    .M                          : Measured Depth
CALI     .inches      UNKNOWN        : CALI:LDL-CNL:rC:NONE:v0 (auto-composite)
CGR      .API         UNKNOWN        : CGR:Espectrometria:rC:NONE:v0 (auto-composite)
DRHO     .g/cm3       UNKNOWN        : DRHO:LDL-CNL:rC:NONE:v0 (auto-composite)
DRHO-LWD .g/cm3       UNKNOWN        : DRHO-LWD:registros-LWD:rC:NONE:v0 (auto-composite)
DT       .us/ft       UNKNOWN        : DT:Sonico:rC:NONE:v0 (auto-composite)
DT-LWD   .UNKNOWN     UNKNOWN        : DT-LWD:registros-LWD:rC:NONE:v0 (auto-composite)
GR       .API         UNKNOWN        : GR:Espectrometria:rC:NONE:v0 (auto-composite)
GR-LWD   .API         UNKNOWN        : GR-LWD:PETROWORKS:rC:NONE:v1 
ILD-LWD  .ohm.m       UNKNOWN        : ILD-LWD:PETROWORKS:rC:NONE:v1 
ILM-LWD  .ohm.m       UNKNOWN        : ILM-LWD:PETROWORKS:rC:NONE:v1 
LLD      .ohm.m       UNKNOWN        : LLD:resistivos:rC:NONE:v0 (auto-composite)
LLS      .ohm.m       UNKNOWN        : LLS:resistivos:rC:NONE:v0 (auto-composite)
MSFL     .ohm.m       UNKNOWN        : MSFL:resistivos:rC:NONE:v0 (auto-composite)
NPHI     .v/v_decimal UNKNOWN        : NPHI:LDL-CNL:rC:NONE:v0 (auto-composite)
NPHI-LWD .v/v_decimal UNKNOWN        : NPHI-LWD:registros-LWD:rC:NONE:v0 (auto-composite)
PEF      .UNKNOWN     UNKNOWN        : PEF:LDL-CNL:rC:NONE:v0 (auto-composite)
PEF-LWD  .UNKNOWN     UNKNOWN        : PEF-LWD:registros-LWD:rC:NONE:v0 (auto-composite)
POTA     .UNKNOWN     UNKNOWN        : POTA:Espectrometria:rC:NONE:v0 (auto-composite)
RHOB     .g/cm3       UNKNOWN        : RHOB:LDL-CNL:rC:NONE:v0 (auto-composite)
RHOB-LWD .g/cm3       UNKNOWN        : RHOB-LWD:registros-LWD:rC:NONE:v0 (auto-composite)
THOR     .ppm         UNKNOWN        : THOR:Espectrometria:rC:NONE:v0 (auto-composite)
URAN     .ppm         UNKNOWN        : URAN:Espectrometria:rC:NONE:v0 (auto-composite)
~A
# ...
   2531.6819
       8.5016       4.3120       0.0212    -999.2500      85.5791    -999.2500
      31.8465      33.3208     302.4971     298.9853     647.8053     609.1422
      40.9818       0.0152    -999.2500       2.8498    -999.2500       0.0018
       2.8073    -999.2500       0.3167       3.4288
   2531.8342
       8.4882       3.5588       0.0297    -999.2500      87.3665    -999.2500
      29.5415      31.1985     311.6887     308.2402     443.5928     428.4493
      41.9543       0.0157    -999.2500       2.8078    -999.2500       0.0017
       2.8186    -999.2500       0.1693       3.2295
   2531.9868
       8.4980       3.3384       0.0278    -999.2500      84.9715    -999.2500
      27.7259      31.0208     309.3470     309.6731     723.0759     722.2706
      39.6110       0.0174    -999.2500       2.8014    -999.2500       0.0016
       2.8206    -999.2500       0.1460       3.0781
   2532.1392
       8.4994       3.0812       0.0316    -999.2500      87.1261    -999.2500
      25.9828      32.5646     293.3674     296.2386    1894.4059    1758.7549
      40.5397       0.0168    -999.2500       2.9401    -999.2500       0.0014
       2.8218    -999.2500       0.1523       2.8964
   2532.2915
       8.4974       3.2954       0.0329    -999.2500      85.8697    -999.2500
      28.1343      35.0985     275.0340     274.5989    1765.4108    1667.2765
      27.8692       0.0151    -999.2500       3.0750    -999.2500       0.0015
       2.8209    -999.2500       0.1701       3.1794
   2532.4438
       8.4811       3.9979       0.0378    -999.2500      86.0370    -999.2500
      31.0438      37.8399     258.8989     254.8100    1168.4816    1072.8136
      16.8636       0.0122    -999.2500       3.1532    -999.2500       0.0018
       2.8130    -999.2500       0.2463       3.4647
   2532.5962
       8.4596       4.4696       0.0354    -999.2500      86.1919    -999.2500
      33.7777      39.8121     254.0572     245.4201     762.2060     701.8586
      19.1437       0.0115    -999.2500       3.2134    -999.2500       0.0019
       2.8006    -999.2500       0.2918       3.7893
   2532.7488
       8.4642       4.4775       0.0383    -999.2500      89.9053    -999.2500
      33.8399      40.5064     264.5012     251.6118     435.4105     406.5209
      38.7235       0.0115    -999.2500       3.2532    -999.2500       0.0020
       2.8001    -999.2500       0.2287       3.7994
   2532.9011
       8.4648       4.7167       0.0433    -999.2500      89.5836    -999.2500
      34.3747      39.8810     288.0084     272.1054     399.1720     373.1563
      40.4888       0.0120    -999.2500       3.2303    -999.2500       0.0022
       2.8082    -999.2500       0.2241       3.8452
   2533.0535
       8.4614       4.4785       0.0392    -999.2500      87.0019    -999.2500
      33.7538      38.1672     306.5073     288.4115     381.7903     358.7182
      39.8820       0.0136    -999.2500       2.9894    -999.2500       0.0021
       2.7974    -999.2500       0.2049       3.7399
   2533.2058
       8.4580       4.2740       0.0275    -999.2500      88.0851    -999.2500
      31.8470      34.7743     309.7855     296.6731     409.1333     381.0199
      38.8840       0.0164    -999.2500       2.8835    -999.2500       0.0020
       2.7843    -999.2500       0.2167       3.4918
   2533.3584
       8.4212       4.6687       0.0219    -999.2500      87.9474    -999.2500
      28.0407      31.2303     318.9660     310.5208     934.9975     771.6882
      42.3145       0.0189    -999.2500       2.7885    -999.2500       0.0018
       2.7859    -999.2500       0.4382       2.9301
   2533.5107
       8.3559       4.3728       0.0223    -999.2500      79.1214    -999.2500
      24.7170      29.8668     314.6836     315.3199     953.8397     751.3572
      43.0636       0.0210    -999.2500       2.8649    -999.2500       0.0017
       2.7982    -999.2500       0.4119       2.5329
   2533.6631
       8.3534       4.4778       0.0161    -999.2500      70.8492    -999.2500
      22.7821      29.4776     292.4950     292.4803    1028.1700     781.5012
      38.2335       0.0194    -999.2500       2.8157    -999.2500       0.0017
       2.8000    -999.2500       0.4394       2.2352
   2533.8154
       8.3585       4.7946       0.0136    -999.2500      71.5037    -999.2500
      22.4293      28.8255     258.3109     252.0032    1042.9669     782.8129
      21.7847       0.0181    -999.2500       3.0549    -999.2500       0.0019
       2.8035    -999.2500       0.4422       2.1186
   2533.9680
       8.3532       4.6156       0.0115    -999.2500      71.9838    -999.2500
      22.5656      28.6715     238.0634     228.7480     213.8485     165.8436
      16.4905       0.0177    -999.2500       3.1291    -999.2500       0.0018
       2.7766    -999.2500       0.4320       2.1308
   2534.1204
       8.3535       4.5076       0.0164    -999.2500      72.2952    -999.2500
      23.7529      30.8926     253.9265     236.1559     179.2326     138.5879
      22.2381       0.0185    -999.2500       3.2459    -999.2500       0.0017
       2.7526    -999.2500       0.4193       2.3003
   2534.2727
       8.4982       5.4290       0.0154    -999.2500      76.1572    -999.2500
      26.3335      35.7128     259.2011     244.9188     168.7117     130.0383
      26.5271       0.0193    -999.2500       3.1665    -999.2500       0.0021
       2.7192    -999.2500       0.4830       2.4522
   2534.4250
       8.5000       5.8451       0.0171    -999.2500      73.5399    -999.2500
      29.3257      38.8888     260.6924     245.6936     166.8523     126.2130
      22.0250       0.0192    -999.2500       3.1448    -999.2500       0.0022
       2.7085    -999.2500       0.5732       2.7903
   2534.5774
       8.4978       5.8648       0.0290    -999.2500      73.1404    -999.2500
      31.2839      38.2668     250.1117     231.0567     326.4685     246.6277
      22.9530       0.0221    -999.2500       3.1717    -999.2500       0.0022
       2.7038    -999.2500       0.5820       3.0299
   2534.7300
       8.3414       5.6754       0.0302    -999.2500      71.1140    -999.2500
      30.6810      37.3241     229.0415     208.3605     675.1821     484.4102
      23.8658       0.0276    -999.2500       3.2506    -999.2500       0.0021
       2.7145    -999.2500       0.5596       3.0302
   2534.8823
       8.3378       5.5939       0.0240    -999.2500      58.2142    -999.2500
      31.3625      38.3194     233.9534     213.7937     656.9419     470.5877
      37.2500       0.0335    -999.2500       3.3616    -999.2500       0.0022
       2.7465    -999.2500       0.5143       3.1589
   2535.0347
       8.3515       4.8859       0.0309    -999.2500      57.9728    -999.2500
      32.6978      39.6508     247.3571     231.3318     417.9681     308.2358
      44.0872       0.0339    -999.2500       3.3244    -999.2500       0.0023
       2.8073    -999.2500       0.2285       3.4255
   2535.1870
       8.3546       5.0138       0.0265    -999.2500      53.9447    -999.2500
      34.3972      38.8368     247.8075     237.4600     339.8991     262.2149
      43.8196       0.0277    -999.2500       3.1695    -999.2500       0.0023
       2.8259    -999.2500       0.2737       3.6502
   2535.3396
       8.3955       4.2589       0.0107    -999.2500      51.7767    -999.2500
      32.8124      36.6808     240.5708     229.8023     343.0528     258.5303
      38.0374       0.0260    -999.2500       3.1608    -999.2500       0.0019
       2.7915    -999.2500       0.2429       3.5787
   2535.4919
       8.4395       3.2604       0.0053    -999.2500      51.7915    -999.2500
      31.0084      35.0806     240.4343     226.0190     364.6826     271.0823
      41.1728       0.0266    -999.2500       3.0878    -999.2500       0.0014
       2.7879    -999.2500       0.2250       3.4787
   2535.6443
       8.4640       2.8599       0.0060    -999.2500      50.6785    -999.2500
      28.8696      33.7176     252.7047     232.5170     398.8960     288.9164
      41.9694       0.0311    -999.2500       3.0768    -999.2500       0.0011
       2.7959    -999.2500       0.2679       3.2794
