#------------------------------------------------------------------------------
#
#   Created by  : [OpenWorks] Log Export Utility (LEXP)
#   Created on  : 2016-05-11 12:25:29
#   Project     : CANT971
#   User        : R5K
#   Interpreter : PEP
#
#------------------------------------------------------------------------------
~VERSION INFORMATION
VERS. 2.0 : CWLS Log ASCII Standard - version 2.0
WRAP.  NO : One line per depth step
~WELL INFORMATION
#MNEMONIC   .UNIT                                           VALUE :DESCRIPTION
#------------------------------------------------------------------------------
STRT        .M                                           770.8625 :START DEPTH
STOP        .M                                          2968.3181 :STOP DEPTH
STEP        .M                                             0.1524 :STEP
NULL        .                                           -999.2500 :NULL VALUE
COMP        .                                   PEMEX EXPL & PROD :COMPANY
WELL        .                                                3083 :WELL
FLD         .                                           CANTARELL :FIELD
LOC         .                                             UNKNOWN :LOCATION
CNTY        .                                             UNKNOWN :COUNTY
STAT        .                                            CAMPECHE :STATE
CTRY        .                                              MEXICO :COUNTRY
SRVC        .                                             UNKNOWN :SERVICE COMPANY
DATE        .                                             UNKNOWN :LOG DATE
UWI         .                                                3083 :UNIQUE WELL ID
XCOORD      .                                       597325.730000 :SURFACE X
YCOORD      .                                      2152070.080000 :SURFACE Y
LAT         .                                           19.461893 :LATITUDE
LON         .                                          -92.072746 :LONGITUDE
ELEV        .M                                            30.0000 :SURFACE ELEV
ELEV_TYPE   .                                                  KB :ELEV TYPE
~CURVE INFORMATION
#MNEMONIC.UNIT        API CODE       : CURVE DESCRIPTION
#------------------------------------------------------------------------------
DEPTH    .M                          : Measured Depth
CALI     .inches      UNKNOWN        : CALI:Import:rC:NONE:v0 (auto-composite)
CGR      .API         UNKNOWN        : CGR:Import:rC:NONE:v0 (auto-composite)
DRHO     .g/cm3       UNKNOWN        : DRHO:Import:rC:NONE:v0 (auto-composite)
DT       .us/ft       UNKNOWN        : DT:Import:rC:NONE:v0 (auto-composite)
GR       .API         UNKNOWN        : GR:Import:rC:NONE:v0 (auto-composite)
GR-LWD   .API         UNKNOWN        : GR-LWD:Import:rC:NONE:v0 (auto-composite)
LLD      .ohm.m       UNKNOWN        : LLD:Import:rC:NONE:v0 (auto-composite)
LLD-LWD  .ohm.m       UNKNOWN        : LLD-LWD:Import:rC:NONE:v0 (auto-composite)
LLS      .ohm.m       UNKNOWN        : LLS:Import:rC:NONE:v0 (auto-composite)
LLS-LWD  .ohm.m       UNKNOWN        : LLS-LWD:Import:rC:NONE:v0 (auto-composite)
MSFL     .ohm.m       UNKNOWN        : MSFL:Import:rC:NONE:v0 (auto-composite)
MSFL-LWD .ohm.m       UNKNOWN        : MSFL-LWD:Import:rC:NONE:v0 (auto-composite)
NPHI     .v/v_decimal UNKNOWN        : NPHI:Import:rC:NONE:v0 (auto-composite)
PEF      .b/elec      UNKNOWN        : PEF:Import:rC:NONE:v0 (auto-composite)
POTA     .wtpercent   UNKNOWN        : POTA:Import:rC:NONE:v0 (auto-composite)
RHOB     .g/cm3       UNKNOWN        : RHOB:Import:rC:NONE:v0 (auto-composite)
THOR     .ppm         UNKNOWN        : THOR:Import:rC:NONE:v0 (auto-composite)
URAN     .ppm         UNKNOWN        : URAN:Import:rC:NONE:v0 (auto-composite)
~A     DEPTH         CALI          CGR         DRHO           DT           GR       GR-LWD          LLD      LLD-LWD          LLS      LLS-LWD         MSFL     MSFL-LWD         NPHI          PEF         POTA         RHOB         THOR         URAN
# ...
   2767.4548    -999.2500       6.5844    -999.2500    -999.2500      34.0510      34.0515      37.3910      37.3906      33.3200      34.6806      29.6220      32.7546       0.0659    -999.2500       0.0036    -999.2500       0.8952       2.5734
   2767.6072    -999.2500       5.3888    -999.2500    -999.2500      31.9890      31.9894      35.6180      35.6180      34.6810      34.5498      32.7550      33.9323       0.0684    -999.2500       0.0028    -999.2500       0.5358       2.4733
   2767.7598    -999.2500       5.3214    -999.2500    -999.2500      32.2370      32.2369      33.4190      33.4189      34.5500      33.4763      33.9320      32.9910       0.0724    -999.2500       0.0021    -999.2500       0.5056       2.4769
   2767.9121    -999.2500       7.7655    -999.2500    -999.2500      35.2490      35.2492      32.1530      32.1532      33.4760      32.4816      32.9910      31.2375       0.0770    -999.2500       0.0019    -999.2500       0.5759       2.5190
   2768.0645    -999.2500       8.5530    -999.2500    -999.2500      39.1200      39.1205      32.3170      32.3170      32.4820      32.7319      31.2370      30.5795       0.0817    -999.2500       0.0027    -999.2500       0.8639       2.7266
   2768.2168    -999.2500       9.0482    -999.2500    -999.2500      41.3930      41.3932      33.1940      33.1939      32.7320      34.8000      30.5800      33.0119       0.0860    -999.2500       0.0027    -999.2500       1.0924       2.8247
   2768.3694    -999.2500       7.2277    -999.2500    -999.2500      41.4540      41.4543      32.3510      32.3512      34.8000      35.5263      33.0120      35.4559       0.0885    -999.2500       0.0025    -999.2500       1.3058       2.8603
   2768.5217    -999.2500      11.3309    -999.2500    -999.2500      41.1260      41.1262      29.7980      29.7984      35.5260      33.8162      35.4560      35.3838       0.0891    -999.2500       0.0018    -999.2500       1.1114       2.6722
   2768.6741    -999.2500      10.6297    -999.2500    -999.2500      41.9370      41.9369      27.5140      27.5137      33.8160      31.4665      35.3840      32.5566       0.0940    -999.2500       0.0024    -999.2500       1.9270       2.6213
   2768.8264    -999.2500       9.4719    -999.2500    -999.2500      43.2320      43.2323      24.5770      24.5774      31.4660      27.0425      32.5570      26.7745       0.1002    -999.2500       0.0023    -999.2500       1.7678       1.9253
   2768.9790    -999.2500       7.7322    -999.2500    -999.2500      44.9600      44.9603      21.9730      21.9729      27.0420      22.1571      26.7740      21.1815       0.0971    -999.2500       0.0023    -999.2500       1.4728       1.7658
   2769.1313    -999.2500       8.4148    -999.2500    -999.2500      47.0710      47.0706      20.9460      20.9458      22.1570      19.4989      21.1810      18.2227       0.0901    -999.2500       0.0018    -999.2500       1.2352       1.4252
   2769.2837    -999.2500       9.8926    -999.2500    -999.2500      48.7530      48.7531      20.5730      20.5735      19.4990      17.9750      18.2230      16.6231       0.0881    -999.2500       0.0021    -999.2500       1.3219       1.4625
   2769.4360    -999.2500      10.7471    -999.2500    -999.2500      48.8420      48.8420      20.8880      20.8876      17.9750      17.3215      16.6230      15.9516       0.0928    -999.2500       0.0024    -999.2500       1.5201       1.5548
   2769.5884    -999.2500      11.8857    -999.2500    -999.2500      46.7460      46.7456      21.6640      21.6641      17.3220      17.6283      15.9520      16.6174       0.0984    -999.2500       0.0028    -999.2500       1.5999       1.6486
   2769.7410    -999.2500      11.6123    -999.2500    -999.2500      43.9240      43.9241      22.6470      22.6469      17.6280      18.6666      16.6170      18.4702       0.1024    -999.2500       0.0034    -999.2500       1.6209       1.7451
   2769.8933    -999.2500      11.2035    -999.2500    -999.2500      43.6170      43.6166      23.1080      23.1080      18.6670      19.6488      18.4700      20.2469       0.1084    -999.2500       0.0036    -999.2500       1.4942       1.7459
   2770.0457    -999.2500      11.4936    -999.2500    -999.2500      45.0670      45.0667      23.2430      23.2432      19.6490      21.1440      20.2470      22.0977       0.1035    -999.2500       0.0035    -999.2500       1.4209       1.7584
   2770.1980    -999.2500      12.5721    -999.2500    -999.2500      43.4710      43.4711      24.0320      24.0325      21.1440      23.2125      22.0980      24.1200       0.0996    -999.2500       0.0037    -999.2500       1.4295       1.7705
   2770.3506    -999.2500      12.4122    -999.2500    -999.2500      39.6930      39.6925      24.8020      24.8017      23.2120      25.0681      24.1200      25.5872       0.0971    -999.2500       0.0041    -999.2500       1.5143       1.7951
   2770.5029    -999.2500      12.3309    -999.2500    -999.2500      38.0460      38.0464      25.5260      25.5264      25.0680      26.1060      25.5870      26.4036       0.1008    -999.2500       0.0042    -999.2500       1.4312       1.7033
   2770.6553    -999.2500      15.7285    -999.2500    -999.2500      38.7780      38.7781      26.5120      26.5123      26.1060      26.9257      26.4040      27.0552       0.1078    -999.2500       0.0045    -999.2500       1.2919       1.6895
   2770.8076    -999.2500      13.6338    -999.2500    -999.2500      39.7480      39.7479      27.6440      27.6438      26.9260      27.9929      27.0550      27.6081       0.1132    -999.2500       0.0050    -999.2500       1.9588       2.0105
   2770.9602    -999.2500      12.8169    -999.2500    -999.2500      39.9700      39.9699      29.2770      29.2769      27.9930      29.1585      27.6080      28.5451       0.1125    -999.2500       0.0050    -999.2500       1.4260       1.7513
   2771.1125    -999.2500      13.1532    -999.2500    -999.2500      40.0180      40.0177      31.6010      31.6007      29.1590      31.9026      28.5450      30.5892       0.1071    -999.2500       0.0050    -999.2500       1.1986       1.6763
   2771.2649    -999.2500      10.0919    -999.2500    -999.2500      40.6340      40.6345      34.3950      34.3947      31.9030      36.0783      30.5890      34.9789       0.0982    -999.2500       0.0050    -999.2500       1.3072       1.7462
   2771.4172    -999.2500      10.6605    -999.2500    -999.2500      40.2440      40.2441      36.5150      36.5153      36.0780      40.8552      34.9790      40.9779       0.0892    -999.2500       0.0039    -999.2500       0.9537       1.6785
   2771.5696    -999.2500      12.0615    -999.2500    -999.2500      36.8060      36.8064      37.4070      37.4067      40.8550      46.2289      40.9780      47.5093       0.0844    -999.2500       0.0042    -999.2500       0.9911       1.7543
   2771.7222    -999.2500      10.1587    -999.2500    -999.2500      31.4840      31.4836      37.3900      37.3896      46.2290      49.8551      47.5090      53.6393       0.0786    -999.2500       0.0045    -999.2500       1.2277       2.0885
   2771.8745    -999.2500       9.4787    -999.2500    -999.2500      27.2520      27.2516      36.1650      36.1647      49.8550      49.5518      53.6390      55.9550       0.0768    -999.2500       0.0040    -999.2500       0.9707       2.0283
   2772.0269    -999.2500       7.8124    -999.2500    -999.2500      26.3040      26.3037      33.7670      33.7670      49.5520      45.0910      55.9550      50.9539       0.0757    -999.2500       0.0036    -999.2500       0.9169       2.0267
   2772.1792    -999.2500       8.4971    -999.2500    -999.2500      28.5210      28.5215      30.7140      30.7142      45.0910      37.5262      50.9540      41.1251       0.0758    -999.2500       0.0033    -999.2500       0.6073       1.7955
   2772.3318    -999.2500       8.8857    -999.2500    -999.2500      32.7140      32.7141      27.7250      27.7246      37.5260      29.4348      41.1250      29.0939       0.0767    -999.2500       0.0035    -999.2500       0.7008       1.7829
