#------------------------------------------------------------------------------
#
#   Created by  : [OpenWorks] Log Export Utility (LEXP)
#   Created on  : 2016-05-11 12:25:29
#   Project     : CANT971
#   User        : R5K
#   Interpreter : PEP
#
#------------------------------------------------------------------------------
~VERSION INFORMATION
VERS. 2.0 : CWLS Log ASCII Standard - version 2.0
WRAP.  NO : One line per depth step
~WELL INFORMATION
#MNEMONIC   .UNIT                                           VALUE :DESCRIPTION
#------------------------------------------------------------------------------
STRT        .M                                           770.8625 :START DEPTH
STOP        .M                                          2968.3181 :STOP DEPTH
STEP        .M                                             0.1524 :STEP
NULL        .                                           -999.2500 :NULL VALUE
COMP        .                                   PEMEX EXPL & PROD :COMPANY
WELL        .                                                3083 :WELL
FLD         .                                           CANTARELL :FIELD
LOC         .                                             UNKNOWN :LOCATION
CNTY        .                                             UNKNOWN :COUNTY
STAT        .                                            CAMPECHE :STATE
CTRY        .                                              MEXICO :COUNTRY
SRVC        .                                             UNKNOWN :SERVICE COMPANY
DATE        .                                             UNKNOWN :LOG DATE
UWI         .                                                3083 :UNIQUE WELL ID
XCOORD      .                                       597325.730000 :SURFACE X
YCOORD      .                                      2152070.080000 :SURFACE Y
LAT         .                                           19.461893 :LATITUDE
LON         .                                          -92.072746 :LONGITUDE
ELEV        .M                                            30.0000 :SURFACE ELEV
ELEV_TYPE   .                                                  KB :ELEV TYPE
~CURVE INFORMATION
#MNEMONIC.UNIT        API CODE       : CURVE DESCRIPTION
#------------------------------------------------------------------------------
DEPTH    .M                          : Measured Depth
CALI     .inches      UNKNOWN        : CALI:Import:rC:NONE:v0 (auto-composite)
CGR      .API         UNKNOWN        : CGR:Import:rC:NONE:v0 (auto-composite)
DRHO     .g/cm3       UNKNOWN        : DRHO:Import:rC:NONE:v0 (auto-composite)
DT       .us/ft       UNKNOWN        : DT:Import:rC:NONE:v0 (auto-composite)
GR       .API         UNKNOWN        : GR:Import:rC:NONE:v0 (auto-composite)
GR-LWD   .API         UNKNOWN        : GR-LWD:Import:rC:NONE:v0 (auto-composite)
LLD      .ohm.m       UNKNOWN        : LLD:Import:rC:NONE:v0 (auto-composite)
LLD-LWD  .ohm.m       UNKNOWN        : LLD-LWD:Import:rC:NONE:v0 (auto-composite)
LLS      .ohm.m       UNKNOWN        : LLS:Import:rC:NONE:v0 (auto-composite)
LLS-LWD  .ohm.m       UNKNOWN        : LLS-LWD:Import:rC:NONE:v0 (auto-composite)
MSFL     .ohm.m       UNKNOWN        : MSFL:Import:rC:NONE:v0 (auto-composite)
MSFL-LWD .ohm.m       UNKNOWN        : MSFL-LWD:Import:rC:NONE:v0 (auto-composite)
NPHI     .v/v_decimal UNKNOWN        : NPHI:Import:rC:NONE:v0 (auto-composite)
PEF      .b/elec      UNKNOWN        : PEF:Import:rC:NONE:v0 (auto-composite)
POTA     .wtpercent   UNKNOWN        : POTA:Import:rC:NONE:v0 (auto-composite)
RHOB     .g/cm3       UNKNOWN        : RHOB:Import:rC:NONE:v0 (auto-composite)
THOR     .ppm         UNKNOWN        : THOR:Import:rC:NONE:v0 (auto-composite)
URAN     .ppm         UNKNOWN        : URAN:Import:rC:NONE:v0 (auto-composite)
~A     DEPTH         CALI          CGR         DRHO           DT           GR       GR-LWD          LLD      LLD-LWD          LLS      LLS-LWD         MSFL     MSFL-LWD         NPHI          PEF         POTA         RHOB         THOR         URAN
# ...
   2028.1625      10.6510      20.8981       1.5510     108.7000      65.5630      65.5633       0.8510       0.8510       0.8660       1.0108       1.1490       1.2955       0.4243      10.0000       0.0057       4.6290       3.0053       0.5414
   2028.3149      10.6510      20.7764       1.5250     108.8274      65.7820      65.7821       0.8540       0.8536       1.0110       1.0844       1.2960       1.3578       0.4117      10.0000       0.0061       4.6290       2.8613       0.4998
   2028.4673      10.6510      19.9929       1.5150     109.8532      62.5300      62.5297       0.8890       0.8887       1.0840       1.1187       1.3580       1.4044       0.3903      10.0000       0.0066       4.6290       2.6140       0.4755
   2028.6196      10.6730      17.6495       1.5450     111.1801      61.0590      61.0590       1.0000       0.9999       1.1190       1.1990       1.4040       1.4345       0.4004      10.0000       0.0065       4.6290       2.4100       0.4262
   2028.7721      10.6510      16.8032       1.5700     113.0234      62.9040      62.9036       1.1150       1.1152       1.1990       1.2712       1.4340       1.5195       0.4349      10.0000       0.0055       4.6290       2.2243       0.3053
   2028.9244      10.6510      18.4897       1.5750     112.4491      62.5250      62.5252       1.1850       1.1849       1.2710       1.3724       1.5200       1.5887       0.4709      10.0000       0.0052       4.6290       2.1355       0.3257
   2029.0769      10.6390      18.0820       1.5380     112.0490      58.1780      58.1781       1.2380       1.2381       1.3720       1.4216       1.5890       1.6842       0.4975      10.0000       0.0054       4.6290       2.4977       0.5439
   2029.2292      10.6510      18.4298       1.5110     111.7636      55.7080      55.7080       1.2820       1.2818       1.4220       1.4785       1.6840       1.7918       0.4771      10.0000       0.0050       4.6290       2.5718       0.5384
   2029.3817      10.6510      19.7530       1.4960     111.9705      56.3770      56.3775       1.3430       1.3428       1.4790       1.5532       1.7920       1.8343       0.4666      10.0000       0.0047       4.6290       2.8361       0.5795
   2029.5341      10.6510      19.4788       1.5080     110.1839      57.0410      57.0412       1.3730       1.3734       1.5530       1.5668       1.8340       1.8474       0.4508      10.0000       0.0050       4.6290       3.0065       0.6440
   2029.6865      10.6510      20.1211       1.5000     108.4070      56.9780      56.9780       1.3870       1.3865       1.5670       1.5858       1.8470       1.8273       0.4520      10.0000       0.0052       4.6290       2.8645       0.5368
   2029.8389      10.6620      20.1349       1.5190     106.3746      57.3710      57.3708       1.3830       1.3826       1.5860       1.5468       1.8270       1.8136       0.4424      10.0000       0.0057       4.6290       2.8432       0.5248
   2029.9913      10.6730      21.0199       1.4990     106.3273      57.6690      57.6690       1.3610       1.3613       1.5470       1.5042       1.8140       1.7846       0.4366      10.0000       0.0056       4.6290       2.8487       0.5050
   2030.1437      10.6510      18.2105       1.4810     107.3016      55.7540      55.7536       1.3530       1.3528       1.5040       1.4699       1.7850       1.7235       0.4161      10.0000       0.0057       4.6290       3.0196       0.5929
   2030.2961      10.6510      17.6103       1.4630     107.5418      53.7310      53.7314       1.3430       1.3428       1.4700       1.4162       1.7240       1.6905       0.3974      10.0000       0.0048       4.6290       2.7013       0.5405
   2030.4485      10.6620      16.8063       1.4420     104.6920      55.1150      55.1146       1.3620       1.3621       1.4160       1.4606       1.6910       1.6961       0.3869      10.0000       0.0049       4.6290       2.5053       0.5660
   2030.6008      10.6510      17.4255       1.4330     106.2671      57.8900      57.8900       1.4300       1.4300       1.4610       1.5200       1.6960       1.7575       0.4307      10.0000       0.0051       4.6290       2.1967       0.5354
   2030.7533      10.6510      15.7471       1.4420     102.9555      58.1980      58.1979       1.5250       1.5248       1.5200       1.5658       1.7580       1.8905       0.4720      10.0000       0.0057       4.6290       2.1240       0.6188
   2030.9056      10.6510      16.2295       1.4700     100.7654      55.6350      55.6352       1.6340       1.6336       1.5660       1.7226       1.8900       2.0028       0.4799      10.0000       0.0052       4.6290       1.8917       0.5655
   2031.0581      10.6730      16.9195       1.4720     102.3591      53.9030      53.9029       1.6990       1.6988       1.7230       1.8717       2.0030       2.0650       0.4447      10.0000       0.0053       4.6290       1.9846       0.6672
   2031.2104      10.6730      16.1879       1.4440     105.3474      54.9380      54.9384       1.7070       1.7068       1.8720       1.8620       2.0650       2.0898       0.4134      10.0000       0.0053       4.6290       2.1646       0.7498
   2031.3629      10.6730      17.0417       1.4340     104.4402      55.2410      55.2411       1.7870       1.7867       1.8620       1.8280       2.0900       2.0170       0.4155      10.0000       0.0047       4.6290       2.1897       0.7304
   2031.5153      10.6510      15.9605       1.4520     105.1839      54.3970      54.3972       1.7380       1.7385       1.8280       1.7210       2.0170       1.8393       0.4121      10.0000       0.0050       4.6290       2.3366       0.7558
   2031.6677      10.6510      12.5560       1.4730     103.7000      56.3670      56.3673       1.2930       1.2932       1.7210       1.4315       1.8390       1.5777       0.4251      10.0000       0.0047       4.6290       2.1762       0.6853
   2031.8201      10.6510      12.7385       1.4910     103.3569      59.8410      59.8410       0.9620       0.9619       1.4310       1.1847       1.5780       1.3532       0.4545      10.0000       0.0039       4.6290       1.6301       0.6330
   2031.9725      10.6510      15.2472       1.5110     100.3506      60.9690      60.9690       0.9540       0.9537       1.1850       1.1050       1.3530       1.2648       0.4655      10.0000       0.0038       4.6290       1.6991       0.6781
   2032.1249      10.6510      14.2752       1.5220      96.0397      60.2870      60.2872       1.0260       1.0257       1.1050       1.1269       1.2650       1.3420       0.4383      10.0000       0.0042       4.6290       2.1660       0.8345
   2032.2773      10.6510      14.3352       1.5170      97.4964      58.7830      58.7831       1.0940       1.0941       1.1270       1.2088       1.3420       1.4540       0.4152      10.0000       0.0043       4.6290       1.8974       0.7796
   2032.4297      10.6390      13.0292       1.5000     101.2047      56.4540      56.4538       1.1280       1.1275       1.2090       1.2617       1.4540       1.5057       0.4212      10.0000       0.0042       4.6290       1.9317       0.8239
   2032.5820      10.6050      11.9019       1.5080     103.9238      54.7830      54.7829       1.1880       1.1882       1.2620       1.3753       1.5060       1.6413       0.4474      10.0000       0.0042       4.6290       1.6190       0.7893
   2032.7345      10.6620      12.1214       1.5270     108.4041      53.9510      53.9514       1.2590       1.2587       1.3750       1.5140       1.6410       1.7941       0.4392      10.0000       0.0040       4.6290       1.3781       0.8383
   2032.8868      10.6510      10.7319       1.5280     110.4108      53.1590      53.1591       1.2770       1.2772       1.5140       1.5494       1.7940       1.8474       0.4261      10.0000       0.0041       4.6290       1.4233       1.3833
   2033.0393      10.6510      11.0704       1.5260     114.7403      53.6080      53.6084       1.2480       1.2477       1.5490       1.5470       1.8470       1.8471       0.4384      10.0000       0.0036       4.6290       1.2579       1.3201
