#------------------------------------------------------------------------------
#
#   Created by  : [OpenWorks] Log Export Utility (LEXP)
#   Created on  : 2016-05-11 12:25:30
#   Project     : CANT971
#   User        : R5K
#   Interpreter : PEP
#
#------------------------------------------------------------------------------
~VERSION INFORMATION
VERS. 2.0 : CWLS Log ASCII Standard - version 2.0
WRAP. YES : Mulitple lines per depth step
~WELL INFORMATION
#MNEMONIC   .UNIT                                           VALUE :DESCRIPTION
#------------------------------------------------------------------------------
STRT        .M                                          2157.2351 :START DEPTH
STOP        .M                                          3233.6362 :STOP DEPTH
STEP        .M                                             0.1524 :STEP
NULL        .                                           -999.2500 :NULL VALUE
COMP        .                                             UNKNOWN :COMPANY
WELL        .                                              3083-V :WELL
FLD         .                                             UNKNOWN :FIELD
LOC         .                                             UNKNOWN :LOCATION
CNTY        .                                             UNKNOWN :COUNTY
STAT        .                                             UNKNOWN :STATE
CTRY        .                                             UNKNOWN :COUNTRY
SRVC        .                                             UNKNOWN :SERVICE COMPANY
DATE        .                                             UNKNOWN :LOG DATE
UWI         .                                              3083-V :UNIQUE WELL ID
XCOORD      .                                            0.000000 :SURFACE X
YCOORD      .                                            0.000000 :SURFACE Y
LAT         .                                            0.000000 :LATITUDE
LON         .                                            0.000000 :LONGITUDE
ELEV        .M                                             0.0000 :SURFACE ELEV
ELEV_TYPE   .                                                  KB :ELEV TYPE
~CURVE INFORMATION
#MNEMONIC.UNIT        API CODE       : CURVE DESCRIPTION
#------------------------------------------------------------------------------
DEPTH    .M                          : Measured Depth
CALI     .inches      UNKNOWN        : CALI:LDL-CNL:rC:NONE:v0 (auto-composite)
CGR      .API         UNKNOWN        : CGR:Espectrometria:rC:NONE:v0 (auto-composite)
DRHO     .g/cm3       UNKNOWN        : DRHO:LDL-CNL:rC:NONE:v0 (auto-composite)
DRHO-LWD .g/cm3       UNKNOWN        : DRHO-LWD:registros-LWD:rC:NONE:v0 (auto-composite)
DT       .us/ft       UNKNOWN        : DT:Sonico:rC:NONE:v0 (auto-composite)
DT-LWD   .UNKNOWN     UNKNOWN        : DT-LWD:registros-LWD:rC:NONE:v0 (auto-composite)
GR       .API         UNKNOWN        : GR:Espectrometria:rC:NONE:v0 (auto-composite)
GR-LWD   .API         UNKNOWN        : GR-LWD:PETROWORKS:rC:NONE:v1 
ILD-LWD  .ohm.m       UNKNOWN        : ILD-LWD:PETROWORKS:rC:NONE:v1 
ILM-LWD  .ohm.m       UNKNOWN        : ILM-LWD:PETROWORKS:rC:NONE:v1 
LLD      .ohm.m       UNKNOWN        : LLD:resistivos:rC:NONE:v0 (auto-composite)
LLS      .ohm.m       UNKNOWN        : LLS:resistivos:rC:NONE:v0 (auto-composite)
MSFL     .ohm.m       UNKNOWN        : MSFL:resistivos:rC:NONE:v0 (auto-composite)
NPHI     .v/v_decimal UNKNOWN        : NPHI:LDL-CNL:rC:NONE:v0 (auto-composite)
NPHI-LWD .v/v_decimal UNKNOWN        : NPHI-LWD:registros-LWD:rC:NONE:v0 (auto-composite)
PEF      .UNKNOWN     UNKNOWN        : PEF:LDL-CNL:rC:NONE:v0 (auto-composite)
PEF-LWD  .UNKNOWN     UNKNOWN        : PEF-LWD:registros-LWD:rC:NONE:v0 (auto-composite)
POTA     .UNKNOWN     UNKNOWN        : POTA:Espectrometria:rC:NONE:v0 (auto-composite)
RHOB     .g/cm3       UNKNOWN        : RHOB:LDL-CNL:rC:NONE:v0 (auto-composite)
RHOB-LWD .g/cm3       UNKNOWN        : RHOB-LWD:registros-LWD:rC:NONE:v0 (auto-composite)
THOR     .ppm         UNKNOWN        : THOR:Espectrometria:rC:NONE:v0 (auto-composite)
URAN     .ppm         UNKNOWN        : URAN:Espectrometria:rC:NONE:v0 (auto-composite)
~A
# ...
   2572.8298
       8.6274      29.6797       0.0546    -999.2500      54.0759    -999.2500
      68.3429      72.6953      11.5245      11.1807      14.5950      14.6571
       3.7177       0.1756    -999.2500       2.9543    -999.2500       0.0115
       2.4649    -999.2500       2.7642       4.8842
   2572.9824
       8.6192      29.0195       0.0781    -999.2500      60.3824    -999.2500
      65.3274      64.2364      12.6181      12.1994      14.8352      14.7169
      18.6158       0.1835    -999.2500       3.1900    -999.2500       0.0112
       2.6592    -999.2500       2.7452       4.5651
   2573.1348
       8.6175      23.9031       0.0440    -999.2500      67.2618    -999.2500
      55.5827      52.2729      13.0265      12.7124      18.9194      17.2250
      20.7184       0.1529    -999.2500       3.2313    -999.2500       0.0096
       2.6571    -999.2500       2.0376       3.9829
   2573.2871
       8.6373      18.7114       0.0457    -999.2500      68.8761    -999.2500
      43.0287      41.4897      12.9734      12.9402      17.5886      16.9107
       8.6394       0.1412    -999.2500       3.0245    -999.2500       0.0078
       2.6697    -999.2500       1.4322       3.0545
   2573.4395
       8.8241      13.7819       0.0471    -999.2500      70.2182    -999.2500
      33.7234      38.7572      13.0922      13.2750      21.6927      20.5543
      11.1419       0.1302    -999.2500       2.8290    -999.2500       0.0059
       2.6893    -999.2500       0.9619       2.4857
   2573.5918
       8.5801      12.4146       0.0342    -999.2500      67.4045    -999.2500
      31.4388      42.9797      13.0438      13.3128      22.6038      21.3756
      16.0544       0.1211    -999.2500       2.8089    -999.2500       0.0053
       2.6893    -999.2500       0.8642       2.3369
   2573.7444
       8.5785      12.5858       0.0282    -999.2500      64.2096    -999.2500
      34.1364      49.2607      12.7220      12.8996      24.6144      22.7955
      10.7480       0.1055    -999.2500       2.7718    -999.2500       0.0054
       2.6807    -999.2500       0.8569       2.6727
   2573.8967
       8.5816      12.6209       0.0229    -999.2500      64.2042    -999.2500
      38.8887      53.5479      12.4882      12.5977      28.5854      25.1206
      14.9148       0.0965    -999.2500       2.9778    -999.2500       0.0059
       2.6852    -999.2500       0.5679       3.2502
   2574.0491
       8.6724      14.3783       0.0216    -999.2500      61.8112    -999.2500
      43.4226      60.2977      12.1629      12.2339      24.8871      21.6639
      17.1101       0.0962    -999.2500       3.0220    -999.2500       0.0063
       2.6574    -999.2500       0.9260       3.5699
   2574.2014
       8.8731      14.4338       0.0136    -999.2500      62.2630    -999.2500
      45.8045      79.5736      11.4087      11.3981      24.3721      21.2128
      19.6003       0.0984    -999.2500       3.1511    -999.2500       0.0064
       2.6149    -999.2500       0.9039       3.8531
   2574.3540
       8.8374      16.7993       0.0161    -999.2500      62.3048    -999.2500
      51.3687     106.1900      10.6552      10.5298      19.7370      17.0704
       9.1426       0.1177    -999.2500       3.0333    -999.2500       0.0073
       2.5711    -999.2500       1.1207       4.2917
   2574.5063
       8.7996      21.3972       0.0264    -999.2500      63.3791    -999.2500
      65.5054     116.9301      10.5032      10.2524      15.6990      13.3605
       8.9735       0.1329    -999.2500       2.9815    -999.2500       0.0093
       2.5697    -999.2500       1.4114       5.4609
   2574.6587
       8.7957      27.0988       0.0351    -999.2500      66.1518    -999.2500
      83.5976     100.5386      10.9780      10.6242      19.2409      16.1090
      14.3598       0.1395    -999.2500       2.9437    -999.2500       0.0118
       2.5740    -999.2500       1.7266       7.0239
   2574.8110
       8.8210      29.9629       0.0401    -999.2500      68.6073    -999.2500
      94.8460      75.8053      11.6733      11.2625      18.8902      15.7489
      10.4469       0.1354    -999.2500       2.8613    -999.2500       0.0130
       2.5903    -999.2500       1.9408       8.0647
   2574.9636
       8.7724      26.3415       0.0341    -999.2500      70.4271    -999.2500
      88.9515      58.4225      12.0207      11.6238      16.9483      13.9921
       3.2553       0.1368    -999.2500       2.8585    -999.2500       0.0111
       2.6188    -999.2500       1.9385       7.7868
   2575.1160
       8.7147      21.9265       0.0266    -999.2500      71.4734    -999.2500
      73.4907      50.0957      12.0821      11.7952      13.6359      11.3418
       6.2663       0.1312    -999.2500       2.7419    -999.2500       0.0091
       2.6473    -999.2500       1.6901       6.4181
   2575.2683
       8.7158      16.2927       0.0134    -999.2500      72.2098    -999.2500
      56.7320      51.2344      11.5778      11.4569      22.2006      18.8307
      12.7853       0.1197    -999.2500       2.7837    -999.2500       0.0067
       2.6566    -999.2500       1.2853       5.0871
   2575.4207
       8.7289      12.7729       0.0098    -999.2500      67.8731    -999.2500
      47.3337      57.4315      10.9386      10.9030      23.2723      19.6378
      11.8544       0.1051    -999.2500       2.7744    -999.2500       0.0053
       2.6438    -999.2500       0.9848       4.3277
   2575.5730
       8.6711      11.9352       0.0164    -999.2500      68.0232    -999.2500
      45.5596      63.0828      10.3516      10.3693      23.3167      19.6230
      11.1755       0.1035    -999.2500       2.8217    -999.2500       0.0049
       2.5984    -999.2500       0.9341       4.2122
   2575.7256
       8.7345      12.2180       0.0490    -999.2500      65.8815    -999.2500
      51.2253      66.2728       9.9094       9.9323      20.8226      17.1479
      11.1569       0.1002    -999.2500       2.8028    -999.2500       0.0053
       2.5651    -999.2500       0.8131       4.9176
   2575.8779
       8.7548      13.9624       0.0970    -999.2500      64.8566    -999.2500
      56.5032      68.8232      10.1017      10.0847      11.8585       9.7564
      11.1877       0.1041    -999.2500       2.7798    -999.2500       0.0058
       2.5423    -999.2500       1.0288       5.3539
   2576.0303
       8.7620      14.9395       0.1248    -999.2500      70.2801    -999.2500
      61.4640      75.6007      10.4141      10.4071      10.2559       8.2960
       1.7146       0.1097    -999.2500       2.5988    -999.2500       0.0063
       2.4778    -999.2500       1.0916       5.8297
   2576.1826
       8.8137      15.6583       0.1295    -999.2500      70.8796    -999.2500
      63.1054      85.9794      10.0855      10.0004      10.1406       8.2092
       2.4128       0.1462    -999.2500       2.5447    -999.2500       0.0066
       2.4844    -999.2500       1.1523       5.9336
   2576.3352
       8.9263      17.0084       0.1186    -999.2500      73.9252    -999.2500
      67.7960      91.0672       9.2562       9.0827       9.6324       7.8216
       3.6434       0.1719    -999.2500       2.4415    -999.2500       0.0070
       2.5045    -999.2500       1.3582       6.3234
   2576.4875
       9.0008      19.6418       0.1176    -999.2500      75.6162    -999.2500
      73.2175      90.9076       8.7738       8.5585       9.7687       7.9424
       4.0697       0.1863    -999.2500       2.6728    -999.2500       0.0081
       2.6142    -999.2500       1.5376       6.7525
   2576.6399
       8.9746      23.4213       0.0766    -999.2500      76.5887    -999.2500
      79.0764      92.5750       8.4841       8.2981      13.8995      11.6148
       6.9000       0.1671    -999.2500       2.7893    -999.2500       0.0097
       2.6198    -999.2500       1.8217       7.0895
   2576.7922
       8.7334      26.9839       0.0377    -999.2500      78.0130    -999.2500
      83.7842      95.4301       8.1039       7.9612      14.3694      12.0238
       9.9067       0.1492    -999.2500       2.9727    -999.2500       0.0110
       2.6169    -999.2500       2.2377       7.2077
