#------------------------------------------------------------------------------
#
#   Created by  : [OpenWorks] Log Export Utility (LEXP)
#   Created on  : 2016-05-11 12:25:29
#   Project     : CANT971
#   User        : R5K
#   Interpreter : PEP
#
#------------------------------------------------------------------------------
~VERSION INFORMATION
VERS. 2.0 : CWLS Log ASCII Standard - version 2.0
WRAP.  NO : One line per depth step
~WELL INFORMATION
#MNEMONIC   .UNIT                                           VALUE :DESCRIPTION
#------------------------------------------------------------------------------
STRT        .M                                           770.8625 :START DEPTH
STOP        .M                                          2968.3181 :STOP DEPTH
STEP        .M                                             0.1524 :STEP
NULL        .                                           -999.2500 :NULL VALUE
COMP        .                                   PEMEX EXPL & PROD :COMPANY
WELL        .                                                3083 :WELL
FLD         .                                           CANTARELL :FIELD
LOC         .                                             UNKNOWN :LOCATION
CNTY        .                                             UNKNOWN :COUNTY
STAT        .                                            CAMPECHE :STATE
CTRY        .                                              MEXICO :COUNTRY
SRVC        .                                             UNKNOWN :SERVICE COMPANY
DATE        .                                             UNKNOWN :LOG DATE
UWI         .                                                3083 :UNIQUE WELL ID
XCOORD      .                                       597325.730000 :SURFACE X
YCOORD      .                                      2152070.080000 :SURFACE Y
LAT         .                                           19.461893 :LATITUDE
LON         .                                          -92.072746 :LONGITUDE
ELEV        .M                                            30.0000 :SURFACE ELEV
ELEV_TYPE   .                                                  KB :ELEV TYPE
~CURVE INFORMATION
#MNEMONIC.UNIT        API CODE       : CURVE DESCRIPTION
#------------------------------------------------------------------------------
DEPTH    .M                          : Measured Depth
CALI     .inches      UNKNOWN        : CALI:Import:rC:NONE:v0 (auto-composite)
CGR      .API         UNKNOWN        : CGR:Import:rC:NONE:v0 (auto-composite)
DRHO     .g/cm3       UNKNOWN        : DRHO:Import:rC:NONE:v0 (auto-composite)
DT       .us/ft       UNKNOWN        : DT:Import:rC:NONE:v0 (auto-composite)
GR       .API         UNKNOWN        : GR:Import:rC:NONE:v0 (auto-composite)
GR-LWD   .API         UNKNOWN        : GR-LWD:Import:rC:NONE:v0 (auto-composite)
LLD      .ohm.m       UNKNOWN        : LLD:Import:rC:NONE:v0 (auto-composite)
LLD-LWD  .ohm.m       UNKNOWN        : LLD-LWD:Import:rC:NONE:v0 (auto-composite)
LLS      .ohm.m       UNKNOWN        : LLS:Import:rC:NONE:v0 (auto-composite)
LLS-LWD  .ohm.m       UNKNOWN        : LLS-LWD:Import:rC:NONE:v0 (auto-composite)
MSFL     .ohm.m       UNKNOWN        : MSFL:Import:rC:NONE:v0 (auto-composite)
MSFL-LWD .ohm.m       UNKNOWN        : MSFL-LWD:Import:rC:NONE:v0 (auto-composite)
NPHI     .v/v_decimal UNKNOWN        : NPHI:Import:rC:NONE:v0 (auto-composite)
PEF      .b/elec      UNKNOWN        : PEF:Import:rC:NONE:v0 (auto-composite)
POTA     .wtpercent   UNKNOWN        : POTA:Import:rC:NONE:v0 (auto-composite)
RHOB     .g/cm3       UNKNOWN        : RHOB:Import:rC:NONE:v0 (auto-composite)
THOR     .ppm         UNKNOWN        : THOR:Import:rC:NONE:v0 (auto-composite)
URAN     .ppm         UNKNOWN        : URAN:Import:rC:NONE:v0 (auto-composite)
~A     DEPTH         CALI          CGR         DRHO           DT           GR       GR-LWD          LLD      LLD-LWD          LLS      LLS-LWD         MSFL     MSFL-LWD         NPHI          PEF         POTA         RHOB         THOR         URAN
# ...
   2113.6589      13.0070      -0.7615       0.0150      88.2000      12.8210      12.8211      86.8560      86.8564     118.0840     110.4978     143.0710     137.6118       0.0170       4.3110      -0.0008       2.6680      -0.0148       1.0468
   2113.8113      12.8240      -0.6202       0.0190      88.1945      14.5670      14.5669      82.3360      82.3360     110.4980     110.3653     137.6120     136.5699       0.0147       4.1280      -0.0002       2.6880      -0.1203       1.0586
   2113.9636      13.5560      -0.1367       0.0160      88.1494      16.2870      16.2867      76.3040      76.3043     110.3650     100.5324     136.5700     134.2753       0.0147       3.9770      -0.0002       2.6880      -0.0965       1.1039
   2114.1160      13.0300       2.3797       0.0050      88.1000      18.2080      18.2076      69.0500      69.0500     100.5320      84.9364     134.2750     114.7355       0.0151       3.9300       0.0001       2.6640      -0.0967       1.1161
   2114.2686      12.9150       7.2929       0.0230      88.1000      23.5370      23.5366      60.1240      60.1241      84.9360      62.7810     114.7350      72.2766       0.0145       4.0830       0.0016       2.6750      -0.0790       1.0649
   2114.4209      13.7620       8.4142       0.0640      88.1000      36.1830      36.1828      54.8400      54.8402      62.7810      43.1827      72.2770      39.3215       0.0285       4.3270       0.0035       2.6820       0.4220       0.9845
   2114.5732      14.0590       7.2113       0.1060      88.1000      55.7390      55.7390      66.4920      66.4922      43.1830      51.3589      39.3210      28.3756       0.0446       4.5180       0.0034       2.6380       0.7580       1.4131
   2114.7256      15.0660       6.6693       0.1340      88.1000      68.4280      68.4282      85.4870      85.4873      51.3590     155.6365      28.3760      35.0925       0.0410       4.5770       0.0019       2.5880       1.0759       2.0853
   2114.8782      17.0340       5.5272       0.1410      88.1000      63.4580      63.4575      68.5530      68.5531     155.6370     210.0868      35.0920      36.1358       0.0290       4.5320       0.0020       2.6140       0.8898       2.0090
   2115.0305      12.8470       4.4875       0.1180      88.1000      49.0120      49.0124      50.0120      50.0119     210.0870     112.6902      36.1360      32.7881       0.0156       4.4300       0.0016       2.6860       0.7386       1.9290
   2115.1829      12.9150       3.8883       0.0830      88.1000      37.5950      37.5952      47.1480      47.1480     112.6900      51.7450      32.7880      34.4797       0.0173       4.3200       0.0017       2.7360       0.4358       1.8181
   2115.3352      12.9610       4.2597       0.0480      88.1000      33.3720      33.3717      48.3090      48.3087      51.7450      39.3079      34.4800      38.0069       0.0201       4.2240       0.0018       2.7140       0.2650       1.7235
   2115.4878      12.9380       3.8874       0.0370      88.1000      32.9930      32.9934      51.0670      51.0665      39.3080      41.7024      38.0070      43.4514       0.0181       4.1980       0.0022       2.6900       0.1829       1.6522
   2115.6401      12.7900       3.2352       0.0360      88.1000      32.8580      32.8578      55.3420      55.3425      41.7020      47.3820      43.4510      46.5138       0.0113       4.2680       0.0022       2.6910       0.0744       1.5253
   2115.7925      12.5040       3.1828       0.0330      88.1000      31.9960      31.9964      54.7400      54.7404      47.3820      48.5098      46.5140      48.1370       0.0056       4.4210       0.0020       2.7050      -0.0173       1.4323
   2115.9448      12.5950       2.6401       0.0310      88.1000      30.3860      30.3864      49.7160      49.7160      48.5100      48.0144      48.1370      51.5175       0.0049       4.5400       0.0020       2.7370      -0.0413       1.3661
   2116.0972      12.7440       3.3714       0.0240    -999.2500      29.1790      29.1786      46.5630      46.5626      48.0140      48.6364      51.5180      54.6898       0.0065       4.4830       0.0022       2.7550      -0.2397       1.3006
   2116.2498      12.8240       3.8017       0.0190    -999.2500      29.7930      29.7928      45.8250      45.8250      48.6360      49.0500      54.6900      56.6550       0.0087       4.2090       0.0027       2.7640      -0.2332       1.3220
   2116.4021      12.7670       3.7770       0.0160    -999.2500      30.5000      30.4997      45.6300      45.6302      49.0500      49.0554      56.6550      57.0336       0.0111       3.8950       0.0024       2.7550      -0.0096       1.4356
   2116.5544      12.7550       5.6631       0.0100    -999.2500      29.5950      29.5953      45.4380      45.4376      49.0550      48.8055      57.0340      55.9207       0.0128       3.6680       0.0021       2.7280       0.0896       1.4581
   2116.7068      12.7100       5.8722       0.0070    -999.2500      28.4380      28.4384      45.9370      45.9365      48.8060      49.1388      55.9210      56.1164       0.0136       3.6310       0.0021       2.7070       0.5888       1.6263
   2116.8594      12.6180       7.1625       0.0030    -999.2500      28.8010      28.8006      46.8830      46.8835      49.1390      50.8661      56.1160      57.6682       0.0124       3.6880       0.0025       2.6800       0.4714       1.6307
   2117.0117      12.5490       6.5678       0.0190    -999.2500      30.1780      30.1781      47.6960      47.6959      50.8660      52.5316      57.6680      59.7381       0.0111       3.8180       0.0032       2.6670       0.5024       1.6369
   2117.1641      12.5950       7.3330       0.0560    -999.2500      31.0310      31.0314      47.9550      47.9550      52.5320      53.0317      59.7380      60.9130       0.0179       3.8980       0.0029       2.6740       0.4618       1.5566
   2117.3164      12.6410       6.2453       0.0870    -999.2500      31.2220      31.2224      47.7090      47.7095      53.0320      51.8633      60.9130      59.6636       0.0244       3.8940       0.0029       2.6870       0.6799       1.5813
   2117.4690      12.7100       6.7313       0.0860    -999.2500      31.2570      31.2567      47.7580      47.7584      51.8630      50.5346      59.6640      56.9730       0.0249       3.8310       0.0025       2.6840       0.5632       1.4946
   2117.6213      12.7320       5.5647       0.0640    -999.2500      30.9400      30.9400      49.3450      49.3445      50.5350      51.5825      56.9730      56.4695       0.0198       3.8750       0.0029       2.6730       0.5001       1.4659
   2117.7737      12.7210       3.5048       0.0360    -999.2500      29.2660      29.2657      51.7320      51.7320      51.5830      53.9593      56.4700      57.9815       0.0201       3.9940       0.0025       2.6440       0.4007       1.3690
   2117.9260      12.6870       3.2903       0.0210    -999.2500      26.4700      26.4699      52.7420      52.7421      53.9590      54.6307      57.9810      59.0283       0.0240       4.1310       0.0016       2.6250       0.2325       1.2271
   2118.0784      12.5040       5.2451       0.0040    -999.2500      24.5110      24.5107      52.9430      52.9431      54.6310      53.0447      59.0280      57.3906       0.0259       4.1470       0.0016       2.5950       0.1730       1.1872
   2118.2310      12.5150       4.2655       0.0000    -999.2500      24.4880      24.4884      53.8330      53.8327      53.0450      52.0492      57.3910      55.6972       0.0235       4.0590       0.0024       2.6030       0.3405       1.2147
   2118.3833      12.6180       4.3299       0.0020    -999.2500      25.4620      25.4616      54.6440      54.6443      52.0490      52.6316      55.6970      54.5508       0.0226       3.9720       0.0018       2.6330       0.3641       1.1932
   2118.5356      12.6180       4.7890       0.0050    -999.2500      26.6410      26.6406      55.6180      55.6177      52.6320      53.2609      54.5510      54.7821       0.0271       3.9560       0.0015       2.6490       0.5200       1.2159
