#------------------------------------------------------------------------------
#
#   Created by  : [OpenWorks] Log Export Utility (LEXP)
#   Created on  : 2016-05-11 12:25:30
#   Project     : CANT971
#   User        : R5K
#   Interpreter : PEP
#
#------------------------------------------------------------------------------
~VERSION INFORMATION
VERS. 2.0 : CWLS Log ASCII Standard - version 2.0
WRAP. YES : Mulitple lines per depth step
~WELL INFORMATION
#MNEMONIC   .UNIT                                           VALUE :DESCRIPTION
#------------------------------------------------------------------------------
STRT        .M                                          2157.2351 :START DEPTH
STOP        .M                                          3233.6362 :STOP DEPTH
STEP        .M                                             0.1524 :STEP
NULL        .                                           -999.2500 :NULL VALUE
COMP        .                                             UNKNOWN :COMPANY
WELL        .                                              3083-V :WELL
FLD         .                                             UNKNOWN :FIELD
LOC         .                                             UNKNOWN :LOCATION
CNTY        .                                             UNKNOWN :COUNTY
STAT        .                                             UNKNOWN :STATE
CTRY        .                                             UNKNOWN :COUNTRY
SRVC        .                                             UNKNOWN :SERVICE COMPANY
DATE        .                                             UNKNOWN :LOG DATE
UWI         .                                              3083-V :UNIQUE WELL ID
XCOORD      .                                            0.000000 :SURFACE X
YCOORD      .                                            0.000000 :SURFACE Y
LAT         .                                            0.000000 :LATITUDE
LON         .                                            0.000000 :LONGITUDE
ELEV        .M                                             0.0000 :SURFACE ELEV
ELEV_TYPE   .                                                  KB :ELEV TYPE
~CURVE INFORMATION
#MNEMONIC.UNIT        API CODE       : CURVE DESCRIPTION
#------------------------------------------------------------------------------
DEPTH    .M                          : Measured Depth
CALI     .inches      UNKNOWN        : CALI:LDL-CNL:rC:NONE:v0 (auto-composite)
CGR      .API         UNKNOWN        : CGR:Espectrometria:rC:NONE:v0 (auto-composite)
DRHO     .g/cm3       UNKNOWN        : DRHO:LDL-CNL:rC:NONE:v0 (auto-composite)
DRHO-LWD .g/cm3       UNKNOWN        : DRHO-LWD:registros-LWD:rC:NONE:v0 (auto-composite)
DT       .us/ft       UNKNOWN        : DT:Sonico:rC:NONE:v0 (auto-composite)
DT-LWD   .UNKNOWN     UNKNOWN        : DT-LWD:registros-LWD:rC:NONE:v0 (auto-composite)
GR       .API         UNKNOWN        : GR:Espectrometria:rC:NONE:v0 (auto-composite)
GR-LWD   .API         UNKNOWN        : GR-LWD:PETROWORKS:rC:NONE:v1 
ILD-LWD  .ohm.m       UNKNOWN        : ILD-LWD:PETROWORKS:rC:NONE:v1 
ILM-LWD  .ohm.m       UNKNOWN        : ILM-LWD:PETROWORKS:rC:NONE:v1 
LLD      .ohm.m       UNKNOWN        : LLD:resistivos:rC:NONE:v0 (auto-composite)
LLS      .ohm.m       UNKNOWN        : LLS:resistivos:rC:NONE:v0 (auto-composite)
MSFL     .ohm.m       UNKNOWN        : MSFL:resistivos:rC:NONE:v0 (auto-composite)
NPHI     .v/v_decimal UNKNOWN        : NPHI:LDL-CNL:rC:NONE:v0 (auto-composite)
NPHI-LWD .v/v_decimal UNKNOWN        : NPHI-LWD:registros-LWD:rC:NONE:v0 (auto-composite)
PEF      .UNKNOWN     UNKNOWN        : PEF:LDL-CNL:rC:NONE:v0 (auto-composite)
PEF-LWD  .UNKNOWN     UNKNOWN        : PEF-LWD:registros-LWD:rC:NONE:v0 (auto-composite)
POTA     .UNKNOWN     UNKNOWN        : POTA:Espectrometria:rC:NONE:v0 (auto-composite)
RHOB     .g/cm3       UNKNOWN        : RHOB:LDL-CNL:rC:NONE:v0 (auto-composite)
RHOB-LWD .g/cm3       UNKNOWN        : RHOB-LWD:registros-LWD:rC:NONE:v0 (auto-composite)
THOR     .ppm         UNKNOWN        : THOR:Espectrometria:rC:NONE:v0 (auto-composite)
URAN     .ppm         UNKNOWN        : URAN:Espectrometria:rC:NONE:v0 (auto-composite)
~A
# ...
   2321.8271
      10.0227       2.4943       0.0353    -999.2500      64.4922    -999.2500
      41.2421    -999.2500    -999.2500    -999.2500      91.3763      47.9627
      28.3251       0.0687    -999.2500       2.9823    -999.2500       0.0010
       2.7148    -999.2500       0.2475       4.7344
   2321.9795
       9.9129       1.4486       0.0275    -999.2500      64.0579    -999.2500
      33.2100    -999.2500    -999.2500    -999.2500      96.9097      49.3742
      23.9263       0.0618    -999.2500       2.9897    -999.2500       0.0008
       2.7155    -999.2500       0.0219       3.8694
   2322.1318
       9.8668       1.1841       0.0167    -999.2500      65.3617    -999.2500
      28.1577    -999.2500    -999.2500    -999.2500      98.8615      49.5767
      25.8100       0.0549    -999.2500       3.1245    -999.2500       0.0006
       2.7217    -999.2500       0.0129       3.3214
   2322.2844
       9.8618       0.8156       0.0140    -999.2500      68.2840    -999.2500
      25.8913    -999.2500    -999.2500    -999.2500     113.2563      55.9350
      25.1474       0.0500    -999.2500       3.2112    -999.2500       0.0005
       2.7285    -999.2500      -0.0060       3.1048
   2322.4368
       9.9089       0.9333       0.0100    -999.2500      67.5550    -999.2500
      26.5794    -999.2500    -999.2500    -999.2500     175.7393      82.7764
      24.2696       0.0473    -999.2500       3.1306    -999.2500       0.0005
       2.7188    -999.2500       0.0201       3.2187
   2322.5891
       9.9407       1.4086       0.0051    -999.2500      62.8140    -999.2500
      28.5311    -999.2500    -999.2500    -999.2500     197.6938      89.4824
      25.8435       0.0478    -999.2500       2.9052    -999.2500       0.0007
       2.6852    -999.2500       0.0206       3.4350
   2322.7415
       9.9816       1.5876       0.0024    -999.2500      64.1984    -999.2500
      31.5910    -999.2500    -999.2500    -999.2500     184.1925      81.6939
      10.6674       0.0502    -999.2500       2.7292    -999.2500       0.0008
       2.6413    -999.2500       0.0465       3.8147
   2322.8938
      10.0686       2.1555       0.0065    -999.2500      59.7715    -999.2500
      32.3211    -999.2500    -999.2500    -999.2500     155.1532      68.5156
      10.7546       0.0594    -999.2500       2.6585    -999.2500       0.0011
       2.6164    -999.2500       0.0807       3.8276
   2323.0464
      10.3086       1.5709       0.0049    -999.2500      58.3946    -999.2500
      33.3280    -999.2500    -999.2500    -999.2500     137.2728      60.2005
      16.5870       0.0665    -999.2500       2.7896    -999.2500       0.0009
       2.5825    -999.2500       0.0088       4.0318
   2323.1987
      10.3188       1.4568       0.0076    -999.2500      56.6223    -999.2500
      34.1396    -999.2500    -999.2500    -999.2500     148.7208      66.0955
      12.5995       0.0793    -999.2500       2.9762    -999.2500       0.0008
       2.5555    -999.2500       0.0196       4.0987
   2323.3511
      10.2715       1.6069       0.0082    -999.2500      56.0615    -999.2500
      36.3529    -999.2500    -999.2500    -999.2500     141.8077      64.0571
      17.8573       0.0860    -999.2500       2.9591    -999.2500       0.0008
       2.5416    -999.2500       0.0171       4.3544
   2323.5034
      10.3075       1.6061       0.0101    -999.2500      56.3350    -999.2500
      35.0877    -999.2500    -999.2500    -999.2500     130.4908      60.7574
      20.9215       0.0831    -999.2500       2.9945    -999.2500       0.0009
       2.5890    -999.2500       0.0157       4.2081
   2323.6560
      10.3000       1.2400       0.0143    -999.2500      58.4405    -999.2500
      33.1700    -999.2500    -999.2500    -999.2500     125.3267      60.5574
      27.0430       0.0716    -999.2500       2.8140    -999.2500       0.0007
       2.6425    -999.2500       0.0111       3.9771
   2323.8083
      10.1980       1.5398       0.0177    -999.2500      59.4292    -999.2500
      31.9822    -999.2500    -999.2500    -999.2500     109.8443      55.7168
      16.8911       0.0672    -999.2500       2.8503    -999.2500       0.0007
       2.6623    -999.2500       0.0591       3.7906
   2323.9607
       9.7872       1.6238       0.0097    -999.2500      64.6585    -999.2500
      33.0994    -999.2500    -999.2500    -999.2500     107.1016      55.4351
      24.3648       0.0752    -999.2500       2.8060    -999.2500       0.0008
       2.5983    -999.2500       0.0644       3.9386
   2324.1130
       9.5580       1.6704       0.0062    -999.2500      64.2910    -999.2500
      34.6625    -999.2500    -999.2500    -999.2500     113.4628      59.6734
      10.9288       0.0893    -999.2500       2.8846    -999.2500       0.0008
       2.5645    -999.2500       0.0920       4.0985
   2324.2656
       9.4614       1.5824       0.0082    -999.2500      63.1218    -999.2500
      35.5838    -999.2500    -999.2500    -999.2500     120.0787      63.4365
      10.1930       0.0952    -999.2500       2.9807    -999.2500       0.0007
       2.5489    -999.2500       0.1144       4.2021
   2324.4180
       9.4834       1.4891       0.0098    -999.2500      65.0079    -999.2500
      35.8130    -999.2500    -999.2500    -999.2500     128.1894      67.2153
      11.8409       0.0942    -999.2500       3.0231    -999.2500       0.0007
       2.5637    -999.2500       0.1023       4.2521
   2324.5703
       9.6800       1.1696       0.0172    -999.2500      66.4185    -999.2500
      35.1136    -999.2500    -999.2500    -999.2500     120.1932      61.9376
      13.5118       0.0905    -999.2500       2.8930    -999.2500       0.0004
       2.5812    -999.2500       0.1694       4.1984
   2324.7227
      10.0361       1.0303       0.0268    -999.2500      65.2817    -999.2500
      34.2687    -999.2500    -999.2500    -999.2500     115.4315      58.1430
      13.5290       0.0793    -999.2500       2.8660    -999.2500       0.0003
       2.6042    -999.2500       0.1815       4.0884
   2324.8750
      10.0299       1.0758       0.0319    -999.2500      66.3411    -999.2500
      32.8929    -999.2500    -999.2500    -999.2500     114.2515      57.2435
      17.3232       0.0734    -999.2500       2.8293    -999.2500       0.0003
       2.6166    -999.2500       0.1930       3.9170
   2325.0276
       9.5724       1.2873       0.0299    -999.2500      71.1570    -999.2500
      31.0492    -999.2500    -999.2500    -999.2500     128.9055      63.6528
      16.1823       0.0760    -999.2500       2.9664    -999.2500       0.0002
       2.5939    -999.2500       0.2933       3.6617
   2325.1799
       9.5391       1.3850       0.0135    -999.2500      72.4394    -999.2500
      27.1450    -999.2500    -999.2500    -999.2500     150.1403      77.2713
      11.5006       0.0819    -999.2500       2.8069    -999.2500       0.0003
       2.5584    -999.2500       0.2876       3.2010
   2325.3323
       9.5583       1.2204       0.0079    -999.2500      72.4586    -999.2500
      21.4379    -999.2500    -999.2500    -999.2500     151.7963      82.1331
      22.9160       0.0855    -999.2500       2.8135    -999.2500       0.0003
       2.5508    -999.2500       0.2504       2.5486
   2325.4846
       9.5439       0.8696       0.0046    -999.2500      71.9992    -999.2500
      16.2128    -999.2500    -999.2500    -999.2500     158.1205      87.7155
      32.6368       0.0849    -999.2500       2.8395    -999.2500       0.0001
       2.5851    -999.2500       0.2428       1.9224
   2325.6372
       9.3376       1.1144       0.0088    -999.2500      66.9288    -999.2500
      13.3888    -999.2500    -999.2500    -999.2500     187.2109     111.0448
      26.2545       0.0803    -999.2500       2.9889    -999.2500       0.0000
       2.6335    -999.2500       0.3407       1.5225
   2325.7896
       9.2844       1.2872       0.0100    -999.2500      66.5160    -999.2500
      13.1641    -999.2500    -999.2500    -999.2500     166.7831     105.7237
      12.9967       0.0822    -999.2500       2.9290    -999.2500       0.0001
       2.6482    -999.2500       0.3649       1.4773
