#------------------------------------------------------------------------------
#
#   Created by  : [OpenWorks] Log Export Utility (LEXP)
#   Created on  : 2016-05-11 12:25:29
#   Project     : CANT971
#   User        : R5K
#   Interpreter : PEP
#
#------------------------------------------------------------------------------
~VERSION INFORMATION
VERS. 2.0 : CWLS Log ASCII Standard - version 2.0
WRAP.  NO : One line per depth step
~WELL INFORMATION
#MNEMONIC   .UNIT                                           VALUE :DESCRIPTION
#------------------------------------------------------------------------------
STRT        .M                                           770.8625 :START DEPTH
STOP        .M                                          2968.3181 :STOP DEPTH
STEP        .M                                             0.1524 :STEP
NULL        .                                           -999.2500 :NULL VALUE
COMP        .                                   PEMEX EXPL & PROD :COMPANY
WELL        .                                                3083 :WELL
FLD         .                                           CANTARELL :FIELD
LOC         .                                             UNKNOWN :LOCATION
CNTY        .                                             UNKNOWN :COUNTY
STAT        .                                            CAMPECHE :STATE
CTRY        .                                              MEXICO :COUNTRY
SRVC        .                                             UNKNOWN :SERVICE COMPANY
DATE        .                                             UNKNOWN :LOG DATE
UWI         .                                                3083 :UNIQUE WELL ID
XCOORD      .                                       597325.730000 :SURFACE X
YCOORD      .                                      2152070.080000 :SURFACE Y
LAT         .                                           19.461893 :LATITUDE
LON         .                                          -92.072746 :LONGITUDE
ELEV        .M                                            30.0000 :SURFACE ELEV
ELEV_TYPE   .                                                  KB :ELEV TYPE
~CURVE INFORMATION
#MNEMONIC.UNIT        API CODE       : CURVE DESCRIPTION
#------------------------------------------------------------------------------
DEPTH    .M                          : Measured Depth
CALI     .inches      UNKNOWN        : CALI:Import:rC:NONE:v0 (auto-composite)
CGR      .API         UNKNOWN        : CGR:Import:rC:NONE:v0 (auto-composite)
DRHO     .g/cm3       UNKNOWN        : DRHO:Import:rC:NONE:v0 (auto-composite)
DT       .us/ft       UNKNOWN        : DT:Import:rC:NONE:v0 (auto-composite)
GR       .API         UNKNOWN        : GR:Import:rC:NONE:v0 (auto-composite)
GR-LWD   .API         UNKNOWN        : GR-LWD:Import:rC:NONE:v0 (auto-composite)
LLD      .ohm.m       UNKNOWN        : LLD:Import:rC:NONE:v0 (auto-composite)
LLD-LWD  .ohm.m       UNKNOWN        : LLD-LWD:Import:rC:NONE:v0 (auto-composite)
LLS      .ohm.m       UNKNOWN        : LLS:Import:rC:NONE:v0 (auto-composite)
LLS-LWD  .ohm.m       UNKNOWN        : LLS-LWD:Import:rC:NONE:v0 (auto-composite)
MSFL     .ohm.m       UNKNOWN        : MSFL:Import:rC:NONE:v0 (auto-composite)
MSFL-LWD .ohm.m       UNKNOWN        : MSFL-LWD:Import:rC:NONE:v0 (auto-composite)
NPHI     .v/v_decimal UNKNOWN        : NPHI:Import:rC:NONE:v0 (auto-composite)
PEF      .b/elec      UNKNOWN        : PEF:Import:rC:NONE:v0 (auto-composite)
POTA     .wtpercent   UNKNOWN        : POTA:Import:rC:NONE:v0 (auto-composite)
RHOB     .g/cm3       UNKNOWN        : RHOB:Import:rC:NONE:v0 (auto-composite)
THOR     .ppm         UNKNOWN        : THOR:Import:rC:NONE:v0 (auto-composite)
URAN     .ppm         UNKNOWN        : URAN:Import:rC:NONE:v0 (auto-composite)
~A     DEPTH         CALI          CGR         DRHO           DT           GR       GR-LWD          LLD      LLD-LWD          LLS      LLS-LWD         MSFL     MSFL-LWD         NPHI          PEF         POTA         RHOB         THOR         URAN
# ...
   2686.9878    -999.2500       4.1481    -999.2500    -999.2500      24.4300      24.4296     710.7440     710.7441     769.1560     736.1970     944.5930     751.0962       0.0722    -999.2500       0.0023    -999.2500       0.2513       1.5788
   2687.1401    -999.2500       4.4297    -999.2500    -999.2500      26.5940      26.5935     688.5080     688.5079     736.1970     705.0129     751.0960     598.7323       0.0674    -999.2500       0.0020    -999.2500       0.2139       1.5651
   2687.2925    -999.2500       3.6814    -999.2500    -999.2500      28.8060      28.8060     803.9780     803.9777     705.0130     812.3869     598.7320     574.4172       0.0604    -999.2500       0.0024    -999.2500       0.1676       1.6074
   2687.4448    -999.2500       5.2406    -999.2500    -999.2500      28.8710      28.8708     913.0330     913.0330     812.3870     863.6517     574.4170     698.9528       0.0555    -999.2500       0.0027    -999.2500      -0.1977       1.4767
   2687.5972    -999.2500       2.7812    -999.2500    -999.2500      27.0970      27.0968     773.3650     773.3645     863.6520     824.9839     698.9530     708.9559       0.0507    -999.2500       0.0026    -999.2500       0.2464       1.7709
   2687.7498    -999.2500       0.8873    -999.2500    -999.2500      25.9520      25.9524     637.7750     637.7753     824.9840     840.0898     708.9560     614.5971       0.0504    -999.2500       0.0014    -999.2500       0.1288       1.6680
   2687.9021    -999.2500       1.9584    -999.2500    -999.2500      27.1560      27.1559     601.6920     601.6915     840.0900     677.8975     614.5970     566.3942       0.0504    -999.2500       0.0004    -999.2500       0.0606       1.6083
   2688.0544    -999.2500       2.4470    -999.2500    -999.2500      29.7620      29.7620     671.3070     671.3066     677.8980     555.5900     566.3940     501.3365       0.0552    -999.2500       0.0007    -999.2500       0.1829       1.6565
   2688.2068    -999.2500       3.8516    -999.2500    -999.2500      30.8260      30.8260     840.2830     840.2829     555.5900     460.1957     501.3360     425.8336       0.0601    -999.2500       0.0010    -999.2500       0.2198       1.6129
   2688.3594    -999.2500       5.4162    -999.2500    -999.2500      31.6180      31.6183     830.5390     830.5392     460.1960     398.2457     425.8340     377.2708       0.0675    -999.2500       0.0013    -999.2500       0.4277       1.6153
   2688.5117    -999.2500       6.6535    -999.2500    -999.2500      35.5850      35.5850     676.6500     676.6496     398.2460     426.3650     377.2710     374.8935       0.0759    -999.2500       0.0015    -999.2500       0.7749       1.6609
   2688.6641    -999.2500       6.6099    -999.2500    -999.2500      40.1170      40.1166     603.9100     603.9102     426.3650     435.3071     374.8930     393.9173       0.0940    -999.2500       0.0018    -999.2500       0.9715       1.7358
   2688.8164    -999.2500       5.7890    -999.2500    -999.2500      38.9850      38.9852     624.3860     624.3861     435.3070     474.0991     393.9170     433.8989       0.1019    -999.2500       0.0020    -999.2500       0.8857       1.7728
   2688.9690    -999.2500       2.3987    -999.2500    -999.2500      32.9590      32.9592     746.5810     746.5812     474.0990     514.7085     433.8990     510.2046       0.0857    -999.2500       0.0017    -999.2500       0.7957       1.7785
   2689.1213    -999.2500       2.1619    -999.2500    -999.2500      27.4470      27.4474     801.7010     801.7006     514.7080     510.0067     510.2050     574.5457       0.0678    -999.2500       0.0008    -999.2500       0.2767       1.7041
   2689.2737    -999.2500       1.5325    -999.2500    -999.2500      23.3490      23.3486     666.9550     666.9548     510.0070     574.3608     574.5460     663.7132       0.0577    -999.2500       0.0005    -999.2500       0.3568       1.7539
   2689.4260    -999.2500       2.8980    -999.2500    -999.2500      21.1070      21.1070     626.9340     626.9337     574.3610     832.9817     663.7130     857.5189       0.0546    -999.2500       0.0003    -999.2500       0.2770       1.7876
   2689.5784    -999.2500       4.2883    -999.2500    -999.2500      22.3530      22.3525     660.1950     660.1951     832.9820    1000.3331     857.5190     988.9301       0.0538    -999.2500       0.0010    -999.2500       0.3101       1.9405
   2689.7310    -999.2500       5.7725    -999.2500    -999.2500      25.5880      25.5879     646.4150     646.4148    1000.3330     852.6827     988.9300     978.6468       0.0556    -999.2500       0.0017    -999.2500       0.3775       2.0132
   2689.8833    -999.2500       9.4699    -999.2500    -999.2500      27.5920      27.5923     577.9570     577.9570     852.6830     726.7455     978.6470     901.3000       0.0584    -999.2500       0.0022    -999.2500       0.5746       2.1108
   2690.0356    -999.2500       7.6296    -999.2500    -999.2500      27.9360      27.9358     543.7380     543.7380     726.7450     696.8050     901.3000     697.2398       0.0654    -999.2500       0.0036    -999.2500       0.9186       2.2810
   2690.1880    -999.2500       9.9906    -999.2500    -999.2500      27.8050      27.8047     537.0800     537.0804     696.8050     574.1013     697.2400     530.3403       0.0754    -999.2500       0.0028    -999.2500       0.7997       1.9939
   2690.3406    -999.2500       9.3695    -999.2500    -999.2500      27.6220      27.6219     496.9750     496.9746     574.1010     493.1990     530.3400     469.8504       0.0864    -999.2500       0.0034    -999.2500       1.1759       1.1510
   2690.4929    -999.2500       8.9651    -999.2500    -999.2500      28.0170      28.0171     451.4370     451.4369     493.1990     478.5317     469.8500     465.5256       0.0908    -999.2500       0.0031    -999.2500       1.1060       0.9928
   2690.6453    -999.2500       6.5770    -999.2500    -999.2500      29.3080      29.3078     427.2080     427.2082     478.5320     437.2500     465.5260     469.5165       0.0902    -999.2500       0.0032    -999.2500       0.9990       0.9744
   2690.7976    -999.2500       6.8756    -999.2500    -999.2500      30.4310      30.4308     371.9080     371.9081     437.2500     351.6509     469.5170     381.2244       0.0888    -999.2500       0.0031    -999.2500       0.4269       1.0288
   2690.9502    -999.2500       8.0867    -999.2500    -999.2500      31.0460      31.0457     289.4340     289.4340     351.6510     296.1192     381.2240     268.1341       0.0857    -999.2500       0.0036    -999.2500       0.2945       1.4704
   2691.1025    -999.2500       4.7025    -999.2500    -999.2500      33.1210      33.1209     231.1530     231.1533     296.1190     241.5257     268.1340     225.9106       0.0768    -999.2500       0.0037    -999.2500       0.5198       1.6524
   2691.2549    -999.2500       4.2642    -999.2500    -999.2500      40.9910      40.9909     191.1260     191.1258     241.5260     184.1217     225.9110     175.7554       0.0668    -999.2500       0.0025    -999.2500       0.1686       1.4562
   2691.4072    -999.2500       3.7608    -999.2500    -999.2500      53.4760      53.4758     156.4210     156.4211     184.1220     139.7705     175.7550     131.5888       0.0634    -999.2500       0.0024    -999.2500       0.1079       1.4596
   2691.5596    -999.2500       3.7506    -999.2500    -999.2500      62.8310      62.8305     134.0850     134.0853     139.7700     111.4033     131.5890     102.7747       0.0681    -999.2500       0.0022    -999.2500       0.0482       1.4861
   2691.7122    -999.2500       2.8037    -999.2500    -999.2500      64.8600      64.8604     113.8040     113.8039     111.4030      89.2625     102.7750      88.4991       0.0721    -999.2500       0.0022    -999.2500       0.0216       1.6065
   2691.8645    -999.2500       3.1524    -999.2500    -999.2500      64.6950      64.6947      91.8940      91.8937      89.2620      73.2798      88.4990      77.0499       0.0760    -999.2500       0.0025    -999.2500      -0.3263       2.1335
