#------------------------------------------------------------------------------
#
#   Created by  : [OpenWorks] Log Export Utility (LEXP)
#   Created on  : 2016-05-11 12:25:30
#   Project     : CANT971
#   User        : R5K
#   Interpreter : PEP
#
#------------------------------------------------------------------------------
~VERSION INFORMATION
VERS. 2.0 : CWLS Log ASCII Standard - version 2.0
WRAP. YES : Mulitple lines per depth step
~WELL INFORMATION
#MNEMONIC   .UNIT                                           VALUE :DESCRIPTION
#------------------------------------------------------------------------------
STRT        .M                                          2157.2351 :START DEPTH
STOP        .M                                          3233.6362 :STOP DEPTH
STEP        .M                                             0.1524 :STEP
NULL        .                                           -999.2500 :NULL VALUE
COMP        .                                             UNKNOWN :COMPANY
WELL        .                                              3083-V :WELL
FLD         .                                             UNKNOWN :FIELD
LOC         .                                             UNKNOWN :LOCATION
CNTY        .                                             UNKNOWN :COUNTY
STAT        .                                             UNKNOWN :STATE
CTRY        .                                             UNKNOWN :COUNTRY
SRVC        .                                             UNKNOWN :SERVICE COMPANY
DATE        .                                             UNKNOWN :LOG DATE
UWI         .                                              3083-V :UNIQUE WELL ID
XCOORD      .                                            0.000000 :SURFACE X
YCOORD      .                                            0.000000 :SURFACE Y
LAT         .                                            0.000000 :LATITUDE
LON         .                                            0.000000 :LONGITUDE
ELEV        .M                                             0.0000 :SURFACE ELEV
ELEV_TYPE   .                                                  KB :ELEV TYPE
~CURVE INFORMATION
#MNEMONIC.UNIT        API CODE       : CURVE DESCRIPTION
#------------------------------------------------------------------------------
DEPTH    .M                          : Measured Depth
CALI     .inches      UNKNOWN        : CALI:LDL-CNL:rC:NONE:v0 (auto-composite)
CGR      .API         UNKNOWN        : CGR:Espectrometria:rC:NONE:v0 (auto-composite)
DRHO     .g/cm3       UNKNOWN        : DRHO:LDL-CNL:rC:NONE:v0 (auto-composite)
DRHO-LWD .g/cm3       UNKNOWN        : DRHO-LWD:registros-LWD:rC:NONE:v0 (auto-composite)
DT       .us/ft       UNKNOWN        : DT:Sonico:rC:NONE:v0 (auto-composite)
DT-LWD   .UNKNOWN     UNKNOWN        : DT-LWD:registros-LWD:rC:NONE:v0 (auto-composite)
GR       .API         UNKNOWN        : GR:Espectrometria:rC:NONE:v0 (auto-composite)
GR-LWD   .API         UNKNOWN        : GR-LWD:PETROWORKS:rC:NONE:v1 
ILD-LWD  .ohm.m       UNKNOWN        : ILD-LWD:PETROWORKS:rC:NONE:v1 
ILM-LWD  .ohm.m       UNKNOWN        : ILM-LWD:PETROWORKS:rC:NONE:v1 
LLD      .ohm.m       UNKNOWN        : LLD:resistivos:rC:NONE:v0 (auto-composite)
LLS      .ohm.m       UNKNOWN        : LLS:resistivos:rC:NONE:v0 (auto-composite)
MSFL     .ohm.m       UNKNOWN        : MSFL:resistivos:rC:NONE:v0 (auto-composite)
NPHI     .v/v_decimal UNKNOWN        : NPHI:LDL-CNL:rC:NONE:v0 (auto-composite)
NPHI-LWD .v/v_decimal UNKNOWN        : NPHI-LWD:registros-LWD:rC:NONE:v0 (auto-composite)
PEF      .UNKNOWN     UNKNOWN        : PEF:LDL-CNL:rC:NONE:v0 (auto-composite)
PEF-LWD  .UNKNOWN     UNKNOWN        : PEF-LWD:registros-LWD:rC:NONE:v0 (auto-composite)
POTA     .UNKNOWN     UNKNOWN        : POTA:Espectrometria:rC:NONE:v0 (auto-composite)
RHOB     .g/cm3       UNKNOWN        : RHOB:LDL-CNL:rC:NONE:v0 (auto-composite)
RHOB-LWD .g/cm3       UNKNOWN        : RHOB-LWD:registros-LWD:rC:NONE:v0 (auto-composite)
THOR     .ppm         UNKNOWN        : THOR:Espectrometria:rC:NONE:v0 (auto-composite)
URAN     .ppm         UNKNOWN        : URAN:Espectrometria:rC:NONE:v0 (auto-composite)
~A
# ...
   2613.9780
       8.8033      30.3805       0.0067    -999.2500      56.5884    -999.2500
      96.9162      97.1462      57.5241      52.2524      34.3673      32.4699
       5.2848       0.0918    -999.2500       3.1059    -999.2500       0.0126
       2.6409    -999.2500       2.3698       8.2612
   2614.1304
       8.8794      20.9180       0.0038    -999.2500      60.3374    -999.2500
      68.9409      66.1852      63.1483      59.8374      43.3814      39.3860
       5.6377       0.1147    -999.2500       2.9283    -999.2500       0.0088
       2.6260    -999.2500       1.5475       5.9782
   2614.2827
       9.0347      16.4505       0.0041    -999.2500      59.2287    -999.2500
      53.2832      53.4718      65.6571      65.8460     135.2708     111.1064
      15.7961       0.1211    -999.2500       2.9656    -999.2500       0.0069
       2.6382    -999.2500       1.2058       4.6044
   2614.4351
       9.0761      14.5566       0.0118    -999.2500      63.9332    -999.2500
      47.9933      52.4054      72.6344      74.2737     200.8580     163.7383
      19.7146       0.1044    -999.2500       3.0233    -999.2500       0.0062
       2.6986    -999.2500       1.0436       4.1893
   2614.5874
       9.0178      14.3265       0.0089    -999.2500      57.3870    -999.2500
      49.5790      52.5520      68.3505      67.6965     192.8809     153.4316
      20.5938       0.0796    -999.2500       3.1068    -999.2500       0.0063
       2.7069    -999.2500       0.8921       4.3783
   2614.7400
       8.7367      12.8846       0.0085    -999.2500      61.1775    -999.2500
      49.3002      51.9789      48.6399      46.8607     189.6035     149.2149
      17.2038       0.0539    -999.2500       3.1873    -999.2500       0.0055
       2.7070    -999.2500       0.9061       4.5126
   2614.8923
       8.7231      11.9743       0.0090    -999.2500      63.2853    -999.2500
      49.5962      53.1662      51.4662      49.8049     174.2121     127.3423
      12.3800       0.0431    -999.2500       3.1933    -999.2500       0.0052
       2.6989    -999.2500       0.8046       4.6973
   2615.0447
       8.7093      12.2750       0.0071    -999.2500      64.9893    -999.2500
      50.4887      57.2762      58.0102      55.9518     148.3952      96.3042
       1.2893       0.0462    -999.2500       2.9756    -999.2500       0.0052
       2.6634    -999.2500       0.8960       4.7295
   2615.1970
       8.6133      11.9967       0.0056    -999.2500      66.8465    -999.2500
      54.5301      62.7094      65.3324      62.0624     148.3056      93.1188
       1.2846       0.0515    -999.2500       2.8004    -999.2500       0.0052
       2.6641    -999.2500       0.8162       5.2285
   2615.3496
       8.5890      13.4252       0.0065    -999.2500      64.9627    -999.2500
      60.2166      67.2111      70.3997      66.8026     153.9106      96.1029
       6.0290       0.0568    -999.2500       2.8675    -999.2500       0.0057
       2.6777    -999.2500       0.9802       5.7729
   2615.5020
       8.5753      13.8248       0.0062    -999.2500      63.6506    -999.2500
      62.5830      70.2537      73.9330      69.9931     207.1167     126.4576
      21.2106       0.0582    -999.2500       3.1316    -999.2500       0.0056
       2.7171    -999.2500       1.1223       6.0120
   2615.6543
       8.5731      15.1011       0.0082    -999.2500      61.5457    -999.2500
      64.9120      72.2648      74.5347      69.6509     228.9834     137.6435
      17.4104       0.0608    -999.2500       3.2528    -999.2500       0.0061
       2.7305    -999.2500       1.2811       6.1568
   2615.8066
       8.5522      16.1815       0.0079    -999.2500      57.2704    -999.2500
      66.5037      73.9811      73.6548      69.4957     240.8212     150.0502
      17.2981       0.0612    -999.2500       3.2191    -999.2500       0.0061
       2.7186    -999.2500       1.6008       6.2228
   2615.9592
       8.5071      17.5699       0.0084    -999.2500      56.5856    -999.2500
      72.6686      77.6732      73.2259      69.9837     238.8011     148.9108
      12.7446       0.0634    -999.2500       3.1258    -999.2500       0.0067
       2.6957    -999.2500       1.7001       6.8092
   2616.1116
       8.5056      19.5941       0.0081    -999.2500      59.3862    -999.2500
      79.2111      84.8694      74.6763      70.8006     235.8680     147.3057
      16.3347       0.0658    -999.2500       3.0040    -999.2500       0.0076
       2.6757    -999.2500       1.7961       7.3037
   2616.2639
       8.5046      20.0239       0.0127    -999.2500      57.6816    -999.2500
      83.3004      91.4881      76.5590      71.1219     201.7112     127.0374
      15.5130       0.0680    -999.2500       2.9079    -999.2500       0.0078
       2.6719    -999.2500       1.8338       7.8417
   2616.4163
       8.5186      18.0318       0.0176    -999.2500      56.6776    -999.2500
      79.9760      90.8181      76.6708      70.9952     149.2252      98.3508
      12.4260       0.0715    -999.2500       2.9395    -999.2500       0.0072
       2.6605    -999.2500       1.5537       7.7196
   2616.5686
       8.4924      15.9683       0.0093    -999.2500      56.0045    -999.2500
      70.2772      82.4664      75.5860      69.2963     165.2115     113.0417
       6.9280       0.0694    -999.2500       3.0191    -999.2500       0.0064
       2.6066    -999.2500       1.3743       6.7669
   2616.7212
       8.4424      12.8112       0.0046    -999.2500      55.3671    -999.2500
      59.3990      70.6978      72.8516      65.1345     172.9588     117.8172
       7.2414       0.0769    -999.2500       3.0512    -999.2500       0.0055
       2.5655    -999.2500       0.8986       5.7804
   2616.8735
       8.4307      12.0135       0.0024    -999.2500      56.1501    -999.2500
      54.9570      62.0395      74.5482      65.2504     181.3726     123.5560
      10.7623       0.0765    -999.2500       3.0277    -999.2500       0.0051
       2.5499    -999.2500       0.8540       5.3609
   2617.0259
       8.4407      11.3330       0.0047    -999.2500      58.4087    -999.2500
      53.3347      59.1357      74.1671      65.3384     180.7694     124.8692
      13.3014       0.0785    -999.2500       3.0711    -999.2500       0.0049
       2.6058    -999.2500       0.7604       5.2291
   2617.1782
       8.4700      11.2026       0.0030    -999.2500      59.5232    -999.2500
      55.2013      59.3324      73.0383      64.3369     232.0628     166.8649
      24.3633       0.0713    -999.2500       3.1281    -999.2500       0.0049
       2.6629    -999.2500       0.7280       5.4598
   2617.3308
       8.4193       9.7102       0.0057    -999.2500      63.6549    -999.2500
      52.9397      61.2636      72.9579      64.0642     220.2900     157.2045
      20.3435       0.0612    -999.2500       3.3871    -999.2500       0.0040
       2.7263    -999.2500       0.7414       5.4106
   2617.4832
       8.4286       8.5973       0.0040    -999.2500      66.0601    -999.2500
      54.2001      63.7912      77.2455      67.2306     217.5569     154.8391
      20.0850       0.0526    -999.2500       3.5488    -999.2500       0.0040
       2.7233    -999.2500       0.4231       5.6445
   2617.6355
       8.4470       8.3671       0.0089    -999.2500      64.9975    -999.2500
      52.4846      65.5449      84.5924      73.9702     216.2399     151.4947
      17.3870       0.0458    -999.2500       3.3790    -999.2500       0.0037
       2.6975    -999.2500       0.5095       5.4873
   2617.7878
       8.4207       7.9489       0.0058    -999.2500      66.1031    -999.2500
      50.4060      65.2885      83.8876      74.0668     187.2977     130.5027
      15.3799       0.0472    -999.2500       3.0591    -999.2500       0.0032
       2.6643    -999.2500       0.7098       5.3282
   2617.9402
       8.2955       7.2029       0.0048    -999.2500      66.7378    -999.2500
      44.0047      60.5463      79.3883      70.1586     194.8733     134.4713
      19.8805       0.0520    -999.2500       2.8271    -999.2500       0.0028
       2.6497    -999.2500       0.6970       4.5651
