#------------------------------------------------------------------------------
#
#   Created by  : [OpenWorks] Log Export Utility (LEXP)
#   Created on  : 2016-05-11 12:25:30
#   Project     : CANT971
#   User        : R5K
#   Interpreter : PEP
#
#------------------------------------------------------------------------------
~VERSION INFORMATION
VERS. 2.0 : CWLS Log ASCII Standard - version 2.0
WRAP. YES : Mulitple lines per depth step
~WELL INFORMATION
#MNEMONIC   .UNIT                                           VALUE :DESCRIPTION
#------------------------------------------------------------------------------
STRT        .M                                          2157.2351 :START DEPTH
STOP        .M                                          3233.6362 :STOP DEPTH
STEP        .M                                             0.1524 :STEP
NULL        .                                           -999.2500 :NULL VALUE
COMP        .                                             UNKNOWN :COMPANY
WELL        .                                              3083-V :WELL
FLD         .                                             UNKNOWN :FIELD
LOC         .                                             UNKNOWN :LOCATION
CNTY        .                                             UNKNOWN :COUNTY
STAT        .                                             UNKNOWN :STATE
CTRY        .                                             UNKNOWN :COUNTRY
SRVC        .                                             UNKNOWN :SERVICE COMPANY
DATE        .                                             UNKNOWN :LOG DATE
UWI         .                                              3083-V :UNIQUE WELL ID
XCOORD      .                                            0.000000 :SURFACE X
YCOORD      .                                            0.000000 :SURFACE Y
LAT         .                                            0.000000 :LATITUDE
LON         .                                            0.000000 :LONGITUDE
ELEV        .M                                             0.0000 :SURFACE ELEV
ELEV_TYPE   .                                                  KB :ELEV TYPE
~CURVE INFORMATION
#MNEMONIC.UNIT        API CODE       : CURVE DESCRIPTION
#------------------------------------------------------------------------------
DEPTH    .M                          : Measured Depth
CALI     .inches      UNKNOWN        : CALI:LDL-CNL:rC:NONE:v0 (auto-composite)
CGR      .API         UNKNOWN        : CGR:Espectrometria:rC:NONE:v0 (auto-composite)
DRHO     .g/cm3       UNKNOWN        : DRHO:LDL-CNL:rC:NONE:v0 (auto-composite)
DRHO-LWD .g/cm3       UNKNOWN        : DRHO-LWD:registros-LWD:rC:NONE:v0 (auto-composite)
DT       .us/ft       UNKNOWN        : DT:Sonico:rC:NONE:v0 (auto-composite)
DT-LWD   .UNKNOWN     UNKNOWN        : DT-LWD:registros-LWD:rC:NONE:v0 (auto-composite)
GR       .API         UNKNOWN        : GR:Espectrometria:rC:NONE:v0 (auto-composite)
GR-LWD   .API         UNKNOWN        : GR-LWD:PETROWORKS:rC:NONE:v1 
ILD-LWD  .ohm.m       UNKNOWN        : ILD-LWD:PETROWORKS:rC:NONE:v1 
ILM-LWD  .ohm.m       UNKNOWN        : ILM-LWD:PETROWORKS:rC:NONE:v1 
LLD      .ohm.m       UNKNOWN        : LLD:resistivos:rC:NONE:v0 (auto-composite)
LLS      .ohm.m       UNKNOWN        : LLS:resistivos:rC:NONE:v0 (auto-composite)
MSFL     .ohm.m       UNKNOWN        : MSFL:resistivos:rC:NONE:v0 (auto-composite)
NPHI     .v/v_decimal UNKNOWN        : NPHI:LDL-CNL:rC:NONE:v0 (auto-composite)
NPHI-LWD .v/v_decimal UNKNOWN        : NPHI-LWD:registros-LWD:rC:NONE:v0 (auto-composite)
PEF      .UNKNOWN     UNKNOWN        : PEF:LDL-CNL:rC:NONE:v0 (auto-composite)
PEF-LWD  .UNKNOWN     UNKNOWN        : PEF-LWD:registros-LWD:rC:NONE:v0 (auto-composite)
POTA     .UNKNOWN     UNKNOWN        : POTA:Espectrometria:rC:NONE:v0 (auto-composite)
RHOB     .g/cm3       UNKNOWN        : RHOB:LDL-CNL:rC:NONE:v0 (auto-composite)
RHOB-LWD .g/cm3       UNKNOWN        : RHOB-LWD:registros-LWD:rC:NONE:v0 (auto-composite)
THOR     .ppm         UNKNOWN        : THOR:Espectrometria:rC:NONE:v0 (auto-composite)
URAN     .ppm         UNKNOWN        : URAN:Espectrometria:rC:NONE:v0 (auto-composite)
~A
# ...
   2700.3887
       8.6056      15.0859      -0.0014    -999.2500      51.9112    -999.2500
      42.4411      51.3628      63.9598      58.2925      28.2084      30.8603
      24.0366       0.0719    -999.2500       3.3290    -999.2500       0.0052
       2.7478    -999.2500       1.8186       3.4081
   2700.5410
       8.5747      14.1650      -0.0068    -999.2500      51.1798    -999.2500
      42.2047      49.1741      65.9575      60.4537      41.4950      45.5907
      31.8119       0.0658    -999.2500       3.3325    -999.2500       0.0048
       2.7157    -999.2500       1.7510       3.4529
   2700.6936
       8.5651      13.0640      -0.0075    -999.2500      48.7354    -999.2500
      41.1586      49.2901      68.6261      62.1744      41.8941      45.9596
      31.5844       0.0619    -999.2500       3.2876    -999.2500       0.0044
       2.7067    -999.2500       1.6557       3.4747
   2700.8459
       8.6118      11.4277      -0.0045    -999.2500      50.1039    -999.2500
      39.8388      50.0551      73.0808      65.2900      46.0235      50.2686
      21.9909       0.0501    -999.2500       3.1350    -999.2500       0.0038
       2.7071    -999.2500       1.4174       3.5508
   2700.9983
       8.6118       9.3114       0.0038    -999.2500      48.7351    -999.2500
      36.4818      48.8520      82.7538      71.3812      60.0551      66.1103
      25.1555       0.0424    -999.2500       2.9149    -999.2500       0.0031
       2.7396    -999.2500       1.2018       3.4974
   2701.1506
       8.6085       8.5258       0.0102    -999.2500      50.6523    -999.2500
      35.5364      45.1109      89.3567      74.7517      70.3206      77.8516
      30.8796       0.0363    -999.2500       2.8825    -999.2500       0.0026
       2.7635    -999.2500       1.1988       3.5126
   2701.3032
       8.5666       6.7939       0.0128    -999.2500      50.5897    -999.2500
      34.3350      41.6656      87.8469      73.4061      69.8908      77.3754
      30.0232       0.0367    -999.2500       3.0388    -999.2500       0.0019
       2.7778    -999.2500       1.0939       3.5744
   2701.4556
       8.4953       6.2996       0.0133    -999.2500      53.1390    -999.2500
      37.0984      42.4499      79.2595      70.3207      68.3270      75.3787
      27.4195       0.0360    -999.2500       3.2197    -999.2500       0.0017
       2.7852    -999.2500       1.0488       4.0463
   2701.6079
       8.5701       6.5318       0.0150    -999.2500      52.1078    -999.2500
      35.7253      45.3319      74.5558      67.9739      57.5203      62.6473
      31.4932       0.0348    -999.2500       3.4250    -999.2500       0.0016
       2.7805    -999.2500       1.1381       3.8343
   2701.7603
       8.5815       5.5964       0.0208    -999.2500      51.5489    -999.2500
      35.1697      45.8980      77.6721      69.3387      68.3543      76.6745
      34.2715       0.0333    -999.2500       3.4121    -999.2500       0.0015
       2.7793    -999.2500       0.9061       3.9265
   2701.9126
       8.5762       5.9142       0.0170    -999.2500      48.8911    -999.2500
      33.3444      44.7136      80.4949      72.4987      83.7749      94.7259
      31.3069       0.0314    -999.2500       3.3941    -999.2500       0.0016
       2.7786    -999.2500       0.9241       3.6184
   2702.0652
       8.5211       6.8523       0.0265    -999.2500      49.8776    -999.2500
      34.6331      43.3370      81.2714      74.0135      93.0412     105.4591
      24.6331       0.0302    -999.2500       3.2915    -999.2500       0.0020
       2.7983    -999.2500       1.0208       3.6334
   2702.2175
       8.5237       7.2259       0.0265    -999.2500      50.0374    -999.2500
      35.1417      42.3536      81.6640      74.3272     104.8380     119.0724
      31.8538       0.0301    -999.2500       3.1753    -999.2500       0.0023
       2.8172    -999.2500       0.9507       3.7064
   2702.3699
       8.4416       7.8526       0.0210    -999.2500      50.9229    -999.2500
      36.5108      42.1750      83.8179      75.2663      60.3854      69.8143
      35.3039       0.0295    -999.2500       3.0925    -999.2500       0.0026
       2.8212    -999.2500       0.9851       3.8009
   2702.5222
       8.4362       7.3460       0.0137    -999.2500      53.2986    -999.2500
      35.0892      44.1763      80.2549      74.7429      51.2060      59.6286
      32.5883       0.0287    -999.2500       2.9883    -999.2500       0.0024
       2.8109    -999.2500       0.9431       3.7134
   2702.6748
       8.4290       7.2445       0.0161    -999.2500      52.3609    -999.2500
      34.4855      44.9316      77.1760      73.4025      50.9092      59.1720
      22.1804       0.0315    -999.2500       2.9425    -999.2500       0.0025
       2.8071    -999.2500       0.8866       3.5962
   2702.8271
       8.4159       6.1376       0.0131    -999.2500      52.2363    -999.2500
      31.3480      43.3911      76.3310      73.0218      53.6868      62.4744
      31.0134       0.0367    -999.2500       3.0730    -999.2500       0.0022
       2.8050    -999.2500       0.6939       3.3472
   2702.9795
       8.4653       5.8136       0.0166    -999.2500      51.8272    -999.2500
      29.6585      40.3200      76.0605      72.9161      79.2459      91.2123
      27.9657       0.0385    -999.2500       3.1189    -999.2500       0.0022
       2.8109    -999.2500       0.5429       3.1920
   2703.1318
       8.4633       6.5380       0.0194    -999.2500      50.5787    -999.2500
      28.4088      37.7353      75.5083      72.0930      78.3096      90.7891
      30.3945       0.0369    -999.2500       3.1809    -999.2500       0.0024
       2.8198    -999.2500       0.6781       2.9337
   2703.2844
       8.4359       5.8611       0.0141    -999.2500      50.5865    -999.2500
      28.1724      37.1625      74.8273      70.4351      80.9119      93.6925
      32.8940       0.0362    -999.2500       3.0819    -999.2500       0.0022
       2.8082    -999.2500       0.5715       2.9559
   2703.4368
       8.4240       6.4509       0.0115    -999.2500      50.9319    -999.2500
      27.4653      37.5092      74.4617      69.4591      88.8935     101.4548
      33.6617       0.0336    -999.2500       3.1493    -999.2500       0.0024
       2.8079    -999.2500       0.6931       2.7909
   2703.5891
       8.4324       6.1535       0.0124    -999.2500      49.5147    -999.2500
      25.7448      37.0040      73.5112      68.2271      65.4219      76.3392
      32.5809       0.0346    -999.2500       3.1870    -999.2500       0.0022
       2.8023    -999.2500       0.6747       2.6319
   2703.7415
       8.4311       6.5277       0.0122    -999.2500      47.7671    -999.2500
      25.2954      35.5203      71.8137      66.9237      64.7527      74.8476
      31.6201       0.0362    -999.2500       3.2504    -999.2500       0.0024
       2.8008    -999.2500       0.6711       2.5042
   2703.8938
       8.4332       8.1016       0.0138    -999.2500      49.1251    -999.2500
      27.1226      34.2548      69.2376      65.4398      67.7473      77.6895
      27.5336       0.0409    -999.2500       3.1514    -999.2500       0.0028
       2.7930    -999.2500       0.9818       2.5235
   2704.0464
       8.4652       7.9405       0.0155    -999.2500      47.5374    -999.2500
      28.3333      34.7085      66.2576      63.3146      71.4861      81.4458
      33.2216       0.0378    -999.2500       3.0872    -999.2500       0.0025
       2.7919    -999.2500       1.0298       2.7534
   2704.1987
       8.4910       9.0727       0.0188    -999.2500      49.1246    -999.2500
      28.0153      36.2480      63.5116      61.2406      61.9237      69.5081
      30.4029       0.0373    -999.2500       3.0697    -999.2500       0.0030
       2.7938    -999.2500       1.1425       2.5500
   2704.3511
       8.5078       9.0252       0.0127    -999.2500      50.4262    -999.2500
      27.4117      37.1308      60.1172      58.0014      64.0766      70.1453
      27.1297       0.0359    -999.2500       3.1321    -999.2500       0.0028
       2.7849    -999.2500       1.2109       2.4742
