#------------------------------------------------------------------------------
#
#   Created by  : [OpenWorks] Log Export Utility (LEXP)
#   Created on  : 2016-05-11 12:25:30
#   Project     : CANT971
#   User        : R5K
#   Interpreter : PEP
#
#------------------------------------------------------------------------------
~VERSION INFORMATION
VERS. 2.0 : CWLS Log ASCII Standard - version 2.0
WRAP. YES : Mulitple lines per depth step
~WELL INFORMATION
#MNEMONIC   .UNIT                                           VALUE :DESCRIPTION
#------------------------------------------------------------------------------
STRT        .M                                          2157.2351 :START DEPTH
STOP        .M                                          3233.6362 :STOP DEPTH
STEP        .M                                             0.1524 :STEP
NULL        .                                           -999.2500 :NULL VALUE
COMP        .                                             UNKNOWN :COMPANY
WELL        .                                              3083-V :WELL
FLD         .                                             UNKNOWN :FIELD
LOC         .                                             UNKNOWN :LOCATION
CNTY        .                                             UNKNOWN :COUNTY
STAT        .                                             UNKNOWN :STATE
CTRY        .                                             UNKNOWN :COUNTRY
SRVC        .                                             UNKNOWN :SERVICE COMPANY
DATE        .                                             UNKNOWN :LOG DATE
UWI         .                                              3083-V :UNIQUE WELL ID
XCOORD      .                                            0.000000 :SURFACE X
YCOORD      .                                            0.000000 :SURFACE Y
LAT         .                                            0.000000 :LATITUDE
LON         .                                            0.000000 :LONGITUDE
ELEV        .M                                             0.0000 :SURFACE ELEV
ELEV_TYPE   .                                                  KB :ELEV TYPE
~CURVE INFORMATION
#MNEMONIC.UNIT        API CODE       : CURVE DESCRIPTION
#------------------------------------------------------------------------------
DEPTH    .M                          : Measured Depth
CALI     .inches      UNKNOWN        : CALI:LDL-CNL:rC:NONE:v0 (auto-composite)
CGR      .API         UNKNOWN        : CGR:Espectrometria:rC:NONE:v0 (auto-composite)
DRHO     .g/cm3       UNKNOWN        : DRHO:LDL-CNL:rC:NONE:v0 (auto-composite)
DRHO-LWD .g/cm3       UNKNOWN        : DRHO-LWD:registros-LWD:rC:NONE:v0 (auto-composite)
DT       .us/ft       UNKNOWN        : DT:Sonico:rC:NONE:v0 (auto-composite)
DT-LWD   .UNKNOWN     UNKNOWN        : DT-LWD:registros-LWD:rC:NONE:v0 (auto-composite)
GR       .API         UNKNOWN        : GR:Espectrometria:rC:NONE:v0 (auto-composite)
GR-LWD   .API         UNKNOWN        : GR-LWD:PETROWORKS:rC:NONE:v1 
ILD-LWD  .ohm.m       UNKNOWN        : ILD-LWD:PETROWORKS:rC:NONE:v1 
ILM-LWD  .ohm.m       UNKNOWN        : ILM-LWD:PETROWORKS:rC:NONE:v1 
LLD      .ohm.m       UNKNOWN        : LLD:resistivos:rC:NONE:v0 (auto-composite)
LLS      .ohm.m       UNKNOWN        : LLS:resistivos:rC:NONE:v0 (auto-composite)
MSFL     .ohm.m       UNKNOWN        : MSFL:resistivos:rC:NONE:v0 (auto-composite)
NPHI     .v/v_decimal UNKNOWN        : NPHI:LDL-CNL:rC:NONE:v0 (auto-composite)
NPHI-LWD .v/v_decimal UNKNOWN        : NPHI-LWD:registros-LWD:rC:NONE:v0 (auto-composite)
PEF      .UNKNOWN     UNKNOWN        : PEF:LDL-CNL:rC:NONE:v0 (auto-composite)
PEF-LWD  .UNKNOWN     UNKNOWN        : PEF-LWD:registros-LWD:rC:NONE:v0 (auto-composite)
POTA     .UNKNOWN     UNKNOWN        : POTA:Espectrometria:rC:NONE:v0 (auto-composite)
RHOB     .g/cm3       UNKNOWN        : RHOB:LDL-CNL:rC:NONE:v0 (auto-composite)
RHOB-LWD .g/cm3       UNKNOWN        : RHOB-LWD:registros-LWD:rC:NONE:v0 (auto-composite)
THOR     .ppm         UNKNOWN        : THOR:Espectrometria:rC:NONE:v0 (auto-composite)
URAN     .ppm         UNKNOWN        : URAN:Espectrometria:rC:NONE:v0 (auto-composite)
~A
# ...
   2490.5339
       8.5640       2.1114       0.0100    -999.2500      52.2707    -999.2500
      33.1656      39.0308      76.1410      74.6527     594.3356     286.3817
      30.8636       0.0396    -999.2500       3.2477    -999.2500       0.0007
       2.7739    -999.2500       0.2821       3.9474
   2490.6863
       8.5720       1.9259       0.0092    -999.2500      53.3675    -999.2500
      33.5873      40.7255      83.0453      81.8816     546.6124     263.0731
      43.9933       0.0271    -999.2500       3.2301    -999.2500       0.0007
       2.7885    -999.2500       0.2015       4.0763
   2490.8386
       8.5874       1.6614       0.0072    -999.2500      51.2034    -999.2500
      34.4311      41.4971      97.2109      98.2344     333.8790     155.2783
      41.8360       0.0246    -999.2500       3.0740    -999.2500       0.0006
       2.7867    -999.2500       0.1618       4.1897
   2490.9912
       8.6504       2.4020       0.0012    -999.2500      53.6416    -999.2500
      35.2779      41.7820     100.0550      99.3319     168.2240      71.1175
      38.6346       0.0318    -999.2500       3.0227    -999.2500       0.0009
       2.7313    -999.2500       0.2612       4.1773
   2491.1436
       8.5808       2.9055      -0.0012    -999.2500      51.7115    -999.2500
      35.2053      40.9995     102.4541      98.4694     177.3084      74.4260
      34.3499       0.0451    -999.2500       3.0331    -999.2500       0.0009
       2.6746    -999.2500       0.3908       4.1084
   2491.2959
       8.5708       2.9101       0.0008    -999.2500      48.8338    -999.2500
      33.7317      38.7743     104.7838     100.2109     183.8908      76.6376
      18.7132       0.0575    -999.2500       3.0970    -999.2500       0.0010
       2.6181    -999.2500       0.3711       3.9561
   2491.4482
       8.5485       2.7238       0.0048    -999.2500      52.2995    -999.2500
      31.9856      37.1079     105.2082      98.9501     172.1012      69.8799
      11.5285       0.0665    -999.2500       3.0979    -999.2500       0.0008
       2.5445    -999.2500       0.3802       3.7907
   2491.6006
       8.4454       2.6996       0.0251    -999.2500      54.4541    -999.2500
      31.4247      37.0256     107.8260     101.6935     118.7790      45.8819
      10.2575       0.0800    -999.2500       3.1535    -999.2500       0.0008
       2.4944    -999.2500       0.3853       3.7226
   2491.7532
       8.3379       2.2946       0.0456    -999.2500      56.9905    -999.2500
      31.0092      38.5048     105.7190      99.3609     132.9396      50.8300
       6.6030       0.0916    -999.2500       3.1359    -999.2500       0.0007
       2.4679    -999.2500       0.3369       3.7170
   2491.9055
       8.3294       2.5947       0.0732    -999.2500      57.0681    -999.2500
      32.3295      41.1026     102.6156      94.8758     137.7502      52.2457
       8.9027       0.0983    -999.2500       2.9852    -999.2500       0.0008
       2.4982    -999.2500       0.3729       3.8269
   2492.0579
       8.3594       2.2459       0.0767    -999.2500      61.8788    -999.2500
      32.1260      43.1873      99.3736      90.2937     138.5255      51.8959
       7.3148       0.0944    -999.2500       2.8070    -999.2500       0.0007
       2.5465    -999.2500       0.3308       3.8689
   2492.2102
       8.5825       2.5556       0.0736    -999.2500      63.8532    -999.2500
      32.3248      42.6240     102.0075      91.6707     107.8596      39.1864
      14.6311       0.0910    -999.2500       2.7855    -999.2500       0.0006
       2.5966    -999.2500       0.4488       3.8192
   2492.3628
       8.6428       3.0620       0.0441    -999.2500      65.7956    -999.2500
      30.2349      38.3315     111.5294      99.2975      84.7391      30.8875
      14.2583       0.0902    -999.2500       2.9029    -999.2500       0.0008
       2.6168    -999.2500       0.4903       3.4785
   2492.5151
       8.5789       3.0516       0.0136    -999.2500      63.7071    -999.2500
      28.0412      34.0934     113.9836     102.1129      81.7878      29.8581
      13.9167       0.0897    -999.2500       3.0776    -999.2500       0.0009
       2.5951    -999.2500       0.4786       3.1821
   2492.6675
       8.5807       2.3912      -0.0014    -999.2500      62.8833    -999.2500
      26.2676      33.4605     105.6530      95.4499      64.0937      24.4176
      13.5888       0.0848    -999.2500       3.1348    -999.2500       0.0005
       2.5602    -999.2500       0.4342       3.0598
   2492.8198
       8.6073       2.6419      -0.0012    -999.2500      68.6891    -999.2500
      26.1455      34.7084      98.1216      87.8998      35.2107      15.7594
      13.4963       0.0787    -999.2500       3.0951    -999.2500       0.0007
       2.5272    -999.2500       0.4018       2.9968
   2492.9724
       8.6681       2.8987      -0.0017    -999.2500      67.1550    -999.2500
      26.5490      34.4457     110.0802      98.0755      29.5627      13.8102
      12.9051       0.0788    -999.2500       3.0299    -999.2500       0.0010
       2.5193    -999.2500       0.3645       2.9862
   2493.1248
       8.7869       3.0972      -0.0020    -999.2500      65.3866    -999.2500
      26.2658      31.6386     132.1473     113.1663      29.0946      13.6063
      22.0299       0.0813    -999.2500       2.9831    -999.2500       0.0010
       2.5221    -999.2500       0.3769       2.9406
   2493.2771
       8.8114       3.2822       0.0001    -999.2500      64.7593    -999.2500
      26.1113      28.5271     171.8888     159.8630      27.1791      12.8793
      15.8594       0.0794    -999.2500       3.0223    -999.2500       0.0011
       2.5424    -999.2500       0.3898       2.9148
   2493.4294
       9.0371       3.4203      -0.0084    -999.2500      64.3974    -999.2500
      27.4145      27.6879     225.8833     238.0429      25.3253      11.2139
      15.9952       0.0721    -999.2500       2.9185    -999.2500       0.0011
       2.4965    -999.2500       0.4199       3.0724
   2493.5818
       9.2600       4.0077      -0.0257    -999.2500      66.9792    -999.2500
      29.7802      31.6521     312.6772     527.5374      24.8340      10.2119
      25.0167       0.0640    -999.2500       2.8223    -999.2500       0.0013
       2.4501    -999.2500       0.5160       3.3027
   2493.7344
       9.5032       4.2325      -0.0334    -999.2500      70.4159    -999.2500
      32.4319      36.1642     437.5104    1181.6752      24.4527       9.9412
      42.3214       0.0633    -999.2500       2.8377    -999.2500       0.0013
       2.4284    -999.2500       0.5788       3.5963
   2493.8867
       9.7196       4.3674      -0.0223    -999.2500      65.7343    -999.2500
      30.4762      33.0769     235.4322     416.2988      25.2841       9.9081
      40.3027       0.0560    -999.2500       3.1117    -999.2500       0.0013
       2.5138    -999.2500       0.6314       3.3612
   2494.0391
      10.1067       4.1052      -0.0092    -999.2500      65.1802    -999.2500
      26.4088      26.6905     128.8150     147.1874      38.8170      13.0477
      34.0957       0.0420    -999.2500       3.4372    -999.2500       0.0012
       2.6085    -999.2500       0.6022       2.8345
   2494.1914
       9.0082       4.0737       0.0020    -999.2500      59.3248    -999.2500
      22.5279      24.9335     123.3033     131.5224      95.1069      27.5962
      19.7371       0.0424    -999.2500       3.3793    -999.2500       0.0013
       2.7008    -999.2500       0.5189       2.3849
   2494.3440
       8.8689       4.4372       0.0044    -999.2500      55.0203    -999.2500
      22.1068      26.4599     144.8179     138.6021     125.0159      35.1430
      23.9751       0.0352    -999.2500       3.1079    -999.2500       0.0016
       2.7215    -999.2500       0.4607       2.2721
   2494.4963
       8.9022       4.4242       0.0056    -999.2500      55.7137    -999.2500
      22.6777      26.6452     119.6870     104.3690     162.7973      42.4570
      31.7552       0.0308    -999.2500       2.8036    -999.2500       0.0017
       2.7476    -999.2500       0.4139       2.3697
