#------------------------------------------------------------------------------
#
#   Created by  : [OpenWorks] Log Export Utility (LEXP)
#   Created on  : 2016-05-11 12:25:29
#   Project     : CANT971
#   User        : R5K
#   Interpreter : PEP
#
#------------------------------------------------------------------------------
~VERSION INFORMATION
VERS. 2.0 : CWLS Log ASCII Standard - version 2.0
WRAP.  NO : One line per depth step
~WELL INFORMATION
#MNEMONIC   .UNIT                                           VALUE :DESCRIPTION
#------------------------------------------------------------------------------
STRT        .M                                           770.8625 :START DEPTH
STOP        .M                                          2968.3181 :STOP DEPTH
STEP        .M                                             0.1524 :STEP
NULL        .                                           -999.2500 :NULL VALUE
COMP        .                                   PEMEX EXPL & PROD :COMPANY
WELL        .                                                3083 :WELL
FLD         .                                           CANTARELL :FIELD
LOC         .                                             UNKNOWN :LOCATION
CNTY        .                                             UNKNOWN :COUNTY
STAT        .                                            CAMPECHE :STATE
CTRY        .                                              MEXICO :COUNTRY
SRVC        .                                             UNKNOWN :SERVICE COMPANY
DATE        .                                             UNKNOWN :LOG DATE
UWI         .                                                3083 :UNIQUE WELL ID
XCOORD      .                                       597325.730000 :SURFACE X
YCOORD      .                                      2152070.080000 :SURFACE Y
LAT         .                                           19.461893 :LATITUDE
LON         .                                          -92.072746 :LONGITUDE
ELEV        .M                                            30.0000 :SURFACE ELEV
ELEV_TYPE   .                                                  KB :ELEV TYPE
~CURVE INFORMATION
#MNEMONIC.UNIT        API CODE       : CURVE DESCRIPTION
#------------------------------------------------------------------------------
DEPTH    .M                          : Measured Depth
CALI     .inches      UNKNOWN        : CALI:Import:rC:NONE:v0 (auto-composite)
CGR      .API         UNKNOWN        : CGR:Import:rC:NONE:v0 (auto-composite)
DRHO     .g/cm3       UNKNOWN        : DRHO:Import:rC:NONE:v0 (auto-composite)
DT       .us/ft       UNKNOWN        : DT:Import:rC:NONE:v0 (auto-composite)
GR       .API         UNKNOWN        : GR:Import:rC:NONE:v0 (auto-composite)
GR-LWD   .API         UNKNOWN        : GR-LWD:Import:rC:NONE:v0 (auto-composite)
LLD      .ohm.m       UNKNOWN        : LLD:Import:rC:NONE:v0 (auto-composite)
LLD-LWD  .ohm.m       UNKNOWN        : LLD-LWD:Import:rC:NONE:v0 (auto-composite)
LLS      .ohm.m       UNKNOWN        : LLS:Import:rC:NONE:v0 (auto-composite)
LLS-LWD  .ohm.m       UNKNOWN        : LLS-LWD:Import:rC:NONE:v0 (auto-composite)
MSFL     .ohm.m       UNKNOWN        : MSFL:Import:rC:NONE:v0 (auto-composite)
MSFL-LWD .ohm.m       UNKNOWN        : MSFL-LWD:Import:rC:NONE:v0 (auto-composite)
NPHI     .v/v_decimal UNKNOWN        : NPHI:Import:rC:NONE:v0 (auto-composite)
PEF      .b/elec      UNKNOWN        : PEF:Import:rC:NONE:v0 (auto-composite)
POTA     .wtpercent   UNKNOWN        : POTA:Import:rC:NONE:v0 (auto-composite)
RHOB     .g/cm3       UNKNOWN        : RHOB:Import:rC:NONE:v0 (auto-composite)
THOR     .ppm         UNKNOWN        : THOR:Import:rC:NONE:v0 (auto-composite)
URAN     .ppm         UNKNOWN        : URAN:Import:rC:NONE:v0 (auto-composite)
~A     DEPTH         CALI          CGR         DRHO           DT           GR       GR-LWD          LLD      LLD-LWD          LLS      LLS-LWD         MSFL     MSFL-LWD         NPHI          PEF         POTA         RHOB         THOR         URAN
# ...
   1947.6953    -999.2500    -999.2500    -999.2500     108.1358      43.7110      43.7114       0.8650       0.8647       1.1650       1.1311       1.3310       1.3201    -999.2500    -999.2500    -999.2500    -999.2500    -999.2500    -999.2500
   1947.8477    -999.2500    -999.2500    -999.2500     107.6486      42.1700      42.1697       0.8390       0.8386       1.1310       1.0978       1.3200       1.3335    -999.2500    -999.2500    -999.2500    -999.2500    -999.2500    -999.2500
   1948.0001    -999.2500    -999.2500    -999.2500     107.3000      42.1990      42.1989       0.8680       0.8675       1.0980       1.0775       1.3340       1.3550    -999.2500    -999.2500    -999.2500    -999.2500    -999.2500    -999.2500
   1948.1525    -999.2500    -999.2500    -999.2500     107.5186      42.7760      42.7757       0.8860       0.8863       1.0770       1.0829       1.3550       1.3447    -999.2500    -999.2500    -999.2500    -999.2500    -999.2500    -999.2500
   1948.3049    -999.2500    -999.2500    -999.2500     109.3719      43.7470      43.7466       0.8920       0.8918       1.0830       1.1067       1.3450       1.3680    -999.2500    -999.2500    -999.2500    -999.2500    -999.2500    -999.2500
   1948.4573    -999.2500    -999.2500    -999.2500     112.0157      45.3690      45.3693       0.9710       0.9711       1.1070       1.1865       1.3680       1.4556    -999.2500    -999.2500    -999.2500    -999.2500    -999.2500    -999.2500
   1948.6097    -999.2500    -999.2500    -999.2500     112.6974      46.3690      46.3688       1.0900       1.0898       1.1860       1.3298       1.4560       1.5323    -999.2500    -999.2500    -999.2500    -999.2500    -999.2500    -999.2500
   1948.7621    -999.2500    -999.2500    -999.2500     112.1285      46.6250      46.6252       1.0850       1.0851       1.3300       1.3585       1.5320       1.5875    -999.2500    -999.2500    -999.2500    -999.2500    -999.2500    -999.2500
   1948.9144    -999.2500    -999.2500    -999.2500     112.5131      47.6210      47.6214       1.0070       1.0069       1.3590       1.2724       1.5870       1.5388    -999.2500    -999.2500    -999.2500    -999.2500    -999.2500    -999.2500
   1949.0669    -999.2500    -999.2500    -999.2500     109.1230      48.0490      48.0494       0.9150       0.9146       1.2720       1.1378       1.5390       1.3894    -999.2500    -999.2500    -999.2500    -999.2500    -999.2500    -999.2500
   1949.2192    -999.2500    -999.2500    -999.2500     108.3951      45.9220      45.9216       0.8250       0.8246       1.1380       1.0088       1.3890       1.2762    -999.2500    -999.2500    -999.2500    -999.2500    -999.2500    -999.2500
   1949.3717    -999.2500    -999.2500    -999.2500     106.9743      43.4200      43.4204       0.8150       0.8151       1.0090       0.9589       1.2760       1.2392    -999.2500    -999.2500    -999.2500    -999.2500    -999.2500    -999.2500
   1949.5240    -999.2500    -999.2500    -999.2500     107.0445      44.0010      44.0013       0.8730       0.8735       0.9590       1.0171       1.2390       1.2547    -999.2500    -999.2500    -999.2500    -999.2500    -999.2500    -999.2500
   1949.6765    -999.2500    -999.2500    -999.2500     108.9567      47.0070      47.0075       0.9040       0.9038       1.0170       1.0970       1.2550       1.3520    -999.2500    -999.2500    -999.2500    -999.2500    -999.2500    -999.2500
   1949.8289    -999.2500    -999.2500    -999.2500     111.1116      49.2850      49.2852       0.8920       0.8918       1.0970       1.1487       1.3520       1.4336    -999.2500    -999.2500    -999.2500    -999.2500    -999.2500    -999.2500
   1949.9813    -999.2500    -999.2500    -999.2500     113.7204      49.0110      49.0114       0.9060       0.9063       1.1490       1.1945       1.4340       1.4262    -999.2500    -999.2500    -999.2500    -999.2500    -999.2500    -999.2500
   1950.1337    -999.2500    -999.2500    -999.2500     112.3329      46.0770      46.0773       0.9490       0.9493       1.1940       1.2309       1.4260       1.4285    -999.2500    -999.2500    -999.2500    -999.2500    -999.2500    -999.2500
   1950.2861    -999.2500    -999.2500    -999.2500     111.0589      43.1760      43.1764       1.0040       1.0042       1.2310       1.2598       1.4290       1.5040    -999.2500    -999.2500    -999.2500    -999.2500    -999.2500    -999.2500
   1950.4385    -999.2500    -999.2500    -999.2500     109.8558      43.4780      43.4784       1.1240       1.1239       1.2600       1.3223       1.5040       1.6156    -999.2500    -999.2500    -999.2500    -999.2500    -999.2500    -999.2500
   1950.5909    -999.2500    -999.2500    -999.2500     108.1231      45.7590      45.7594       1.2320       1.2322       1.3220       1.4259       1.6160       1.7079    -999.2500    -999.2500    -999.2500    -999.2500    -999.2500    -999.2500
   1950.7433    -999.2500    -999.2500    -999.2500     107.6385      46.9480      46.9478       1.2710       1.2711       1.4260       1.5288       1.7080       1.7456    -999.2500    -999.2500    -999.2500    -999.2500    -999.2500    -999.2500
   1950.8956    -999.2500    -999.2500    -999.2500     107.7847      46.0530      46.0526       1.2650       1.2653       1.5290       1.5356       1.7460       1.8105    -999.2500    -999.2500    -999.2500    -999.2500    -999.2500    -999.2500
   1951.0481    -999.2500    -999.2500    -999.2500     106.9230      44.3640      44.3642       1.2630       1.2627       1.5360       1.5002       1.8110       1.8056    -999.2500    -999.2500    -999.2500    -999.2500    -999.2500    -999.2500
   1951.2004    -999.2500    -999.2500    -999.2500     105.8750      43.9170      43.9167       1.2270       1.2275       1.5000       1.4900       1.8060       1.7100    -999.2500    -999.2500    -999.2500    -999.2500    -999.2500    -999.2500
   1951.3529    -999.2500    -999.2500    -999.2500     102.3513      43.3940      43.3941       1.1830       1.1832       1.4900       1.4253       1.7100       1.6217    -999.2500    -999.2500    -999.2500    -999.2500    -999.2500    -999.2500
   1951.5052    -999.2500    -999.2500    -999.2500     103.1864      41.2300      41.2303       1.2010       1.2007       1.4250       1.3446       1.6220       1.6431    -999.2500    -999.2500    -999.2500    -999.2500    -999.2500    -999.2500
   1951.6577    -999.2500    -999.2500    -999.2500     110.0942      39.4930      39.4925       1.2970       1.2970       1.3450       1.4438       1.6430       1.7414    -999.2500    -999.2500    -999.2500    -999.2500    -999.2500    -999.2500
   1951.8101    -999.2500    -999.2500    -999.2500     134.5772      39.4890      39.4893       1.4030       1.4027       1.4440       1.6128       1.7410       1.8959    -999.2500    -999.2500    -999.2500    -999.2500    -999.2500    -999.2500
   1951.9625    -999.2500    -999.2500    -999.2500     135.3694      39.5060      39.5056       1.4620       1.4616       1.6130       1.7083       1.8960       2.0292    -999.2500    -999.2500    -999.2500    -999.2500    -999.2500    -999.2500
   1952.1149    -999.2500    -999.2500    -999.2500     136.9943      38.4680      38.4681       1.4990       1.4990       1.7080       1.7761       2.0290       2.0658    -999.2500    -999.2500    -999.2500    -999.2500    -999.2500    -999.2500
   1952.2673    -999.2500    -999.2500    -999.2500     135.6257      37.4980      37.4983       1.5620       1.5620       1.7760       1.8151       2.0660       2.0903    -999.2500    -999.2500    -999.2500    -999.2500    -999.2500    -999.2500
   1952.4197    -999.2500    -999.2500    -999.2500     136.4811      37.4360      37.4356       1.6010       1.6010       1.8150       1.8215       2.0900       2.0950    -999.2500    -999.2500    -999.2500    -999.2500    -999.2500    -999.2500
   1952.5721    -999.2500    -999.2500    -999.2500     139.8567      36.7900      36.7896       1.5940       1.5941       1.8210       1.7985       2.0950       2.0841    -999.2500    -999.2500    -999.2500    -999.2500    -999.2500    -999.2500
