#------------------------------------------------------------------------------
#
#   Created by  : [OpenWorks] Log Export Utility (LEXP)
#   Created on  : 2016-05-11 12:25:30
#   Project     : CANT971
#   User        : R5K
#   Interpreter : PEP
#
#------------------------------------------------------------------------------
~VERSION INFORMATION
VERS. 2.0 : CWLS Log ASCII Standard - version 2.0
WRAP. YES : Mulitple lines per depth step
~WELL INFORMATION
#MNEMONIC   .UNIT                                           VALUE :DESCRIPTION
#------------------------------------------------------------------------------
STRT        .M                                          2157.2351 :START DEPTH
STOP        .M                                          3233.6362 :STOP DEPTH
STEP        .M                                             0.1524 :STEP
NULL        .                                           -999.2500 :NULL VALUE
COMP        .                                             UNKNOWN :COMPANY
WELL        .                                              3083-V :WELL
FLD         .                                             UNKNOWN :FIELD
LOC         .                                             UNKNOWN :LOCATION
CNTY        .                                             UNKNOWN :COUNTY
STAT        .                                             UNKNOWN :STATE
CTRY        .                                             UNKNOWN :COUNTRY
SRVC        .                                             UNKNOWN :SERVICE COMPANY
DATE        .                                             UNKNOWN :LOG DATE
UWI         .                                              3083-V :UNIQUE WELL ID
XCOORD      .                                            0.000000 :SURFACE X
YCOORD      .                                            0.000000 :SURFACE Y
LAT         .                                            0.000000 :LATITUDE
LON         .                                            0.000000 :LONGITUDE
ELEV        .M                                             0.0000 :SURFACE ELEV
ELEV_TYPE   .                                                  KB :ELEV TYPE
~CURVE INFORMATION
#MNEMONIC.UNIT        API CODE       : CURVE DESCRIPTION
#------------------------------------------------------------------------------
DEPTH    .M                          : Measured Depth
CALI     .inches      UNKNOWN        : CALI:LDL-CNL:rC:NONE:v0 (auto-composite)
CGR      .API         UNKNOWN        : CGR:Espectrometria:rC:NONE:v0 (auto-composite)
DRHO     .g/cm3       UNKNOWN        : DRHO:LDL-CNL:rC:NONE:v0 (auto-composite)
DRHO-LWD .g/cm3       UNKNOWN        : DRHO-LWD:registros-LWD:rC:NONE:v0 (auto-composite)
DT       .us/ft       UNKNOWN        : DT:Sonico:rC:NONE:v0 (auto-composite)
DT-LWD   .UNKNOWN     UNKNOWN        : DT-LWD:registros-LWD:rC:NONE:v0 (auto-composite)
GR       .API         UNKNOWN        : GR:Espectrometria:rC:NONE:v0 (auto-composite)
GR-LWD   .API         UNKNOWN        : GR-LWD:PETROWORKS:rC:NONE:v1 
ILD-LWD  .ohm.m       UNKNOWN        : ILD-LWD:PETROWORKS:rC:NONE:v1 
ILM-LWD  .ohm.m       UNKNOWN        : ILM-LWD:PETROWORKS:rC:NONE:v1 
LLD      .ohm.m       UNKNOWN        : LLD:resistivos:rC:NONE:v0 (auto-composite)
LLS      .ohm.m       UNKNOWN        : LLS:resistivos:rC:NONE:v0 (auto-composite)
MSFL     .ohm.m       UNKNOWN        : MSFL:resistivos:rC:NONE:v0 (auto-composite)
NPHI     .v/v_decimal UNKNOWN        : NPHI:LDL-CNL:rC:NONE:v0 (auto-composite)
NPHI-LWD .v/v_decimal UNKNOWN        : NPHI-LWD:registros-LWD:rC:NONE:v0 (auto-composite)
PEF      .UNKNOWN     UNKNOWN        : PEF:LDL-CNL:rC:NONE:v0 (auto-composite)
PEF-LWD  .UNKNOWN     UNKNOWN        : PEF-LWD:registros-LWD:rC:NONE:v0 (auto-composite)
POTA     .UNKNOWN     UNKNOWN        : POTA:Espectrometria:rC:NONE:v0 (auto-composite)
RHOB     .g/cm3       UNKNOWN        : RHOB:LDL-CNL:rC:NONE:v0 (auto-composite)
RHOB-LWD .g/cm3       UNKNOWN        : RHOB-LWD:registros-LWD:rC:NONE:v0 (auto-composite)
THOR     .ppm         UNKNOWN        : THOR:Espectrometria:rC:NONE:v0 (auto-composite)
URAN     .ppm         UNKNOWN        : URAN:Espectrometria:rC:NONE:v0 (auto-composite)
~A
# ...
   2655.1260
       8.7261       5.7571      -0.0005    -999.2500      53.1978    -999.2500
      31.3305      37.2676      35.7955      30.0865      81.8734      40.9780
       4.2807       0.0411    -999.2500       3.1904    -999.2500       0.0021
       2.7164    -999.2500       0.6039       3.1743
   2655.2783
       8.6451       5.7470      -0.0071    -999.2500      54.1265    -999.2500
      34.6099      40.5151      39.4250      33.1151      75.2636      38.1256
       2.1137       0.0440    -999.2500       3.1559    -999.2500       0.0020
       2.6683    -999.2500       0.6371       3.5829
   2655.4307
       8.7209       5.7928      -0.0078    -999.2500      46.7467    -999.2500
      33.3608      43.2908      39.0821      33.7899      92.8449      50.1432
       6.7333       0.0396    -999.2500       3.2282    -999.2500       0.0023
       2.6694    -999.2500       0.5330       3.4363
   2655.5830
       8.9597       5.8066      -0.0116    -999.2500      51.1932    -999.2500
      32.6693      43.5517      33.1615      29.7748     201.7216     105.7381
      27.7016       0.0310    -999.2500       3.1864    -999.2500       0.0022
       2.6531    -999.2500       0.5643       3.4229
   2655.7356
       8.6562       5.7263      -0.0130    -999.2500      56.5813    -999.2500
      30.5073      41.8809      28.7576      25.3578     232.4486     119.4188
      31.4041       0.0317    -999.2500       3.1849    -999.2500       0.0021
       2.6489    -999.2500       0.5846       3.2181
   2655.8879
       8.6425       6.1171      -0.0118    -999.2500      55.2718    -999.2500
      30.7988      38.0581      28.0567      24.5264     220.1052     111.9778
      24.5383       0.0324    -999.2500       3.1681    -999.2500       0.0023
       2.6372    -999.2500       0.6478       3.2328
   2656.0403
       8.6201       5.6018      -0.0062    -999.2500      52.2397    -999.2500
      32.4218      35.4676      29.4921      25.4096     197.5625      99.8190
      28.8077       0.0347    -999.2500       2.9913    -999.2500       0.0018
       2.6701    -999.2500       0.7470       3.5915
   2656.1926
       8.6778       6.3339       0.0048    -999.2500      50.1416    -999.2500
      32.8481      36.5273      33.5039      28.7139      82.3621      43.7225
      23.0710       0.0392    -999.2500       3.0571    -999.2500       0.0021
       2.7015    -999.2500       0.7781       3.5208
   2656.3452
       8.6809       5.9916       0.0154    -999.2500      54.8923    -999.2500
      31.2636      38.3041      33.5066      29.0015     108.4930      57.2189
      31.7480       0.0384    -999.2500       3.0599    -999.2500       0.0020
       2.7297    -999.2500       0.7359       3.3820
   2656.4976
       8.6962       4.7749       0.0249    -999.2500      59.3877    -999.2500
      28.1271      38.6833      32.7971      28.2231     138.5365      71.9287
      29.9720       0.0389    -999.2500       3.1369    -999.2500       0.0015
       2.7288    -999.2500       0.6134       3.0929
   2656.6499
       8.7196       5.0521       0.0285    -999.2500      59.0655    -999.2500
      25.0679      37.2998      32.1817      28.0024     145.7251      75.1264
      21.8481       0.0338    -999.2500       3.0804    -999.2500       0.0019
       2.7380    -999.2500       0.5158       2.6501
   2656.8022
       8.8069       5.0923       0.0499    -999.2500      58.0412    -999.2500
      23.5914      35.9721      35.2176      28.9984     135.7456      73.6505
      34.6670       0.0318    -999.2500       3.1939    -999.2500       0.0019
       2.7114    -999.2500       0.4954       2.4373
   2656.9546
       9.0528       5.6104       0.0295    -999.2500      54.6248    -999.2500
      24.4171      36.1227      42.0173      32.5586      71.3105      42.9365
      28.2929       0.0247    -999.2500       3.3991    -999.2500       0.0022
       2.5669    -999.2500       0.5290       2.4797
   2657.1072
       9.0226       5.3278       0.0173    -999.2500      53.5429    -999.2500
      24.3741      35.9744      46.6697      39.1851      39.2040      24.4106
      16.5568       0.0242    -999.2500       3.4122    -999.2500       0.0019
       2.4575    -999.2500       0.5930       2.4852
   2657.2595
       9.0169       5.1741       0.0130    -999.2500      51.5129    -999.2500
      25.0714      35.2835      42.4607      37.7485      39.9157      24.8570
       1.5608       0.0396    -999.2500       3.1494    -999.2500       0.0017
       2.4069    -999.2500       0.6341       2.5843
   2657.4119
       8.9012       4.8046       0.0240    -999.2500      53.7822    -999.2500
      23.4611      35.0009      40.2783      36.5032      45.1546      27.5586
       7.7241       0.0461    -999.2500       2.8940    -999.2500       0.0018
       2.4722    -999.2500       0.4724       2.3884
   2657.5642
       8.6812       4.4039       0.0134    -999.2500      55.6620    -999.2500
      22.8828      33.8222      38.7471      36.0730      82.4105      47.3722
      11.3106       0.0553    -999.2500       2.9035    -999.2500       0.0017
       2.5490    -999.2500       0.3942       2.3177
   2657.7168
       8.6336       4.5381       0.0145    -999.2500      49.2193    -999.2500
      21.9627      31.2709      38.1255      35.3012      76.4578      45.5106
      10.5982       0.0463    -999.2500       3.1969    -999.2500       0.0019
       2.6346    -999.2500       0.3325       2.1181
   2657.8691
       8.9400       3.8289       0.0074    -999.2500      54.2705    -999.2500
      22.0619      28.3818      41.4963      36.3264      68.8039      41.9477
      14.2653       0.0409    -999.2500       3.2813    -999.2500       0.0016
       2.6551    -999.2500       0.2856       2.2530
   2658.0215
       8.8523       4.9146      -0.0059    -999.2500      57.9702    -999.2500
      23.2143      26.3170      45.9212      38.8069      71.3965      43.8465
      15.0526       0.0358    -999.2500       3.1446    -999.2500       0.0018
       2.6050    -999.2500       0.4909       2.2239
   2658.1738
       8.4401       5.5552      -0.0031    -999.2500      59.0430    -999.2500
      23.3565      26.0141      45.7486      38.9922     101.5035      62.2034
      15.2213       0.0365    -999.2500       3.0462    -999.2500       0.0022
       2.5735    -999.2500       0.5133       2.1786
   2658.3264
       8.3525       5.3820       0.0073    -999.2500      58.5574    -999.2500
      24.4515      26.5052      43.1559      36.3246     122.9903      74.4275
      10.6734       0.0379    -999.2500       2.9692    -999.2500       0.0021
       2.5643    -999.2500       0.5050       2.3222
   2658.4788
       8.3622       5.4515       0.0059    -999.2500      56.6067    -999.2500
      24.4012      28.3893      45.4204      39.4609      99.6822      60.0688
       5.2871       0.0491    -999.2500       2.8633    -999.2500       0.0020
       2.5690    -999.2500       0.5548       2.2832
   2658.6311
       8.3610       5.4666       0.0097    -999.2500      54.9296    -999.2500
      26.4966      31.8127      45.5254      40.1899      91.3180      54.5662
       5.9973       0.0622    -999.2500       2.7434    -999.2500       0.0021
       2.5927    -999.2500       0.5002       2.5210
   2658.7834
       8.4035       5.1939       0.0208    -999.2500      55.6083    -999.2500
      26.5092      34.2843      43.2689      38.3794      81.2400      46.3596
       3.8634       0.0722    -999.2500       2.7791    -999.2500       0.0021
       2.6059    -999.2500       0.4415       2.5587
   2658.9358
       8.7491       5.5390       0.0098    -999.2500      55.1214    -999.2500
      25.2835      33.8164      40.7204      36.3409     204.2347     114.9123
       6.1758       0.0690    -999.2500       2.8380    -999.2500       0.0022
       2.6110    -999.2500       0.4947       2.3339
   2659.0884
       8.5045       4.8932       0.0081    -999.2500      58.1613    -999.2500
      23.3485      31.0462      41.9308      36.3824     213.1322     118.9261
      16.1465       0.0615    -999.2500       2.9620    -999.2500       0.0017
       2.6049    -999.2500       0.5630       2.2102
