#------------------------------------------------------------------------------
#
#   Created by  : [OpenWorks] Log Export Utility (LEXP)
#   Created on  : 2016-05-11 12:25:30
#   Project     : CANT971
#   User        : R5K
#   Interpreter : PEP
#
#------------------------------------------------------------------------------
~VERSION INFORMATION
VERS. 2.0 : CWLS Log ASCII Standard - version 2.0
WRAP. YES : Mulitple lines per depth step
~WELL INFORMATION
#MNEMONIC   .UNIT                                           VALUE :DESCRIPTION
#------------------------------------------------------------------------------
STRT        .M                                          2157.2351 :START DEPTH
STOP        .M                                          3233.6362 :STOP DEPTH
STEP        .M                                             0.1524 :STEP
NULL        .                                           -999.2500 :NULL VALUE
COMP        .                                             UNKNOWN :COMPANY
WELL        .                                              3083-V :WELL
FLD         .                                             UNKNOWN :FIELD
LOC         .                                             UNKNOWN :LOCATION
CNTY        .                                             UNKNOWN :COUNTY
STAT        .                                             UNKNOWN :STATE
CTRY        .                                             UNKNOWN :COUNTRY
SRVC        .                                             UNKNOWN :SERVICE COMPANY
DATE        .                                             UNKNOWN :LOG DATE
UWI         .                                              3083-V :UNIQUE WELL ID
XCOORD      .                                            0.000000 :SURFACE X
YCOORD      .                                            0.000000 :SURFACE Y
LAT         .                                            0.000000 :LATITUDE
LON         .                                            0.000000 :LONGITUDE
ELEV        .M                                             0.0000 :SURFACE ELEV
ELEV_TYPE   .                                                  KB :ELEV TYPE
~CURVE INFORMATION
#MNEMONIC.UNIT        API CODE       : CURVE DESCRIPTION
#------------------------------------------------------------------------------
DEPTH    .M                          : Measured Depth
CALI     .inches      UNKNOWN        : CALI:LDL-CNL:rC:NONE:v0 (auto-composite)
CGR      .API         UNKNOWN        : CGR:Espectrometria:rC:NONE:v0 (auto-composite)
DRHO     .g/cm3       UNKNOWN        : DRHO:LDL-CNL:rC:NONE:v0 (auto-composite)
DRHO-LWD .g/cm3       UNKNOWN        : DRHO-LWD:registros-LWD:rC:NONE:v0 (auto-composite)
DT       .us/ft       UNKNOWN        : DT:Sonico:rC:NONE:v0 (auto-composite)
DT-LWD   .UNKNOWN     UNKNOWN        : DT-LWD:registros-LWD:rC:NONE:v0 (auto-composite)
GR       .API         UNKNOWN        : GR:Espectrometria:rC:NONE:v0 (auto-composite)
GR-LWD   .API         UNKNOWN        : GR-LWD:PETROWORKS:rC:NONE:v1 
ILD-LWD  .ohm.m       UNKNOWN        : ILD-LWD:PETROWORKS:rC:NONE:v1 
ILM-LWD  .ohm.m       UNKNOWN        : ILM-LWD:PETROWORKS:rC:NONE:v1 
LLD      .ohm.m       UNKNOWN        : LLD:resistivos:rC:NONE:v0 (auto-composite)
LLS      .ohm.m       UNKNOWN        : LLS:resistivos:rC:NONE:v0 (auto-composite)
MSFL     .ohm.m       UNKNOWN        : MSFL:resistivos:rC:NONE:v0 (auto-composite)
NPHI     .v/v_decimal UNKNOWN        : NPHI:LDL-CNL:rC:NONE:v0 (auto-composite)
NPHI-LWD .v/v_decimal UNKNOWN        : NPHI-LWD:registros-LWD:rC:NONE:v0 (auto-composite)
PEF      .UNKNOWN     UNKNOWN        : PEF:LDL-CNL:rC:NONE:v0 (auto-composite)
PEF-LWD  .UNKNOWN     UNKNOWN        : PEF-LWD:registros-LWD:rC:NONE:v0 (auto-composite)
POTA     .UNKNOWN     UNKNOWN        : POTA:Espectrometria:rC:NONE:v0 (auto-composite)
RHOB     .g/cm3       UNKNOWN        : RHOB:LDL-CNL:rC:NONE:v0 (auto-composite)
RHOB-LWD .g/cm3       UNKNOWN        : RHOB-LWD:registros-LWD:rC:NONE:v0 (auto-composite)
THOR     .ppm         UNKNOWN        : THOR:Espectrometria:rC:NONE:v0 (auto-composite)
URAN     .ppm         UNKNOWN        : URAN:Espectrometria:rC:NONE:v0 (auto-composite)
~A
# ...
   2823.8328
       2.6696      21.1524       0.0139    -999.2500    -999.2500    -999.2500
      53.7072      87.1110      17.7931      17.6977      91.6665      93.7630
       0.2988       0.1062    -999.2500       3.5632    -999.2500       0.0090
       2.7428    -999.2500       1.5250       4.0382
   2823.9851
       2.6701      21.1263       0.0253    -999.2500    -999.2500    -999.2500
      53.6408      97.2896      14.6333      14.3228      91.6665      93.7630
       0.3036       0.1062    -999.2500       3.7055    -999.2500       0.0089
       2.7557    -999.2500       1.5231       4.0332
   2824.1375
       2.6703      21.1520       0.0365    -999.2500    -999.2500    -999.2500
      53.7059     100.6322      14.1390      13.7519      91.6665      93.7630
       0.3182       0.1062    -999.2500       3.4933    -999.2500       0.0090
       2.7562    -999.2500       1.5250       4.0381
   2824.2898
       2.6718      21.2030       0.0482    -999.2500    -999.2500    -999.2500
      53.8355      89.9476      15.7136      15.1492      91.6665      93.7630
       0.3209       0.1062    -999.2500       3.3682    -999.2500       0.0090
       2.7792    -999.2500       1.5286       4.0478
   2824.4424
       2.6698      21.2241       0.0427    -999.2500    -999.2500    -999.2500
      53.8890      76.6484      18.0210      17.1748      91.6665      93.7630
       0.3213       0.1062    -999.2500       3.2581    -999.2500       0.0090
       2.7635    -999.2500       1.5302       4.0518
   2824.5947
       2.6703      21.2192       0.0402    -999.2500    -999.2500    -999.2500
      53.8766      72.0979      19.0041      18.0464      91.6665      93.7630
       0.3218       0.1062    -999.2500       3.1960    -999.2500       0.0090
       2.7567    -999.2500       1.5299       4.0509
   2824.7471
       2.6701      21.1691       0.0339    -999.2500    -999.2500    -999.2500
      53.7496      73.8456      19.4486      18.5354      91.6665      93.7630
       0.3214       0.1062    -999.2500       3.1309    -999.2500       0.0090
       2.7288    -999.2500       1.5263       4.0414
   2824.8994
       2.6709      21.1998       0.0215    -999.2500    -999.2500    -999.2500
      53.8274      78.2233      19.0591      18.4975      91.6665      93.7630
       0.3214       0.1062    -999.2500       3.1919    -999.2500       0.0090
       2.7114    -999.2500       1.5285       4.0472
   2825.0520
       2.6704      21.2327       0.0156    -999.2500    -999.2500    -999.2500
      53.9110      84.4560      18.9334      18.7226      91.6665      93.7630
       0.3143       0.1062    -999.2500       3.2713    -999.2500       0.0090
       2.7024    -999.2500       1.5309       4.0535
   2825.2043
       2.6708      21.2853       0.0158    -999.2500    -999.2500    -999.2500
      54.0446      87.4244      19.5524      19.4145      91.6665      93.7630
       0.2971       0.1062    -999.2500       3.3372    -999.2500       0.0090
       2.7090    -999.2500       1.5346       4.0636
   2825.3567
       2.6711      21.2853       0.0142    -999.2500    -999.2500    -999.2500
      54.0446      82.6048      20.8815      20.8618      91.6665      93.7630
       0.2971       0.1062    -999.2500       3.2888    -999.2500       0.0090
       2.7170    -999.2500       1.5346       4.0636
   2825.5090
       2.6714      21.2850       0.0124    -999.2500    -999.2500    -999.2500
      54.0438      76.0510      23.1373      23.2733      91.6665      93.7630
       0.2971       0.1062    -999.2500       3.1996    -999.2500       0.0090
       2.7235    -999.2500       1.5346       4.0635
   2825.6616
       2.6699      21.2815       0.0096    -999.2500    -999.2500    -999.2500
      54.0349      74.0288      24.8732      25.2623      91.6665      93.7630
       0.2971       0.1062    -999.2500       3.0908    -999.2500       0.0090
       2.7292    -999.2500       1.5344       4.0629
   2825.8140
       2.6709      21.2815       0.0076    -999.2500    -999.2500    -999.2500
      54.0349      77.0922      26.2274      26.8420      91.6665      93.7630
       0.2971       0.1062    -999.2500       2.9922    -999.2500       0.0090
       2.7349    -999.2500       1.5344       4.0629
   2825.9663
       2.6709      21.2818       0.0074    -999.2500    -999.2500    -999.2500
      54.0357      85.3482      26.3003      26.9370    -999.2500    -999.2500
    -999.2500       0.1062    -999.2500       2.9873    -999.2500       0.0090
       2.7461    -999.2500       1.5344       4.0630
   2826.1187
       2.6711      21.2853       0.0113    -999.2500    -999.2500    -999.2500
      54.0446      93.9206      25.6655      25.8854    -999.2500    -999.2500
    -999.2500       0.1062    -999.2500       3.1282    -999.2500       0.0090
       2.7543    -999.2500       1.5347       4.0636
   2826.2710
       2.6721      21.2853       0.0114    -999.2500    -999.2500    -999.2500
      54.0446      93.3920      27.1110      27.2922    -999.2500    -999.2500
    -999.2500       0.1062    -999.2500       4.0688    -999.2500       0.0090
       2.7612    -999.2500       1.5347       4.0637
   2826.4236
       2.6837      21.2879       0.0161    -999.2500    -999.2500    -999.2500
      54.0513      84.2561      29.2492      29.7574    -999.2500    -999.2500
    -999.2500       0.1061    -999.2500       5.2752    -999.2500       0.0090
       2.7311    -999.2500       1.5349       4.0642
   2826.5759
       2.6837      21.3184       0.0245    -999.2500    -999.2500    -999.2500
      54.1287      74.8302      31.9467      32.5510    -999.2500    -999.2500
    -999.2500       0.1061    -999.2500       6.6300    -999.2500       0.0090
       2.7090    -999.2500       1.5371       4.0700
   2826.7283
       2.6837      21.3483       0.0293    -999.2500    -999.2500    -999.2500
      54.2045      69.5535      34.0785      34.6852    -999.2500    -999.2500
    -999.2500       0.1061    -999.2500       6.6300    -999.2500       0.0090
       2.6832    -999.2500       1.5392       4.0757
   2826.8806
       2.6837      21.3692       0.0364    -999.2500    -999.2500    -999.2500
      54.2577      70.7972      33.9178      34.4739    -999.2500    -999.2500
    -999.2500       0.1061    -999.2500       6.6300    -999.2500       0.0091
       2.6903    -999.2500       1.5407       4.0797
   2827.0332
       2.6837      21.3692       0.0493    -999.2500    -999.2500    -999.2500
      54.2577      77.5378      32.5804      33.0406    -999.2500    -999.2500
    -999.2500       0.1061    -999.2500       6.6300    -999.2500       0.0091
       2.7033    -999.2500       1.5407       4.0797
   2827.1855
    -999.2500      21.3692    -999.2500    -999.2500    -999.2500    -999.2500
      54.2577      86.5036      30.4795      30.8303    -999.2500    -999.2500
    -999.2500    -999.2500    -999.2500    -999.2500    -999.2500       0.0091
    -999.2500    -999.2500       1.5406       4.0794
   2827.3379
    -999.2500      21.3689    -999.2500    -999.2500    -999.2500    -999.2500
      54.2569      89.9196      30.6479      30.7419    -999.2500    -999.2500
    -999.2500    -999.2500    -999.2500    -999.2500    -999.2500       0.0091
    -999.2500    -999.2500       1.5404       4.0788
   2827.4902
    -999.2500      21.3651    -999.2500    -999.2500    -999.2500    -999.2500
      54.2472      87.8907      34.2316      34.1848    -999.2500    -999.2500
    -999.2500    -999.2500    -999.2500    -999.2500    -999.2500       0.0090
    -999.2500    -999.2500       1.5400       4.0776
   2827.6428
    -999.2500      21.2630    -999.2500    -999.2500    -999.2500    -999.2500
      53.9880      87.0434      36.8977      36.4359    -999.2500    -999.2500
    -999.2500    -999.2500    -999.2500    -999.2500    -999.2500       0.0090
    -999.2500    -999.2500       1.5324       4.0576
   2827.7952
    -999.2500      20.0907    -999.2500    -999.2500    -999.2500    -999.2500
      51.0116      88.1597      38.5164      37.8332    -999.2500    -999.2500
    -999.2500    -999.2500    -999.2500    -999.2500    -999.2500       0.0085
    -999.2500    -999.2500       1.4478       3.8335
