#------------------------------------------------------------------------------
#
#   Created by  : [OpenWorks] Log Export Utility (LEXP)
#   Created on  : 2016-05-11 12:25:30
#   Project     : CANT971
#   User        : R5K
#   Interpreter : PEP
#
#------------------------------------------------------------------------------
~VERSION INFORMATION
VERS. 2.0 : CWLS Log ASCII Standard - version 2.0
WRAP. YES : Mulitple lines per depth step
~WELL INFORMATION
#MNEMONIC   .UNIT                                           VALUE :DESCRIPTION
#------------------------------------------------------------------------------
STRT        .M                                          2157.2351 :START DEPTH
STOP        .M                                          3233.6362 :STOP DEPTH
STEP        .M                                             0.1524 :STEP
NULL        .                                           -999.2500 :NULL VALUE
COMP        .                                             UNKNOWN :COMPANY
WELL        .                                              3083-V :WELL
FLD         .                                             UNKNOWN :FIELD
LOC         .                                             UNKNOWN :LOCATION
CNTY        .                                             UNKNOWN :COUNTY
STAT        .                                             UNKNOWN :STATE
CTRY        .                                             UNKNOWN :COUNTRY
SRVC        .                                             UNKNOWN :SERVICE COMPANY
DATE        .                                             UNKNOWN :LOG DATE
UWI         .                                              3083-V :UNIQUE WELL ID
XCOORD      .                                            0.000000 :SURFACE X
YCOORD      .                                            0.000000 :SURFACE Y
LAT         .                                            0.000000 :LATITUDE
LON         .                                            0.000000 :LONGITUDE
ELEV        .M                                             0.0000 :SURFACE ELEV
ELEV_TYPE   .                                                  KB :ELEV TYPE
~CURVE INFORMATION
#MNEMONIC.UNIT        API CODE       : CURVE DESCRIPTION
#------------------------------------------------------------------------------
DEPTH    .M                          : Measured Depth
CALI     .inches      UNKNOWN        : CALI:LDL-CNL:rC:NONE:v0 (auto-composite)
CGR      .API         UNKNOWN        : CGR:Espectrometria:rC:NONE:v0 (auto-composite)
DRHO     .g/cm3       UNKNOWN        : DRHO:LDL-CNL:rC:NONE:v0 (auto-composite)
DRHO-LWD .g/cm3       UNKNOWN        : DRHO-LWD:registros-LWD:rC:NONE:v0 (auto-composite)
DT       .us/ft       UNKNOWN        : DT:Sonico:rC:NONE:v0 (auto-composite)
DT-LWD   .UNKNOWN     UNKNOWN        : DT-LWD:registros-LWD:rC:NONE:v0 (auto-composite)
GR       .API         UNKNOWN        : GR:Espectrometria:rC:NONE:v0 (auto-composite)
GR-LWD   .API         UNKNOWN        : GR-LWD:PETROWORKS:rC:NONE:v1 
ILD-LWD  .ohm.m       UNKNOWN        : ILD-LWD:PETROWORKS:rC:NONE:v1 
ILM-LWD  .ohm.m       UNKNOWN        : ILM-LWD:PETROWORKS:rC:NONE:v1 
LLD      .ohm.m       UNKNOWN        : LLD:resistivos:rC:NONE:v0 (auto-composite)
LLS      .ohm.m       UNKNOWN        : LLS:resistivos:rC:NONE:v0 (auto-composite)
MSFL     .ohm.m       UNKNOWN        : MSFL:resistivos:rC:NONE:v0 (auto-composite)
NPHI     .v/v_decimal UNKNOWN        : NPHI:LDL-CNL:rC:NONE:v0 (auto-composite)
NPHI-LWD .v/v_decimal UNKNOWN        : NPHI-LWD:registros-LWD:rC:NONE:v0 (auto-composite)
PEF      .UNKNOWN     UNKNOWN        : PEF:LDL-CNL:rC:NONE:v0 (auto-composite)
PEF-LWD  .UNKNOWN     UNKNOWN        : PEF-LWD:registros-LWD:rC:NONE:v0 (auto-composite)
POTA     .UNKNOWN     UNKNOWN        : POTA:Espectrometria:rC:NONE:v0 (auto-composite)
RHOB     .g/cm3       UNKNOWN        : RHOB:LDL-CNL:rC:NONE:v0 (auto-composite)
RHOB-LWD .g/cm3       UNKNOWN        : RHOB-LWD:registros-LWD:rC:NONE:v0 (auto-composite)
THOR     .ppm         UNKNOWN        : THOR:Espectrometria:rC:NONE:v0 (auto-composite)
URAN     .ppm         UNKNOWN        : URAN:Espectrometria:rC:NONE:v0 (auto-composite)
~A
# ...
   2239.5310
       8.5459       3.6711       0.2301    -999.2500      61.0413    -999.2500
      25.0873    -999.2500    -999.2500    -999.2500   91439.7500       0.4269
       0.1290       0.2200    -999.2500       2.3227    -999.2500       0.0013
       2.3821    -999.2500       0.4384       2.6224
   2239.6836
       9.0038       3.0592       0.2083    -999.2500      61.1434    -999.2500
      25.8999    -999.2500    -999.2500    -999.2500       0.0696       0.0932
       0.1272       0.2331    -999.2500       2.2208    -999.2500       0.0011
       2.3349    -999.2500       0.3358       2.8199
   2239.8359
       9.0755       2.9196       0.2042    -999.2500      55.1884    -999.2500
      26.2320    -999.2500    -999.2500    -999.2500       0.1050       0.1293
       0.1301       0.2486    -999.2500       2.1175    -999.2500       0.0010
       2.3320    -999.2500       0.3319       2.9046
   2239.9883
       9.9410       3.3844       0.2107    -999.2500      54.6749    -999.2500
      25.8592    -999.2500    -999.2500    -999.2500    8657.2168    8657.2549
       0.1058       0.2300    -999.2500       2.0186    -999.2500       0.0013
       2.3612    -999.2500       0.3529       2.7496
   2240.1406
      11.4113       3.0400       0.1698    -999.2500      53.1668    -999.2500
      26.7421    -999.2500    -999.2500    -999.2500   91452.3203   91452.3203
       0.1024       0.2103    -999.2500       1.9831    -999.2500       0.0010
       2.3559    -999.2500       0.3755       2.8981
   2240.2932
      12.2852       3.1367       0.1615    -999.2500      52.1808    -999.2500
      28.1026    -999.2500    -999.2500    -999.2500       0.1126       0.1580
       0.1001       0.2106    -999.2500       1.9895    -999.2500       0.0011
       2.3664    -999.2500       0.3437       3.0821
   2240.4456
      12.1316       3.0808       0.1715    -999.2500      51.8657    -999.2500
      28.2120    -999.2500    -999.2500    -999.2500       0.0837       0.1316
       0.1030       0.2202    -999.2500       2.1154    -999.2500       0.0011
       2.4186    -999.2500       0.3364       3.1347
   2240.5979
      10.1021       3.3567       0.1537    -999.2500      51.3401    -999.2500
      28.3775    -999.2500    -999.2500    -999.2500       0.1058       0.1486
       0.0926       0.2154    -999.2500       2.2626    -999.2500       0.0014
       2.4510    -999.2500       0.2523       3.1055
   2240.7502
       9.6452       4.0837       0.1633    -999.2500      55.5295    -999.2500
      28.4657    -999.2500    -999.2500    -999.2500       0.1682       0.2232
       0.0917       0.1977    -999.2500       2.3558    -999.2500       0.0017
       2.4896    -999.2500       0.3425       3.0141
   2240.9026
       9.7196       4.1000       0.1795    -999.2500      56.1233    -999.2500
      28.7552    -999.2500    -999.2500    -999.2500       0.0243       0.0288
       0.0984       0.2059    -999.2500       2.3349    -999.2500       0.0016
       2.5066    -999.2500       0.3785       3.0975
   2241.0552
       9.6170       3.8199       0.1479    -999.2500      56.6006    -999.2500
      28.8158    -999.2500    -999.2500    -999.2500       0.1323       0.1802
       0.0984       0.2212    -999.2500       2.3854    -999.2500       0.0015
       2.4828    -999.2500       0.3620       3.1807
   2241.2075
       9.5387       3.2106       0.1356    -999.2500      56.7646    -999.2500
      29.1019    -999.2500    -999.2500    -999.2500       0.1714       0.2298
       0.0961       0.2349    -999.2500       2.3876    -999.2500       0.0012
       2.5143    -999.2500       0.3232       3.3077
   2241.3599
       9.5603       3.7020       0.1519    -999.2500      55.8838    -999.2500
      29.3929    -999.2500    -999.2500    -999.2500       0.1937       0.2513
       0.0927       0.2194    -999.2500       2.4436    -999.2500       0.0015
       2.5738    -999.2500       0.3180       3.2349
   2241.5122
       9.2148       3.3020       0.1419    -999.2500      57.6057    -999.2500
      28.3961    -999.2500    -999.2500    -999.2500    8559.6865    8559.7529
       0.0976       0.2096    -999.2500       2.4365    -999.2500       0.0012
       2.5353    -999.2500       0.3360       3.1794
   2241.6648
       9.2552       2.9721       0.1014    -999.2500      57.5769    -999.2500
      28.2718    -999.2500    -999.2500    -999.2500   91403.6016   91403.6094
       0.0912       0.1841    -999.2500       2.4306    -999.2500       0.0011
       2.4611    -999.2500       0.3187       3.2493
   2241.8171
       9.2193       3.5852       0.0945    -999.2500      57.4840    -999.2500
      28.5044    -999.2500    -999.2500    -999.2500       0.1543       0.2080
       0.0990       0.2020    -999.2500       2.4502    -999.2500       0.0014
       2.4569    -999.2500       0.3235       3.1896
   2241.9695
       9.2511       4.0663       0.0952    -999.2500      59.5011    -999.2500
      29.3107    -999.2500    -999.2500    -999.2500       0.1626       0.2188
       0.0915       0.2120    -999.2500       2.5678    -999.2500       0.0014
       2.4854    -999.2500       0.4573       3.2355
   2242.1218
       9.1725       4.1704       0.1061    -999.2500      60.1833    -999.2500
      30.3459    -999.2500    -999.2500    -999.2500       0.1766       0.2371
       0.0916       0.2241    -999.2500       2.7419    -999.2500       0.0014
       2.5261    -999.2500       0.4993       3.3194
   2242.2744
       8.9282       4.0347       0.0731    -999.2500      57.6373    -999.2500
      30.6315    -999.2500    -999.2500    -999.2500       0.1869       0.2492
       0.0916       0.2038    -999.2500       2.7380    -999.2500       0.0014
       2.4936    -999.2500       0.4586       3.3519
   2242.4268
       8.9911       3.6225       0.0646    -999.2500      56.9783    -999.2500
      31.2954    -999.2500    -999.2500    -999.2500       0.2325       0.3106
       0.0909       0.2124    -999.2500       2.7162    -999.2500       0.0014
       2.4911    -999.2500       0.3551       3.5335
   2242.5791
       9.4006       3.3432       0.0875    -999.2500      56.3558    -999.2500
      30.1759    -999.2500    -999.2500    -999.2500       0.3663       0.4745
       0.1067       0.2271    -999.2500       2.6134    -999.2500       0.0011
       2.5209    -999.2500       0.4190       3.4121
   2242.7314
       9.4532       5.2937       0.0872    -999.2500      55.2775    -999.2500
      31.0161    -999.2500    -999.2500    -999.2500       0.1724       0.2282
       0.1551       0.2466    -999.2500       2.5501    -999.2500       0.0015
       2.5313    -999.2500       0.8157       3.1883
   2242.8838
       9.5716       5.4979       0.0762    -999.2500      53.5036    -999.2500
      30.1412    -999.2500    -999.2500    -999.2500       0.2143       0.3019
       0.3196       0.2447    -999.2500       2.5528    -999.2500       0.0016
       2.5202    -999.2500       0.8029       3.0462
   2243.0364
       9.9226       5.7762       0.0825    -999.2500      52.6813    -999.2500
      30.7666    -999.2500    -999.2500    -999.2500       0.2330       0.3079
       0.3596       0.2374    -999.2500       2.5021    -999.2500       0.0017
       2.4771    -999.2500       0.8308       3.1437
   2243.1887
      10.1476       6.2033       0.0957    -999.2500      52.9898    -999.2500
      30.1858    -999.2500    -999.2500    -999.2500       0.1388       0.1858
       0.3010       0.2511    -999.2500       2.5417    -999.2500       0.0020
       2.4399    -999.2500       0.8394       2.9858
   2243.3411
      10.3953       6.5511       0.0926    -999.2500      55.0422    -999.2500
      31.4709    -999.2500    -999.2500    -999.2500       0.1469       0.1946
       0.2852       0.2684    -999.2500       2.6271    -999.2500       0.0020
       2.3910    -999.2500       0.9283       3.1022
   2243.4934
      10.7879       6.7962       0.1502    -999.2500      54.3383    -999.2500
      32.1998    -999.2500    -999.2500    -999.2500       0.1672       0.2238
       0.4234       0.2776    -999.2500       2.7931    -999.2500       0.0021
       2.4553    -999.2500       0.9669       3.1607
