#------------------------------------------------------------------------------
#
#   Created by  : [OpenWorks] Log Export Utility (LEXP)
#   Created on  : 2016-05-11 12:25:29
#   Project     : CANT971
#   User        : R5K
#   Interpreter : PEP
#
#------------------------------------------------------------------------------
~VERSION INFORMATION
VERS. 2.0 : CWLS Log ASCII Standard - version 2.0
WRAP.  NO : One line per depth step
~WELL INFORMATION
#MNEMONIC   .UNIT                                           VALUE :DESCRIPTION
#------------------------------------------------------------------------------
STRT        .M                                           770.8625 :START DEPTH
STOP        .M                                          2968.3181 :STOP DEPTH
STEP        .M                                             0.1524 :STEP
NULL        .                                           -999.2500 :NULL VALUE
COMP        .                                   PEMEX EXPL & PROD :COMPANY
WELL        .                                                3083 :WELL
FLD         .                                           CANTARELL :FIELD
LOC         .                                             UNKNOWN :LOCATION
CNTY        .                                             UNKNOWN :COUNTY
STAT        .                                            CAMPECHE :STATE
CTRY        .                                              MEXICO :COUNTRY
SRVC        .                                             UNKNOWN :SERVICE COMPANY
DATE        .                                             UNKNOWN :LOG DATE
UWI         .                                                3083 :UNIQUE WELL ID
XCOORD      .                                       597325.730000 :SURFACE X
YCOORD      .                                      2152070.080000 :SURFACE Y
LAT         .                                           19.461893 :LATITUDE
LON         .                                          -92.072746 :LONGITUDE
ELEV        .M                                            30.0000 :SURFACE ELEV
ELEV_TYPE   .                                                  KB :ELEV TYPE
~CURVE INFORMATION
#MNEMONIC.UNIT        API CODE       : CURVE DESCRIPTION
#------------------------------------------------------------------------------
DEPTH    .M                          : Measured Depth
CALI     .inches      UNKNOWN        : CALI:Import:rC:NONE:v0 (auto-composite)
CGR      .API         UNKNOWN        : CGR:Import:rC:NONE:v0 (auto-composite)
DRHO     .g/cm3       UNKNOWN        : DRHO:Import:rC:NONE:v0 (auto-composite)
DT       .us/ft       UNKNOWN        : DT:Import:rC:NONE:v0 (auto-composite)
GR       .API         UNKNOWN        : GR:Import:rC:NONE:v0 (auto-composite)
GR-LWD   .API         UNKNOWN        : GR-LWD:Import:rC:NONE:v0 (auto-composite)
LLD      .ohm.m       UNKNOWN        : LLD:Import:rC:NONE:v0 (auto-composite)
LLD-LWD  .ohm.m       UNKNOWN        : LLD-LWD:Import:rC:NONE:v0 (auto-composite)
LLS      .ohm.m       UNKNOWN        : LLS:Import:rC:NONE:v0 (auto-composite)
LLS-LWD  .ohm.m       UNKNOWN        : LLS-LWD:Import:rC:NONE:v0 (auto-composite)
MSFL     .ohm.m       UNKNOWN        : MSFL:Import:rC:NONE:v0 (auto-composite)
MSFL-LWD .ohm.m       UNKNOWN        : MSFL-LWD:Import:rC:NONE:v0 (auto-composite)
NPHI     .v/v_decimal UNKNOWN        : NPHI:Import:rC:NONE:v0 (auto-composite)
PEF      .b/elec      UNKNOWN        : PEF:Import:rC:NONE:v0 (auto-composite)
POTA     .wtpercent   UNKNOWN        : POTA:Import:rC:NONE:v0 (auto-composite)
RHOB     .g/cm3       UNKNOWN        : RHOB:Import:rC:NONE:v0 (auto-composite)
THOR     .ppm         UNKNOWN        : THOR:Import:rC:NONE:v0 (auto-composite)
URAN     .ppm         UNKNOWN        : URAN:Import:rC:NONE:v0 (auto-composite)
~A     DEPTH         CALI          CGR         DRHO           DT           GR       GR-LWD          LLD      LLD-LWD          LLS      LLS-LWD         MSFL     MSFL-LWD         NPHI          PEF         POTA         RHOB         THOR         URAN
# ...
   2360.0896    -999.2500       0.7506    -999.2500    -999.2500      18.9230      18.9225     645.0810     645.0808     484.0120     486.5129     376.8820     411.4233       0.1802    -999.2500      -0.0003    -999.2500       0.0068       1.0281
   2360.2422    -999.2500       1.0472    -999.2500    -999.2500      19.4480      19.4482     633.2530     633.2529     486.5130     492.3748     411.4230     417.4197       0.1695    -999.2500       0.0006    -999.2500      -0.0824       1.0588
   2360.3945    -999.2500       1.6054    -999.2500    -999.2500      19.6710      19.6715     607.8840     607.8839     492.3750     513.2385     417.4200     414.8481       0.1667    -999.2500       0.0008    -999.2500      -0.0833       1.0912
   2360.5469    -999.2500       1.9288    -999.2500    -999.2500      19.4090      19.4092     578.3760     578.3760     513.2390     508.8543     414.8480     380.5836       0.1706    -999.2500       0.0011    -999.2500      -0.0447       1.1158
   2360.6992    -999.2500       2.8984    -999.2500    -999.2500      18.7740      18.7744     594.1320     594.1324     508.8540     471.1150     380.5840     355.9075       0.1773    -999.2500       0.0011    -999.2500       0.0387       1.1252
   2360.8518    -999.2500       2.3210    -999.2500    -999.2500      18.2660      18.2661     573.7980     573.7979     471.1150     438.4688     355.9080     373.4017       0.1743    -999.2500       0.0016    -999.2500       0.0730       1.0741
   2361.0042    -999.2500       2.3575    -999.2500    -999.2500      18.3750      18.3755     546.6270     546.6265     438.4690     412.9775     373.4020     361.6204       0.1664    -999.2500       0.0014    -999.2500       0.0353       1.0299
   2361.1565    -999.2500       1.3968    -999.2500    -999.2500      19.2010      19.2015     538.4270     538.4269     412.9780     411.4133     361.6200     350.1218       0.1478    -999.2500       0.0012    -999.2500       0.1311       1.1151
   2361.3088    -999.2500       1.8353    -999.2500    -999.2500      20.2050      20.2051     550.4410     550.4412     411.4130     405.7028     350.1220     336.3939       0.1266    -999.2500       0.0003    -999.2500       0.2166       1.8138
   2361.4612    -999.2500       0.6417    -999.2500    -999.2500      20.6930      20.6929     591.7950     591.7951     405.7030     417.0783     336.3940     309.9935       0.1160    -999.2500       0.0004    -999.2500       0.3093       1.8392
   2361.6138    -999.2500       1.3834    -999.2500    -999.2500      20.9410      20.9411     622.0260     622.0262     417.0780     449.5322     309.9930     311.8445       0.1139    -999.2500       0.0004    -999.2500      -0.0118       1.5554
   2361.7661    -999.2500       1.8661    -999.2500    -999.2500      21.0710      21.0712     643.1000     643.0999     449.5320     475.0467     311.8450     328.0569       0.1211    -999.2500       0.0011    -999.2500      -0.1071       1.4425
   2361.9185    -999.2500       2.7817    -999.2500    -999.2500      20.8020      20.8021     640.1050     640.1049     475.0470     490.9782     328.0570     352.9401       0.1272    -999.2500       0.0022    -999.2500      -0.4361       1.0874
   2362.0708    -999.2500       2.7333    -999.2500    -999.2500      20.4980      20.4983     619.8620     619.8615     490.9780     480.9094     352.9400     340.2910       0.1295    -999.2500       0.0026    -999.2500      -0.3432       1.0801
   2362.2234    -999.2500       3.1005    -999.2500    -999.2500      20.1530      20.1531     588.6060     588.6061     480.9090     425.2651     340.2910     316.1515       0.1246    -999.2500       0.0022    -999.2500      -0.2350       1.0597
   2362.3757    -999.2500       3.1349    -999.2500    -999.2500      19.9200      19.9195     598.4070     598.4073     425.2650     450.8244     316.1510     349.3469       0.1165    -999.2500       0.0019    -999.2500       0.0261       1.1135
   2362.5281    -999.2500       3.1196    -999.2500    -999.2500      20.4720      20.4719     672.2710     672.2708     450.8240     523.0079     349.3470     418.5836       0.1087    -999.2500       0.0016    -999.2500       0.1201       1.1323
   2362.6804    -999.2500       2.1583    -999.2500    -999.2500      21.8350      21.8351     745.2100     745.2103     523.0080     513.1191     418.5840     439.5555       0.1052    -999.2500       0.0016    -999.2500       0.1382       1.0939
   2362.8330    -999.2500       3.4577    -999.2500    -999.2500      23.5560      23.5560     728.6050     728.6052     513.1190     537.6344     439.5560     423.2884       0.1046    -999.2500       0.0014    -999.2500      -0.0185       1.0188
   2362.9854    -999.2500       3.1277    -999.2500    -999.2500      25.2170      25.2173     781.5900     781.5901     537.6340     603.9927     423.2880     404.4871       0.1034    -999.2500       0.0018    -999.2500       0.1633       1.1235
   2363.1377    -999.2500       2.5776    -999.2500    -999.2500      26.6510      26.6510     828.2340     828.2336     603.9930     592.0682     404.4870     388.9251       0.1045    -999.2500       0.0014    -999.2500       0.1963       1.0955
   2363.2900    -999.2500       1.3609    -999.2500    -999.2500      28.8030      28.8031     803.5470     803.5474     592.0680     588.4800     388.9250     389.6486       0.1064    -999.2500       0.0009    -999.2500       0.2965       1.1112
   2363.4424    -999.2500       1.4636    -999.2500    -999.2500      32.3680      32.3685     884.4000     884.4003     588.4800     680.5822     389.6490     409.9203       0.1120    -999.2500       0.0002    -999.2500       0.2795       1.0913
   2363.5950    -999.2500       1.7955    -999.2500    -999.2500      35.0250      35.0245    1001.5740    1001.5738     680.5820     790.6984     409.9200     453.4277       0.1139    -999.2500       0.0002    -999.2500       0.2852       1.2365
   2363.7473    -999.2500       2.7560    -999.2500    -999.2500      34.9690      34.9694     781.1780     781.1780     790.6980     630.4098     453.4280     410.9072       0.1119    -999.2500       0.0004    -999.2500       0.2921       1.3294
   2363.8997    -999.2500       2.7784    -999.2500    -999.2500      34.6780      34.6778     568.4000     568.4000     630.4100     357.7225     410.9070     232.4825       0.1090    -999.2500       0.0008    -999.2500       0.3742       1.4071
   2364.0520    -999.2500       3.8740    -999.2500    -999.2500      36.2460      36.2461     589.7870     589.7875     357.7230     302.5964     232.4820     167.9534       0.1160    -999.2500       0.0007    -999.2500       0.4102       1.4221
   2364.2046    -999.2500       2.9304    -999.2500    -999.2500      38.5310      38.5312     733.0080     733.0075     302.5960     367.0367     167.9530     181.1302       0.1278    -999.2500       0.0009    -999.2500       0.6263       1.5960
   2364.3569    -999.2500       0.5589    -999.2500    -999.2500      40.3820      40.3816     939.0390     939.0388     367.0370     420.1180     181.1300     201.9782       0.1397    -999.2500       0.0008    -999.2500       0.4246       1.6687
   2364.5093    -999.2500       0.2025    -999.2500    -999.2500      41.3440      41.3443    1077.1670    1077.1674     420.1180     517.3463     201.9780     236.0998       0.1458    -999.2500       0.0006    -999.2500      -0.1166       2.3720
   2364.6616    -999.2500      -0.5443    -999.2500    -999.2500      40.9630      40.9627     926.9040     926.9037     517.3460     509.3111     236.1000     248.5436       0.1411    -999.2500       0.0005    -999.2500      -0.1541       2.3781
   2364.8142    -999.2500      -0.0908    -999.2500    -999.2500      39.8210      39.8215     730.2270     730.2272     509.3110     426.0544     248.5440     242.5455       0.1410    -999.2500      -0.0001    -999.2500      -0.1120       2.4067
   2364.9666    -999.2500       2.3417    -999.2500    -999.2500      38.7470      38.7469     650.6470     650.6472     426.0540     371.9492     242.5460     227.9964       0.1417    -999.2500      -0.0000    -999.2500      -0.0041       2.4779
