#------------------------------------------------------------------------------
#
#   Created by  : [OpenWorks] Log Export Utility (LEXP)
#   Created on  : 2016-05-11 12:25:29
#   Project     : CANT971
#   User        : R5K
#   Interpreter : PEP
#
#------------------------------------------------------------------------------
~VERSION INFORMATION
VERS. 2.0 : CWLS Log ASCII Standard - version 2.0
WRAP.  NO : One line per depth step
~WELL INFORMATION
#MNEMONIC   .UNIT                                           VALUE :DESCRIPTION
#------------------------------------------------------------------------------
STRT        .M                                           770.8625 :START DEPTH
STOP        .M                                          2968.3181 :STOP DEPTH
STEP        .M                                             0.1524 :STEP
NULL        .                                           -999.2500 :NULL VALUE
COMP        .                                   PEMEX EXPL & PROD :COMPANY
WELL        .                                                3083 :WELL
FLD         .                                           CANTARELL :FIELD
LOC         .                                             UNKNOWN :LOCATION
CNTY        .                                             UNKNOWN :COUNTY
STAT        .                                            CAMPECHE :STATE
CTRY        .                                              MEXICO :COUNTRY
SRVC        .                                             UNKNOWN :SERVICE COMPANY
DATE        .                                             UNKNOWN :LOG DATE
UWI         .                                                3083 :UNIQUE WELL ID
XCOORD      .                                       597325.730000 :SURFACE X
YCOORD      .                                      2152070.080000 :SURFACE Y
LAT         .                                           19.461893 :LATITUDE
LON         .                                          -92.072746 :LONGITUDE
ELEV        .M                                            30.0000 :SURFACE ELEV
ELEV_TYPE   .                                                  KB :ELEV TYPE
~CURVE INFORMATION
#MNEMONIC.UNIT        API CODE       : CURVE DESCRIPTION
#------------------------------------------------------------------------------
DEPTH    .M                          : Measured Depth
CALI     .inches      UNKNOWN        : CALI:Import:rC:NONE:v0 (auto-composite)
CGR      .API         UNKNOWN        : CGR:Import:rC:NONE:v0 (auto-composite)
DRHO     .g/cm3       UNKNOWN        : DRHO:Import:rC:NONE:v0 (auto-composite)
DT       .us/ft       UNKNOWN        : DT:Import:rC:NONE:v0 (auto-composite)
GR       .API         UNKNOWN        : GR:Import:rC:NONE:v0 (auto-composite)
GR-LWD   .API         UNKNOWN        : GR-LWD:Import:rC:NONE:v0 (auto-composite)
LLD      .ohm.m       UNKNOWN        : LLD:Import:rC:NONE:v0 (auto-composite)
LLD-LWD  .ohm.m       UNKNOWN        : LLD-LWD:Import:rC:NONE:v0 (auto-composite)
LLS      .ohm.m       UNKNOWN        : LLS:Import:rC:NONE:v0 (auto-composite)
LLS-LWD  .ohm.m       UNKNOWN        : LLS-LWD:Import:rC:NONE:v0 (auto-composite)
MSFL     .ohm.m       UNKNOWN        : MSFL:Import:rC:NONE:v0 (auto-composite)
MSFL-LWD .ohm.m       UNKNOWN        : MSFL-LWD:Import:rC:NONE:v0 (auto-composite)
NPHI     .v/v_decimal UNKNOWN        : NPHI:Import:rC:NONE:v0 (auto-composite)
PEF      .b/elec      UNKNOWN        : PEF:Import:rC:NONE:v0 (auto-composite)
POTA     .wtpercent   UNKNOWN        : POTA:Import:rC:NONE:v0 (auto-composite)
RHOB     .g/cm3       UNKNOWN        : RHOB:Import:rC:NONE:v0 (auto-composite)
THOR     .ppm         UNKNOWN        : THOR:Import:rC:NONE:v0 (auto-composite)
URAN     .ppm         UNKNOWN        : URAN:Import:rC:NONE:v0 (auto-composite)
~A     DEPTH         CALI          CGR         DRHO           DT           GR       GR-LWD          LLD      LLD-LWD          LLS      LLS-LWD         MSFL     MSFL-LWD         NPHI          PEF         POTA         RHOB         THOR         URAN
# ...
   1701.2645    -999.2500    -999.2500    -999.2500      92.3661      40.1520      40.1521       1.1250       1.1253       1.3260       1.3637       1.5410       1.6158    -999.2500    -999.2500    -999.2500    -999.2500    -999.2500    -999.2500
   1701.4169    -999.2500    -999.2500    -999.2500      88.9466      41.0340      41.0336       1.2290       1.2293       1.3640       1.4291       1.6160       1.6895    -999.2500    -999.2500    -999.2500    -999.2500    -999.2500    -999.2500
   1701.5693    -999.2500    -999.2500    -999.2500      85.2474      42.7270      42.7266       1.4040       1.4040       1.4290       1.5703       1.6890       1.8589    -999.2500    -999.2500    -999.2500    -999.2500    -999.2500    -999.2500
   1701.7217    -999.2500    -999.2500    -999.2500      84.5708      41.6420      41.6418       1.6120       1.6120       1.5700       1.7869       1.8590       2.1291    -999.2500    -999.2500    -999.2500    -999.2500    -999.2500    -999.2500
   1701.8741    -999.2500    -999.2500    -999.2500      82.8073      40.0070      40.0071       1.9290       1.9287       1.7870       2.3626       2.1290       2.5140    -999.2500    -999.2500    -999.2500    -999.2500    -999.2500    -999.2500
   1702.0265    -999.2500    -999.2500    -999.2500      86.1450      38.5280      38.5277       2.4500       2.4496       2.3630       3.3327       2.5140       3.1306    -999.2500    -999.2500    -999.2500    -999.2500    -999.2500    -999.2500
   1702.1788    -999.2500    -999.2500    -999.2500      90.5444      37.1790      37.1791       2.5990       2.5989       3.3330       3.5074       3.1310       3.2964    -999.2500    -999.2500    -999.2500    -999.2500    -999.2500    -999.2500
   1702.3313    -999.2500    -999.2500    -999.2500      92.0135      37.2520      37.2525       2.5150       2.5154       3.5070       3.4146       3.2960       3.2772    -999.2500    -999.2500    -999.2500    -999.2500    -999.2500    -999.2500
   1702.4836    -999.2500    -999.2500    -999.2500      95.6771      37.7720      37.7721       2.2190       2.2187       3.4150       3.2054       3.2770       3.2256    -999.2500    -999.2500    -999.2500    -999.2500    -999.2500    -999.2500
   1702.6361    -999.2500    -999.2500    -999.2500      97.7500      36.3170      36.3173       1.7230       1.7228       3.2050       2.8142       3.2260       3.1579    -999.2500    -999.2500    -999.2500    -999.2500    -999.2500    -999.2500
   1702.7885    -999.2500    -999.2500    -999.2500      99.7561      33.2810      33.2814       1.5110       1.5106       2.8140       2.5288       3.1580       2.9930    -999.2500    -999.2500    -999.2500    -999.2500    -999.2500    -999.2500
   1702.9409    -999.2500    -999.2500    -999.2500     102.3894      30.8960      30.8962       1.5000       1.5000       2.5290       2.3635       2.9930       2.8050    -999.2500    -999.2500    -999.2500    -999.2500    -999.2500    -999.2500
   1703.0933    -999.2500    -999.2500    -999.2500     104.2341      31.8000      31.8000       1.5930       1.5929       2.3640       2.3260       2.8050       2.6824    -999.2500    -999.2500    -999.2500    -999.2500    -999.2500    -999.2500
   1703.2457    -999.2500    -999.2500    -999.2500     103.5502      36.2640      36.2641       1.6370       1.6373       2.3260       2.1673       2.6820       2.4946    -999.2500    -999.2500    -999.2500    -999.2500    -999.2500    -999.2500
   1703.3981    -999.2500    -999.2500    -999.2500     101.8210      40.1060      40.1056       1.6220       1.6225       2.1670       1.9450       2.4950       2.2650    -999.2500    -999.2500    -999.2500    -999.2500    -999.2500    -999.2500
   1703.5505    -999.2500    -999.2500    -999.2500     100.9189      42.0790      42.0787       1.5420       1.5421       1.9450       1.7453       2.2650       1.9987    -999.2500    -999.2500    -999.2500    -999.2500    -999.2500    -999.2500
   1703.7029    -999.2500    -999.2500    -999.2500      98.4000      42.8200      42.8199       1.4870       1.4870       1.7450       1.6188       1.9990       1.8361    -999.2500    -999.2500    -999.2500    -999.2500    -999.2500    -999.2500
   1703.8553    -999.2500    -999.2500    -999.2500      98.1635      41.1590      41.1591       1.4840       1.4836       1.6190       1.5825       1.8360       1.7908    -999.2500    -999.2500    -999.2500    -999.2500    -999.2500    -999.2500
   1704.0077    -999.2500    -999.2500    -999.2500      96.0998      38.5460      38.5456       1.5840       1.5843       1.5820       1.6390       1.7910       1.8278    -999.2500    -999.2500    -999.2500    -999.2500    -999.2500    -999.2500
   1704.1600    -999.2500    -999.2500    -999.2500      92.3667      35.8510      35.8507       1.6840       1.6837       1.6390       1.7198       1.8280       1.9008    -999.2500    -999.2500    -999.2500    -999.2500    -999.2500    -999.2500
   1704.3125    -999.2500    -999.2500    -999.2500      89.6447      34.6210      34.6208       1.7170       1.7166       1.7200       1.8612       1.9010       2.0906    -999.2500    -999.2500    -999.2500    -999.2500    -999.2500    -999.2500
   1704.4648    -999.2500    -999.2500    -999.2500      90.7050      35.5650      35.5649       1.7290       1.7291       1.8610       1.9734       2.0910       2.2497    -999.2500    -999.2500    -999.2500    -999.2500    -999.2500    -999.2500
   1704.6173    -999.2500    -999.2500    -999.2500      91.6106      36.0280      36.0284       1.7300       1.7300       1.9730       2.0801       2.2500       2.4079    -999.2500    -999.2500    -999.2500    -999.2500    -999.2500    -999.2500
   1704.7697    -999.2500    -999.2500    -999.2500      93.0000      35.5630      35.5629       1.7670       1.7667       2.0800       2.1572       2.4080       2.5062    -999.2500    -999.2500    -999.2500    -999.2500    -999.2500    -999.2500
   1704.9221    -999.2500    -999.2500    -999.2500      97.0909      35.2680      35.2681       1.9360       1.9357       2.1570       2.2724       2.5060       2.5904    -999.2500    -999.2500    -999.2500    -999.2500    -999.2500    -999.2500
   1705.0745    -999.2500    -999.2500    -999.2500     123.9550      35.0420      35.0422       2.0660       2.0661       2.2720       2.4061       2.5900       2.7067    -999.2500    -999.2500    -999.2500    -999.2500    -999.2500    -999.2500
   1705.2269    -999.2500    -999.2500    -999.2500     123.1578      35.4650      35.4653       2.0870       2.0866       2.4060       2.4489       2.7070       2.7736    -999.2500    -999.2500    -999.2500    -999.2500    -999.2500    -999.2500
   1705.3793    -999.2500    -999.2500    -999.2500     124.5162      36.2850      36.2849       2.0500       2.0497       2.4490       2.4565       2.7740       2.7860    -999.2500    -999.2500    -999.2500    -999.2500    -999.2500    -999.2500
   1705.5317    -999.2500    -999.2500    -999.2500     125.7852      35.4570      35.4565       1.9540       1.9541       2.4570       2.4247       2.7860       2.7044    -999.2500    -999.2500    -999.2500    -999.2500    -999.2500    -999.2500
   1705.6841    -999.2500    -999.2500    -999.2500     118.3194      33.2660      33.2664       1.9130       1.9129       2.4250       2.3426       2.7040       2.5634    -999.2500    -999.2500    -999.2500    -999.2500    -999.2500    -999.2500
   1705.8365    -999.2500    -999.2500    -999.2500     104.1140      32.6530      32.6534       1.9550       1.9547       2.3430       2.2572       2.5630       2.4441    -999.2500    -999.2500    -999.2500    -999.2500    -999.2500    -999.2500
   1705.9889    -999.2500    -999.2500    -999.2500     100.5709      33.4610      33.4609       2.0220       2.0224       2.2570       2.3038       2.4440       2.5384    -999.2500    -999.2500    -999.2500    -999.2500    -999.2500    -999.2500
   1706.1412    -999.2500    -999.2500    -999.2500      98.4131      31.9360      31.9356       2.0590       2.0592       2.3040       2.4133       2.5380       2.8220    -999.2500    -999.2500    -999.2500    -999.2500    -999.2500    -999.2500
