#------------------------------------------------------------------------------
#
#   Created by  : [OpenWorks] Log Export Utility (LEXP)
#   Created on  : 2016-05-11 12:25:29
#   Project     : CANT971
#   User        : R5K
#   Interpreter : PEP
#
#------------------------------------------------------------------------------
~VERSION INFORMATION
VERS. 2.0 : CWLS Log ASCII Standard - version 2.0
WRAP.  NO : One line per depth step
~WELL INFORMATION
#MNEMONIC   .UNIT                                           VALUE :DESCRIPTION
#------------------------------------------------------------------------------
STRT        .M                                           770.8625 :START DEPTH
STOP        .M                                          2968.3181 :STOP DEPTH
STEP        .M                                             0.1524 :STEP
NULL        .                                           -999.2500 :NULL VALUE
COMP        .                                   PEMEX EXPL & PROD :COMPANY
WELL        .                                                3083 :WELL
FLD         .                                           CANTARELL :FIELD
LOC         .                                             UNKNOWN :LOCATION
CNTY        .                                             UNKNOWN :COUNTY
STAT        .                                            CAMPECHE :STATE
CTRY        .                                              MEXICO :COUNTRY
SRVC        .                                             UNKNOWN :SERVICE COMPANY
DATE        .                                             UNKNOWN :LOG DATE
UWI         .                                                3083 :UNIQUE WELL ID
XCOORD      .                                       597325.730000 :SURFACE X
YCOORD      .                                      2152070.080000 :SURFACE Y
LAT         .                                           19.461893 :LATITUDE
LON         .                                          -92.072746 :LONGITUDE
ELEV        .M                                            30.0000 :SURFACE ELEV
ELEV_TYPE   .                                                  KB :ELEV TYPE
~CURVE INFORMATION
#MNEMONIC.UNIT        API CODE       : CURVE DESCRIPTION
#------------------------------------------------------------------------------
DEPTH    .M                          : Measured Depth
CALI     .inches      UNKNOWN        : CALI:Import:rC:NONE:v0 (auto-composite)
CGR      .API         UNKNOWN        : CGR:Import:rC:NONE:v0 (auto-composite)
DRHO     .g/cm3       UNKNOWN        : DRHO:Import:rC:NONE:v0 (auto-composite)
DT       .us/ft       UNKNOWN        : DT:Import:rC:NONE:v0 (auto-composite)
GR       .API         UNKNOWN        : GR:Import:rC:NONE:v0 (auto-composite)
GR-LWD   .API         UNKNOWN        : GR-LWD:Import:rC:NONE:v0 (auto-composite)
LLD      .ohm.m       UNKNOWN        : LLD:Import:rC:NONE:v0 (auto-composite)
LLD-LWD  .ohm.m       UNKNOWN        : LLD-LWD:Import:rC:NONE:v0 (auto-composite)
LLS      .ohm.m       UNKNOWN        : LLS:Import:rC:NONE:v0 (auto-composite)
LLS-LWD  .ohm.m       UNKNOWN        : LLS-LWD:Import:rC:NONE:v0 (auto-composite)
MSFL     .ohm.m       UNKNOWN        : MSFL:Import:rC:NONE:v0 (auto-composite)
MSFL-LWD .ohm.m       UNKNOWN        : MSFL-LWD:Import:rC:NONE:v0 (auto-composite)
NPHI     .v/v_decimal UNKNOWN        : NPHI:Import:rC:NONE:v0 (auto-composite)
PEF      .b/elec      UNKNOWN        : PEF:Import:rC:NONE:v0 (auto-composite)
POTA     .wtpercent   UNKNOWN        : POTA:Import:rC:NONE:v0 (auto-composite)
RHOB     .g/cm3       UNKNOWN        : RHOB:Import:rC:NONE:v0 (auto-composite)
THOR     .ppm         UNKNOWN        : THOR:Import:rC:NONE:v0 (auto-composite)
URAN     .ppm         UNKNOWN        : URAN:Import:rC:NONE:v0 (auto-composite)
~A     DEPTH         CALI          CGR         DRHO           DT           GR       GR-LWD          LLD      LLD-LWD          LLS      LLS-LWD         MSFL     MSFL-LWD         NPHI          PEF         POTA         RHOB         THOR         URAN
# ...
   2440.5569    -999.2500       0.0824    -999.2500    -999.2500      30.4070      30.4072     305.1220     305.1217     183.7730     180.5356      63.0650      61.7279       0.1921    -999.2500       0.0011    -999.2500       0.1056       2.1587
   2440.7092    -999.2500       0.2049    -999.2500    -999.2500      32.7750      32.7753     282.9300     282.9297     180.5360     165.1434      61.7280      64.0030       0.1966    -999.2500       0.0003    -999.2500      -0.0925       2.1258
   2440.8616    -999.2500       1.4508    -999.2500    -999.2500      40.3050      40.3045     286.9380     286.9378     165.1430     151.7254      64.0030      63.6920       0.2060    -999.2500       0.0003    -999.2500      -0.1074       2.1721
   2441.0142    -999.2500       3.3547    -999.2500    -999.2500      50.4800      50.4799     283.5680     283.5676     151.7250     135.9086      63.6920      59.7217       0.2094    -999.2500       0.0007    -999.2500       0.0953       2.3066
   2441.1665    -999.2500       6.5327    -999.2500    -999.2500      56.8460      56.8460     270.2120     270.2121     135.9090     119.8564      59.7220      57.5729       0.2032    -999.2500       0.0013    -999.2500       0.3088       2.5005
   2441.3188    -999.2500       9.2515    -999.2500    -999.2500      54.3850      54.3846     251.0890     251.0890     119.8560     104.5875      57.5730      54.7595       0.1855    -999.2500       0.0034    -999.2500       0.2730       3.1284
   2441.4712    -999.2500       6.2692    -999.2500    -999.2500      44.5700      44.5703     237.7790     237.7793     104.5880     103.3536      54.7590      52.8544       0.1644    -999.2500       0.0030    -999.2500       1.1635       3.7661
   2441.6238    -999.2500       3.9901    -999.2500    -999.2500      34.7740      34.7743     274.5130     274.5134     103.3540     125.1121      52.8540      50.5418       0.1505    -999.2500       0.0020    -999.2500       0.7632       3.3343
   2441.7761    -999.2500       2.4672    -999.2500    -999.2500      29.1640      29.1641     727.3130     727.3126     125.1120     449.5760      50.5420      64.3893       0.1451    -999.2500       0.0009    -999.2500       0.6665       2.9551
   2441.9285    -999.2500       1.8660    -999.2500    -999.2500      27.2780      27.2775    1343.1410    1343.1406     449.5760    1119.0424      64.3890     106.4010       0.1375    -999.2500       0.0004    -999.2500       0.5004       1.9654
   2442.0808    -999.2500       2.4137    -999.2500    -999.2500      27.1380      27.1384     919.4730     919.4733    1119.0420     871.0743     106.4010     106.4805       0.1378    -999.2500       0.0002    -999.2500       0.3656       1.8108
   2442.2334    -999.2500       4.1331    -999.2500    -999.2500      27.9240      27.9237     393.8580     393.8580     871.0740     305.4676     106.4800      85.3680       0.1455    -999.2500       0.0006    -999.2500       0.3789       1.7363
   2442.3857    -999.2500       4.8576    -999.2500    -999.2500      29.2890      29.2888     289.2730     289.2727     305.4680     172.2763      85.3680      81.3039       0.1544    -999.2500       0.0010    -999.2500       0.6809       1.7894
   2442.5381    -999.2500       5.6091    -999.2500    -999.2500      29.9130      29.9126     270.8020     270.8019     172.2760     146.6678      81.3040      74.8363       0.1473    -999.2500       0.0008    -999.2500       0.9267       1.7881
   2442.6904    -999.2500       4.7481    -999.2500    -999.2500      28.8270      28.8272     255.7960     255.7957     146.6680     124.2220      74.8360      69.8040       0.1374    -999.2500       0.0009    -999.2500       1.0838       1.8388
   2442.8428    -999.2500       4.3119    -999.2500    -999.2500      27.6410      27.6408     239.7690     239.7689     124.2220     114.8026      69.8040      67.3878       0.1398    -999.2500       0.0006    -999.2500       0.9559       1.7942
   2442.9954    -999.2500       4.1935    -999.2500    -999.2500      28.3590      28.3594     217.4860     217.4865     114.8030     110.7344      67.3880      63.5001       0.1486    -999.2500       0.0009    -999.2500       0.7333       1.7627
   2443.1477    -999.2500       5.6502    -999.2500    -999.2500      31.3120      31.3116     220.4210     220.4209     110.7340     121.2113      63.5000      64.8250       0.1674    -999.2500       0.0013    -999.2500       0.5385       1.7749
   2443.3000    -999.2500       6.3886    -999.2500    -999.2500      35.4030      35.4033     216.6700     216.6700     121.2110     114.7200      64.8250      62.8700       0.1973    -999.2500       0.0021    -999.2500       0.5722       1.8495
   2443.4524    -999.2500       8.3410    -999.2500    -999.2500      41.7100      41.7105     331.1670     331.1666     114.7200     105.0566      62.8700      50.9549       0.2249    -999.2500       0.0029    -999.2500       0.4485       1.8356
   2443.6050    -999.2500      13.7924    -999.2500    -999.2500      49.3730      49.3726     826.9330     826.9330     105.0570     161.4789      50.9550      52.3710       0.2353    -999.2500       0.0032    -999.2500       0.8205       2.1394
   2443.7573    -999.2500      13.7818    -999.2500    -999.2500      52.5980      52.5978    1576.1450    1576.1453     161.4790     290.3488      52.3710      77.7871       0.2390    -999.2500       0.0050    -999.2500       1.4664       2.5094
   2443.9097    -999.2500       9.1744    -999.2500    -999.2500      48.4420      48.4417    1861.5740    1861.5739     290.3490     333.0169      77.7870     115.1576       0.2238    -999.2500       0.0049    -999.2500       1.5190       2.4521
   2444.0620    -999.2500       4.3779    -999.2500    -999.2500      39.4040      39.4038    1606.6331    1606.6326     333.0170     338.6498     115.1580     161.6821       0.1863    -999.2500       0.0023    -999.2500       1.4070       1.9292
   2444.2146    -999.2500       1.1156    -999.2500    -999.2500      31.5490      31.5491    1471.6050    1471.6047     338.6500     677.2285     161.6820     194.7154       0.1504    -999.2500       0.0005    -999.2500       0.9235       1.6949
   2444.3669    -999.2500       1.2797    -999.2500    -999.2500      27.0740      27.0738    1783.0310    1783.0315     677.2290    1431.0454     194.7150     218.2502       0.1354    -999.2500       0.0001    -999.2500       0.2840       1.6615
   2444.5193    -999.2500       1.4944    -999.2500    -999.2500      24.2830      24.2829    1701.2629    1701.2626    1431.0450    1710.4172     218.2500     223.2961       0.1270    -999.2500       0.0007    -999.2500       0.0604       1.5613
   2444.6716    -999.2500       0.8081    -999.2500    -999.2500      22.5420      22.5417    1304.5129    1304.5126    1710.4170    1223.9771     223.2960     211.0501       0.1149    -999.2500       0.0023    -999.2500      -0.5791       1.1501
   2444.8240    -999.2500       1.1992    -999.2500    -999.2500      22.4170      22.4168     994.5630     994.5634    1223.9771     755.6702     211.0500     211.5663       0.1070    -999.2500       0.0018    -999.2500      -0.5773       1.1164
   2444.9766    -999.2500       1.0101    -999.2500    -999.2500      23.6290      23.6292     892.1540     892.1545     755.6700     638.4015     211.5660     203.1884       0.1052    -999.2500       0.0009    -999.2500      -0.0940       1.3182
   2445.1289    -999.2500       1.5229    -999.2500    -999.2500      24.9040      24.9036    1008.4840    1008.4843     638.4010     696.5587     203.1880     198.4008       0.1097    -999.2500       0.0010    -999.2500      -0.1887       1.4188
   2445.2812    -999.2500       0.9893    -999.2500    -999.2500      26.0570      26.0569    1331.6910    1331.6912     696.5590     862.9052     198.4010     206.5766       0.1125    -999.2500       0.0012    -999.2500      -0.1324       1.6911
   2445.4336    -999.2500       0.5928    -999.2500    -999.2500      26.7650      26.7653    1481.3409    1481.3409     862.9050    1216.8179     206.5770     222.5605       0.1008    -999.2500       0.0013    -999.2500      -0.2850       1.6838
