#------------------------------------------------------------------------------
#
#   Created by  : [OpenWorks] Log Export Utility (LEXP)
#   Created on  : 2016-05-11 12:25:29
#   Project     : CANT971
#   User        : R5K
#   Interpreter : PEP
#
#------------------------------------------------------------------------------
~VERSION INFORMATION
VERS. 2.0 : CWLS Log ASCII Standard - version 2.0
WRAP.  NO : One line per depth step
~WELL INFORMATION
#MNEMONIC   .UNIT                                           VALUE :DESCRIPTION
#------------------------------------------------------------------------------
STRT        .M                                           770.8625 :START DEPTH
STOP        .M                                          2968.3181 :STOP DEPTH
STEP        .M                                             0.1524 :STEP
NULL        .                                           -999.2500 :NULL VALUE
COMP        .                                   PEMEX EXPL & PROD :COMPANY
WELL        .                                                3083 :WELL
FLD         .                                           CANTARELL :FIELD
LOC         .                                             UNKNOWN :LOCATION
CNTY        .                                             UNKNOWN :COUNTY
STAT        .                                            CAMPECHE :STATE
CTRY        .                                              MEXICO :COUNTRY
SRVC        .                                             UNKNOWN :SERVICE COMPANY
DATE        .                                             UNKNOWN :LOG DATE
UWI         .                                                3083 :UNIQUE WELL ID
XCOORD      .                                       597325.730000 :SURFACE X
YCOORD      .                                      2152070.080000 :SURFACE Y
LAT         .                                           19.461893 :LATITUDE
LON         .                                          -92.072746 :LONGITUDE
ELEV        .M                                            30.0000 :SURFACE ELEV
ELEV_TYPE   .                                                  KB :ELEV TYPE
~CURVE INFORMATION
#MNEMONIC.UNIT        API CODE       : CURVE DESCRIPTION
#------------------------------------------------------------------------------
DEPTH    .M                          : Measured Depth
CALI     .inches      UNKNOWN        : CALI:Import:rC:NONE:v0 (auto-composite)
CGR      .API         UNKNOWN        : CGR:Import:rC:NONE:v0 (auto-composite)
DRHO     .g/cm3       UNKNOWN        : DRHO:Import:rC:NONE:v0 (auto-composite)
DT       .us/ft       UNKNOWN        : DT:Import:rC:NONE:v0 (auto-composite)
GR       .API         UNKNOWN        : GR:Import:rC:NONE:v0 (auto-composite)
GR-LWD   .API         UNKNOWN        : GR-LWD:Import:rC:NONE:v0 (auto-composite)
LLD      .ohm.m       UNKNOWN        : LLD:Import:rC:NONE:v0 (auto-composite)
LLD-LWD  .ohm.m       UNKNOWN        : LLD-LWD:Import:rC:NONE:v0 (auto-composite)
LLS      .ohm.m       UNKNOWN        : LLS:Import:rC:NONE:v0 (auto-composite)
LLS-LWD  .ohm.m       UNKNOWN        : LLS-LWD:Import:rC:NONE:v0 (auto-composite)
MSFL     .ohm.m       UNKNOWN        : MSFL:Import:rC:NONE:v0 (auto-composite)
MSFL-LWD .ohm.m       UNKNOWN        : MSFL-LWD:Import:rC:NONE:v0 (auto-composite)
NPHI     .v/v_decimal UNKNOWN        : NPHI:Import:rC:NONE:v0 (auto-composite)
PEF      .b/elec      UNKNOWN        : PEF:Import:rC:NONE:v0 (auto-composite)
POTA     .wtpercent   UNKNOWN        : POTA:Import:rC:NONE:v0 (auto-composite)
RHOB     .g/cm3       UNKNOWN        : RHOB:Import:rC:NONE:v0 (auto-composite)
THOR     .ppm         UNKNOWN        : THOR:Import:rC:NONE:v0 (auto-composite)
URAN     .ppm         UNKNOWN        : URAN:Import:rC:NONE:v0 (auto-composite)
~A     DEPTH         CALI          CGR         DRHO           DT           GR       GR-LWD          LLD      LLD-LWD          LLS      LLS-LWD         MSFL     MSFL-LWD         NPHI          PEF         POTA         RHOB         THOR         URAN
# ...
   2852.9512    -999.2500      14.0302    -999.2500    -999.2500      38.1300      38.1297      38.9970      38.9971      37.0480      35.1601      36.7850      35.2447       0.1251    -999.2500       0.0043    -999.2500       1.7152       1.2893
   2853.1038    -999.2500      14.4388    -999.2500    -999.2500      38.5850      38.5853      38.0630      38.0628      35.1600      33.7764      35.2450      34.2063       0.1358    -999.2500       0.0041    -999.2500       1.9043       1.6875
   2853.2561    -999.2500      13.8228    -999.2500    -999.2500      38.3820      38.3817      37.6670      37.6669      33.7760      32.7714      34.2060      33.6141       0.1361    -999.2500       0.0044    -999.2500       1.9079       1.7960
   2853.4084    -999.2500      13.5889    -999.2500    -999.2500      38.2240      38.2244      36.8790      36.8787      32.7710      32.2571      33.6140      33.2440       0.1343    -999.2500       0.0045    -999.2500       1.7188       1.7466
   2853.5608    -999.2500      14.0655    -999.2500    -999.2500      37.8420      37.8424      36.4050      36.4050      32.2570      32.1322      33.2440      32.8372       0.1275    -999.2500       0.0050    -999.2500       1.4447       1.6526
   2853.7134    -999.2500      14.7075    -999.2500    -999.2500      36.9600      36.9597      36.2880      36.2879      32.1320      32.1725      32.8370      32.7596       0.1219    -999.2500       0.0055    -999.2500       1.3153       1.6266
   2853.8657    -999.2500      10.7663    -999.2500    -999.2500      36.8520      36.8523      36.1290      36.1293      32.1730      32.5156      32.7600      32.9281       0.1100    -999.2500       0.0063    -999.2500       1.1627       1.6157
   2854.0181    -999.2500      10.2602    -999.2500    -999.2500      37.0660      37.0662      36.1640      36.1641      32.5160      33.2645      32.9280      33.3555       0.1008    -999.2500       0.0054    -999.2500       0.5420       1.4993
   2854.1704    -999.2500      12.3430    -999.2500    -999.2500      36.7610      36.7613      36.8620      36.8617      33.2640      34.6999      33.3550      35.2770       0.0967    -999.2500       0.0053    -999.2500       0.4297       1.4607
   2854.3230    -999.2500      11.2470    -999.2500    -999.2500      36.6770      36.6772      37.1620      37.1622      34.7000      36.0942      35.2770      37.9148       0.0939    -999.2500       0.0061    -999.2500       0.6225       1.6051
   2854.4753    -999.2500      11.3294    -999.2500    -999.2500      36.1540      36.1544      36.7610      36.7608      36.0940      36.5341      37.9150      39.2591       0.0949    -999.2500       0.0058    -999.2500       0.4654       1.5205
   2854.6277    -999.2500      11.0067    -999.2500    -999.2500      35.3590      35.3585      36.7680      36.7678      36.5340      37.2850      39.2590      39.6290       0.0920    -999.2500       0.0060    -999.2500       0.4168       1.5937
   2854.7800    -999.2500       7.2867    -999.2500    -999.2500      35.3370      35.3372      37.0920      37.0922      37.2850      37.8479      39.6290      39.7003       0.0891    -999.2500       0.0057    -999.2500       0.4146       2.1396
   2854.9324    -999.2500       7.5103    -999.2500    -999.2500      35.3310      35.3310      37.6620      37.6618      37.8480      38.7295      39.7000      40.2923       0.0855    -999.2500       0.0042    -999.2500       0.1228       1.9843
   2855.0850    -999.2500       9.6203    -999.2500    -999.2500      34.7260      34.7261      38.4850      38.4849      38.7290      40.2272      40.2920      41.4856       0.0863    -999.2500       0.0041    -999.2500       0.2044       1.9800
   2855.2373    -999.2500       9.0182    -999.2500    -999.2500      33.2240      33.2241      39.0630      39.0630      40.2270      42.1085      41.4860      43.2854       0.0839    -999.2500       0.0049    -999.2500       0.4118       2.0469
   2855.3896    -999.2500       7.8190    -999.2500    -999.2500      31.4600      31.4599      39.4590      39.4593      42.1090      43.7291      43.2850      45.6260       0.0859    -999.2500       0.0045    -999.2500       0.4213       1.9773
   2855.5420    -999.2500       9.7964    -999.2500    -999.2500      31.4150      31.4152      38.8050      38.8047      43.7290      43.3538      45.6260      47.5645       0.0858    -999.2500       0.0040    -999.2500       0.3403       1.7737
   2855.6946    -999.2500       9.4650    -999.2500    -999.2500      33.4510      33.4512      37.9320      37.9317      43.3540      42.5875      47.5640      47.0889       0.0864    -999.2500       0.0044    -999.2500       0.6859       1.8261
   2855.8469    -999.2500      10.9494    -999.2500    -999.2500      36.2140      36.2136      37.0820      37.0817      42.5880      42.0828      47.0890      45.1182       0.0834    -999.2500       0.0042    -999.2500       0.6739       1.7295
   2855.9993    -999.2500      10.0775    -999.2500    -999.2500      37.1780      37.1778      36.5150      36.5150      42.0830      41.4175      45.1180      43.6500       0.0811    -999.2500       0.0047    -999.2500       0.8595       1.7336
   2856.1516    -999.2500      10.4176    -999.2500    -999.2500      35.8130      35.8127      36.0550      36.0551      41.4170      39.9989      43.6500      41.8932       0.0763    -999.2500       0.0047    -999.2500       0.6518       1.5550
   2856.3042    -999.2500      11.4846    -999.2500    -999.2500      35.1060      35.1063      35.6160      35.6162      39.9990      38.2304      41.8930      40.3021       0.0730    -999.2500       0.0050    -999.2500       0.5953       1.5315
   2856.4565    -999.2500      11.0096    -999.2500    -999.2500      35.8050      35.8047      34.9290      34.9292      38.2300      36.5811      40.3020      38.9326       0.0744    -999.2500       0.0051    -999.2500       0.8225       1.6226
   2856.6089    -999.2500      10.3098    -999.2500    -999.2500      36.7660      36.7664      34.0160      34.0161      36.5810      34.8475      38.9330      37.0931       0.0759    -999.2500       0.0046    -999.2500       0.9090       1.5977
   2856.7612    -999.2500      10.8883    -999.2500    -999.2500      37.9470      37.9467      33.5450      33.5453      34.8470      32.0842      37.0930      33.7973       0.0784    -999.2500       0.0043    -999.2500       0.8529       1.5248
   2856.9136    -999.2500       9.7300    -999.2500    -999.2500      40.1160      40.1164      33.4560      33.4563      32.0840      28.9369      33.7970      28.8694       0.0800    -999.2500       0.0047    -999.2500       0.8415       1.4760
   2857.0662    -999.2500      10.9168    -999.2500    -999.2500      43.7900      43.7896      34.2750      34.2751      28.9370      27.1229      28.8690      24.7102       0.0818    -999.2500       0.0046    -999.2500       0.5959       1.2114
   2857.2185    -999.2500      11.6741    -999.2500    -999.2500      46.1530      46.1525      35.4300      35.4296      27.1230      26.9918      24.7100      23.3256       0.0835    -999.2500       0.0049    -999.2500       0.7457       1.2173
   2857.3708    -999.2500      12.1960    -999.2500    -999.2500      44.2710      44.2707      36.0910      36.0908      26.9920      27.9078      23.3260      24.1977       0.0833    -999.2500       0.0051    -999.2500       0.8915       1.1664
   2857.5232    -999.2500      13.6435    -999.2500    -999.2500      40.2760      40.2758      36.8110      36.8114      27.9080      28.7840      24.1980      25.4869       0.0844    -999.2500       0.0049    -999.2500       1.0685       1.0928
   2857.6758    -999.2500      14.3164    -999.2500    -999.2500      38.5000      38.5005      38.3080      38.3084      28.7840      29.8298      25.4870      27.2989       0.0852    -999.2500       0.0051    -999.2500       1.3686       1.1647
   2857.8281    -999.2500      12.8288    -999.2500    -999.2500      38.7450      38.7448      40.4870      40.4871      29.8300      32.3066      27.2990      30.1608       0.0851    -999.2500       0.0053    -999.2500       1.4823       1.1940
