#------------------------------------------------------------------------------
#
#   Created by  : [OpenWorks] Log Export Utility (LEXP)
#   Created on  : 2016-05-11 12:25:29
#   Project     : CANT971
#   User        : R5K
#   Interpreter : PEP
#
#------------------------------------------------------------------------------
~VERSION INFORMATION
VERS. 2.0 : CWLS Log ASCII Standard - version 2.0
WRAP.  NO : One line per depth step
~WELL INFORMATION
#MNEMONIC   .UNIT                                           VALUE :DESCRIPTION
#------------------------------------------------------------------------------
STRT        .M                                           770.8625 :START DEPTH
STOP        .M                                          2968.3181 :STOP DEPTH
STEP        .M                                             0.1524 :STEP
NULL        .                                           -999.2500 :NULL VALUE
COMP        .                                   PEMEX EXPL & PROD :COMPANY
WELL        .                                                3083 :WELL
FLD         .                                           CANTARELL :FIELD
LOC         .                                             UNKNOWN :LOCATION
CNTY        .                                             UNKNOWN :COUNTY
STAT        .                                            CAMPECHE :STATE
CTRY        .                                              MEXICO :COUNTRY
SRVC        .                                             UNKNOWN :SERVICE COMPANY
DATE        .                                             UNKNOWN :LOG DATE
UWI         .                                                3083 :UNIQUE WELL ID
XCOORD      .                                       597325.730000 :SURFACE X
YCOORD      .                                      2152070.080000 :SURFACE Y
LAT         .                                           19.461893 :LATITUDE
LON         .                                          -92.072746 :LONGITUDE
ELEV        .M                                            30.0000 :SURFACE ELEV
ELEV_TYPE   .                                                  KB :ELEV TYPE
~CURVE INFORMATION
#MNEMONIC.UNIT        API CODE       : CURVE DESCRIPTION
#------------------------------------------------------------------------------
DEPTH    .M                          : Measured Depth
CALI     .inches      UNKNOWN        : CALI:Import:rC:NONE:v0 (auto-composite)
CGR      .API         UNKNOWN        : CGR:Import:rC:NONE:v0 (auto-composite)
DRHO     .g/cm3       UNKNOWN        : DRHO:Import:rC:NONE:v0 (auto-composite)
DT       .us/ft       UNKNOWN        : DT:Import:rC:NONE:v0 (auto-composite)
GR       .API         UNKNOWN        : GR:Import:rC:NONE:v0 (auto-composite)
GR-LWD   .API         UNKNOWN        : GR-LWD:Import:rC:NONE:v0 (auto-composite)
LLD      .ohm.m       UNKNOWN        : LLD:Import:rC:NONE:v0 (auto-composite)
LLD-LWD  .ohm.m       UNKNOWN        : LLD-LWD:Import:rC:NONE:v0 (auto-composite)
LLS      .ohm.m       UNKNOWN        : LLS:Import:rC:NONE:v0 (auto-composite)
LLS-LWD  .ohm.m       UNKNOWN        : LLS-LWD:Import:rC:NONE:v0 (auto-composite)
MSFL     .ohm.m       UNKNOWN        : MSFL:Import:rC:NONE:v0 (auto-composite)
MSFL-LWD .ohm.m       UNKNOWN        : MSFL-LWD:Import:rC:NONE:v0 (auto-composite)
NPHI     .v/v_decimal UNKNOWN        : NPHI:Import:rC:NONE:v0 (auto-composite)
PEF      .b/elec      UNKNOWN        : PEF:Import:rC:NONE:v0 (auto-composite)
POTA     .wtpercent   UNKNOWN        : POTA:Import:rC:NONE:v0 (auto-composite)
RHOB     .g/cm3       UNKNOWN        : RHOB:Import:rC:NONE:v0 (auto-composite)
THOR     .ppm         UNKNOWN        : THOR:Import:rC:NONE:v0 (auto-composite)
URAN     .ppm         UNKNOWN        : URAN:Import:rC:NONE:v0 (auto-composite)
~A     DEPTH         CALI          CGR         DRHO           DT           GR       GR-LWD          LLD      LLD-LWD          LLS      LLS-LWD         MSFL     MSFL-LWD         NPHI          PEF         POTA         RHOB         THOR         URAN
# ...
   1867.2280    -999.2500    -999.2500    -999.2500     115.2593      47.4970      47.4970       0.7510       0.7511       1.0440       0.9947       1.2380       1.2025    -999.2500    -999.2500    -999.2500    -999.2500    -999.2500    -999.2500
   1867.3805    -999.2500    -999.2500    -999.2500     117.4526      48.0550      48.0549       0.7640       0.7637       0.9950       0.9936       1.2020       1.2126    -999.2500    -999.2500    -999.2500    -999.2500    -999.2500    -999.2500
   1867.5328    -999.2500    -999.2500    -999.2500     120.5907      46.9100      46.9104       0.8260       0.8258       0.9940       1.0341       1.2130       1.2516    -999.2500    -999.2500    -999.2500    -999.2500    -999.2500    -999.2500
   1867.6853    -999.2500    -999.2500    -999.2500     121.1354      47.0390      47.0389       0.8900       0.8896       1.0340       1.1010       1.2520       1.3049    -999.2500    -999.2500    -999.2500    -999.2500    -999.2500    -999.2500
   1867.8376    -999.2500    -999.2500    -999.2500     120.4669      48.5980      48.5982       0.9050       0.9053       1.1010       1.1444       1.3050       1.3363    -999.2500    -999.2500    -999.2500    -999.2500    -999.2500    -999.2500
   1867.9901    -999.2500    -999.2500    -999.2500     118.6933      49.0560      49.0562       0.8680       0.8681       1.1440       1.1339       1.3360       1.3335    -999.2500    -999.2500    -999.2500    -999.2500    -999.2500    -999.2500
   1868.1425    -999.2500    -999.2500    -999.2500     117.2223      48.9560      48.9562       0.8080       0.8075       1.1340       1.0768       1.3340       1.2900    -999.2500    -999.2500    -999.2500    -999.2500    -999.2500    -999.2500
   1868.2949    -999.2500    -999.2500    -999.2500     116.7645      49.9340      49.9339       0.7760       0.7756       1.0770       0.9878       1.2900       1.2272    -999.2500    -999.2500    -999.2500    -999.2500    -999.2500    -999.2500
   1868.4473    -999.2500    -999.2500    -999.2500     117.4849      51.3620      51.3616       0.7870       0.7871       0.9880       0.9600       1.2270       1.2023    -999.2500    -999.2500    -999.2500    -999.2500    -999.2500    -999.2500
   1868.5997    -999.2500    -999.2500    -999.2500     119.5297      51.7480      51.7478       0.8170       0.8175       0.9600       0.9825       1.2020       1.2325    -999.2500    -999.2500    -999.2500    -999.2500    -999.2500    -999.2500
   1868.7521    -999.2500    -999.2500    -999.2500     120.6718      50.5900      50.5895       0.8520       0.8518       0.9830       1.0345       1.2320       1.2680    -999.2500    -999.2500    -999.2500    -999.2500    -999.2500    -999.2500
   1868.9045    -999.2500    -999.2500    -999.2500     122.2276      48.8530      48.8534       0.8860       0.8855       1.0350       1.0760       1.2680       1.2929    -999.2500    -999.2500    -999.2500    -999.2500    -999.2500    -999.2500
   1869.0569    -999.2500    -999.2500    -999.2500     119.9602      48.4990      48.4987       0.8940       0.8936       1.0760       1.1050       1.2930       1.2971    -999.2500    -999.2500    -999.2500    -999.2500    -999.2500    -999.2500
   1869.2092    -999.2500    -999.2500    -999.2500     117.0259      49.4760      49.4757       0.8840       0.8836       1.1050       1.1131       1.2970       1.2861    -999.2500    -999.2500    -999.2500    -999.2500    -999.2500    -999.2500
   1869.3617    -999.2500    -999.2500    -999.2500     117.3422      49.8040      49.8039       0.8560       0.8561       1.1130       1.0718       1.2860       1.2524    -999.2500    -999.2500    -999.2500    -999.2500    -999.2500    -999.2500
   1869.5140    -999.2500    -999.2500    -999.2500     118.2611      48.8320      48.8323       0.8230       0.8232       1.0720       1.0135       1.2520       1.1821    -999.2500    -999.2500    -999.2500    -999.2500    -999.2500    -999.2500
   1869.6665    -999.2500    -999.2500    -999.2500     118.1551      47.8530      47.8525       0.8110       0.8108       1.0130       0.9800       1.1820       1.1166    -999.2500    -999.2500    -999.2500    -999.2500    -999.2500    -999.2500
   1869.8188    -999.2500    -999.2500    -999.2500     119.4072      49.1080      49.1076       0.8160       0.8164       0.9800       0.9695       1.1170       1.1129    -999.2500    -999.2500    -999.2500    -999.2500    -999.2500    -999.2500
   1869.9713    -999.2500    -999.2500    -999.2500     121.0067      52.1140      52.1138       0.8190       0.8189       0.9700       0.9621       1.1130       1.1393    -999.2500    -999.2500    -999.2500    -999.2500    -999.2500    -999.2500
   1870.1237    -999.2500    -999.2500    -999.2500     122.5553      53.7470      53.7466       0.7990       0.7989       0.9620       0.9556       1.1390       1.1544    -999.2500    -999.2500    -999.2500    -999.2500    -999.2500    -999.2500
   1870.2761    -999.2500    -999.2500    -999.2500     123.4838      53.1290      53.1290       0.7720       0.7722       0.9560       0.9594       1.1540       1.1506    -999.2500    -999.2500    -999.2500    -999.2500    -999.2500    -999.2500
   1870.4285    -999.2500    -999.2500    -999.2500     122.6483      50.6730      50.6733       0.7480       0.7482       0.9590       0.9593       1.1510       1.1364    -999.2500    -999.2500    -999.2500    -999.2500    -999.2500    -999.2500
   1870.5809    -999.2500    -999.2500    -999.2500     122.6484      48.3750      48.3745       0.7760       0.7764       0.9590       0.9616       1.1360       1.1458    -999.2500    -999.2500    -999.2500    -999.2500    -999.2500    -999.2500
   1870.7333    -999.2500    -999.2500    -999.2500     125.1553      49.4800      49.4803       0.8370       0.8367       0.9620       1.0009       1.1460       1.2168    -999.2500    -999.2500    -999.2500    -999.2500    -999.2500    -999.2500
   1870.8857    -999.2500    -999.2500    -999.2500     126.3038      52.2420      52.2424       0.8790       0.8793       1.0010       1.0418       1.2170       1.2514    -999.2500    -999.2500    -999.2500    -999.2500    -999.2500    -999.2500
   1871.0381    -999.2500    -999.2500    -999.2500     126.6507      52.1720      52.1721       0.8770       0.8773       1.0420       1.0708       1.2510       1.2169    -999.2500    -999.2500    -999.2500    -999.2500    -999.2500    -999.2500
   1871.1904    -999.2500    -999.2500    -999.2500     123.9111      50.6000      50.5996       0.8290       0.8287       1.0710       1.0845       1.2170       1.1864    -999.2500    -999.2500    -999.2500    -999.2500    -999.2500    -999.2500
   1871.3429    -999.2500    -999.2500    -999.2500     121.0673      51.1310      51.1309       0.7800       0.7796       1.0840       1.0481       1.1860       1.1854    -999.2500    -999.2500    -999.2500    -999.2500    -999.2500    -999.2500
   1871.4952    -999.2500    -999.2500    -999.2500     119.5518      51.9970      51.9969       0.7870       0.7868       1.0480       0.9890       1.1850       1.2164    -999.2500    -999.2500    -999.2500    -999.2500    -999.2500    -999.2500
   1871.6477    -999.2500    -999.2500    -999.2500     120.1972      53.2410      53.2413       0.8280       0.8283       0.9890       0.9923       1.2160       1.2337    -999.2500    -999.2500    -999.2500    -999.2500    -999.2500    -999.2500
   1871.8000    -999.2500    -999.2500    -999.2500     122.3683      55.9480      55.9478       0.8300       0.8300       0.9920       0.9975       1.2340       1.2150    -999.2500    -999.2500    -999.2500    -999.2500    -999.2500    -999.2500
   1871.9525    -999.2500    -999.2500    -999.2500     123.4483      57.7490      57.7492       0.7460       0.7455       0.9980       0.9692       1.2150       1.1373    -999.2500    -999.2500    -999.2500    -999.2500    -999.2500    -999.2500
   1872.1049    -999.2500    -999.2500    -999.2500     123.3200      58.3640      58.3637       0.6420       0.6425       0.9690       0.9217       1.1370       1.0704    -999.2500    -999.2500    -999.2500    -999.2500    -999.2500    -999.2500
