#------------------------------------------------------------------------------
#
#   Created by  : [OpenWorks] Log Export Utility (LEXP)
#   Created on  : 2016-05-11 12:25:29
#   Project     : CANT971
#   User        : R5K
#   Interpreter : PEP
#
#------------------------------------------------------------------------------
~VERSION INFORMATION
VERS. 2.0 : CWLS Log ASCII Standard - version 2.0
WRAP.  NO : One line per depth step
~WELL INFORMATION
#MNEMONIC   .UNIT                                           VALUE :DESCRIPTION
#------------------------------------------------------------------------------
STRT        .M                                           770.8625 :START DEPTH
STOP        .M                                          2968.3181 :STOP DEPTH
STEP        .M                                             0.1524 :STEP
NULL        .                                           -999.2500 :NULL VALUE
COMP        .                                   PEMEX EXPL & PROD :COMPANY
WELL        .                                                3083 :WELL
FLD         .                                           CANTARELL :FIELD
LOC         .                                             UNKNOWN :LOCATION
CNTY        .                                             UNKNOWN :COUNTY
STAT        .                                            CAMPECHE :STATE
CTRY        .                                              MEXICO :COUNTRY
SRVC        .                                             UNKNOWN :SERVICE COMPANY
DATE        .                                             UNKNOWN :LOG DATE
UWI         .                                                3083 :UNIQUE WELL ID
XCOORD      .                                       597325.730000 :SURFACE X
YCOORD      .                                      2152070.080000 :SURFACE Y
LAT         .                                           19.461893 :LATITUDE
LON         .                                          -92.072746 :LONGITUDE
ELEV        .M                                            30.0000 :SURFACE ELEV
ELEV_TYPE   .                                                  KB :ELEV TYPE
~CURVE INFORMATION
#MNEMONIC.UNIT        API CODE       : CURVE DESCRIPTION
#------------------------------------------------------------------------------
DEPTH    .M                          : Measured Depth
CALI     .inches      UNKNOWN        : CALI:Import:rC:NONE:v0 (auto-composite)
CGR      .API         UNKNOWN        : CGR:Import:rC:NONE:v0 (auto-composite)
DRHO     .g/cm3       UNKNOWN        : DRHO:Import:rC:NONE:v0 (auto-composite)
DT       .us/ft       UNKNOWN        : DT:Import:rC:NONE:v0 (auto-composite)
GR       .API         UNKNOWN        : GR:Import:rC:NONE:v0 (auto-composite)
GR-LWD   .API         UNKNOWN        : GR-LWD:Import:rC:NONE:v0 (auto-composite)
LLD      .ohm.m       UNKNOWN        : LLD:Import:rC:NONE:v0 (auto-composite)
LLD-LWD  .ohm.m       UNKNOWN        : LLD-LWD:Import:rC:NONE:v0 (auto-composite)
LLS      .ohm.m       UNKNOWN        : LLS:Import:rC:NONE:v0 (auto-composite)
LLS-LWD  .ohm.m       UNKNOWN        : LLS-LWD:Import:rC:NONE:v0 (auto-composite)
MSFL     .ohm.m       UNKNOWN        : MSFL:Import:rC:NONE:v0 (auto-composite)
MSFL-LWD .ohm.m       UNKNOWN        : MSFL-LWD:Import:rC:NONE:v0 (auto-composite)
NPHI     .v/v_decimal UNKNOWN        : NPHI:Import:rC:NONE:v0 (auto-composite)
PEF      .b/elec      UNKNOWN        : PEF:Import:rC:NONE:v0 (auto-composite)
POTA     .wtpercent   UNKNOWN        : POTA:Import:rC:NONE:v0 (auto-composite)
RHOB     .g/cm3       UNKNOWN        : RHOB:Import:rC:NONE:v0 (auto-composite)
THOR     .ppm         UNKNOWN        : THOR:Import:rC:NONE:v0 (auto-composite)
URAN     .ppm         UNKNOWN        : URAN:Import:rC:NONE:v0 (auto-composite)
~A     DEPTH         CALI          CGR         DRHO           DT           GR       GR-LWD          LLD      LLD-LWD          LLS      LLS-LWD         MSFL     MSFL-LWD         NPHI          PEF         POTA         RHOB         THOR         URAN
# ...
   2606.5205    -999.2500      16.9256    -999.2500    -999.2500      37.0320      37.0319      18.2440      18.2439      21.0070      21.6199      22.9730      23.5894       0.1132    -999.2500       0.0089    -999.2500       0.9421       2.3123
   2606.6729    -999.2500      13.8470    -999.2500    -999.2500      34.5270      34.5273      18.0130      18.0127      21.6200      21.6785      23.5890      24.1719       0.1076    -999.2500       0.0083    -999.2500       0.8705       2.2510
   2606.8252    -999.2500      11.4826    -999.2500    -999.2500      35.2650      35.2647      17.5370      17.5368      21.6780      21.5080      24.1720      24.5135       0.1007    -999.2500       0.0069    -999.2500       0.6662       2.0755
   2606.9778    -999.2500      11.0061    -999.2500    -999.2500      38.2640      38.2644      16.9690      16.9687      21.5080      21.4856      24.5140      24.3339       0.0987    -999.2500       0.0060    -999.2500       0.4551       1.8129
   2607.1301    -999.2500      10.5342    -999.2500    -999.2500      40.0570      40.0570      16.3500      16.3501      21.4860      21.3440      24.3340      23.5855       0.1030    -999.2500       0.0058    -999.2500       0.4334       1.7276
   2607.2825    -999.2500       7.9604    -999.2500    -999.2500      40.5880      40.5876      15.6650      15.6645      21.3440      20.9317      23.5860      22.8030       0.1069    -999.2500       0.0053    -999.2500       0.4605       1.7015
   2607.4348    -999.2500       4.4597    -999.2500    -999.2500      41.8700      41.8696      14.9270      14.9268      20.9320      20.1221      22.8030      21.9165       0.1047    -999.2500       0.0042    -999.2500       0.2808       1.6421
   2607.5874    -999.2500       8.1069    -999.2500    -999.2500      44.1810      44.1809      14.1380      14.1380      20.1220      19.0668      21.9170      20.6933       0.1042    -999.2500       0.0033    -999.2500      -0.2546       1.6805
   2607.7397    -999.2500      12.3514    -999.2500    -999.2500      46.0450      46.0446      13.3740      13.3737      19.0670      17.8476      20.6930      19.3087       0.1028    -999.2500       0.0040    -999.2500       0.3769       1.9387
   2607.8921    -999.2500      12.0600    -999.2500    -999.2500      46.6150      46.6154      12.6770      12.6767      17.8480      16.7342      19.3090      17.9741       0.1086    -999.2500       0.0055    -999.2500       0.8941       1.9710
   2608.0444    -999.2500      10.4080    -999.2500    -999.2500      45.8480      45.8480      12.0720      12.0718      16.7340      15.6109      17.9740      16.7985       0.1104    -999.2500       0.0052    -999.2500       0.9104       1.9482
   2608.1968    -999.2500      10.0545    -999.2500    -999.2500      45.0570      45.0571      11.4060      11.4063      15.6110      14.3263      16.7990      15.5364       0.1113    -999.2500       0.0047    -999.2500       0.7248       1.8579
   2608.3494    -999.2500      11.3891    -999.2500    -999.2500      49.6590      49.6586      10.5230      10.5230      14.3260      12.5029      15.5360      13.4392       0.1174    -999.2500       0.0045    -999.2500       0.6994       1.8568
   2608.5017    -999.2500      12.3194    -999.2500    -999.2500      60.4560      60.4559       9.8450       9.8449      12.5030      10.7572      13.4390      11.2465       0.1245    -999.2500       0.0052    -999.2500       0.7538       1.9392
   2608.6541    -999.2500      13.8352    -999.2500    -999.2500      68.8000      68.7999      10.0050      10.0052      10.7570      10.4564      11.2470      10.5676       0.1335    -999.2500       0.0058    -999.2500       0.7122       1.9820
   2608.8064    -999.2500      11.9833    -999.2500    -999.2500      69.9200      69.9198      10.5000      10.4995      10.4560      10.8602      10.5680      10.9406       0.1331    -999.2500       0.0067    -999.2500       0.7646       2.0417
   2608.9590    -999.2500      12.6047    -999.2500    -999.2500      68.1930      68.1930      10.6840      10.6842      10.8600      11.2307      10.9410      11.7977       0.1371    -999.2500       0.0065    -999.2500       0.3717       1.8538
   2609.1113    -999.2500      15.1810    -999.2500    -999.2500      66.9720      66.9716      10.6780      10.6776      11.2310      11.6186      11.7980      12.7837       0.1444    -999.2500       0.0065    -999.2500       0.5276       1.8941
   2609.2637    -999.2500      25.0299    -999.2500    -999.2500      66.3680      66.3685      10.5650      10.5649      11.6190      11.9430      12.7840      13.5026       0.1664    -999.2500       0.0069    -999.2500       1.0025       2.0069
   2609.4160    -999.2500      24.1442    -999.2500    -999.2500      69.7000      69.7002      10.2070      10.2073      11.9430      11.5083      13.5030      13.1334       0.1868    -999.2500       0.0098    -999.2500       2.3315       2.0847
   2609.5686    -999.2500      22.7888    -999.2500    -999.2500      80.2980      80.2984       9.5760       9.5757      11.5080      10.0656      13.1330      11.1614       0.1791    -999.2500       0.0093    -999.2500       2.3473       2.0114
   2609.7209    -999.2500      23.2979    -999.2500    -999.2500      91.5410      91.5413       9.0460       9.0464      10.0660       8.9066      11.1610       9.2251       0.1541    -999.2500       0.0084    -999.2500       2.3509       1.9207
   2609.8733    -999.2500      20.1778    -999.2500    -999.2500      90.2910      90.2909       9.7040       9.7038       8.9070       9.0292       9.2250       9.1178       0.1330    -999.2500       0.0083    -999.2500       2.5376       1.9501
   2610.0256    -999.2500      22.9048    -999.2500    -999.2500      74.1170      74.1172      11.9060      11.9057       9.0290      10.8942       9.1180      11.5600       0.1258    -999.2500       0.0062    -999.2500       2.6217       1.6889
   2610.1780    -999.2500      30.2385    -999.2500    -999.2500      55.4130      55.4126      13.2380      13.2380      10.8940      13.3280      11.5600      14.9938       0.1251    -999.2500       0.0072    -999.2500       2.9163       1.7499
   2610.3306    -999.2500      36.8477    -999.2500    -999.2500      44.7720      44.7717      13.2940      13.2939      13.3280      15.3241      14.9940      18.0850       0.1350    -999.2500       0.0105    -999.2500       3.4398       1.7492
   2610.4829    -999.2500      39.6630    -999.2500    -999.2500      40.5720      40.5722      13.0880      13.0881      15.3240      16.8781      18.0850      20.1129       0.1684    -999.2500       0.0126    -999.2500       4.2492       1.9071
   2610.6353    -999.2500      28.9704    -999.2500    -999.2500      38.5150      38.5146      13.1390      13.1393      16.8780      18.1613      20.1130      21.0420       0.2103    -999.2500       0.0126    -999.2500       4.9997       2.2843
   2610.7876    -999.2500      24.6980    -999.2500    -999.2500      36.5430      36.5429      13.5560      13.5558      18.1610      19.0139      21.0420      21.5056       0.1943    -999.2500       0.0113    -999.2500       2.7238       1.5854
   2610.9402    -999.2500      19.0829    -999.2500    -999.2500      34.0950      34.0947      13.8800      13.8798      19.0140      19.2120      21.5060      21.8034       0.1419    -999.2500       0.0108    -999.2500       1.8500       1.0089
   2611.0925    -999.2500      17.0265    -999.2500    -999.2500      32.9430      32.9430      13.8370      13.8371      19.2120      18.5814      21.8030      21.3218       0.1152    -999.2500       0.0070    -999.2500       1.9886       0.8779
   2611.2449    -999.2500      16.4194    -999.2500    -999.2500      34.7060      34.7057      13.5000      13.5001      18.5810      17.3733      21.3220      19.9077       0.1271    -999.2500       0.0058    -999.2500       1.9909       0.8053
   2611.3972    -999.2500      16.6484    -999.2500    -999.2500      38.0920      38.0925      13.1070      13.1066      17.3730      16.0620      19.9080      18.0158       0.1335    -999.2500       0.0052    -999.2500       2.0936       0.7986
