#------------------------------------------------------------------------------
#
#   Created by  : [OpenWorks] Log Export Utility (LEXP)
#   Created on  : 2016-05-11 12:25:29
#   Project     : CANT971
#   User        : R5K
#   Interpreter : PEP
#
#------------------------------------------------------------------------------
~VERSION INFORMATION
VERS. 2.0 : CWLS Log ASCII Standard - version 2.0
WRAP.  NO : One line per depth step
~WELL INFORMATION
#MNEMONIC   .UNIT                                           VALUE :DESCRIPTION
#------------------------------------------------------------------------------
STRT        .M                                           770.8625 :START DEPTH
STOP        .M                                          2968.3181 :STOP DEPTH
STEP        .M                                             0.1524 :STEP
NULL        .                                           -999.2500 :NULL VALUE
COMP        .                                   PEMEX EXPL & PROD :COMPANY
WELL        .                                                3083 :WELL
FLD         .                                           CANTARELL :FIELD
LOC         .                                             UNKNOWN :LOCATION
CNTY        .                                             UNKNOWN :COUNTY
STAT        .                                            CAMPECHE :STATE
CTRY        .                                              MEXICO :COUNTRY
SRVC        .                                             UNKNOWN :SERVICE COMPANY
DATE        .                                             UNKNOWN :LOG DATE
UWI         .                                                3083 :UNIQUE WELL ID
XCOORD      .                                       597325.730000 :SURFACE X
YCOORD      .                                      2152070.080000 :SURFACE Y
LAT         .                                           19.461893 :LATITUDE
LON         .                                          -92.072746 :LONGITUDE
ELEV        .M                                            30.0000 :SURFACE ELEV
ELEV_TYPE   .                                                  KB :ELEV TYPE
~CURVE INFORMATION
#MNEMONIC.UNIT        API CODE       : CURVE DESCRIPTION
#------------------------------------------------------------------------------
DEPTH    .M                          : Measured Depth
CALI     .inches      UNKNOWN        : CALI:Import:rC:NONE:v0 (auto-composite)
CGR      .API         UNKNOWN        : CGR:Import:rC:NONE:v0 (auto-composite)
DRHO     .g/cm3       UNKNOWN        : DRHO:Import:rC:NONE:v0 (auto-composite)
DT       .us/ft       UNKNOWN        : DT:Import:rC:NONE:v0 (auto-composite)
GR       .API         UNKNOWN        : GR:Import:rC:NONE:v0 (auto-composite)
GR-LWD   .API         UNKNOWN        : GR-LWD:Import:rC:NONE:v0 (auto-composite)
LLD      .ohm.m       UNKNOWN        : LLD:Import:rC:NONE:v0 (auto-composite)
LLD-LWD  .ohm.m       UNKNOWN        : LLD-LWD:Import:rC:NONE:v0 (auto-composite)
LLS      .ohm.m       UNKNOWN        : LLS:Import:rC:NONE:v0 (auto-composite)
LLS-LWD  .ohm.m       UNKNOWN        : LLS-LWD:Import:rC:NONE:v0 (auto-composite)
MSFL     .ohm.m       UNKNOWN        : MSFL:Import:rC:NONE:v0 (auto-composite)
MSFL-LWD .ohm.m       UNKNOWN        : MSFL-LWD:Import:rC:NONE:v0 (auto-composite)
NPHI     .v/v_decimal UNKNOWN        : NPHI:Import:rC:NONE:v0 (auto-composite)
PEF      .b/elec      UNKNOWN        : PEF:Import:rC:NONE:v0 (auto-composite)
POTA     .wtpercent   UNKNOWN        : POTA:Import:rC:NONE:v0 (auto-composite)
RHOB     .g/cm3       UNKNOWN        : RHOB:Import:rC:NONE:v0 (auto-composite)
THOR     .ppm         UNKNOWN        : THOR:Import:rC:NONE:v0 (auto-composite)
URAN     .ppm         UNKNOWN        : URAN:Import:rC:NONE:v0 (auto-composite)
~A     DEPTH         CALI          CGR         DRHO           DT           GR       GR-LWD          LLD      LLD-LWD          LLS      LLS-LWD         MSFL     MSFL-LWD         NPHI          PEF         POTA         RHOB         THOR         URAN
# ...
   1781.7317    -999.2500    -999.2500    -999.2500     119.1514      61.5020      61.5018       1.1190       1.1189       1.1960       1.2132       1.4120       1.4028    -999.2500    -999.2500    -999.2500    -999.2500    -999.2500    -999.2500
   1781.8840    -999.2500    -999.2500    -999.2500     117.2781      65.2920      65.2918       1.1430       1.1430       1.2130       1.2580       1.4030       1.3706    -999.2500    -999.2500    -999.2500    -999.2500    -999.2500    -999.2500
   1782.0365    -999.2500    -999.2500    -999.2500     115.9831      65.8950      65.8951       1.1450       1.1447       1.2580       1.3602       1.3710       1.3600    -999.2500    -999.2500    -999.2500    -999.2500    -999.2500    -999.2500
   1782.1888    -999.2500    -999.2500    -999.2500     117.1348      63.2960      63.2960       1.1290       1.1289       1.3600       1.3972       1.3600       1.3600    -999.2500    -999.2500    -999.2500    -999.2500    -999.2500    -999.2500
   1782.3413    -999.2500    -999.2500    -999.2500     116.8569      61.1340      61.1343       1.0980       1.0981       1.3970       1.3453       1.3600       1.3719    -999.2500    -999.2500    -999.2500    -999.2500    -999.2500    -999.2500
   1782.4937    -999.2500    -999.2500    -999.2500     117.8478      60.5450      60.5453       1.0710       1.0709       1.3450       1.2635       1.3720       1.4273    -999.2500    -999.2500    -999.2500    -999.2500    -999.2500    -999.2500
   1782.6461    -999.2500    -999.2500    -999.2500     117.4869      60.2400      60.2400       1.0760       1.0756       1.2630       1.2105       1.4270       1.4637    -999.2500    -999.2500    -999.2500    -999.2500    -999.2500    -999.2500
   1782.7985    -999.2500    -999.2500    -999.2500     117.2176      59.6280      59.6278       1.1200       1.1200       1.2110       1.2050       1.4640       1.4525    -999.2500    -999.2500    -999.2500    -999.2500    -999.2500    -999.2500
   1782.9509    -999.2500    -999.2500    -999.2500     116.4179      59.6600      59.6599       1.1820       1.1818       1.2050       1.2315       1.4520       1.4425    -999.2500    -999.2500    -999.2500    -999.2500    -999.2500    -999.2500
   1783.1033    -999.2500    -999.2500    -999.2500     118.7311      60.0200      60.0198       1.2410       1.2406       1.2320       1.2631       1.4420       1.4584    -999.2500    -999.2500    -999.2500    -999.2500    -999.2500    -999.2500
   1783.2557    -999.2500    -999.2500    -999.2500     115.5609      60.4200      60.4203       1.2590       1.2589       1.2630       1.3094       1.4580       1.4797    -999.2500    -999.2500    -999.2500    -999.2500    -999.2500    -999.2500
   1783.4081    -999.2500    -999.2500    -999.2500     115.5604      61.1140      61.1142       1.2540       1.2537       1.3090       1.4127       1.4800       1.4325    -999.2500    -999.2500    -999.2500    -999.2500    -999.2500    -999.2500
   1783.5605    -999.2500    -999.2500    -999.2500     117.4828      61.6900      61.6902       1.2290       1.2294       1.4130       1.4395       1.4330       1.4004    -999.2500    -999.2500    -999.2500    -999.2500    -999.2500    -999.2500
   1783.7129    -999.2500    -999.2500    -999.2500     118.5561      61.6640      61.6636       1.2210       1.2207       1.4390       1.4342       1.4000       1.3961    -999.2500    -999.2500    -999.2500    -999.2500    -999.2500    -999.2500
   1783.8652    -999.2500    -999.2500    -999.2500     117.7044      61.0680      61.0680       1.2220       1.2217       1.4340       1.3715       1.3960       1.4511    -999.2500    -999.2500    -999.2500    -999.2500    -999.2500    -999.2500
   1784.0177    -999.2500    -999.2500    -999.2500     118.3477      59.9890      59.9887       1.2170       1.2170       1.3720       1.3225       1.4510       1.4514    -999.2500    -999.2500    -999.2500    -999.2500    -999.2500    -999.2500
   1784.1700    -999.2500    -999.2500    -999.2500     118.0522      58.2310      58.2315       1.2040       1.2044       1.3220       1.3784       1.4510       1.3879    -999.2500    -999.2500    -999.2500    -999.2500    -999.2500    -999.2500
   1784.3225    -999.2500    -999.2500    -999.2500     117.8249      56.5940      56.5936       1.1760       1.1760       1.3780       1.4189       1.3880       1.3625    -999.2500    -999.2500    -999.2500    -999.2500    -999.2500    -999.2500
   1784.4749    -999.2500    -999.2500    -999.2500     113.5567      55.8350      55.8350       1.1480       1.1475       1.4190       1.3943       1.3620       1.3757    -999.2500    -999.2500    -999.2500    -999.2500    -999.2500    -999.2500
   1784.6273    -999.2500    -999.2500    -999.2500     110.4955      55.2370      55.2369       1.1040       1.1042       1.3940       1.3253       1.3760       1.4285    -999.2500    -999.2500    -999.2500    -999.2500    -999.2500    -999.2500
   1784.7797    -999.2500    -999.2500    -999.2500     109.9694      55.2780      55.2780       1.0710       1.0705       1.3250       1.2360       1.4290       1.4835    -999.2500    -999.2500    -999.2500    -999.2500    -999.2500    -999.2500
   1784.9321    -999.2500    -999.2500    -999.2500     111.4787      56.2950      56.2953       1.0790       1.0790       1.2360       1.2041       1.4840       1.5101    -999.2500    -999.2500    -999.2500    -999.2500    -999.2500    -999.2500
   1785.0845    -999.2500    -999.2500    -999.2500     114.2475      55.7790      55.7787       1.1140       1.1137       1.2040       1.2287       1.5100       1.4690    -999.2500    -999.2500    -999.2500    -999.2500    -999.2500    -999.2500
   1785.2369    -999.2500    -999.2500    -999.2500     116.2132      53.1280      53.1282       1.1390       1.1394       1.2290       1.2967       1.4690       1.4041    -999.2500    -999.2500    -999.2500    -999.2500    -999.2500    -999.2500
   1785.3893    -999.2500    -999.2500    -999.2500     118.3130      51.2450      51.2448       1.1330       1.1335       1.2970       1.3317       1.4040       1.4191    -999.2500    -999.2500    -999.2500    -999.2500    -999.2500    -999.2500
   1785.5417    -999.2500    -999.2500    -999.2500     118.2172      51.7100      51.7102       1.1260       1.1261       1.3320       1.3261       1.4190       1.4972    -999.2500    -999.2500    -999.2500    -999.2500    -999.2500    -999.2500
   1785.6941    -999.2500    -999.2500    -999.2500     116.7384      52.8130      52.8135       1.1370       1.1369       1.3260       1.3346       1.4970       1.5269    -999.2500    -999.2500    -999.2500    -999.2500    -999.2500    -999.2500
   1785.8464    -999.2500    -999.2500    -999.2500     115.0653      53.1220      53.1224       1.1780       1.1775       1.3350       1.3617       1.5270       1.5420    -999.2500    -999.2500    -999.2500    -999.2500    -999.2500    -999.2500
   1785.9989    -999.2500    -999.2500    -999.2500     115.2515      53.2630      53.2633       1.2470       1.2475       1.3620       1.4150       1.5420       1.5725    -999.2500    -999.2500    -999.2500    -999.2500    -999.2500    -999.2500
   1786.1512    -999.2500    -999.2500    -999.2500     114.5130      53.3930      53.3926       1.3080       1.3079       1.4150       1.4946       1.5720       1.6168    -999.2500    -999.2500    -999.2500    -999.2500    -999.2500    -999.2500
   1786.3037    -999.2500    -999.2500    -999.2500     120.4170      53.2780      53.2779       1.3160       1.3162       1.4950       1.5603       1.6170       1.6656    -999.2500    -999.2500    -999.2500    -999.2500    -999.2500    -999.2500
   1786.4561    -999.2500    -999.2500    -999.2500     119.1870      53.5040      53.5040       1.2500       1.2498       1.5600       1.5492       1.6660       1.6715    -999.2500    -999.2500    -999.2500    -999.2500    -999.2500    -999.2500
   1786.6085    -999.2500    -999.2500    -999.2500     119.3221      54.2590      54.2587       1.1570       1.1571       1.5490       1.4743       1.6710       1.6229    -999.2500    -999.2500    -999.2500    -999.2500    -999.2500    -999.2500
