#------------------------------------------------------------------------------
#
#   Created by  : [OpenWorks] Log Export Utility (LEXP)
#   Created on  : 2016-05-11 12:25:29
#   Project     : CANT971
#   User        : R5K
#   Interpreter : PEP
#
#------------------------------------------------------------------------------
~VERSION INFORMATION
VERS. 2.0 : CWLS Log ASCII Standard - version 2.0
WRAP.  NO : One line per depth step
~WELL INFORMATION
#MNEMONIC   .UNIT                                           VALUE :DESCRIPTION
#------------------------------------------------------------------------------
STRT        .M                                           770.8625 :START DEPTH
STOP        .M                                          2968.3181 :STOP DEPTH
STEP        .M                                             0.1524 :STEP
NULL        .                                           -999.2500 :NULL VALUE
COMP        .                                   PEMEX EXPL & PROD :COMPANY
WELL        .                                                3083 :WELL
FLD         .                                           CANTARELL :FIELD
LOC         .                                             UNKNOWN :LOCATION
CNTY        .                                             UNKNOWN :COUNTY
STAT        .                                            CAMPECHE :STATE
CTRY        .                                              MEXICO :COUNTRY
SRVC        .                                             UNKNOWN :SERVICE COMPANY
DATE        .                                             UNKNOWN :LOG DATE
UWI         .                                                3083 :UNIQUE WELL ID
XCOORD      .                                       597325.730000 :SURFACE X
YCOORD      .                                      2152070.080000 :SURFACE Y
LAT         .                                           19.461893 :LATITUDE
LON         .                                          -92.072746 :LONGITUDE
ELEV        .M                                            30.0000 :SURFACE ELEV
ELEV_TYPE   .                                                  KB :ELEV TYPE
~CURVE INFORMATION
#MNEMONIC.UNIT        API CODE       : CURVE DESCRIPTION
#------------------------------------------------------------------------------
DEPTH    .M                          : Measured Depth
CALI     .inches      UNKNOWN        : CALI:Import:rC:NONE:v0 (auto-composite)
CGR      .API         UNKNOWN        : CGR:Import:rC:NONE:v0 (auto-composite)
DRHO     .g/cm3       UNKNOWN        : DRHO:Import:rC:NONE:v0 (auto-composite)
DT       .us/ft       UNKNOWN        : DT:Import:rC:NONE:v0 (auto-composite)
GR       .API         UNKNOWN        : GR:Import:rC:NONE:v0 (auto-composite)
GR-LWD   .API         UNKNOWN        : GR-LWD:Import:rC:NONE:v0 (auto-composite)
LLD      .ohm.m       UNKNOWN        : LLD:Import:rC:NONE:v0 (auto-composite)
LLD-LWD  .ohm.m       UNKNOWN        : LLD-LWD:Import:rC:NONE:v0 (auto-composite)
LLS      .ohm.m       UNKNOWN        : LLS:Import:rC:NONE:v0 (auto-composite)
LLS-LWD  .ohm.m       UNKNOWN        : LLS-LWD:Import:rC:NONE:v0 (auto-composite)
MSFL     .ohm.m       UNKNOWN        : MSFL:Import:rC:NONE:v0 (auto-composite)
MSFL-LWD .ohm.m       UNKNOWN        : MSFL-LWD:Import:rC:NONE:v0 (auto-composite)
NPHI     .v/v_decimal UNKNOWN        : NPHI:Import:rC:NONE:v0 (auto-composite)
PEF      .b/elec      UNKNOWN        : PEF:Import:rC:NONE:v0 (auto-composite)
POTA     .wtpercent   UNKNOWN        : POTA:Import:rC:NONE:v0 (auto-composite)
RHOB     .g/cm3       UNKNOWN        : RHOB:Import:rC:NONE:v0 (auto-composite)
THOR     .ppm         UNKNOWN        : THOR:Import:rC:NONE:v0 (auto-composite)
URAN     .ppm         UNKNOWN        : URAN:Import:rC:NONE:v0 (auto-composite)
~A     DEPTH         CALI          CGR         DRHO           DT           GR       GR-LWD          LLD      LLD-LWD          LLS      LLS-LWD         MSFL     MSFL-LWD         NPHI          PEF         POTA         RHOB         THOR         URAN
# ...
   2521.0242    -999.2500       0.7443    -999.2500    -999.2500      21.6840      21.6839     516.3450     516.3452     612.2060     616.6103     594.7680     629.0247       0.0904    -999.2500       0.0006    -999.2500      -0.1655       1.6329
   2521.1765    -999.2500       1.0210    -999.2500    -999.2500      21.9410      21.9407     503.5290     503.5286     616.6100     573.2557     629.0250     673.8784       0.0917    -999.2500       0.0006    -999.2500      -0.0533       1.6731
   2521.3289    -999.2500       1.2263    -999.2500    -999.2500      22.8020      22.8023     520.9090     520.9088     573.2560     555.0580     673.8780     658.5150       0.0914    -999.2500       0.0005    -999.2500       0.0596       1.6643
   2521.4812    -999.2500       0.7497    -999.2500    -999.2500      22.5790      22.5785     564.6000     564.6000     555.0580     611.0533     658.5150     660.8702       0.0881    -999.2500       0.0002    -999.2500       0.2288       1.6494
   2521.6338    -999.2500       0.6486    -999.2500    -999.2500      21.5820      21.5821     615.4480     615.4481     611.0530     670.7469     660.8700     660.3979       0.0834    -999.2500      -0.0001    -999.2500       0.2217       1.5799
   2521.7861    -999.2500       1.9280    -999.2500    -999.2500      21.1690      21.1685     631.8640     631.8642     670.7470     711.9877     660.3980     604.2985       0.0733    -999.2500      -0.0004    -999.2500       0.3422       1.5531
   2521.9385    -999.2500       2.1339    -999.2500    -999.2500      20.9740      20.9740     628.3350     628.3353     711.9880     736.1218     604.2990     615.1470       0.0669    -999.2500       0.0001    -999.2500       0.4512       1.6363
   2522.0908    -999.2500       1.9582    -999.2500    -999.2500      20.7910      20.7909     611.9720     611.9717     736.1220     751.1944     615.1470     739.7706       0.0635    -999.2500       0.0007    -999.2500       0.2694       1.5946
   2522.2434    -999.2500       2.2291    -999.2500    -999.2500      21.3450      21.3453     604.0030     604.0026     751.1940     700.7186     739.7710     825.5057       0.0639    -999.2500       0.0008    -999.2500       0.1462       1.5257
   2522.3958    -999.2500       2.1801    -999.2500    -999.2500      22.0000      21.9999     634.4490     634.4490     700.7190     670.5427     825.5060     845.7148       0.0645    -999.2500       0.0011    -999.2500       0.0986       1.5305
   2522.5481    -999.2500       0.9476    -999.2500    -999.2500      21.5040      21.5036     588.0810     588.0810     670.5430     666.8879     845.7150     726.2146       0.0662    -999.2500       0.0010    -999.2500       0.1203       1.5395
   2522.7004    -999.2500       2.7530    -999.2500    -999.2500      20.0190      20.0189     542.4430     542.4425     666.8880     637.0449     726.2150     648.1475       0.0716    -999.2500       0.0000    -999.2500       0.2287       1.5211
   2522.8528    -999.2500       1.0659    -999.2500    -999.2500      18.4610      18.4613     539.8450     539.8454     637.0450     650.9609     648.1480     669.1293       0.0829    -999.2500      -0.0003    -999.2500       0.8390       1.5943
   2523.0054    -999.2500       0.0360    -999.2500    -999.2500      17.6190      17.6192     551.5680     551.5684     650.9610     638.6888     669.1290     707.4428       0.1000    -999.2500      -0.0005    -999.2500       0.4564       1.2047
   2523.1577    -999.2500       0.1971    -999.2500    -999.2500      17.2120      17.2118     524.7330     524.7330     638.6890     604.1035     707.4430     685.9474       0.1122    -999.2500      -0.0002    -999.2500       0.0874       1.1959
   2523.3101    -999.2500      -0.6128    -999.2500    -999.2500      17.1770      17.1775     490.4280     490.4277     604.1040     577.4598     685.9470     708.2123       0.1141    -999.2500       0.0000    -999.2500       0.0352       1.3195
   2523.4624    -999.2500      -1.2805    -999.2500    -999.2500      18.6870      18.6869     522.4900     522.4895     577.4600     537.6680     708.2120     603.7216       0.1087    -999.2500      -0.0005    -999.2500       0.0425       1.4283
   2523.6150    -999.2500      -0.9357    -999.2500    -999.2500      21.7490      21.7488     534.2820     534.2816     537.6680     469.9359     603.7220     461.3362       0.1069    -999.2500      -0.0009    -999.2500       0.0236       1.4970
   2523.7673    -999.2500       1.1460    -999.2500    -999.2500      25.4880      25.4876     480.0040     480.0039     469.9360     391.5553     461.3360     374.5594       0.1109    -999.2500      -0.0004    -999.2500      -0.0749       1.5273
   2523.9197    -999.2500       2.7147    -999.2500    -999.2500      27.8940      27.8938     456.4050     456.4048     391.5550     366.7223     374.5590     321.2221       0.1139    -999.2500       0.0009    -999.2500      -0.0723       1.6708
   2524.0720    -999.2500       3.6545    -999.2500    -999.2500      28.0990      28.0992     473.7510     473.7506     366.7220     369.5112     321.2220     330.1206       0.1161    -999.2500       0.0008    -999.2500       0.3935       1.8430
   2524.2246    -999.2500       3.4286    -999.2500    -999.2500      28.4960      28.4963     468.4630     468.4631     369.5110     362.0307     330.1210     348.3754       0.1199    -999.2500       0.0012    -999.2500       0.4254       1.8441
   2524.3770    -999.2500       3.4087    -999.2500    -999.2500      30.3800      30.3801     451.8130     451.8127     362.0310     355.7985     348.3750     396.4267       0.1227    -999.2500       0.0013    -999.2500       0.3460       1.7711
   2524.5293    -999.2500       9.4814    -999.2500    -999.2500      32.6530      32.6525     441.6910     441.6910     355.7980     341.1140     396.4270     423.4110       0.1212    -999.2500       0.0017    -999.2500       0.1764       1.5958
   2524.6816    -999.2500       9.7414    -999.2500    -999.2500      34.1370      34.1370     401.2510     401.2509     341.1140     314.8490     423.4110     392.0766       0.1191    -999.2500       0.0051    -999.2500       0.3154       1.4426
   2524.8340    -999.2500       9.7647    -999.2500    -999.2500      33.8170      33.8172     358.8880     358.8883     314.8490     275.9759     392.0770     325.1696       0.1149    -999.2500       0.0050    -999.2500       0.4114       1.4341
   2524.9866    -999.2500      10.2094    -999.2500    -999.2500      32.6380      32.6384     343.9840     343.9837     275.9760     243.3265     325.1700     250.8900       0.1101    -999.2500       0.0049    -999.2500       0.4606       1.4037
   2525.1389    -999.2500      10.2626    -999.2500    -999.2500      32.5890      32.5891     340.4710     340.4715     243.3270     230.7578     250.8900     218.5515       0.1109    -999.2500       0.0049    -999.2500       0.5443       1.4135
   2525.2913    -999.2500       9.1268    -999.2500    -999.2500      32.9330      32.9327     356.9120     356.9120     230.7580     230.0401     218.5510     209.9555       0.1140    -999.2500       0.0052    -999.2500       0.4852       1.4447
   2525.4436    -999.2500       6.2613    -999.2500    -999.2500      31.5890      31.5889     369.6270     369.6273     230.0400     242.4167     209.9560     227.6413       0.1177    -999.2500       0.0047    -999.2500       0.3984       1.4646
   2525.5962    -999.2500       6.6864    -999.2500    -999.2500      29.2980      29.2977     355.7760     355.7765     242.4170     248.0511     227.6410     245.9767       0.1176    -999.2500       0.0032    -999.2500       0.2556       1.4852
   2525.7485    -999.2500       5.5392    -999.2500    -999.2500      27.9220      27.9219     347.0800     347.0801     248.0510     239.0507     245.9770     251.6721       0.1105    -999.2500       0.0032    -999.2500       0.3843       1.5662
   2525.9009    -999.2500       5.5186    -999.2500    -999.2500      27.6630      27.6633     342.5270     342.5275     239.0510     226.5925     251.6720     240.0850       0.1024    -999.2500       0.0027    -999.2500       0.2967       1.5284
