#------------------------------------------------------------------------------
#
#   Created by  : [OpenWorks] Log Export Utility (LEXP)
#   Created on  : 2016-05-11 12:25:30
#   Project     : CANT971
#   User        : R5K
#   Interpreter : PEP
#
#------------------------------------------------------------------------------
~VERSION INFORMATION
VERS. 2.0 : CWLS Log ASCII Standard - version 2.0
WRAP. YES : Mulitple lines per depth step
~WELL INFORMATION
#MNEMONIC   .UNIT                                           VALUE :DESCRIPTION
#------------------------------------------------------------------------------
STRT        .M                                          2157.2351 :START DEPTH
STOP        .M                                          3233.6362 :STOP DEPTH
STEP        .M                                             0.1524 :STEP
NULL        .                                           -999.2500 :NULL VALUE
COMP        .                                             UNKNOWN :COMPANY
WELL        .                                              3083-V :WELL
FLD         .                                             UNKNOWN :FIELD
LOC         .                                             UNKNOWN :LOCATION
CNTY        .                                             UNKNOWN :COUNTY
STAT        .                                             UNKNOWN :STATE
CTRY        .                                             UNKNOWN :COUNTRY
SRVC        .                                             UNKNOWN :SERVICE COMPANY
DATE        .                                             UNKNOWN :LOG DATE
UWI         .                                              3083-V :UNIQUE WELL ID
XCOORD      .                                            0.000000 :SURFACE X
YCOORD      .                                            0.000000 :SURFACE Y
LAT         .                                            0.000000 :LATITUDE
LON         .                                            0.000000 :LONGITUDE
ELEV        .M                                             0.0000 :SURFACE ELEV
ELEV_TYPE   .                                                  KB :ELEV TYPE
~CURVE INFORMATION
#MNEMONIC.UNIT        API CODE       : CURVE DESCRIPTION
#------------------------------------------------------------------------------
DEPTH    .M                          : Measured Depth
CALI     .inches      UNKNOWN        : CALI:LDL-CNL:rC:NONE:v0 (auto-composite)
CGR      .API         UNKNOWN        : CGR:Espectrometria:rC:NONE:v0 (auto-composite)
DRHO     .g/cm3       UNKNOWN        : DRHO:LDL-CNL:rC:NONE:v0 (auto-composite)
DRHO-LWD .g/cm3       UNKNOWN        : DRHO-LWD:registros-LWD:rC:NONE:v0 (auto-composite)
DT       .us/ft       UNKNOWN        : DT:Sonico:rC:NONE:v0 (auto-composite)
DT-LWD   .UNKNOWN     UNKNOWN        : DT-LWD:registros-LWD:rC:NONE:v0 (auto-composite)
GR       .API         UNKNOWN        : GR:Espectrometria:rC:NONE:v0 (auto-composite)
GR-LWD   .API         UNKNOWN        : GR-LWD:PETROWORKS:rC:NONE:v1 
ILD-LWD  .ohm.m       UNKNOWN        : ILD-LWD:PETROWORKS:rC:NONE:v1 
ILM-LWD  .ohm.m       UNKNOWN        : ILM-LWD:PETROWORKS:rC:NONE:v1 
LLD      .ohm.m       UNKNOWN        : LLD:resistivos:rC:NONE:v0 (auto-composite)
LLS      .ohm.m       UNKNOWN        : LLS:resistivos:rC:NONE:v0 (auto-composite)
MSFL     .ohm.m       UNKNOWN        : MSFL:resistivos:rC:NONE:v0 (auto-composite)
NPHI     .v/v_decimal UNKNOWN        : NPHI:LDL-CNL:rC:NONE:v0 (auto-composite)
NPHI-LWD .v/v_decimal UNKNOWN        : NPHI-LWD:registros-LWD:rC:NONE:v0 (auto-composite)
PEF      .UNKNOWN     UNKNOWN        : PEF:LDL-CNL:rC:NONE:v0 (auto-composite)
PEF-LWD  .UNKNOWN     UNKNOWN        : PEF-LWD:registros-LWD:rC:NONE:v0 (auto-composite)
POTA     .UNKNOWN     UNKNOWN        : POTA:Espectrometria:rC:NONE:v0 (auto-composite)
RHOB     .g/cm3       UNKNOWN        : RHOB:LDL-CNL:rC:NONE:v0 (auto-composite)
RHOB-LWD .g/cm3       UNKNOWN        : RHOB-LWD:registros-LWD:rC:NONE:v0 (auto-composite)
THOR     .ppm         UNKNOWN        : THOR:Espectrometria:rC:NONE:v0 (auto-composite)
URAN     .ppm         UNKNOWN        : URAN:Espectrometria:rC:NONE:v0 (auto-composite)
~A
# ...
   2280.6792
       9.9234       3.1546      -0.0013    -999.2500      76.7999    -999.2500
      41.2144    -999.2500    -999.2500    -999.2500      17.1025      15.3648
       8.9495       0.1580    -999.2500       2.9866    -999.2500       0.0007
       2.5822    -999.2500       0.6045       4.7105
   2280.8315
       9.9923       3.7477      -0.0093    -999.2500      76.6212    -999.2500
      41.0084    -999.2500    -999.2500    -999.2500      16.7943      15.1156
      10.0540       0.1564    -999.2500       3.0375    -999.2500       0.0009
       2.5586    -999.2500       0.6810       4.6353
   2280.9839
      10.1560       4.1268      -0.0097    -999.2500      76.0381    -999.2500
      39.8878    -999.2500    -999.2500    -999.2500      15.2634      13.9098
      11.1196       0.1424    -999.2500       3.1233    -999.2500       0.0010
       2.5577    -999.2500       0.6983       4.5265
   2281.1362
      10.1497       4.1287      -0.0079    -999.2500      75.9103    -999.2500
      41.2418    -999.2500    -999.2500    -999.2500      15.5320      14.4977
      11.3464       0.1273    -999.2500       2.9306    -999.2500       0.0012
       2.5536    -999.2500       0.6030       4.6988
   2281.2888
      10.1408       3.7655      -0.0019    -999.2500      75.4105    -999.2500
      43.3604    -999.2500    -999.2500    -999.2500      15.5293      14.5220
      14.4545       0.1143    -999.2500       2.8611    -999.2500       0.0011
       2.5704    -999.2500       0.5673       4.9923
   2281.4412
       9.9916       3.8019      -0.0010    -999.2500      74.7741    -999.2500
      43.5382    -999.2500    -999.2500    -999.2500      15.7786      14.8046
      14.3415       0.1098    -999.2500       2.8208    -999.2500       0.0011
       2.5666    -999.2500       0.5717       5.0300
   2281.5935
       9.9390       3.7679      -0.0016    -999.2500      72.7253    -999.2500
      43.3162    -999.2500    -999.2500    -999.2500      15.5355      14.9705
       9.5562       0.1135    -999.2500       2.7207    -999.2500       0.0013
       2.5682    -999.2500       0.4865       5.0420
   2281.7458
      10.0022       3.1743      -0.0032    -999.2500      60.5568    -999.2500
      42.3435    -999.2500    -999.2500    -999.2500      17.0166      16.0452
       8.5762       0.1212    -999.2500       2.8867    -999.2500       0.0009
       2.5663    -999.2500       0.4672       4.9461
   2281.8982
       9.7881       2.9754      -0.0021    -999.2500      69.1476    -999.2500
      43.2504    -999.2500    -999.2500    -999.2500      17.9447      16.7976
       7.9439       0.1277    -999.2500       2.7841    -999.2500       0.0010
       2.5757    -999.2500       0.3590       5.0233
   2282.0508
       9.7863       2.8521      -0.0023    -999.2500      68.6549    -999.2500
      44.0060    -999.2500    -999.2500    -999.2500      20.1813      18.8186
      12.1299       0.1262    -999.2500       2.8604    -999.2500       0.0009
       2.5868    -999.2500       0.3658       5.1198
   2282.2031
       9.6188       3.0014      -0.0013    -999.2500      69.0671    -999.2500
      46.7404    -999.2500    -999.2500    -999.2500      20.8274      19.1743
      13.0191       0.1232    -999.2500       2.7575    -999.2500       0.0010
       2.5956    -999.2500       0.3627       5.5398
   2282.3555
       9.5689       3.7658      -0.0008    -999.2500      70.0471    -999.2500
      50.1804    -999.2500    -999.2500    -999.2500      19.7109      18.3164
       6.6206       0.1234    -999.2500       2.9272    -999.2500       0.0015
       2.6020    -999.2500       0.3190       5.9254
   2282.5078
       9.5813       2.8294      -0.0012    -999.2500      64.3147    -999.2500
      49.6460    -999.2500    -999.2500    -999.2500      18.6225      17.2978
       7.1495       0.1182    -999.2500       2.9942    -999.2500       0.0012
       2.6013    -999.2500       0.2244       5.9524
   2282.6604
       9.5587       2.7577       0.0002    -999.2500      65.0282    -999.2500
      47.2545    -999.2500    -999.2500    -999.2500      31.0156      28.7399
      17.3024       0.1115    -999.2500       2.9972    -999.2500       0.0013
       2.6060    -999.2500       0.1559       5.5592
   2282.8127
       9.5017       2.3116       0.0025    -999.2500      63.9616    -999.2500
      43.2823    -999.2500    -999.2500    -999.2500      37.4390      34.8187
      15.5212       0.0984    -999.2500       2.9289    -999.2500       0.0010
       2.6336    -999.2500       0.1670       5.0891
   2282.9651
       9.3193       2.7274       0.0064    -999.2500      64.1591    -999.2500
      42.1871    -999.2500    -999.2500    -999.2500      37.4122      34.7943
      18.7976       0.0811    -999.2500       2.8348    -999.2500       0.0012
       2.6638    -999.2500       0.1892       4.9403
   2283.1174
       9.3050       2.8341       0.0147    -999.2500      56.7707    -999.2500
      40.9952    -999.2500    -999.2500    -999.2500      35.8325      32.7171
      23.6157       0.0605    -999.2500       2.7562    -999.2500       0.0012
       2.6862    -999.2500       0.2162       4.8127
   2283.2700
       9.3250       2.8481       0.0250    -999.2500      66.1581    -999.2500
      41.2186    -999.2500    -999.2500    -999.2500      27.0571      25.0128
      14.0475       0.0486    -999.2500       2.7309    -999.2500       0.0009
       2.6870    -999.2500       0.3750       4.8450
   2283.4224
       9.3711       2.5938       0.0340    -999.2500      64.9254    -999.2500
      39.9049    -999.2500    -999.2500    -999.2500      25.5908      23.3619
      17.5325       0.0475    -999.2500       2.7583    -999.2500       0.0008
       2.6719    -999.2500       0.3701       4.7408
   2283.5747
       9.3866       2.3021       0.0486    -999.2500      65.2374    -999.2500
      38.8207    -999.2500    -999.2500    -999.2500      25.5825      23.3175
      10.6128       0.0569    -999.2500       2.8694    -999.2500       0.0006
       2.6752    -999.2500       0.3757       4.6896
   2283.7271
       9.3824       2.3425       0.0496    -999.2500      65.2768    -999.2500
      36.9453    -999.2500    -999.2500    -999.2500      27.2294      24.6282
       8.7464       0.0667    -999.2500       2.9049    -999.2500       0.0007
       2.6585    -999.2500       0.3254       4.4231
   2283.8794
       9.3506       2.5948       0.0390    -999.2500      65.9932    -999.2500
      37.9381    -999.2500    -999.2500    -999.2500      28.3372      25.6289
       9.0815       0.0779    -999.2500       2.9224    -999.2500       0.0008
       2.6289    -999.2500       0.3750       4.4045
   2284.0320
       9.2948       2.3565       0.0232    -999.2500      69.5972    -999.2500
      38.0915    -999.2500    -999.2500    -999.2500      31.5253      28.5149
      11.1654       0.0830    -999.2500       2.8414    -999.2500       0.0006
       2.6053    -999.2500       0.3900       4.4182
   2284.1843
       9.4186       2.9751       0.0104    -999.2500      71.4518    -999.2500
      37.6436    -999.2500    -999.2500    -999.2500      28.8226      25.8004
      19.1152       0.0830    -999.2500       2.7848    -999.2500       0.0010
       2.5880    -999.2500       0.3782       4.2900
   2284.3367
       9.4316       2.6641       0.0086    -999.2500      72.9345    -999.2500
      35.6831    -999.2500    -999.2500    -999.2500      24.4446      22.1006
      19.2331       0.0750    -999.2500       2.6776    -999.2500       0.0008
       2.5963    -999.2500       0.3906       4.1346
   2284.4890
       9.4758       3.0764       0.0127    -999.2500      75.1838    -999.2500
      35.4938    -999.2500    -999.2500    -999.2500      27.5052      25.4211
      12.7437       0.0672    -999.2500       2.6708    -999.2500       0.0009
       2.6032    -999.2500       0.4427       4.1078
   2284.6416
       9.2518       3.0908       0.0329    -999.2500      79.5827    -999.2500
      36.9354    -999.2500    -999.2500    -999.2500      26.6132      24.4330
      13.8430       0.0643    -999.2500       2.7016    -999.2500       0.0010
       2.6274    -999.2500       0.4220       4.2321
