#------------------------------------------------------------------------------
#
#   Created by  : [OpenWorks] Log Export Utility (LEXP)
#   Created on  : 2016-05-11 12:13:42
#   Project     : CANT971
#   User        : R5K
#   Interpreter : PEP
#
#------------------------------------------------------------------------------
~VERSION INFORMATION
VERS. 2.0 : CWLS Log ASCII Standard - version 2.0
WRAP.  NO : One line per depth step
~WELL INFORMATION
#MNEMONIC   .UNIT                                           VALUE :DESCRIPTION
#------------------------------------------------------------------------------
STRT        .M                                           659.9800 :START DEPTH
STOP        .M                                          2975.8503 :STOP DEPTH
STEP        .M                                             0.1524 :STEP
NULL        .                                           -999.2500 :NULL VALUE
COMP        .                                   PEMEX EXPL & PROD :COMPANY
WELL        .                                                3085 :WELL
FLD         .                                           CANTARELL :FIELD
LOC         .                                             UNKNOWN :LOCATION
CNTY        .                                      CD. DEL CARMEN :COUNTY
STAT        .                                            CAMPECHE :STATE
CTRY        .                                              MEXICO :COUNTRY
SRVC        .                                             UNKNOWN :SERVICE COMPANY
DATE        .                                             UNKNOWN :LOG DATE
UWI         .                                                3085 :UNIQUE WELL ID
XCOORD      .                                       601394.300000 :SURFACE X
YCOORD      .                                      2149880.180000 :SURFACE Y
LAT         .                                           19.441902 :LATITUDE
LON         .                                          -92.034105 :LONGITUDE
ELEV        .M                                            28.0000 :SURFACE ELEV
ELEV_TYPE   .                                                  KB :ELEV TYPE
~CURVE INFORMATION
#MNEMONIC.UNIT        API CODE       : CURVE DESCRIPTION
#------------------------------------------------------------------------------
DEPTH    .M                          : Measured Depth
CALI     .inches      UNKNOWN        : CALI:Import:rC:NONE:v0 (auto-composite)
CGR      .API         UNKNOWN        : CGR:Import:rC:NONE:v0 (auto-composite)
DRHO     .g/cm3       UNKNOWN        : DRHO:Import:rC:NONE:v0 (auto-composite)
DT       .us/ft       UNKNOWN        : DT:Import:rC:NONE:v0 (auto-composite)
GR       .API         UNKNOWN        : GR:Import:rC:NONE:v0 (auto-composite)
ILD      .ohm.m       UNKNOWN        : ILD:Import:rC:NONE:v0 (auto-composite)
ILM      .ohm.m       UNKNOWN        : ILM:Import:rC:NONE:v0 (auto-composite)
LLD      .ohm.m       UNKNOWN        : LLD:Import:rC:NONE:v0 (auto-composite)
LLS      .ohm.m       UNKNOWN        : LLS:Import:rC:NONE:v0 (auto-composite)
MSFL     .ohm.m       UNKNOWN        : MSFL:Import:rC:NONE:v0 (auto-composite)
NPHI     .v/v_decimal UNKNOWN        : NPHI:Import:rC:NONE:v0 (auto-composite)
PEF      .b/elec      UNKNOWN        : PEF:Import:rC:NONE:v0 (auto-composite)
POTA     .wtpercent   UNKNOWN        : POTA:Import:rC:NONE:v0 (auto-composite)
RHOB     .g/cm3       UNKNOWN        : RHOB:Import:rC:NONE:v0 (auto-composite)
SP       .mV          UNKNOWN        : SP:Import:rC:NONE:v0 (auto-composite)
THOR     .ppm         UNKNOWN        : THOR:Import:rC:NONE:v0 (auto-composite)
URAN     .ppm         UNKNOWN        : URAN:Import:rC:NONE:v0 (auto-composite)
~A     DEPTH         CALI          CGR         DRHO           DT           GR          ILD          ILM          LLD          LLS         MSFL         NPHI          PEF         POTA         RHOB           SP         THOR         URAN
# ...
   2628.2261       8.7814      11.2479       0.0883      56.4474      39.3173    -999.2500    -999.2500     307.5211     168.3710     180.0689       0.0835       3.4566       0.0055       2.6827    -999.2500       0.9709       2.3823
   2628.3784       8.7965      13.9384       0.1003      56.8968      44.7951    -999.2500    -999.2500     261.0040     144.8338     173.3988       0.0950       3.3785       0.0064       2.6666    -999.2500       1.1349       2.6331
   2628.5308       8.8351      16.2804       0.1133      58.3264      50.5065    -999.2500    -999.2500     225.1948     124.6368     151.2189       0.1063       3.2942       0.0069       2.6420    -999.2500       1.2919       2.9219
   2628.6831       8.8776      17.5306       0.1120      59.2105      52.1760    -999.2500    -999.2500     209.8690     118.3202     118.1204       0.1105       3.3772       0.0074       2.6414    -999.2500       1.3594       3.4631
   2628.8357       8.9211      18.4997       0.1070      59.8561      52.8047    -999.2500    -999.2500     199.8179     115.5779      82.2104       0.1101       3.5031       0.0079       2.6469    -999.2500       1.4039       4.0693
   2628.9880       8.8975      18.3666       0.0985      61.9987      61.4585    -999.2500    -999.2500     209.7137     124.9008      99.0949       0.1081       3.4897       0.0080       2.6555    -999.2500       1.3269       4.2345
   2629.1404       8.8565      17.9481       0.0890      64.5368      72.1898    -999.2500    -999.2500     224.7731     137.3469     129.6462       0.1107       3.4403       0.0080       2.6650    -999.2500       1.2186       4.2854
   2629.2927       8.8682      19.7829       0.0917      66.7081      99.4793    -999.2500    -999.2500     174.9551     107.7990      88.7552       0.1269       3.4510       0.0092       2.6282    -999.2500       1.1477       5.1889
   2629.4451       8.8937      22.2098       0.0977      68.4026     131.1201    -999.2500    -999.2500     108.0880      67.2156      29.0900       0.1481       3.4775       0.0107       2.5792    -999.2500       1.0867       6.3164
   2629.5977       8.9391      30.0766       0.0835      67.9878     127.1435    -999.2500    -999.2500      74.1525      46.4189      28.2702       0.1520       3.4584       0.0142       2.5960    -999.2500       1.5765       8.8012
   2629.7500       8.9897      39.3804       0.0640      66.5117     113.7579    -999.2500    -999.2500      48.9165      30.8492      42.9955       0.1433       3.4273       0.0182       2.6301    -999.2500       2.2118      11.6446
   2629.9023       8.9371      37.3834       0.0560      62.4170      95.0422    -999.2500    -999.2500      47.8076      29.5066      78.6083       0.1216       3.5293       0.0170       2.6521    -999.2500       2.2542      11.3690
   2630.0547       8.8581      32.5005       0.0510      58.2172      74.9654    -999.2500    -999.2500      52.8599      31.7971     119.5551       0.0979       3.6652       0.0145       2.6711    -999.2500       2.1453      10.2970
   2630.2073       8.8718      28.2879       0.0508      57.1671      63.9339    -999.2500    -999.2500      92.7283      50.9758      95.5910       0.0914       3.5420       0.0120       2.6436    -999.2500       2.1600       8.4627
   2630.3596       8.9093      24.2474       0.0518      57.7660      55.2247    -999.2500    -999.2500     141.5351      74.4903      54.9621       0.0948       3.3522       0.0095       2.6042    -999.2500       2.2064       6.4327
   2630.5120       8.9634      18.7743       0.0472      60.6082      52.8785    -999.2500    -999.2500     145.4223      80.2567      67.4590       0.1006       3.3871       0.0078       2.6123    -999.2500       1.5773       5.7244
   2630.6643       9.0219      12.9278       0.0412      63.6745      52.1908    -999.2500    -999.2500     137.6017      81.3972      93.8027       0.1064       3.4806       0.0063       2.6327    -999.2500       0.7722       5.3605
   2630.8169       8.9786      11.3326       0.0463      65.5881      52.8674    -999.2500    -999.2500     129.5589      75.3737      75.4339       0.1105       3.5943       0.0056       2.6338    -999.2500       0.5702       5.2644
   2630.9692       8.9086      10.8513       0.0543      66.8675      53.9014    -999.2500    -999.2500     121.4579      67.4731      45.3499       0.1130       3.7132       0.0051       2.6298    -999.2500       0.5262       5.2384
   2631.1216       8.9241      11.4472       0.0552      64.8498      58.6892    -999.2500    -999.2500     111.3825      61.8052      58.6862       0.1115       3.6826       0.0054       2.6235    -999.2500       0.4632       5.2484
   2631.2739       8.9620      12.3269       0.0542      62.5401      64.4657    -999.2500    -999.2500     100.7871      56.7254      83.4590       0.1095       3.6126       0.0059       2.6165    -999.2500       0.3952       5.2679
   2631.4263       8.9906      17.5626       0.0584      62.5675      63.9654    -999.2500    -999.2500      99.6389      55.1368      67.9827       0.1108       3.4780       0.0084       2.6110    -999.2500       0.7894       5.1868
   2631.5789       9.0166      23.9517       0.0639      63.5822      61.8031    -999.2500    -999.2500     100.9921      54.4724      41.8497       0.1146       3.3262       0.0114       2.6060    -999.2500       1.3059       5.0791
   2631.7312       9.0125      23.8153       0.0630      62.5706      57.9699    -999.2500    -999.2500      92.4823      50.7237      30.8078       0.1234       3.3744       0.0112       2.5740    -999.2500       1.3346       5.0661
   2631.8835       9.0005      21.9921       0.0605      60.9645      53.7048    -999.2500    -999.2500      81.4231      46.1777      23.6669       0.1318       3.4744       0.0102       2.5350    -999.2500       1.2371       5.0776
   2632.0359       9.0258      19.7372       0.0537      60.6495      54.3709    -999.2500    -999.2500      71.5092      42.2172      25.7964       0.1333       3.4728       0.0096       2.5369    -999.2500       0.9008       4.8650
   2632.1885       9.0608      17.3703       0.0457      62.2520      56.3186    -999.2500    -999.2500      61.8928      38.4088      30.3349       0.1301       3.4448       0.0091       2.5494    -999.2500       0.5025       4.5941
   2632.3408       9.0732      17.8084       0.0519      71.5661      57.5684    -999.2500    -999.2500      64.6732      39.8347      34.9666       0.1234       3.3716       0.0086       2.5726    -999.2500       0.6308       4.6228
   2632.4932       9.0796      18.9794       0.0619      84.2787      58.6360    -999.2500    -999.2500      70.6921      42.6280      39.6226       0.1186       3.2867       0.0081       2.5986    -999.2500       0.8967       4.7298
   2632.6455       9.0426      19.6035       0.0707      84.8811      52.3031    -999.2500    -999.2500      66.4139      39.9412      28.9510       0.1262       3.3022       0.0084       2.6159    -999.2500       1.0707       4.8105
   2632.7981       8.9942      20.0839       0.0792      81.9807      44.0268    -999.2500    -999.2500      59.4315      35.8153      14.2541       0.1331       3.3442       0.0089       2.6308    -999.2500       1.2205       4.8844
   2632.9504       9.0187      17.1987       0.0786      77.7728      39.0899    -999.2500    -999.2500      68.3432      40.5081      50.1507       0.1162       3.3585       0.0082       2.6553    -999.2500       0.8846       4.4498
   2633.1028       9.0627      13.4163       0.0756      72.9429      35.0432    -999.2500    -999.2500      81.4915      47.5516      99.5334       0.0892       3.3655       0.0072       2.6823    -999.2500       0.4193       3.8795
   2633.2551       9.4224      10.2986       0.0845      68.3524      36.0861    -999.2500    -999.2500     159.1469      86.2584     123.5431       0.0818       3.3899       0.0058       2.6718    -999.2500       0.2431       3.6471
   2633.4075       9.8666       7.3589       0.0965      64.8081      38.4928    -999.2500    -999.2500     254.0866     133.4492     140.7543       0.0849       3.4190       0.0043       2.6512    -999.2500       0.1443       3.5052
