#------------------------------------------------------------------------------
#
#   Created by  : [OpenWorks] Log Export Utility (LEXP)
#   Created on  : 2016-05-11 12:13:42
#   Project     : CANT971
#   User        : R5K
#   Interpreter : PEP
#
#------------------------------------------------------------------------------
~VERSION INFORMATION
VERS. 2.0 : CWLS Log ASCII Standard - version 2.0
WRAP.  NO : One line per depth step
~WELL INFORMATION
#MNEMONIC   .UNIT                                           VALUE :DESCRIPTION
#------------------------------------------------------------------------------
STRT        .M                                           659.9800 :START DEPTH
STOP        .M                                          2975.8503 :STOP DEPTH
STEP        .M                                             0.1524 :STEP
NULL        .                                           -999.2500 :NULL VALUE
COMP        .                                   PEMEX EXPL & PROD :COMPANY
WELL        .                                                3085 :WELL
FLD         .                                           CANTARELL :FIELD
LOC         .                                             UNKNOWN :LOCATION
CNTY        .                                      CD. DEL CARMEN :COUNTY
STAT        .                                            CAMPECHE :STATE
CTRY        .                                              MEXICO :COUNTRY
SRVC        .                                             UNKNOWN :SERVICE COMPANY
DATE        .                                             UNKNOWN :LOG DATE
UWI         .                                                3085 :UNIQUE WELL ID
XCOORD      .                                       601394.300000 :SURFACE X
YCOORD      .                                      2149880.180000 :SURFACE Y
LAT         .                                           19.441902 :LATITUDE
LON         .                                          -92.034105 :LONGITUDE
ELEV        .M                                            28.0000 :SURFACE ELEV
ELEV_TYPE   .                                                  KB :ELEV TYPE
~CURVE INFORMATION
#MNEMONIC.UNIT        API CODE       : CURVE DESCRIPTION
#------------------------------------------------------------------------------
DEPTH    .M                          : Measured Depth
CALI     .inches      UNKNOWN        : CALI:Import:rC:NONE:v0 (auto-composite)
CGR      .API         UNKNOWN        : CGR:Import:rC:NONE:v0 (auto-composite)
DRHO     .g/cm3       UNKNOWN        : DRHO:Import:rC:NONE:v0 (auto-composite)
DT       .us/ft       UNKNOWN        : DT:Import:rC:NONE:v0 (auto-composite)
GR       .API         UNKNOWN        : GR:Import:rC:NONE:v0 (auto-composite)
ILD      .ohm.m       UNKNOWN        : ILD:Import:rC:NONE:v0 (auto-composite)
ILM      .ohm.m       UNKNOWN        : ILM:Import:rC:NONE:v0 (auto-composite)
LLD      .ohm.m       UNKNOWN        : LLD:Import:rC:NONE:v0 (auto-composite)
LLS      .ohm.m       UNKNOWN        : LLS:Import:rC:NONE:v0 (auto-composite)
MSFL     .ohm.m       UNKNOWN        : MSFL:Import:rC:NONE:v0 (auto-composite)
NPHI     .v/v_decimal UNKNOWN        : NPHI:Import:rC:NONE:v0 (auto-composite)
PEF      .b/elec      UNKNOWN        : PEF:Import:rC:NONE:v0 (auto-composite)
POTA     .wtpercent   UNKNOWN        : POTA:Import:rC:NONE:v0 (auto-composite)
RHOB     .g/cm3       UNKNOWN        : RHOB:Import:rC:NONE:v0 (auto-composite)
SP       .mV          UNKNOWN        : SP:Import:rC:NONE:v0 (auto-composite)
THOR     .ppm         UNKNOWN        : THOR:Import:rC:NONE:v0 (auto-composite)
URAN     .ppm         UNKNOWN        : URAN:Import:rC:NONE:v0 (auto-composite)
~A     DEPTH         CALI          CGR         DRHO           DT           GR          ILD          ILM          LLD          LLS         MSFL         NPHI          PEF         POTA         RHOB           SP         THOR         URAN
# ...
   2686.8999       9.6291      18.5946       0.0859      80.3810      45.3808    -999.2500    -999.2500      40.0919      29.6186      39.1272       0.1509       3.3325       0.0072       2.5964    -999.2500       1.3910       3.4900
   2687.0525       9.6381      19.0754       0.1034      78.5726      41.2326    -999.2500    -999.2500      38.2547      28.0343      51.6998       0.1409       3.1026       0.0062       2.5894    -999.2500       1.5724       3.6954
   2687.2048       9.7097      16.6083       0.1022      76.7096      38.1339    -999.2500    -999.2500      40.9693      29.3059      47.4119       0.1335       3.1366       0.0056       2.5979    -999.2500       1.4396       3.6124
   2687.3572       9.7977      13.3707       0.0962      74.8458      35.3097    -999.2500    -999.2500      44.8736      31.3241      38.7172       0.1292       3.2396       0.0051       2.6104    -999.2500       1.2247       3.4540
   2687.5095       9.8132      10.7299       0.0954      72.8715      39.8331    -999.2500    -999.2500      46.6367      32.2779      30.7006       0.1307       3.2859       0.0042       2.6086    -999.2500       0.9150       3.5594
   2687.6619       9.8097       8.2460       0.0959      71.5360      46.2871    -999.2500    -999.2500      47.8372      32.9521      22.8623       0.1337       3.3174       0.0032       2.6032    -999.2500       0.5804       3.7342
   2687.8145       9.8276      10.4506       0.0837      73.0245      44.7968    -999.2500    -999.2500      48.9169      33.4768      33.1529       0.1335       3.4574       0.0042       2.6265    -999.2500       0.8017       3.9353
   2687.9668       9.8512      13.9057       0.0682      75.9844      41.1878    -999.2500    -999.2500      49.9643      33.9616      48.2783       0.1316       3.6264       0.0057       2.6576    -999.2500       1.1712       4.1433
   2688.1191      10.2283      12.7370       0.0610      72.1798      43.1232    -999.2500    -999.2500      43.2158      28.8484      46.5530       0.1331       3.5919       0.0064       2.6620    -999.2500       0.9625       4.0612
   2688.2715      10.6966      10.3760       0.0560      67.6439      46.4883    -999.2500    -999.2500      34.4571      22.2918      40.4827       0.1375       3.5049       0.0069       2.6595    -999.2500       0.6047       3.9043
   2688.4241      12.7410      11.7832       0.0633      68.1583      49.0317    -999.2500    -999.2500      30.4703      19.5584      33.3478       0.1459       3.2981       0.0070       2.6237    -999.2500       0.6282       3.9708
   2688.5764      15.1939      14.1672       0.0738      71.0987      51.3622    -999.2500    -999.2500      27.7205      17.8162      25.9370       0.1570       3.0602       0.0070       2.5792    -999.2500       0.7507       4.0953
   2688.7288      15.3781      15.6908       0.0863      73.7677      44.1365    -999.2500    -999.2500      28.1539      18.0419      21.9425       0.1726       2.8450       0.0070       2.5391    -999.2500       1.0196       4.2244
   2688.8811      14.9711      16.9902       0.0993      76.1454      34.4205    -999.2500    -999.2500      29.4168      18.7805      18.8384       0.1853       2.6358       0.0070       2.5001    -999.2500       1.3268       4.3547
   2689.0337      17.8514      12.9208       0.0933      77.2402      31.2833    -999.2500    -999.2500      30.3229      19.3405      47.5382       0.1836       2.3912       0.0054       2.3758    -999.2500       0.9649       3.9579
   2689.1860      21.6013       7.4311       0.0823      77.7555      29.8864    -999.2500    -999.2500      31.1345      19.8533      84.6512       0.1746       2.1373       0.0034       2.2289    -999.2500       0.4262       3.4216
   2689.3384      22.2361       5.5857       0.0749      77.6883      32.3037    -999.2500    -999.2500      31.7601      20.2644      58.6361       0.1688       2.3208       0.0022       2.2158    -999.2500       0.4714       3.3229
   2689.4907      22.0426       4.7092       0.0683      77.3577      35.7352    -999.2500    -999.2500      32.3362      20.6485      15.8344       0.1676       2.6207       0.0012       2.2384    -999.2500       0.6720       3.3404
   2689.6431      20.5769       8.2994       0.0734      78.7798      38.9179    -999.2500    -999.2500      29.3422      18.7952      14.2488       0.1758       2.9392       0.0034       2.3698    -999.2500       0.8013       3.1444
   2689.7957      18.7842      13.0378       0.0814      80.2156      42.0365    -999.2500    -999.2500      25.4304      16.3667      23.2594       0.1886       3.2626       0.0064       2.5293    -999.2500       0.9122       2.8935
   2689.9480      15.4172      15.3396       0.1020      79.9541      44.1687    -999.2500    -999.2500      24.1711      15.6220      22.6025       0.2011       3.3742       0.0074       2.5564    -999.2500       0.9687       2.9872
   2690.1003      11.6434      17.0115       0.1260      78.7557      46.0458    -999.2500    -999.2500      23.5973      15.3124      19.4469       0.2099       3.4312       0.0079       2.5495    -999.2500       1.0112       3.1700
   2690.2527      10.7711      18.1940       0.1080      72.6225      45.6909    -999.2500    -999.2500      25.9916      16.8008      21.7552       0.1986       3.3325       0.0084       2.5638    -999.2500       1.0315       3.2907
   2690.4053      10.6602      19.2480       0.0790      67.3139      44.7503    -999.2500    -999.2500      29.1648      18.7609      25.4971       0.1833       3.1931       0.0089       2.5838    -999.2500       1.0460       3.3952
   2690.5576      10.5472      18.9325       0.0920      70.8139      43.1853    -999.2500    -999.2500      34.8551      22.2508      31.9108       0.1818       3.0090       0.0090       2.5488    -999.2500       0.9747       3.3889
   2690.7100      10.4338      18.2558       0.1160      78.8218      41.4555    -999.2500    -999.2500      41.2093      26.1441      39.0292       0.1899       2.8131       0.0090       2.4994    -999.2500       0.8807       3.3534
   2690.8623      11.7959      17.2663       0.1424      83.3740      37.0605    -999.2500    -999.2500      43.3162      27.4197      37.0453       0.2104       2.6594       0.0086       2.4506    -999.2500       0.7449       3.2814
   2691.0149      13.5493      16.1938       0.1695      87.5892      31.9589    -999.2500    -999.2500      44.2969      28.0013      32.6481       0.2441       2.5171       0.0081       2.4019    -999.2500       0.5980       3.1997
   2691.1672      13.2627      12.3029       0.1885      96.9969      28.0143    -999.2500    -999.2500      40.6679      25.7247      36.8278       0.3011       2.2602       0.0060       2.1110    -999.2500       0.4639       3.1357
   2691.3196      12.4532       7.6896       0.2055     107.5415      24.3663    -999.2500    -999.2500      35.8573      22.7154      43.2060       0.3714       1.9741       0.0035       1.7579    -999.2500       0.3330       3.0763
   2691.4719      12.5303       5.9541       0.1368     110.5845      25.1176    -999.2500    -999.2500      33.8472      21.3774      29.0701       0.4402       2.0736       0.0026       1.5843    -999.2500       0.1073       2.8415
   2691.6243      12.8382       4.9676       0.0459     109.7806      27.0138    -999.2500    -999.2500      32.5657      20.4743       9.5960       0.4847       2.2735       0.0021       1.4573    -999.2500      -0.1431       2.5611
   2691.7769      12.3561       6.0319       0.0179      99.5925      29.9547    -999.2500    -999.2500      33.0784      20.8159       4.4183       0.4552       2.7005       0.0028       1.7186    -999.2500       0.0154       2.4578
   2691.9292      11.6674       7.6327       0.0064      87.1319      33.1688    -999.2500    -999.2500      34.0605      21.4831       2.9804       0.3865       3.1867       0.0038       2.0814    -999.2500       0.2807       2.4009
   2692.0815      11.0918       9.1131       0.0246      77.4013      33.6557    -999.2500    -999.2500      37.8339      24.0601      14.5273       0.3191       3.2429       0.0048       2.2827    -999.2500       0.3115       2.6081
