#------------------------------------------------------------------------------
#
#   Created by  : [OpenWorks] Log Export Utility (LEXP)
#   Created on  : 2016-05-11 12:13:42
#   Project     : CANT971
#   User        : R5K
#   Interpreter : PEP
#
#------------------------------------------------------------------------------
~VERSION INFORMATION
VERS. 2.0 : CWLS Log ASCII Standard - version 2.0
WRAP.  NO : One line per depth step
~WELL INFORMATION
#MNEMONIC   .UNIT                                           VALUE :DESCRIPTION
#------------------------------------------------------------------------------
STRT        .M                                           659.9800 :START DEPTH
STOP        .M                                          2975.8503 :STOP DEPTH
STEP        .M                                             0.1524 :STEP
NULL        .                                           -999.2500 :NULL VALUE
COMP        .                                   PEMEX EXPL & PROD :COMPANY
WELL        .                                                3085 :WELL
FLD         .                                           CANTARELL :FIELD
LOC         .                                             UNKNOWN :LOCATION
CNTY        .                                      CD. DEL CARMEN :COUNTY
STAT        .                                            CAMPECHE :STATE
CTRY        .                                              MEXICO :COUNTRY
SRVC        .                                             UNKNOWN :SERVICE COMPANY
DATE        .                                             UNKNOWN :LOG DATE
UWI         .                                                3085 :UNIQUE WELL ID
XCOORD      .                                       601394.300000 :SURFACE X
YCOORD      .                                      2149880.180000 :SURFACE Y
LAT         .                                           19.441902 :LATITUDE
LON         .                                          -92.034105 :LONGITUDE
ELEV        .M                                            28.0000 :SURFACE ELEV
ELEV_TYPE   .                                                  KB :ELEV TYPE
~CURVE INFORMATION
#MNEMONIC.UNIT        API CODE       : CURVE DESCRIPTION
#------------------------------------------------------------------------------
DEPTH    .M                          : Measured Depth
CALI     .inches      UNKNOWN        : CALI:Import:rC:NONE:v0 (auto-composite)
CGR      .API         UNKNOWN        : CGR:Import:rC:NONE:v0 (auto-composite)
DRHO     .g/cm3       UNKNOWN        : DRHO:Import:rC:NONE:v0 (auto-composite)
DT       .us/ft       UNKNOWN        : DT:Import:rC:NONE:v0 (auto-composite)
GR       .API         UNKNOWN        : GR:Import:rC:NONE:v0 (auto-composite)
ILD      .ohm.m       UNKNOWN        : ILD:Import:rC:NONE:v0 (auto-composite)
ILM      .ohm.m       UNKNOWN        : ILM:Import:rC:NONE:v0 (auto-composite)
LLD      .ohm.m       UNKNOWN        : LLD:Import:rC:NONE:v0 (auto-composite)
LLS      .ohm.m       UNKNOWN        : LLS:Import:rC:NONE:v0 (auto-composite)
MSFL     .ohm.m       UNKNOWN        : MSFL:Import:rC:NONE:v0 (auto-composite)
NPHI     .v/v_decimal UNKNOWN        : NPHI:Import:rC:NONE:v0 (auto-composite)
PEF      .b/elec      UNKNOWN        : PEF:Import:rC:NONE:v0 (auto-composite)
POTA     .wtpercent   UNKNOWN        : POTA:Import:rC:NONE:v0 (auto-composite)
RHOB     .g/cm3       UNKNOWN        : RHOB:Import:rC:NONE:v0 (auto-composite)
SP       .mV          UNKNOWN        : SP:Import:rC:NONE:v0 (auto-composite)
THOR     .ppm         UNKNOWN        : THOR:Import:rC:NONE:v0 (auto-composite)
URAN     .ppm         UNKNOWN        : URAN:Import:rC:NONE:v0 (auto-composite)
~A     DEPTH         CALI          CGR         DRHO           DT           GR          ILD          ILM          LLD          LLS         MSFL         NPHI          PEF         POTA         RHOB           SP         THOR         URAN
# ...
   2798.9141       9.0018      14.0282       0.0739      63.7390      38.0272    -999.2500    -999.2500      37.4701      39.9907     136.3436       0.1485       3.3099       0.0069       2.4690    -999.2500       0.7199       3.2957
   2799.0664       8.9792      14.1012       0.0732      62.5820      39.1284    -999.2500    -999.2500      38.4562      40.9930      95.3044       0.1577       3.2366       0.0074       2.5101    -999.2500       0.5582       3.1795
   2799.2188       8.9325      14.3293       0.0697      63.3440      40.9750    -999.2500    -999.2500      40.4848      43.1214      31.2498       0.1656       3.1855       0.0079       2.5772    -999.2500       0.3887       3.0446
   2799.3711       8.9437      15.3693       0.0766      65.7590      43.6302    -999.2500    -999.2500      44.3124      46.8343      44.6590       0.1552       3.2394       0.0080       2.5870    -999.2500       0.5651       3.0508
   2799.5237       8.9697      16.6183       0.0860      67.9381      46.4935    -999.2500    -999.2500      48.6031      50.9550      78.0041       0.1398       3.3204       0.0080       2.5820    -999.2500       0.8305       3.0933
   2799.6760       8.9123      18.8519       0.0701      67.1838      50.5539    -999.2500    -999.2500      51.0743      53.3001     128.6714       0.1322       3.3842       0.0084       2.5679    -999.2500       1.2000       3.1393
   2799.8284       8.8334      21.3404       0.0477      64.9222      54.9240    -999.2500    -999.2500      53.0749      55.1858     183.8204       0.1293       3.4436       0.0089       2.5514    -999.2500       1.5965       3.1862
   2799.9807       8.8372      24.3794       0.0343      62.0724      56.2055    -999.2500    -999.2500      54.1398      55.7245     147.4334       0.1274       3.4596       0.0094       2.5714    -999.2500       2.1560       3.3155
   2800.1333       8.8627      27.5630       0.0233      59.3351      56.6758    -999.2500    -999.2500      54.9589      55.9094      87.0050       0.1244       3.4641       0.0099       2.6008    -999.2500       2.7582       3.4665
   2800.2856       8.9227      28.3609       0.0258      59.0744      52.7399    -999.2500    -999.2500      62.0506      61.9852      96.7920       0.1183       3.5792       0.0100       2.6042    -999.2500       2.8594       3.5285
   2800.4380       8.9919      28.5288       0.0318      59.8209      47.6408    -999.2500    -999.2500      70.7983      69.6163     125.1175       0.1109       3.7236       0.0100       2.6007    -999.2500       2.8283       3.5672
   2800.5903       8.9319      29.5373       0.0310      60.7975      46.7728    -999.2500    -999.2500      79.1101      76.7056     114.6734       0.1054       3.7020       0.0100       2.5968    -999.2500       2.1431       3.6765
   2800.7427       8.8390      30.7603       0.0285      61.8344      46.9847    -999.2500    -999.2500      87.3105      83.6566      94.3342       0.1014       3.6381       0.0100       2.5928    -999.2500       1.2910       3.8040
   2800.8953       8.9190      25.3989       0.0312      61.6440      47.9949    -999.2500    -999.2500      85.3129      81.5863     125.2058       0.0985       3.6810       0.0088       2.6131    -999.2500       1.2040       3.7847
   2801.0476       9.0433      18.3481       0.0352      60.9853      49.2099    -999.2500    -999.2500      80.6986      77.2012     169.2175       0.0961       3.7514       0.0073       2.6395    -999.2500       1.3134       3.7278
   2801.2000       9.0238      17.5091       0.0408      59.6489      46.6359    -999.2500    -999.2500      80.3889      76.5876     125.0204       0.0928       3.6915       0.0070       2.6450    -999.2500       1.4510       3.8009
   2801.3523       8.9668      18.2883       0.0468      57.9535      43.0750    -999.2500    -999.2500      81.2006      76.9565      57.8455       0.0893       3.5975       0.0070       2.6450    -999.2500       1.5959       3.9078
   2801.5049       8.9023      19.2124       0.0504      58.8627      43.4794    -999.2500    -999.2500      78.9570      74.5105     114.6449       0.0873       3.4928       0.0070       2.6589    -999.2500       1.7682       3.5217
   2801.6572       8.8359      20.1745       0.0534      60.1024      44.9223    -999.2500    -999.2500      75.9133      71.3273     203.9093       0.0856       3.3854       0.0070       2.6764    -999.2500       1.9476       3.0064
   2801.8096       8.8821      20.6409       0.0643      60.1016      41.4633    -999.2500    -999.2500      78.5849      73.0813     177.4893       0.0828       3.4164       0.0070       2.6859    -999.2500       2.0511       2.9639
   2801.9619       8.9581      20.9767       0.0773      59.4019      36.7138    -999.2500    -999.2500      82.7611      76.1350     120.6159       0.0799       3.4839       0.0070       2.6934    -999.2500       2.1345       3.0458
   2802.1145       9.0081      18.2383       0.0832      58.2195      38.2661    -999.2500    -999.2500      78.4509      71.6228     152.5448       0.0811       3.3982       0.0066       2.6653    -999.2500       1.6548       2.9422
   2802.2668       9.0512      14.6863       0.0872      57.0286      41.4859    -999.2500    -999.2500      71.8950      65.1085     207.9730       0.0845       3.2719       0.0061       2.6277    -999.2500       1.0261       2.7894
   2802.4192       9.0393      15.4079       0.0785      56.5611      42.9517    -999.2500    -999.2500      61.2365      55.1233     168.1557       0.0890       3.2655       0.0064       2.6339    -999.2500       1.0801       2.8974
   2802.5715       9.0134      17.2336       0.0665      56.3665      43.9642    -999.2500    -999.2500      49.5180      44.2415     103.7316       0.0935       3.2900       0.0069       2.6514    -999.2500       1.3105       3.0728
   2802.7239       8.9755      18.1198       0.0700      55.7879      44.2639    -999.2500    -999.2500      42.1074      37.1074      69.6970       0.0942       3.5529       0.0070       2.6832    -999.2500       1.4592       3.1463
   2802.8765       8.9345      18.7620       0.0774      55.0569      44.3783    -999.2500    -999.2500      35.8156      30.9465      43.5553       0.0935       3.8777       0.0070       2.7187    -999.2500       1.5866       3.1933
   2803.0288       8.9898      18.7032       0.0857      54.5072      45.7903    -999.2500    -999.2500      33.5345      28.3422      35.0347       0.0934       3.8610       0.0070       2.7197    -999.2500       1.6094       3.2387
   2803.1812       9.0703      18.4613       0.0942      54.2083      47.5410    -999.2500    -999.2500      32.3005      26.6664      31.1149       0.0938       3.7550       0.0070       2.7117    -999.2500       1.6049       3.2836
   2803.3335       9.0581      19.2745       0.0928      54.7966      49.9358    -999.2500    -999.2500      29.7110      24.2322      34.1939       0.0956       3.7152       0.0074       2.6942    -999.2500       1.6942       3.3595
   2803.4861       9.0217      20.3647       0.0888      55.8381      52.4997    -999.2500    -999.2500      26.7656      21.5989      39.1099       0.0991       3.6927       0.0079       2.6742    -999.2500       1.8080       3.4434
   2803.6384       9.0519      22.8387       0.0927      56.4006      52.2189    -999.2500    -999.2500      23.7872      19.0765      31.7084       0.1074       3.7365       0.0092       2.6503    -999.2500       1.6078       3.3833
   2803.7908       9.0999      25.6815       0.0987      56.5517      51.1804    -999.2500    -999.2500      20.8000      16.5836      21.0256       0.1178       3.7980       0.0107       2.6253    -999.2500       1.3240       3.2848
   2803.9431       9.1361      25.5974       0.0992      55.4711      55.2377    -999.2500    -999.2500      18.9114      15.0236      15.2864       0.1271       3.8094       0.0106       2.6247    -999.2500       1.5582       3.3312
   2804.0955       9.1692      24.7295       0.0982      53.7147      60.6598    -999.2500    -999.2500      17.3170      13.7135      10.8712       0.1358       3.8074       0.0101       2.6308    -999.2500       1.9313       3.4165
