#------------------------------------------------------------------------------
#
#   Created by  : [OpenWorks] Log Export Utility (LEXP)
#   Created on  : 2016-05-11 12:13:42
#   Project     : CANT971
#   User        : R5K
#   Interpreter : PEP
#
#------------------------------------------------------------------------------
~VERSION INFORMATION
VERS. 2.0 : CWLS Log ASCII Standard - version 2.0
WRAP.  NO : One line per depth step
~WELL INFORMATION
#MNEMONIC   .UNIT                                           VALUE :DESCRIPTION
#------------------------------------------------------------------------------
STRT        .M                                           659.9800 :START DEPTH
STOP        .M                                          2975.8503 :STOP DEPTH
STEP        .M                                             0.1524 :STEP
NULL        .                                           -999.2500 :NULL VALUE
COMP        .                                   PEMEX EXPL & PROD :COMPANY
WELL        .                                                3085 :WELL
FLD         .                                           CANTARELL :FIELD
LOC         .                                             UNKNOWN :LOCATION
CNTY        .                                      CD. DEL CARMEN :COUNTY
STAT        .                                            CAMPECHE :STATE
CTRY        .                                              MEXICO :COUNTRY
SRVC        .                                             UNKNOWN :SERVICE COMPANY
DATE        .                                             UNKNOWN :LOG DATE
UWI         .                                                3085 :UNIQUE WELL ID
XCOORD      .                                       601394.300000 :SURFACE X
YCOORD      .                                      2149880.180000 :SURFACE Y
LAT         .                                           19.441902 :LATITUDE
LON         .                                          -92.034105 :LONGITUDE
ELEV        .M                                            28.0000 :SURFACE ELEV
ELEV_TYPE   .                                                  KB :ELEV TYPE
~CURVE INFORMATION
#MNEMONIC.UNIT        API CODE       : CURVE DESCRIPTION
#------------------------------------------------------------------------------
DEPTH    .M                          : Measured Depth
CALI     .inches      UNKNOWN        : CALI:Import:rC:NONE:v0 (auto-composite)
CGR      .API         UNKNOWN        : CGR:Import:rC:NONE:v0 (auto-composite)
DRHO     .g/cm3       UNKNOWN        : DRHO:Import:rC:NONE:v0 (auto-composite)
DT       .us/ft       UNKNOWN        : DT:Import:rC:NONE:v0 (auto-composite)
GR       .API         UNKNOWN        : GR:Import:rC:NONE:v0 (auto-composite)
ILD      .ohm.m       UNKNOWN        : ILD:Import:rC:NONE:v0 (auto-composite)
ILM      .ohm.m       UNKNOWN        : ILM:Import:rC:NONE:v0 (auto-composite)
LLD      .ohm.m       UNKNOWN        : LLD:Import:rC:NONE:v0 (auto-composite)
LLS      .ohm.m       UNKNOWN        : LLS:Import:rC:NONE:v0 (auto-composite)
MSFL     .ohm.m       UNKNOWN        : MSFL:Import:rC:NONE:v0 (auto-composite)
NPHI     .v/v_decimal UNKNOWN        : NPHI:Import:rC:NONE:v0 (auto-composite)
PEF      .b/elec      UNKNOWN        : PEF:Import:rC:NONE:v0 (auto-composite)
POTA     .wtpercent   UNKNOWN        : POTA:Import:rC:NONE:v0 (auto-composite)
RHOB     .g/cm3       UNKNOWN        : RHOB:Import:rC:NONE:v0 (auto-composite)
SP       .mV          UNKNOWN        : SP:Import:rC:NONE:v0 (auto-composite)
THOR     .ppm         UNKNOWN        : THOR:Import:rC:NONE:v0 (auto-composite)
URAN     .ppm         UNKNOWN        : URAN:Import:rC:NONE:v0 (auto-composite)
~A     DEPTH         CALI          CGR         DRHO           DT           GR          ILD          ILM          LLD          LLS         MSFL         NPHI          PEF         POTA         RHOB           SP         THOR         URAN
# ...
   2745.5740       8.8636      16.2010       0.0678      59.4379      56.1024    -999.2500    -999.2500      53.5014      38.1705      72.2714       0.0758       3.9469       0.0059       2.6840    -999.2500       1.3819       4.4321
   2745.7263       8.8642      17.5566       0.0650      59.2099      53.1491    -999.2500    -999.2500      53.6405      38.2734      68.0893       0.0763       3.9429       0.0064       2.6957    -999.2500       1.5362       4.6176
   2745.8787       8.8848      18.7960       0.0625      58.7266      48.8537    -999.2500    -999.2500      55.3227      39.3519      67.5924       0.0783       3.9048       0.0069       2.7117    -999.2500       1.6731       4.7284
   2746.0312       8.9280      16.2438       0.0688      57.2643      51.8526    -999.2500    -999.2500      57.5551      40.8768     108.1769       0.0783       3.8342       0.0062       2.7126    -999.2500       1.3898       4.6751
   2746.1836       8.9769      12.7191       0.0772      55.8241      56.7221    -999.2500    -999.2500      59.9287      42.5163     159.2969       0.0776       3.7553       0.0052       2.7096    -999.2500       0.9988       4.5797
   2746.3359       8.9172      15.0138       0.0727      56.1268      60.1291    -999.2500    -999.2500      60.6105      43.0505     112.7666       0.0784       3.6359       0.0062       2.7034    -999.2500       1.1801       4.6671
   2746.4883       8.8292      18.8237       0.0647      57.3144      63.1553    -999.2500    -999.2500      60.8519      43.2969      40.8122       0.0808       3.5060       0.0077       2.6965    -999.2500       1.5105       4.8020
   2746.6409       8.8977      21.7894       0.0650      56.6591      66.9943    -999.2500    -999.2500      58.5871      41.7434      34.9537       0.0860       3.5047       0.0084       2.6827    -999.2500       1.9177       4.8581
   2746.7932       9.0072      24.5342       0.0675      55.9030      71.0460    -999.2500    -999.2500      55.6664      39.7187      46.3948       0.0910       3.5372       0.0089       2.6672    -999.2500       2.3450       4.8936
   2746.9456       9.0173      26.0762       0.0636      56.5778      65.8884    -999.2500    -999.2500      57.6734      41.0483      45.8460       0.0904       3.5784       0.0086       2.6786    -999.2500       2.7996       5.1847
   2747.0979       9.0013      27.3017       0.0581      58.0521      58.3076    -999.2500    -999.2500      60.9770      43.2603      42.1426       0.0868       3.6219       0.0081       2.6971    -999.2500       3.2614       5.5430
   2747.2505       8.9596      25.0414       0.0594      57.6296      57.6610    -999.2500    -999.2500      62.0040      43.8553      46.9354       0.0835       3.5018       0.0080       2.6970    -999.2500       2.7823       5.2222
   2747.4028       8.9110      21.8591       0.0624      56.9081      58.8483    -999.2500    -999.2500      62.4288      44.0227      53.9752       0.0816       3.3385       0.0080       2.6920    -999.2500       2.0544       4.7217
   2747.5552       8.9268      22.0096       0.0598      56.9233      56.3234    -999.2500    -999.2500      59.1826      41.7758      45.8209       0.0822       3.4925       0.0084       2.7017    -999.2500       2.0083       4.5717
   2747.7075       8.9593      23.0206       0.0558      57.2982      52.8399    -999.2500    -999.2500      54.9884      38.9055      33.7431       0.0839       3.7284       0.0089       2.7152    -999.2500       2.1382       4.5123
   2747.8599       8.9561      21.8696       0.0629      57.2541      52.5362    -999.2500    -999.2500      51.9238      36.9106      52.9660       0.0816       3.7318       0.0086       2.7069    -999.2500       1.9361       4.3572
   2748.0125       8.9436      20.1574       0.0729      57.1049      53.0580    -999.2500    -999.2500      49.1525      35.1428      80.3142       0.0772       3.6748       0.0081       2.6929    -999.2500       1.6477       4.1772
   2748.1648       8.9172      20.2767       0.0722      57.2255      52.4302    -999.2500    -999.2500      54.8633      39.4744      70.7056       0.0724       3.7351       0.0084       2.6920    -999.2500       1.5333       4.1071
   2748.3171       8.8873      20.8739       0.0687      57.4368      51.5023    -999.2500    -999.2500      62.7875      45.3976      51.4529       0.0681       3.8260       0.0089       2.6945    -999.2500       1.4644       4.0657
   2748.4695       8.8992      21.6059       0.0704      57.4915      53.5819    -999.2500    -999.2500      68.5491      49.8223      81.9217       0.0675       3.8272       0.0094       2.6974    -999.2500       1.3805       4.0013
   2748.6221       8.9222      22.3736       0.0734      57.4662      56.4582    -999.2500    -999.2500      73.7379      53.8500     125.5614       0.0699       3.8047       0.0099       2.7004    -999.2500       1.2925       3.9308
   2748.7744       8.9191      21.6314       0.0799      57.2876      57.3065    -999.2500    -999.2500      63.0532      46.5427     115.4169       0.0764       3.6373       0.0096       2.6966    -999.2500       1.5306       4.0304
   2748.9268       8.9091      20.4873       0.0875      57.7142      57.6149    -999.2500    -999.2500      48.1419      36.2170      90.9511       0.0872       3.4312       0.0091       2.6911    -999.2500       1.8555       4.1753
   2749.0791       8.9706      21.6560       0.0922      60.9924      57.8747    -999.2500    -999.2500      39.0484      29.6634      76.7313       0.1055       3.4307       0.0094       2.6940    -999.2500       1.9371       4.2443
   2749.2317       9.0506      23.4203       0.0962      65.7753      58.1221    -999.2500    -999.2500      31.4527      24.0808      65.1493       0.1245       3.4832       0.0099       2.6990    -999.2500       1.9561       4.2938
   2749.3840       9.0127      23.6604       0.1014      63.1029      57.1967    -999.2500    -999.2500      30.8225      23.3702      54.0360       0.1279       3.4400       0.0096       2.6790    -999.2500       1.9390       4.3405
   2749.5364       8.9442      23.5061       0.1069      59.4221      55.9677    -999.2500    -999.2500      31.9950      23.9205      43.0441       0.1230       3.3721       0.0091       2.6525    -999.2500       1.9125       4.3864
   2749.6887       9.0076      22.4980       0.0969      58.8855      55.3645    -999.2500    -999.2500      35.3464      26.3544      46.4541       0.1163       3.4435       0.0090       2.6399    -999.2500       1.7784       4.3742
   2749.8411       9.1055      21.2655       0.0829      60.1017      54.9257    -999.2500    -999.2500      39.2702      29.2831      53.6480       0.1095       3.5514       0.0090       2.6309    -999.2500       1.6159       4.3467
   2749.9937       9.0927      20.4916       0.0760      60.8054      53.7579    -999.2500    -999.2500      44.3534      33.3354      63.6064       0.1077       3.5819       0.0090       2.6361    -999.2500       1.4432       4.4168
   2750.1460       9.0506      19.8388       0.0710      61.3864      52.3977    -999.2500    -999.2500      49.7429      37.6845      74.2951       0.1062       3.5920       0.0090       2.6452    -999.2500       1.2677       4.5125
   2750.2983       9.1997      18.2512       0.0792      62.1500      52.9013    -999.2500    -999.2500      55.5290      42.0399     105.8593       0.0995       3.4996       0.0086       2.6550    -999.2500       1.0413       4.5471
   2750.4507       9.3976      16.4250       0.0907      62.9334      53.8809    -999.2500    -999.2500      61.4165      46.3971     142.7534       0.0909       3.3812       0.0081       2.6650    -999.2500       0.8019       4.5661
   2750.6033       9.2588      16.3473       0.1065      63.1111      50.7048    -999.2500    -999.2500      63.3252      47.8775     110.1937       0.0907       3.4202       0.0080       2.6380    -999.2500       0.6513       4.6320
   2750.7556       9.0336      16.7183       0.1235      62.9393      46.4620    -999.2500    -999.2500      64.2126      48.6196      59.8068       0.0943       3.4996       0.0080       2.6015    -999.2500       0.5234       4.7099
