#------------------------------------------------------------------------------
#
#   Created by  : [OpenWorks] Log Export Utility (LEXP)
#   Created on  : 2016-05-11 12:13:42
#   Project     : CANT971
#   User        : R5K
#   Interpreter : PEP
#
#------------------------------------------------------------------------------
~VERSION INFORMATION
VERS. 2.0 : CWLS Log ASCII Standard - version 2.0
WRAP.  NO : One line per depth step
~WELL INFORMATION
#MNEMONIC   .UNIT                                           VALUE :DESCRIPTION
#------------------------------------------------------------------------------
STRT        .M                                           659.9800 :START DEPTH
STOP        .M                                          2975.8503 :STOP DEPTH
STEP        .M                                             0.1524 :STEP
NULL        .                                           -999.2500 :NULL VALUE
COMP        .                                   PEMEX EXPL & PROD :COMPANY
WELL        .                                                3085 :WELL
FLD         .                                           CANTARELL :FIELD
LOC         .                                             UNKNOWN :LOCATION
CNTY        .                                      CD. DEL CARMEN :COUNTY
STAT        .                                            CAMPECHE :STATE
CTRY        .                                              MEXICO :COUNTRY
SRVC        .                                             UNKNOWN :SERVICE COMPANY
DATE        .                                             UNKNOWN :LOG DATE
UWI         .                                                3085 :UNIQUE WELL ID
XCOORD      .                                       601394.300000 :SURFACE X
YCOORD      .                                      2149880.180000 :SURFACE Y
LAT         .                                           19.441902 :LATITUDE
LON         .                                          -92.034105 :LONGITUDE
ELEV        .M                                            28.0000 :SURFACE ELEV
ELEV_TYPE   .                                                  KB :ELEV TYPE
~CURVE INFORMATION
#MNEMONIC.UNIT        API CODE       : CURVE DESCRIPTION
#------------------------------------------------------------------------------
DEPTH    .M                          : Measured Depth
CALI     .inches      UNKNOWN        : CALI:Import:rC:NONE:v0 (auto-composite)
CGR      .API         UNKNOWN        : CGR:Import:rC:NONE:v0 (auto-composite)
DRHO     .g/cm3       UNKNOWN        : DRHO:Import:rC:NONE:v0 (auto-composite)
DT       .us/ft       UNKNOWN        : DT:Import:rC:NONE:v0 (auto-composite)
GR       .API         UNKNOWN        : GR:Import:rC:NONE:v0 (auto-composite)
ILD      .ohm.m       UNKNOWN        : ILD:Import:rC:NONE:v0 (auto-composite)
ILM      .ohm.m       UNKNOWN        : ILM:Import:rC:NONE:v0 (auto-composite)
LLD      .ohm.m       UNKNOWN        : LLD:Import:rC:NONE:v0 (auto-composite)
LLS      .ohm.m       UNKNOWN        : LLS:Import:rC:NONE:v0 (auto-composite)
MSFL     .ohm.m       UNKNOWN        : MSFL:Import:rC:NONE:v0 (auto-composite)
NPHI     .v/v_decimal UNKNOWN        : NPHI:Import:rC:NONE:v0 (auto-composite)
PEF      .b/elec      UNKNOWN        : PEF:Import:rC:NONE:v0 (auto-composite)
POTA     .wtpercent   UNKNOWN        : POTA:Import:rC:NONE:v0 (auto-composite)
RHOB     .g/cm3       UNKNOWN        : RHOB:Import:rC:NONE:v0 (auto-composite)
SP       .mV          UNKNOWN        : SP:Import:rC:NONE:v0 (auto-composite)
THOR     .ppm         UNKNOWN        : THOR:Import:rC:NONE:v0 (auto-composite)
URAN     .ppm         UNKNOWN        : URAN:Import:rC:NONE:v0 (auto-composite)
~A     DEPTH         CALI          CGR         DRHO           DT           GR          ILD          ILM          LLD          LLS         MSFL         NPHI          PEF         POTA         RHOB           SP         THOR         URAN
# ...
   2574.8860       8.8340      17.7246       0.0525      58.6104      85.6967    -999.2500    -999.2500      98.3629      92.5310     248.8031       0.2020       3.3287       0.0052       2.4468    -999.2500       2.0847      10.5067
   2575.0383       8.8087      13.7957       0.0381      65.1587      70.2643    -999.2500    -999.2500     370.2964     343.0543     301.4106       0.1882       3.2958       0.0036       2.4878    -999.2500       1.8169       9.4057
   2575.1907       8.7708      12.0354       0.0181      75.0286      51.4889    -999.2500    -999.2500     703.6675     650.2811     451.1999       0.1638       3.2428       0.0031       2.5478    -999.2500       1.6260       9.3337
   2575.3433       8.7801       6.9627       0.0291      78.1641      53.1130    -999.2500    -999.2500     960.3535     835.0099     323.0357       0.1414       3.2185       0.0018       2.5687    -999.2500       0.9579       8.0246
   2575.4956       8.8016       1.0400       0.0481      78.0446      59.9716    -999.2500    -999.2500    1197.3623     988.3059     123.5491       0.1262       3.2015       0.0003       2.5797    -999.2500       0.1674       6.3981
   2575.6479       8.8496       4.4970       0.0651      75.7282      68.5307    -999.2500    -999.2500    1138.5702     927.5072     207.4723       0.1295       3.1651       0.0028       2.5527    -999.2500      -0.0194       6.1917
   2575.8003       8.9046      10.3975       0.0816      73.3174      77.5328    -999.2500    -999.2500    1002.7208     810.9360     365.2247       0.1423       3.1236       0.0063       2.5157    -999.2500      -0.0489       6.3551
   2575.9529       8.8665      13.4609       0.0894      72.9342      80.0474    -999.2500    -999.2500     845.4468     678.8384     270.2728       0.1549       3.2287       0.0046       2.5175    -999.2500       0.7423       7.0271
   2576.1052       8.8040      15.7814       0.0949      73.6519      80.8630    -999.2500    -999.2500     682.5621     542.6747     109.1434       0.1628       3.3721       0.0016       2.5295    -999.2500       1.7483       7.8322
   2576.2576       8.7570      15.0302       0.0913      73.5120      74.1996    -999.2500    -999.2500     483.8178     386.2040     100.2631       0.1503       3.4261       0.0026       2.5617    -999.2500       2.0154       8.0178
   2576.4099       8.7140      13.4704       0.0853      73.0078      65.5674    -999.2500    -999.2500     275.6332     224.3873     131.4632       0.1299       3.4566       0.0046       2.5992    -999.2500       2.0878       8.0403
   2576.5625       8.7260      14.4889       0.0876      71.8710      60.1782    -999.2500    -999.2500     195.6694     161.2314      91.8601       0.1133       3.4270       0.0062       2.6367    -999.2500       1.4577       7.3109
   2576.7148       8.7525      16.1898       0.0921      70.3830      55.6473    -999.2500    -999.2500     149.6371     124.1843      33.5201       0.1000       3.3814       0.0077       2.6743    -999.2500       0.6416       6.3826
   2576.8672       8.8072      14.4014       0.0847      68.4251      48.9334    -999.2500    -999.2500     138.5199     118.3236      75.7785       0.0937       3.3164       0.0076       2.6653    -999.2500       0.1996       5.9251
   2577.0195       8.8692      11.7116       0.0742      66.4513      41.6555    -999.2500    -999.2500     136.4233     120.5201     144.0275       0.0893       3.2464       0.0071       2.6443    -999.2500      -0.1458       5.5892
   2577.1719       8.8161       8.6040       0.0657      65.0452      37.5060    -999.2500    -999.2500     249.0692     206.6686     143.9422       0.0825       3.2610       0.0050       2.6452    -999.2500      -0.0139       5.1114
   2577.3245       8.7332       5.3879       0.0577      64.1268      34.1689    -999.2500    -999.2500     391.5172     314.6220     126.1084       0.0753       3.2974       0.0025       2.6517    -999.2500       0.2420       4.5966
   2577.4768       8.7762       2.8249       0.0623      65.0063      31.2377    -999.2500    -999.2500     516.3263     396.5412     164.6624       0.0762       3.2788       0.0016       2.6249    -999.2500       0.0140       4.3949
   2577.6292       8.8522       0.4324       0.0703      66.5758      28.4124    -999.2500    -999.2500     636.5298     471.6627     217.9394       0.0823       3.2459       0.0011       2.5894    -999.2500      -0.3403       4.2749
   2577.7815       8.7853      -1.5440       0.0843      68.0255      29.3325    -999.2500    -999.2500     682.9556     492.4976     160.2967       0.0938       3.2956       0.0006       2.5923    -999.2500      -0.5726       4.1543
   2577.9341       8.6810      -3.4112       0.0997      69.3986      31.2356    -999.2500    -999.2500     710.0162     499.0835      73.5402       0.1060       3.3670       0.0001       2.6053    -999.2500      -0.7729       4.0334
   2578.0864       8.6910      -2.5163       0.0987      70.6830      39.8335    -999.2500    -999.2500     670.9939     459.7256      86.9426       0.1097       3.2979       0.0004       2.5681    -999.2500      -0.7467       4.0352
   2578.2388       8.7314      -0.8855       0.0932      71.9236      50.2150    -999.2500    -999.2500     614.3659     408.1274     127.0292       0.1111       3.1915       0.0009       2.5177    -999.2500      -0.6603       4.0697
   2578.3911       8.7080       2.8206       0.0722      70.3437      58.6740    -999.2500    -999.2500     528.1553     357.5014     111.0398       0.1211       3.2687       0.0022       2.5288    -999.2500      -0.3213       4.6920
   2578.5437       8.6674       7.0824       0.0472      68.2402      66.6180    -999.2500    -999.2500     434.0224     307.1358      80.0329       0.1304       3.3950       0.0037       2.5563    -999.2500       0.0854       5.4716
   2578.6960       8.7769       3.4413       0.0456      66.7316      65.5656    -999.2500    -999.2500     371.5517     270.5934     152.9153       0.1238       3.3908       0.0028       2.5870    -999.2500      -0.3955       6.8337
   2578.8484       8.9253      -2.2462       0.0501      65.5689      62.1836    -999.2500    -999.2500     317.2801     237.6307     252.7008       0.1080       3.3528       0.0013       2.6185    -999.2500      -1.1062       8.3465
   2579.0007       8.8661      -4.2907       0.0562      65.5139      52.1430    -999.2500    -999.2500     351.5152     256.2285     355.9176       0.0909       3.3545       0.0010       2.6432    -999.2500      -1.3873       8.5738
   2579.1531       8.7527      -5.3869       0.0626      65.6428      40.3690    -999.2500    -999.2500     408.7911     288.2490     460.0277       0.0777       3.3665       0.0010       2.6662    -999.2500      -1.5566       8.4664
   2579.3057       8.7096      -3.6303       0.0794      65.4548      33.7212    -999.2500    -999.2500     522.5860     340.8045     322.9895       0.0752       3.5129       0.0010       2.6631    -999.2500      -1.1133       7.0936
   2579.4580       8.6851      -1.1199       0.0989      65.0771      28.4280    -999.2500    -999.2500     651.3164     398.7864     122.2262       0.0792       3.6948       0.0010       2.6531    -999.2500      -0.5080       5.3863
   2579.6104       8.8365       1.4516       0.1018      64.4122      30.9470    -999.2500    -999.2500     708.7059     440.0699     154.0750       0.0849       3.6910       0.0018       2.6546    -999.2500      -0.6722       4.4544
   2579.7627       9.0345       4.0392       0.1003      64.0011      35.5412    -999.2500    -999.2500     747.1445     476.9175     247.7146       0.0893       3.6379       0.0028       2.6591    -999.2500      -1.0407       3.7284
   2579.9153       8.9141       5.1342       0.0964      65.9680      33.7833    -999.2500    -999.2500     768.6051     512.8588     392.9300       0.0899       3.5324       0.0030       2.6346    -999.2500      -0.6348       3.6924
   2580.0676       8.7118       5.8458       0.0919      68.2313      30.3939    -999.2500    -999.2500     785.7055     548.5673     551.3911       0.0903       3.4136       0.0030       2.6026    -999.2500      -0.0301       3.8338
